Time,Latitude,Longitude,Altitude,Angle of Attack,Angle of Sideslip,X-Acceleration,Y-Acceleration,Z-Acceleration,Thrust,True Velocity,Ground Velocity,Pitch,Roll,Yaw,Dynamic Pressure,cp,parachute_deploy_gain,Wind Speed,Mach,omega_x,omega_y,omega_z,Cmq,Angle of Attack(total),Angle of Attack(gust),True Velocity(gust),Acceleration
0.0,31.222216000000007,131.010392,3.000000004412624,0.0,0.0,0.0,0.0,0.0,2.2828121974499247,0.0,0.0,71.99999999612658,-1.0292491154817412e-14,119.99999999354436,0.0,15.288,0,0.0,0.0,0.0,0.0,0.0,-0.0,0.0,90.0,0.0,0.0
0.01,31.22221599999862,131.01039200000284,3.0000009727369523,0.0,0.0,0.0,0.0,0.0,34.24218696174923,5.916279387578309e-11,5.734623670548936e-11,71.99999999613168,-5.86671995824671e-13,119.9999999935449,2.1432944861733093e-21,15.288,0,0.0,1.7386402909615473e-13,-3.4220131069073734e-19,7.115076756936125e-19,5.488773498207866e-19,-1.1574302492039043e-31,0.0,89.99999999962336,5.916279387578309e-11,0.0
0.02,31.22221599999738,131.01039200000537,3.0000018317022668,0.0,0.0,0.0,0.0,0.0,25.871876237766408,1.2265415415436536e-10,1.1895038237325684e-10,71.9999999961369,-1.1836364828043265e-12,119.99999999354544,9.211895886571454e-21,15.288,0,0.0,3.6044858651615574e-13,-6.979551485375437e-19,1.4162390878091906e-18,1.0909784360635388e-18,-4.776231873571785e-31,0.0,89.99999999921916,1.2265415415436536e-10,0.0
0.03,31.22221599921969,131.01039200159065,3.0001883335529382,18.80143492628821,-0.0001350810307892,10.931161642028636,-1.75114298675875e-05,3.026590975169265,180.34219359854663,0.0798232026864394,0.0478175828508887,71.99999999765336,-5.341802909786072e-12,119.99999999436793,0.0039016003969354,15.288,0,0.0,0.0002345795854893,3.788270153300133e-17,-7.771883375645477e-10,1.1422790048099072e-11,1.7057759223764537e-13,18.80143492675591,89.51882325913425,0.079801984207741,11.342422482672777
0.04,31.222215995131297,131.01039200995308,3.001692634342189,9.19442604083399,-4.49173898918486e-05,52.29595764159784,6.445392950801871e-06,3.026413589912948,548.6359724538078,0.3504174083926908,0.1601447499964056,72.00000000319055,-3.111420077280171e-11,119.99999999870242,0.0751892535633216,15.288,0,0.0,0.0010297854387864,2.0082066977226968e-15,-1.520937588847922e-08,2.5623342884322286e-11,1.4654248781413086e-11,9.19442604094277,87.798916624545,0.3504103527855857,52.383455068075136
0.05,31.222215983575865,131.01039203366796,3.0074067499493786,5.158590039700252,1.707592688632746e-06,76.26884281015512,5.843947534199429e-05,3.0258124765658088,761.6984298824644,0.9592973585397016,0.3772700771701255,72.0000000004862,-1.3608731808076822e-10,120.0000000109612,0.5634958029902841,15.288,0,0.0,0.0028191251099456,2.086299069701397e-14,-1.0551247853743037e-07,3.973493515691201e-11,2.783064866637575e-10,5.158590039700515,83.94063169874748,0.959297626767734,76.32884071402438
0.06,31.222215961742712,131.0103920785344,3.019291017943491,4.109521257467909,3.140103977270004e-05,57.06876634333886,0.0001151069734147,3.024834864051463,590.4875390737208,1.6257536642597354,0.6118982818704327,71.99999992547217,-3.5903296759057166e-10,120.00000003412836,1.6184272268450337,15.288,0,0.0,0.0047776672697797,1.0694899894620088e-13,-3.741090980393931e-07,5.521401959501359e-11,1.6723176417636091e-09,4.109521257587776,79.78719176344794,1.6257585967235286,57.148873286519276
0.07,31.222215929936205,131.01039214392435,3.0371334573469446,3.649087515174788,5.707077112564807e-05,86.89643797254193,0.0001728541558773,3.0234947746384675,855.2937749779139,2.3057260079826607,0.8506307413593818,71.99999965378231,-6.907496536790437e-10,120.00000006788592,3.255354923652711,15.288,0,0.0,0.0067759305364855,3.495199904512709e-13,-9.036515915819006e-07,7.594816279105379e-11,5.728932851326001e-09,3.6490875156204896,75.6601668283889,2.305734972638426,86.94902215090157
0.08,31.222215886364623,131.01039223353447,3.0621840248716574,3.4254446680114707,8.413075603463509e-05,17.831756866644035,0.0002285946601282,3.021841001032126,241.2171988638848,2.961944911520492,1.0819695676346892,71.99999900671328,-1.141745983122182e-09,120.00000011415082,5.371998197385977,15.288,0,0.0,0.0087043901031071,8.800530155962314e-13,-1.829098470920821e-06,1.0943386634701918e-10,1.4896287129277132e-08,3.4254446690434226,71.81713637501419,2.9619581267487467,18.085991154451033
0.09,31.22221583454733,131.01039234010327,3.0919888289029,3.389560809024919,0.0001118726864415,54.09031716446879,0.0002748660999733,3.020060228038602,563.0937377043176,3.504225426410036,1.2780161667917422,71.99999774508822,-1.634190085504106e-09,120.00000016921716,7.519080503822694,15.288,0,0.0,0.0102980157586766,1.865782139518716e-12,-3.1503298654458527e-06,1.6284478329871028e-10,3.03536411425607e-08,3.389560810868955,68.76526501308032,3.504242999330529,54.17456206384468
0.1,31.22221577423132,131.0103924641528,3.1267248829165366,3.4447939461814814,0.0001419149103147,51.372195336549765,0.0003131602029306,3.0182021883815127,538.7437595981919,3.950569597142709,1.4443465951180965,71.99999562056465,-2.1287748602259068e-09,120.00000023339832,9.55649523509932,15.288,0,0.0,0.0116097108366932,3.485956000178229e-12,-4.949356763187612e-06,2.4573266549165286e-10,5.3761299442583966e-08,3.444793949101151,66.34639928474206,3.9505918890846927,51.460781166288626
0.11,31.222215706113143,131.01039260424562,3.165907002780892,3.4691423802630394,0.0001702373452339,40.591037561894986,0.0003534470100582,3.016051659024047,442.8656393052949,4.421478635995476,1.6182620895289603,71.99999235067894,-2.5564479031457968e-09,120.00000030601664,11.970509656144712,15.288,0,0.0,0.0129935974697161,5.942887149865172e-12,-7.273722517324353e-06,3.67769289312894e-10,8.842679949465076e-08,3.4691423844348632,63.88798785789768,4.421505376815134,40.70293476011277
0.12,31.222215630588888,131.0103927595646,3.2092596514826863,3.4852659299808075,0.0001974376474727,44.30042894095728,0.000394069215595,3.013641598889868,475.58594813540446,4.896982486381051,1.793579340340896,71.99998761802138,-2.8337988279882726e-09,120.00000038673312,14.683611096353944,15.288,0,0.0,0.0143909889875706,9.464337642181618e-12,-1.017558359402848e-05,5.395790443954697e-10,1.3700793350599625e-07,3.4852659355662303,61.5068242157714,4.897013499814194,44.40281567867803
0.13,31.222215548046687,131.0103929293088,3.256512891171917,3.5606043721293616,0.0002276507019012,48.86766833507025,0.0004268800875964,3.0112558910133567,515.9156326236895,5.278566579338586,1.939796541405244,71.99998107389406,-2.8573058577484587e-09,120.00000047523812,17.061052093156064,15.288,0,0.0,0.0155123760833565,1.4300406003001044e-11,-1.3705268062305584e-05,7.724776992181392e-10,1.989112774124932e-07,3.560604379397528,59.67313531776262,5.27860233862722,48.960358155653
0.14,31.222215458587108,131.01039311327068,3.30759734332425,3.6000732663755977,0.0002555702913645,45.540290862247225,0.0004629468001456,3.0085404980032777,486.2390860568404,5.70011779273801,2.098362647205908,71.99997235012626,-2.508533681468686e-09,120.00000057154703,19.894788765881632,15.288,0,0.0,0.0167512184495524,2.071534240530911e-11,-1.7917736259613292e-05,1.0787346240473087e-09,2.8081526258393346e-07,3.6000732754351943,57.72385750323359,5.700157937625502,45.639559681930805
0.15,31.222215362317904,131.01039331122794,3.3624387479639086,3.651605404442164,0.0002842753491325,44.01308509501,0.0004965057129938,3.005703619811542,472.54218587214,6.091938849578711,2.2476968067377374,71.99996103728932,-1.6446954747148112e-09,120.00000067569304,22.723773683610247,15.288,0,0.0,0.0179026934683374,2.9002783512213203e-11,-2.287326399669318e-05,1.47199345427166e-09,3.831202693354572e-07,3.651605415492516,55.98561718911576,6.091983503446133,44.115597174664394
0.16,31.22221525912812,131.01039352340948,3.421115382839859,3.67540086436193,0.0003108411545024,34.83804992586084,0.0005330990866742,3.002517946501868,391.1218908297564,6.521183188362317,2.4085903880902046,71.99994669525161,-1.0153513453738144e-10,120.00000078796704,26.03872642002185,15.288,0,0.0,0.019164148528834,3.9478358970291335e-11,-2.864207894220033e-05,1.9677461746207517e-09,5.135466997084602e-07,3.6754008774883777,54.15946979122355,6.521232015176687,34.96719658394182
0.17,31.2222151493826,131.01039374906244,3.4833737923187487,3.7139589864597298,0.0003384978477213,43.96471427482637,0.0005668629535037,2.999235483723449,471.78125980632376,6.916861975403744,2.559060925010733,71.99992884100092,2.3206494032971838e-09,120.0000009081849,29.29426197817256,15.288,0,0.0,0.0203269651395979,5.248754693205839e-11,-3.5267097947693114e-05,2.580363454062817e-09,6.706952682968329e-07,3.713959001863866,52.549031795895466,6.916915146521327,44.06689817851128
0.18,31.22221503253009,131.01039398932429,3.549599475912623,3.7380363034619775,0.0003650282082698,36.67395661481795,0.0006021794701355,2.9956556354306425,407.10156721191447,7.332140201215607,2.71556808256092,71.99990696207136,5.837017536380516e-09,120.00000103716444,32.917216366714264,15.288,0,0.0,0.0215473823438242,6.839750892601699e-11,-4.285557247677198e-05,3.331016495775474e-09,8.639362741436378e-07,3.738036321259578,50.93050624815799,7.332197539712479,36.796100973258795
0.19,31.22221490871209,131.01039424390297,3.619694897703461,3.747799769666444,0.0003901520189829,41.42208371271829,0.0006393759928961,2.991742733214697,448.9531328318269,7.771071983754382,2.879366399937307,71.99988049019642,1.0709144790974043e-08,120.00000117502664,36.97605053227239,15.288,0,0.0,0.0228373144884866,8.761416506509219e-11,-5.146771415177372e-05,4.238406957677133e-09,1.0996552116864756e-06,3.747799789945131,49.29705748437159,7.771133268690212,41.529983675580546
0.2,31.22221477769685,131.01039451327668,3.693822889232993,3.7700519460961166,0.0004166800650969,37.99697972290605,0.0006740224661302,2.987733789228414,418.51563019916136,8.179966026035371,3.0338260708461373,71.99984881140107,1.723179577184912e-08,120.0000013223286,40.969302182777255,15.288,0,0.0,0.024038975990988,1.1057590044953188e-10,-6.120032215177249e-05,5.3263847350253015e-09,1.376394225587184e-06,3.7700519690893857,47.8457752505109,8.180031477986942,38.11426270718793
0.21,31.222214639876928,131.01039479663547,3.771710975053407,3.7926098867321474,0.0004432924407074,36.46301043881366,0.0007080907240332,2.983530483977461,404.8187610144644,8.582757448615462,3.1863584283669346,71.99981127559042,2.5745201416596626e-08,120.00000147900325,45.103059028532826,15.288,0,0.0,0.0252227064089584,1.3774582723633048e-10,-7.20875523136271e-05,6.61341033873124e-09,1.7010673350603349e-06,3.792609912601061,46.47936953648762,8.582827080829217,36.584868250565684
0.22,31.22221449507626,131.01039509434258,3.8534832466471007,3.782921298925821,0.0004660920499522,44.14577847155813,0.0007479176313898,2.978724032883548,472.5421858721365,9.056569122268344,3.360845972992861,71.99976720416048,3.661811567390422e-08,120.00000164562512,50.21995530074818,15.288,0,0.0,0.0266151520780326,1.6960703048385348e-10,-8.421592474264931e-05,8.124635526119773e-09,2.0969540034515424e-06,3.7829213275976334,44.9464484092354,9.056642335836344,44.24615863872642
0.23,31.22221434283448,131.01039540734791,3.9394622486964206,3.813874679301352,0.0004940771488601,36.66675459308932,0.000779455230549,2.974212905336642,406.3406421461021,9.430647902846331,3.5044030163419806,71.99971583979395,5.0272885112871524e-08,120.00000182313076,54.45382429059888,15.288,0,0.0,0.0277145095638672,2.0669790509245914e-10,-9.77285871729516e-05,9.894576563683824e-09,2.5339062472561444e-06,3.813874711257219,43.79476959007253,9.430725512303388,36.78718303164376
0.24,31.222214184153326,131.01039573358457,4.028950821673608,3.829256049377765,0.0005200487408944,37.802126339316736,0.0008136255607606,2.9692962675112065,416.2328240017114,9.837806876534357,3.658163422426286,71.9996564062533,6.718950080713476e-08,120.0000020109434,59.25679777340223,15.288,0,0.0,0.0289110855155543,2.4956955046738006e-10,-0.0001125744417092,1.1934277804843484e-08,3.0448209172448607e-06,3.829256084638984,42.59361542722471,9.83788856559955,37.91856374864305
0.25,31.22221401888584,131.01039607335582,4.122052964664892,3.851417709838087,0.0005469594058717,38.85163035360012,0.0008459008130282,2.964283881833675,425.36408079150686,10.22297576958679,3.8050691648373967,71.99958811418384,8.786880969336211e-08,120.00000220974424,63.98709205399403,15.288,0,0.0,0.0300430411774988,2.987811646313829e-10,-0.0001288461362054,1.4273117985167728e-08,3.621333387698252e-06,3.8514177486178034,41.50703126619192,10.223061685769354,38.96455005232871
0.26,31.222213847358866,131.0103964259872,4.218542267117083,3.8780574625554745,0.0005745172425185,42.3164797140743,0.0008766626387865,2.959162938653076,455.8015834241788,10.590779679138215,3.946551912391076,71.99951013710364,1.1286401474734325e-07,120.00000241975916,68.67355887153568,15.288,0,0.0,0.0311239685467471,3.5491769188178554e-10,-0.0001465721578858,1.6932703957058654e-08,4.267712643344226e-06,3.8780575050466,40.51245375834074,10.590869924095635,42.41981967733593
0.27,31.22221366913008,131.0103967923915,4.318728802515264,3.886188503202341,0.0005994342651313,38.70936050721014,0.0009111181036949,2.953518013741325,423.84219965987256,11.004860953238978,4.102320296019413,71.99942161756776,1.4276417094868828e-07,120.0000026420792,74.14786134434608,15.288,0,0.0,0.0323408987462391,4.1858405402174807e-10,-0.0001658847815307,1.995072923688136e-08,5.018832267232506e-06,3.886188549362022,39.43841359495857,11.00495511215316,38.8218734782956
0.28,31.22221348431185,131.01039717233687,4.422535913956003,3.90556090261878,0.0006261175699806,44.68030766832924,0.0009425767186621,2.947879457547137,476.3468732012221,11.38358114165448,4.247086834352694,71.999321619057,1.7823531611327881e-07,120.000002877279,79.33831935330025,15.288,0,0.0,0.033453914386159,4.904408325040897e-10,-0.0001868529238516,2.3357766479368094e-08,5.847713054408178e-06,3.9055609527288775,38.49894431917428,11.383679491972384,44.77744842575601
0.29,31.222213292835256,131.0103975659655,4.530013412817602,3.9242599519377537,0.0006528240665589,35.802573724660256,0.0009737210635801,2.942037024315898,397.97031042211177,11.759725774384751,4.391004157029451,71.99920917567837,2.1999186079018322e-07,120.00000312617878,84.66717879828003,15.288,0,0.0,0.0345593650464213,5.711677680739745e-10,-0.0002095620322847,2.7188189988316943e-08,6.77505090435382e-06,3.9242600061534456,37.60352534239979,11.759828319749328,35.92324968749781
0.3,31.222213095024976,131.0103979726075,4.64093665799555,3.936939025755682,0.0006785438093183,33.570228713727204,0.0010059102294455,2.93586442972183,378.1859457108711,12.149968255527943,4.539237002744259,71.99908328532703,2.6880857935396905e-07,120.00000338923812,90.3787563598417,15.288,0,0.0,0.0357062504417728,6.614698865958865e-10,-0.0002340353597042,3.1467140861055e-08,7.817263716758327e-06,3.9369390841381695,36.71173884615234,12.150074840940263,33.698361337808635
0.31,31.22221289105846,131.01039839189684,4.755183729044857,3.9598342215431432,0.0007060286581592,35.396825578217346,0.0010350810412898,2.9297385597941448,394.1656220930212,12.504537499407316,4.6763673222047455,71.99894291513503,3.255120771695107e-07,120.00000366712923,95.72967338626896,15.288,0,0.0,0.0367483036680869,7.620720834468404e-10,-0.0002603234137215,3.622454560346964e-08,8.948994505138873e-06,3.9598342843844345,35.934338386209795,12.504648402129598,35.5178635353378
0.32,31.222212681031937,131.01039882363492,4.872689374180126,3.985461429033668,0.0007340760463279,38.52097867048992,0.0010630242168685,2.9235095146848846,421.55939346242695,12.84534566718622,4.809181081594425,71.99878701464397,3.909756427278764e-07,120.0000039606604,101.01782231644016,15.288,0,0.0,0.0377499198995686,8.737098716736534e-10,-0.0002884807530145,4.1491545539590986e-08,1.0187112828155184e-05,3.98546149652875,35.21473736963424,12.845460975581933,38.631757748577954
0.33,31.22221246496604,131.01039926777932,4.9934410812554,4.010606629086,0.0007621365968788,38.18822026147908,0.0010905599149574,2.917102431053817,418.5156301991682,13.18247167592885,4.940798912752974,71.99861449732019,4.661299779655886e-07,120.000004270781,106.38859400029033,15.288,0,0.0,0.0387407190563976,9.971421990244511e-10,-0.0003185760672934,4.7302669734505256e-08,1.154498667827874e-05,4.010606701382261,34.52805863348922,13.182591392065536,38.299473293007864
0.34,31.222212242662028,131.01039972474007,5.117579377337869,4.019339771238816,0.0007871574969313,29.898022638335373,0.0011220389395318,2.910051232417875,345.46563688075645,13.569536737955724,5.0878303926024735,71.99842423285973,5.519675040347761e-07,120.0000045987411,112.72655675097128,15.288,0,0.0,0.0398782837956187,1.1331556132162459e-09,-0.0003507224668667,5.37022358302301e-08,1.308298593306914e-05,4.019339848191799,33.76700548046532,13.5696603843662,30.039310197084795
0.35,31.22221201433324,131.01040019407705,5.2449575244483055,4.033762873683395,0.000813261106463,32.76415525156106,0.0011515840876071,2.902959820469776,370.5765700527033,13.934300103976534,5.227895396154902,71.99821502296155,6.495674834876441e-07,120.000004945438,118.8669740701126,15.288,0,0.0,0.040950312688979,1.2825853697215452e-09,-0.0003849609961885,6.072234695821837e-08,1.4746020857580124e-05,4.033762955530055,33.07785186209504,13.934427850732408,32.89250745069162
0.36,31.22221177990305,131.01040067594835,5.375631006350063,4.051723629010647,0.0008401329464575,37.01692984301412,0.0011797030485285,2.8957873473716007,407.8625232777193,14.282998147928636,5.362923567977223,71.9979856440668,7.600645476620651e-07,120.00000531213882,124.88900300695136,15.288,0,0.0,0.0419751331662584,1.4462801652534363e-09,-0.0004213876232777,6.84067806399068e-08,1.654507199147348e-05,4.051723715967022,32.44322602189087,14.283130115703262,37.13002398000203
0.37,31.222211539445663,131.01040117020102,5.509550188388412,4.071639898917391,0.0008674922629137,35.12417761390579,0.0012067983861697,2.88849906286036,391.1218908297666,14.620581431527652,5.494447309446232,71.99773482653193,8.846681943540367e-07,120.00000570002652,130.86067091914967,15.288,0,0.0,0.0429672939311924,1.6251202388969355e-09,-0.0004600660652957,7.679415042686734e-08,1.849041957573993e-05,4.071639991174516,31.85023865502424,14.620717696893658,35.24274792557624
0.38,31.222211292895075,131.01040167697127,5.646763233102716,4.08264881385344,0.0008930259828975,36.695642158537446,0.0012360471443664,2.880711738179021,404.8187610144602,14.986392916850402,5.634654729559426,71.99746126698146,1.0246533537040716e-06,120.0000061105033,137.4891296153862,15.288,0,0.0,0.0440424171304414,1.8200057922063743e-09,-0.0005010869196581,8.592980519823866e-08,2.0642694281337543e-05,4.082648911356968,31.228847973200924,14.986533193043764,36.808540518115166
0.39,31.22221104018777,131.0104021963902,5.787316652586672,4.096641430700089,0.0009192713382325,31.335681548387896,0.0012640110027448,2.872831219844713,357.64062493382744,15.337978856701952,5.770390286512262,71.99716358743511,1.1813915463769678e-06,120.00000654506955,144.01394309468844,15.288,0,0.0,0.0450757388736732,2.031886352449547e-09,-0.00054455673306,9.586443829735616e-08,2.295945663566148e-05,4.096641533664766,30.65298398882095,15.338123255506089,31.4670954954126
0.4,31.222210781536543,131.01040272801887,5.931064331106764,4.109028969993624,0.0009451871856381,29.95928076777898,0.0012920492774571,2.8646905607053603,345.465636880754,15.692185018814769,5.906873567965718,71.99684037970908,1.3563276523471372e-06,120.00000700500496,150.74021066990193,15.288,0,0.0,0.0461167659598875,2.2617341782092324e-09,-0.0005905037520737,1.0663253249436129e-07,2.5471259834659164e-05,4.1090290785164525,30.09246700352443,15.692333488470696,30.095929256306363
0.41,31.222210517064383,131.01040327160345,6.077922766619747,4.122888296344507,0.0009714525997821,33.78425365340317,0.0013192264430821,2.85640971467756,378.94687077668647,16.03742529732769,6.0405139809190125,71.99649020751959,1.5509747261474075e-06,120.0000074917568,157.44375780268788,15.288,0,0.0,0.0471314487675864,2.5105374204052982e-09,-0.0006389770219162,1.1827345344180344e-07,2.816813594418537e-05,4.122888410595805,29.56469007160549,16.037577892745222,33.904791300285986
0.42,31.22221024682894,131.0104038270252,6.227854084363214,4.14444025865494,0.0009995884754813,38.04468161607466,0.0013435485656724,2.8482703202464488,416.2328240017114,16.348862540904037,6.163613566771559,71.99611159893284,1.766920641656551e-06,120.00000800692096,163.6157044470786,15.288,0,0.0,0.0480467946810589,2.779304965995011e-09,-0.0006900467934588,1.308321832549104e-07,3.100973487310896e-05,4.144440378988911,29.104646754454564,16.34901955589459,38.15115260238947
0.43,31.222209970843565,131.0104043942566,6.380851271439565,4.1618082623168045,0.0010268052928652,33.45815353250911,0.0013687230309017,2.8397750580998298,375.9031395134336,16.67263197205097,6.290467308135904,71.99570306121484,2.005818691215035e-06,120.00000855220898,170.15779512382937,15.288,0,0.0,0.0489983878509763,3.0690566816849196e-09,-0.0007437862329608,1.443552931671376e-07,3.4086145072160934e-05,4.161808388761201,28.640125213458976,16.672793262249197,33.57845085853367
0.44,31.22220968892116,131.01040497368373,6.537047157143216,4.164954087655709,0.0010505545842624,30.86574023822051,0.0013980747538988,2.830419582421933,353.0750125389216,17.050421620730056,6.433992917638883,71.99526304125902,2.269416145406482e-06,120.00000912964636,177.9537948947602,15.288,0,0.0,0.050108743779844,3.380847125286677e-09,-0.0008003278134917,1.589055036683518e-07,3.750784460406397e-05,4.164954219916419,28.113519280259386,17.050586641458253,30.99524475496968
0.45,31.22220940081287,131.01040556582012,6.696617751072218,4.165241899529329,0.0010735835484822,35.912216710755274,0.0014280646808282,2.820677244966047,397.2093853562869,17.438293672974723,6.580571293039616,71.99478987454265,2.5595995397253085e-06,120.00000974147088,186.13940823302417,15.288,0,0.0,0.0512487363629523,3.7158016249566814e-09,-0.000859850913876,1.745604864109677e-07,4.121350642664912e-05,4.1652420376426775,27.591357195572936,17.43846231108416,36.02281959036367
0.46,31.222209106468902,131.0104061707686,6.859600379555308,4.174585124444534,0.0010989881252456,41.916816790010685,0.0014546917035209,2.811153314474766,449.7140588976434,17.786187321601275,6.714685486378061,71.99428180697711,2.8783880229668832e-06,120.0000103898448,193.6374175079873,15.288,0,0.0,0.0522712438446989,4.0751091178509895e-09,-0.0009224765531151,1.9138630415982226e-07,4.50966024037632e-05,4.1745852688465686,27.13985967570823,17.786359950252297,42.01097612387663
0.47,31.22220880579083,131.01040678873238,7.026066274755745,4.1823089530633855,0.0011240727220223,28.37640408484148,0.0014814747534716,2.801325368441072,331.0078106302534,18.138167428286582,6.849989708801916,71.99373704967608,3.2278903746588286e-06,120.00001107707628,201.37401505997488,15.288,0,0.0,0.0533057667609836,4.459978104761035e-09,-0.0009883252835099,2.094509673354327e-07,4.927107017839778e-05,4.182309103852639,26.69716826759888,18.13834399721685,28.514342615617974
0.48,31.222208499300592,131.0104074186346,7.195654207463586,4.189479568102716,0.0011490100608361,27.95074823096412,0.0015080719422187,2.7912412472910484,327.2031223011574,18.48995085190441,6.98515976370584,71.99315377257649,3.6103201777021456e-06,120.00001180491516,209.25751230436188,15.288,0,0.0,0.0543397174489847,4.8716620260348906e-09,-0.0010573190976925,2.2877013380347535e-07,5.373205427420879e-05,4.189479725385959,26.268461765425428,18.4901313379827,28.089773168283216
0.49,31.222208187201936,131.01040806005494,7.368224738812109,4.202723284133339,0.001175611380853,35.08821363242469,0.0015321405723077,2.781292092003844,389.60000969812296,18.812014261754847,7.111044804193205,71.99253015042137,4.027946338669921e-06,120.0000125755114,216.60722913930897,15.288,0,0.0,0.0552863302793499,5.311396446020465e-09,-0.0011294854492155,2.4938633613154685e-07,5.8398320167141767e-05,4.202723448262914,25.88860807032205,18.81219892635871,35.1982716047702
0.5,31.22220786953184,131.01040871291724,7.5437546994244835,4.220815778795054,0.0012036252596423,36.05491615971072,0.0015540388599792,2.7714444106710974,397.97031042210494,19.10875420627192,7.229005658018125,71.99186435180009,4.483102820610566e-06,120.00001339126192,223.4908652241728,15.288,0,0.0,0.0561585257949344,5.7804122391526605e-09,-0.0012048912160576,2.713531252030471e-07,6.327866493526626e-05,4.220815950099865,25.54902500917784,19.108943271285572,36.161276053538906
0.51,31.222207546379583,131.0104093770373,7.722184419225251,4.232567510615346,0.0012298790840397,27.54004661432325,0.0015777580800203,2.761017323676155,323.3984349720841,19.430597746636646,7.354673636736509,71.99115452520388,4.978202222778502e-06,120.00001425458936,231.07869697977367,15.288,0,0.0,0.0571045034845869,6.2799518101633574e-09,-0.0012835871653678,2.947201005874635e-07,6.854585242460463e-05,4.232567688976395,25.189423168613605,19.430790935591396,27.678103017910345
0.52,31.2222072176664,131.01041005238113,7.903528663081794,4.240723419357099,-10.793424113010134,33.23350366406313,0.6507398562720835,2.7499264872175004,372.0984511843415,20.11759792028436,7.4828379268122625,71.99039506673041,-3.116301635846929e-05,119.9999765997,247.70357425848272,15.288,0,3.771436163770894,0.0591236464084088,6.802494616090713e-09,-0.0013764108750658,-0.0001103147889412,7.610028996840654e-05,11.587425317128952,13.545945394066283,18.4321807418604,33.35343046576976
0.53,31.22220688283497,131.0104107390299,8.087902436113332,4.249885845439144,-10.643157805061852,34.89771346034417,0.6674068598821192,2.7388979498513226,386.5562464348624,20.44118122222748,7.610211618571765,71.98958520358174,-0.0003999527683054,119.99958916309396,255.731551772648,15.288,0,3.785945547688787,0.0600747509333273,7.258232789069654e-09,-0.0014620652504394,-0.0003312090830867,8.21347893042467e-05,11.451202483054558,13.383998261032316,18.778956009731186,35.01138955620876
0.54,31.22220654172691,131.01041143717077,8.275380198313137,4.258842270138588,-10.497998640576238,30.641539832371063,0.6842643588954201,2.727635501855993,349.2703242098436,20.76295510746184,7.736906650024937,71.98872532786756,-0.0011624988597627,119.99878768518748,263.84134287803647,15.288,0,3.8004219269834016,0.0610205438313304,7.62834979637695e-09,-0.0015514067713289,-0.000557838496071,8.852408229829971e-05,11.319991782133384,13.226818724822444,19.123144487634523,30.770313232767425
0.55,31.222206194631816,131.01041214618058,8.46575636928156,4.268797655070419,-10.36046247107218,32.479931700933086,0.7011136449398733,2.716226433105473,365.2500005919907,21.07722822443795,7.861134008209714,71.98781332643279,-0.0023286745923591,119.99756177933872,271.883953255906,15.288,0,3.8148474459612265,0.0619442985945241,7.911521264482788e-09,-0.0016444059103334,-0.0007899680777264,9.524916427274276e-05,11.196548479366063,13.077021379925636,19.458664813993494,32.60084983058417
0.56,31.222205841544664,131.01041286604527,8.659030976200137,4.2806149929874175,-10.232170722294851,30.311078391478592,0.7177957947927595,2.7047455967961724,346.2265619465787,21.37961765920168,7.981515798252061,71.9868470679659,-0.0039081821543159,119.9959012386098,279.73601800931925,15.288,0,3.8292211698831617,0.0628331341077239,8.106479028177686e-09,-0.0017411594868864,-0.0010276810027111,0.0001022984549648,11.08267559276068,12.936388124784056,19.78088174794013,30.439979513803404
0.57,31.22220548253657,131.01041359659402,8.855151091266867,4.2902218351787775,-10.103278636115448,29.97124733785972,0.7349894542000254,2.692883398529521,343.1828296833023,21.68968864522648,8.10422043305456,71.9858243819596,-0.0059107113913444,119.99379586837756,287.9035214404848,15.288,0,3.843536175261157,0.0637445511104871,8.212001327240164e-09,-0.0018417223845903,-0.0012709562743401,0.0001097741018716,10.96772545771063,12.795555463175353,20.110881086996336,30.10095509253858
0.58,31.222205117578632,131.01041433786276,9.054133603562873,4.294959223946541,-9.967724077886947,39.4837256377758,0.7531917530404884,2.6804006297474974,426.1250058573153,22.02102475331452,8.233522976835994,71.98474304601471,-0.0083460326299624,119.99123538887332,296.76118291745297,15.288,0,3.8577919286816327,0.0647184711527947,8.226880041809835e-09,-0.0019461960695645,-0.0015198845331598,0.0001177709630456,10.845075071207836,12.648496712358105,20.463184268984577,39.58176898007406
0.59,31.22220474623825,131.0104150907193,9.256276547312195,4.304769670142233,-9.848048271174552,31.99471941489469,0.7706753923194712,2.6681031552653893,360.68438819711065,22.32452061606212,8.353953985693751,71.98360070962495,-0.0112245419158941,119.98820886211344,304.991613328993,15.288,0,3.8720099237204937,0.0656105769119582,8.149785629639868e-09,-0.0020548946796525,-0.0017750485729907,0.0001260600252919,10.73928210765778,12.517411111515932,20.78519839079925,32.115024294639774
0.6,31.22220436873373,131.01041585468874,9.461424480595753,4.306383432461579,-9.714217330401578,28.42733674056272,0.7898200145546395,2.6548631938522287,329.4859594986058,22.66678351834105,8.486485854158964,71.98239495904528,-0.0145567641970545,119.98470521313624,314.40891514122643,15.288,0,3.886176183292745,0.0666166235224866,7.979449933808145e-09,-0.0021678071878406,-0.0020362601446857,0.0001350229753979,10.617572879284994,12.372541653161132,21.14817782369737,28.56196051385145
0.61,31.222203985007656,131.0104166298649,9.669614111625608,4.306453796132437,-9.58125418919111,33.323067191233,0.8094831966609559,2.641210000160953,372.0984511843297,23.01515460896401,8.620832542943662,71.98112330099093,-0.0183534661156879,119.980713112335,324.14115080175054,15.288,0,3.900292660168596,0.0676406288343342,7.714574254031614e-09,-0.0022850659500558,-0.002303665839866,0.0001445110573578,10.49631930456962,12.228714485939657,21.517139318015516,33.437375201143645
0.62,31.222203595174538,131.01041741598667,9.880762367384971,4.31826357596304,-9.47765099511616,41.451003574277394,0.8271177520616972,2.6283855857513543,442.86563930529206,23.30017575053452,8.735149490591334,71.97978316123674,-0.0226256482150979,119.97622098311024,332.21249625148494,15.288,0,3.9143588896152224,0.0684784578110607,7.3538609091501565e-09,-0.0024067391441092,-0.002577264660654,0.0001540876586033,10.406863770938456,12.115111587716246,21.818209838778767,41.54248706899863
0.63,31.22220319903525,131.0104182134423,10.095005126172628,4.325972536857518,-9.368578142987433,23.473703802187337,0.8456903224236016,2.6149536179987805,286.11251274707894,23.603599084053737,8.855155927729081,71.97837193949957,-0.0273838872204142,119.9712176965138,340.91420297095897,15.288,0,3.9283649648593055,0.0693703767731524,6.896131472338112e-09,-0.0025330136013993,-0.0028573115706467,0.0001642806657539,10.311020899798862,11.996561191809976,22.13853510220522,23.634042073639247
0.64,31.22220279719859,131.01041902095207,10.311915263017733,4.32731609575015,-9.249468379391107,23.043234532412765,0.8657101293956404,2.6006465676169546,282.30782441796754,23.93844739970403,8.98494801528587,71.97688709363742,-0.0326388731535078,119.96569199503234,350.64814789349475,15.288,0,3.942315630672169,0.0703546596098822,6.340255799257179e-09,-0.0026636520053453,-0.0031431349056699,0.0001752004116036,10.20369130205991,11.86805186635871,22.49184673021041,23.205677630993154
0.65,31.222202389638824,131.0104198385471,10.531508110956583,4.337329294430262,-9.151707505527844,40.78719193567228,0.8841682270782955,2.586962107090583,436.7781447787475,24.22416689291743,9.09920346566738,71.97532595556147,-0.0384010025799957,119.9596329370254,359.06091423302166,15.288,0,3.9561756305433655,0.0711945603539533,5.6851681275743725e-09,-0.0027987854288687,-0.0034348800059102,0.0001862820263389,10.119577848883685,11.762384122684155,22.79272489991865,40.87871270471549
0.66,31.222201975819488,131.01042066731475,10.754155224907684,4.344792614338214,-9.051639150883805,34.68008718813811,0.9033110476850073,2.572783110109304,383.51251517160017,24.52070065663168,9.216759634643408,71.97368583590257,-0.0446807749483955,119.95302946960936,367.8975523877752,15.288,0,3.969990211680716,0.0720662508440237,4.9298015726922606e-09,-0.0029388133942634,-0.003733249036823,0.0001979922086296,10.032548360505432,11.6548997881143,23.104779450838222,34.787118753317216
0.67,31.22220155592901,131.01042150684336,10.97972262104902,4.346605462097244,-8.943053026963298,23.847973938102367,0.9238347692372512,2.557741704956638,289.1562440103425,24.84576555915492,9.343182829846189,71.97196384380098,-0.0514894018458427,119.94586979166766,377.7082806995805,15.288,0,3.9837600695333326,0.0730218012440878,4.0730283819852655e-09,-0.003083731724251,-0.0040380787134616,0.0002105051758873,9.935665038908018,11.538892503162243,23.44669114698105,24.00252849727578
0.68,31.22220113013821,131.01042235675823,11.208088765567922,4.349564253842392,-8.839677581168766,29.801446991859866,0.9443277024006476,2.5425489445372764,340.8999924858462,25.16222162429696,9.466806283076046,71.97015716602583,-0.0588380713797363,119.93814211780716,387.38266529426886,15.288,0,3.997435399087661,0.073952057372149,3.113748217411674e-09,-0.0032335570633656,-0.0043492559893024,0.0002235392533195,9.844196607030398,11.429053445978877,23.779190255587466,29.92461449632263
0.69,31.222200698524684,131.01042321687805,11.439197257861188,4.357256293897882,-8.748465930003825,36.72053867978229,0.9639706675462536,2.5276418438249326,401.0140726853634,25.449365856635527,9.581128936798354,71.96826284407179,-0.0667377666322117,119.92983488480898,396.2657239149316,15.288,0,4.011055752912624,0.0747961725740636,2.0509478016662755e-09,-0.0033883434860165,-0.0046667473854253,0.0002369076254212,9.765936072813242,11.33277441600599,24.080493548028272,36.82005124483033
0.7,31.22220026093977,131.01042408749055,11.673149780780072,4.364239542363339,-8.6583661011733,30.7792630863633,0.9839407196744192,2.512410294533516,349.27032420985284,25.737597956742896,9.695698958259742,71.96627789083396,-0.0751993273187659,119.92093667909084,405.28342854081234,15.288,0,4.02462537590366,0.0756434918778105,8.836774969570254e-10,-0.00354828842402,-0.0049908072630695,0.0002508948894237,9.688582374741998,11.238298238146358,24.38271552278089,30.897303781519156
0.71,31.22219981743383,131.010424968472,11.909909230123391,4.367437493261725,-8.563295664685626,25.2723229469512,1.0049589613700347,2.496459992854044,301.33126406340574,26.044908236852425,9.816167219871074,71.96419934571273,-0.0842338750810786,119.91143578120386,415.01004691455006,15.288,0,4.0381038492476815,0.0765468895105665,-3.890337912180866e-10,-0.0037134621603287,-0.0053214288747452,0.0002657032390263,9.605324036250442,11.139159533082791,24.704791100004016,25.415203366193136
0.72,31.22219936800296,131.01042585981062,12.149476380926195,4.366184605582664,-8.462200701562773,30.970605446508703,1.0272495129396308,2.479660013257552,350.79220534145287,26.375951398560368,9.943990727779129,71.96202399443298,-0.093852718906972,119.90132028357796,425.6172525811708,15.288,0,4.051524523523031,0.0775200463748054,-1.7681384628458715e-09,-0.0038839869613126,-0.0056587086980076,0.0002814303431281,9.514911463118718,11.033908120303694,25.05153926906377,31.086690995770162
0.73,31.22219891263772,131.01042676150587,12.391855849574435,4.374036796559531,-8.380827253314422,39.21195065473896,1.0475839736460124,2.4637549326874666,422.320318528234,26.650794582744567,10.054076815942851,71.95974866567181,-0.1040675995584665,119.89057781236096,434.5234023544269,15.288,0,4.064894050935175,0.0783280364074134,-3.2546443402173915e-09,-0.0040600027092452,-0.0060027763469306,0.0002972428383976,9.446362577124574,10.950863486817658,25.339026739286844,39.30323898484532
0.74,31.222198451265896,131.01042767368915,12.637096442438173,4.378368437268845,-8.29492504524718,24.50209339774436,1.068943584018179,2.4471316294502534,294.48281347105944,26.94364870722816,10.169722739077155,71.95737003772344,-0.1148897815006995,119.87919650361394,444.1149929413096,15.288,0,4.078193959724596,0.0791889686271201,-4.849409484394764e-09,-0.0042416479189366,-0.0063537499505621,0.0003139465471038,9.372391403158773,10.863496167774391,25.645231725595277,24.647183905457783
0.75,31.22219798426108,131.01042859556827,12.88493585405582,4.3802987610907005,-8.206648474106377,28.62719611196464,1.0911028355187475,2.4298999068713014,330.24688556441487,27.248402927456848,10.289014900148832,71.95488484446214,-0.1263306297584515,119.8671643772769,454.2075917320557,15.288,0,4.09140747789666,0.0800848831378671,-6.553301708865752e-09,-0.0044287632018159,-0.0067111802295437,0.0003314956722308,9.295410369378944,10.774129816769875,25.963708869970837,28.750848269015883
0.76,31.222197511500884,131.0104295273795,13.135458150533784,4.385185735771788,-8.125883856618115,30.82576482186672,1.1127158135767237,2.4128058744883365,349.27032420986166,27.532537328952564,10.401744892242528,71.95228973729341,-0.1384013878085588,119.85446958252092,463.71837861747207,15.288,0,4.104560521742736,0.0809202019096172,-8.367106413549963e-09,-0.0046215636789069,-0.0070753359329027,0.0003495256726727,9.226629393657303,10.693739807318154,26.26040110644177,30.940063760806712
0.77,31.222197032919137,131.0104304692432,13.388708304781447,4.390495937909594,-8.04780311541223,28.816086511405263,1.1344047299405011,2.3955076428879054,331.7687666960708,27.81117000600128,10.512657049532958,71.94958128746384,-0.1511134065550616,119.84110015356804,473.14013874638783,15.288,0,4.117654511218273,0.0817393578911813,-1.0291587450678922e-08,-0.0048202144417341,-0.007446382872252,0.0003682298231978,9.160600601924916,10.616982567352226,26.55117671441956,28.93772922658649
0.78,31.22219654857857,131.01043142101304,13.644641406509011,4.3924719509911325,-7.965554525073446,23.647322797803024,1.157162818371248,2.3774379664129883,286.8734378128899,28.10772090376611,10.629101782726902,71.9467560036421,-0.1644780610607198,119.82704409680387,483.2722566953621,15.288,0,4.130671552311572,0.0826111843569213,-1.2327483879585832e-08,-0.0050247686679298,-0.0078242755410188,0.0003879398297296,9.08951902879334,10.536140186272489,26.86052124731441,23.79468664588499
0.79,31.222196058566706,131.01043238249113,13.903195260210838,4.392399718737873,-7.881513197961095,33.655974911528666,1.180695934434934,2.358751211007177,373.6203323159534,28.41467648313748,10.748722402365043,71.94381031018864,-0.1785068478930058,119.81228928856704,493.8729581589544,15.288,0,4.143606819878945,0.0835135987347932,-1.4475521596871148e-08,-0.0052352756306767,-0.0082089637006272,0.0004085960368792,9.016070864533535,10.453838538778868,27.180551973646526,33.75918241620294
0.8,31.22219556264487,131.0104333541572,14.164535665495611,4.397664842262559,-7.808698026266547,34.102751174300586,1.2029795368189953,2.340611179749497,377.42502064505743,28.685098422390897,10.856788115152694,71.94074050520116,-0.1932115781092959,119.79682327274318,503.3054170584616,15.288,0,4.156487454951908,0.084308644664264,-1.6736399173910042e-08,-0.0054520757882057,-0.0086009220331952,0.0004295554281455,8.955182113513555,10.384974461976617,27.462304642857205,34.20414094984748
0.81,31.22219506091616,131.01043433578215,14.428589806173989,4.3989197639541615,-7.7305439072172435,22.170123091759745,1.2265743263062514,2.3215439055108287,273.9374926939919,28.97831179159945,10.971913639180976,71.93754284922599,-0.2086039562767978,119.78063370178484,513.634355700297,15.288,0,4.169306835558228,0.0851706845960029,-1.9110802183106885e-08,-0.0056751785440949,-0.0090000194800265,0.0004516921885254,8.887867824255407,10.310520962743892,27.76768172971709,22.325062342285783
0.82,31.222194553574408,131.01043532694803,14.695221452504002,4.398320896268005,-7.650882309220681,28.498182753112392,1.250931948455235,2.301853781016922,328.72500443277005,29.281029237045185,11.089933363845295,71.93421348704632,-0.2246956563079683,119.76370826099964,524.4081819860555,15.288,0,4.182059177335209,0.0860606658545845,-2.1599381800948544e-08,-0.0059045395035406,-0.0094060356980102,0.0004748442902304,8.81850683096186,10.234826588216642,28.082799831150982,28.618346943851257
0.83,31.222194040597017,131.01043632768736,14.964445801452372,4.404291181495126,-7.584030544636838,36.23520974264104,1.2735835843477497,2.282988893971948,395.68750322465047,29.53808257694855,11.193540829245014,71.93074861658218,-0.2414984407740091,119.746034531437,533.6421858966253,15.288,0,4.1947343420873375,0.0868164419954229,-2.4202742067846183e-08,-0.0061403219910203,-0.0098191194644462,0.0004981281288031,8.763665591625506,10.174728371931764,28.35026155141102,36.32938863412799
0.84,31.22219352186764,131.0104373382299,15.23634400752214,4.408544215008748,-7.515670003160901,22.35933026073489,1.2969038048968475,2.263559145161641,275.4593748256452,29.803263692866377,11.299609432167795,71.9271442575219,-0.2590237269687505,119.72760046524417,543.2526635441759,15.288,0,4.207336718543307,0.0875961140828088,-2.6921360947812172e-08,-0.0063827293249981,-0.0102394798875465,0.0005224281058661,8.70683153674493,10.113523507710854,28.626087626456197,22.511004179987523
0.85,31.222192997693888,131.0104383579223,15.510700600792076,4.406817530925731,-7.438732091781217,24.38551710464324,1.3222364689467454,2.242750734195136,292.96093233939376,30.1054396054808,11.41720045400702,71.92339652876548,-0.2772828885243036,119.7083940471318,554.3100046844988,15.288,0,4.219867333567782,0.0884845268151007,-2.9755776314875816e-08,-0.0066315833628433,-0.0106666692500483,0.0005482858578535,8.639762491493324,10.042709169014683,28.9402461516861,24.524104154818655
0.86,31.22219246788732,131.01043938714474,15.787647290077889,4.408983357875592,-7.369753655110675,30.54520653613059,1.3466002822195406,2.222340218696772,346.2265619465587,30.37888555637617,11.525691978351183,71.91950124333187,-0.2962876671398386,119.68840288203762,564.410254108716,15.288,0,4.23233483197758,0.0892885056110396,-3.2706411880772166e-08,-0.0068872177817404,-0.0111011206622,0.0005745779300891,8.58166867355822,9.98187097505976,29.22443686220648,30.65553409586246
0.87,31.22219193246955,131.0104404258406,16.067168975564336,4.412826138912929,-7.304874037476625,28.4409103466882,1.3706261487003315,2.201956762568271,327.964078366998,30.6379579304552,11.629588031494496,71.9154542909515,-0.3160496864032494,119.66761468773244,574.0625188541939,15.288,0,4.244738588248658,0.0900502456270671,-3.577369907673878e-08,-0.0071497341819059,-0.011542862785667,0.0006015494570659,8.52810373757176,9.926511523829856,29.493617050877425,28.558932244957568
0.88,31.222191391474656,131.01044147392824,16.349241998846676,4.413531402126869,-7.236165886444926,24.57600221727649,1.395842523777885,2.1806684091220983,294.4828134710418,30.915442436820168,11.73917583025652,71.9112514540478,-0.3365804550163477,119.64601730271276,584.4922117105291,15.288,0,4.257075633840931,0.0908661096693986,-3.8958021437603525e-08,-0.0074191948936583,-0.011991857588626,0.0006298572155353,8.469807414496316,9.86710374673338,29.781807431456016,24.712012788223234
0.89,31.22219084498525,131.01044253122447,16.63380874956265,4.411163641544286,-7.163825479960541,26.95679840211221,1.4222825020289704,2.158439801545731,315.028134248087,31.211450661557752,11.85449283781758,71.90688840263225,-0.3578915301139728,119.62359851243164,595.7222707494259,15.288,0,4.269344953976212,0.0917364262385454,-4.225973395727677e-08,-0.0076956572809709,-0.0124480603710125,0.000659565099499,8.406974263944244,9.803782087115936,30.08908925776921,27.080449220509504
0.9,31.22219029291828,131.01044359789256,16.920927741239083,4.415527035853008,-7.103511205662503,29.778903029472296,1.4467047121294585,2.1372676779163213,339.37814235421445,31.45776760988192,11.95413462334074,71.90236077708353,-0.3799948059168117,119.60034573689498,605.1454208876177,15.288,0,4.281540351476453,0.0924606984206129,-4.5679156276634646e-08,-0.0079793552734534,-0.0129117154097593,0.0006892578490508,8.358032858102183,9.755685342174084,30.344807011645443,29.8905325026149
0.91,31.222189735345367,131.01044467377432,17.210549440902053,4.416794080509326,-7.039414317052957,22.65311972970781,1.4723395194018152,2.115158645266644,277.7421810230789,31.722595320232664,12.059501810680397,71.89766406890138,-0.4029015851022605,119.57624702582024,615.3600441862133,15.288,0,4.293665509984172,0.0932393849537024,-4.9216530258254336e-08,-0.0082703210232576,-0.0133827307195775,0.0007203855902532,8.304404208612736,9.703538125290992,30.619626451310257,22.79924369893694
0.92,31.222189172476,131.01044575842192,17.502527501227046,4.41505178509254,-6.971760924609294,26.972716465552512,1.4992119128102048,2.092081807327125,315.02813424806214,32.00587341822055,12.17058132578151,71.89279387047628,-0.4266232392375041,119.55129034013028,626.3816981808188,15.288,0,4.305719480669008,0.094072308828325,-5.2872150972761376e-08,-0.0085684363111951,-0.0138607786900359,0.0007529966020064,8.246320163938744,9.647499914378717,30.913452180545253,27.095237149343216
0.93,31.22218860421213,131.01044685203294,17.796931518449036,4.419465510357588,-6.914821155804049,32.08741221887193,1.5241279313542222,2.0700462295439435,359.1625070654728,32.242224751321245,12.266853193392862,71.88774547982189,-0.4511711040784184,119.52546368783176,635.6490695803355,15.288,0,4.317708477776087,0.0947673122376677,-5.6646095986184834e-08,-0.008873976120909,-0.0143461620678207,0.0007855841946437,8.200699339129713,9.605280919375367,31.15868199794517,32.190217151292956
0.94,31.222188030436328,131.0104479548484,18.093845223265248,4.417809316463147,-6.849560697387499,23.2819186815293,1.5513756552763271,2.0463420979188887,283.0687504837787,32.51899494651048,12.375729719266664,71.88251440708623,-0.476556257315424,119.49875532913175,646.5904089337138,15.288,0,4.329632362446175,0.0955811236962453,-6.05384220510163e-08,-0.0091871525796371,-0.0148390727391985,0.0008202668108772,8.144962799179119,9.553215707324792,31.44562941859172,23.423108672822277
0.95,31.22218745144992,131.01044906622727,18.393057774717526,4.416727305094939,-6.786275248519053,30.161227276551728,1.5786299899073413,2.0224318316997305,342.4218736174873,32.78880917813266,12.482348407107116,71.87709581845658,-0.5027901307547357,119.47115315763156,657.34571670793,15.288,0,4.341486344288455,0.0963744977952764,-6.454934517887529e-08,-0.0095077766850151,-0.0153390774202112,0.000855912231152,8.091332941202587,9.504094254900131,31.72531420733544,30.27014922306653
0.96,31.222186866943275,131.01045018681592,18.694788230674448,4.4186168149572,-6.728529664226056,29.54990850346644,1.604985971503328,1.9989012399201425,337.09533515678345,33.0337553936908,12.581078835313011,71.8714848290173,-0.5298839734835529,119.44264525502167,667.1843653690731,15.288,0,4.353279732323123,0.0970947864553578,-6.867871466953588e-08,-0.0098363559076239,-0.0158468234684535,0.0008920808429169,8.044091954387788,9.462484919877872,31.97926806622752,29.660894772392066
0.97,31.222186276935524,131.01045131656954,18.999024622672813,4.418696356556844,-6.669030997241639,18.88438021206045,1.6321971807183029,1.9746214625613423,245.02188719299323,33.28873802014939,12.682879770428396,71.86567657064462,-0.5578492463486983,119.41321946525716,677.5041126950373,15.288,0,4.365011376651804,0.0978445825064868,-7.29265677470535e-08,-0.010172996624932,-0.016362327308992,0.0009297058673614,7.994533252958523,9.419177089495802,32.24353291692776,19.057361138174745
0.98,31.222185681726327,131.01045245485082,19.30555741735396,4.413003116570927,-6.601938237563377,27.53224811740705,1.6618315463721816,1.9485553338327704,319.5937466429581,33.583786073188726,12.797190978199268,71.85966597013207,-0.5866972006417435,119.38286385672852,689.5468786503718,15.288,0,4.376673342233868,0.0987121497673831,-7.729304462049723e-08,-0.0105174339027655,-0.0168850447062822,0.0009696745566092,7.935608797191778,9.366588565099576,32.54904927941255,27.651098321332373
0.99,31.222185081158933,131.01045360198603,19.61449853493845,4.41650913071672,-6.549419494865822,30.09609568939709,1.6880915853071168,1.9244888024394609,341.6609485517054,33.80684624058712,12.888816592023687,71.85344781661325,-0.6164392944838211,119.3515662748573,698.7163686613104,15.288,0,4.388274502083446,0.0993681324490231,-8.177793506764988e-08,-0.0108700658754367,-0.0174154394178402,0.0010088126094356,7.894009392514033,9.333238521066628,32.78030480089076,30.204772571506737
1.0,31.22218447523113,131.01045475797855,19.92585160209997,4.414395370027083,-6.489532003364627,26.924252636902164,1.7167344789702308,1.89865105332506,314.2672081822764,34.06892477693945,12.992622459440314,71.84701707130354,-0.6470862268140052,119.31931535189727,709.5703637224572,15.288,0,4.399811355774234,0.1001388091407907,-8.638108231146115e-08,-0.0112309641966901,-0.0179534720904381,0.001050355104746,7.843307821619901,9.29086914337604,33.05172960923366,27.045654607520795
1.01,31.22218386412944,131.01045592243028,20.23948691702685,4.413006157336447,-6.431602872552127,28.16501560668205,1.7452672510217628,1.8726729135851017,324.9203161036979,34.32239866910181,13.093654581317717,71.84036841692114,-0.6786491165675654,119.28609927710758,720.1464001121038,15.288,0,4.411282280953148,0.1008842021228294,-9.110240933990885e-08,-0.0116000467420239,-0.0184988809881614,0.00109291143152,7.794757218034278,9.251513903114477,33.31424520158369,28.281106161948614
1.02,31.2221832477736,131.01045709551005,20.555463242265688,4.412847186925235,-6.376302942898466,23.489558667166925,1.7734691144256465,1.8467034407492229,284.59063161540416,34.563143688680945,13.190614327687406,71.83349654361162,-0.7111386747766396,119.251906662088,730.2622055094586,15.288,0,4.422690099890158,0.1015921888188251,-9.594157951947385e-08,-0.0119775519483058,-0.0190518761180186,0.0011363594229397,7.749191571357524,9.216098169068658,33.563622511717654,23.62868749372621
1.03,31.222182626233984,131.01045827706838,20.873733236266613,4.4087921632581,-6.316285197732206,19.16485907868644,1.8034753727119648,1.819306914132064,247.30469339049705,34.83080054731314,13.295963634433242,71.82639609098091,-0.7445653668100866,119.2167263706446,741.5936244273654,15.288,0,4.434032755763291,0.1023792860417315,-1.0089831735316773e-07,-0.0123634990601795,-0.01961234282695,0.0011820231929546,7.697666659492537,9.1749094814685,33.84064916285905,19.335310304561894
1.04,31.22218199957348,131.01045946697045,21.194254694262565,4.408104146952297,-6.261877941005143,30.565527706643746,1.8322501729622267,1.7925188195460156,345.46563688072297,35.069049281591234,13.3920007999279,71.8190615117837,-0.7789399869592328,119.18054691399692,751.7504374039287,15.288,0,4.445311879210665,0.1030799509874421,-1.0597230693455056e-07,-0.0127579709159522,-0.020180262177933,0.0012280424281533,7.65277988959386,9.141629176934556,34.08739273596206,30.672817744712553
1.05,31.222181367499097,131.0104606658426,21.5172375901474,4.404236353958488,-6.2038128947015245,18.374452337224504,1.8625700794347075,1.7644616275262337,240.45625879819983,35.32887864288451,13.494750568350195,71.81148722964612,-0.8142729719229219,119.14335717346631,762.9075938072042,15.288,0,4.456533692181106,0.1038440569732409,-1.1116288200041476e-07,-0.013161515643363,-0.0207562722532217,0.0012762332522668,7.603203217986476,9.103921305284477,34.35628901873589,18.552708449947488
1.06,31.22218073025432,131.01046187316626,21.842512182629264,4.397645138564404,-6.142797210679247,26.24464868846964,1.894314247055379,1.7351980566090348,308.17968365593924,35.60729499506477,13.60328262100064,71.80366743910719,-0.8505752299208984,119.10514552654608,774.9552568004323,15.288,0,4.467693439027883,0.1046628051694232,-1.1646986254866625e-07,-0.0135739167488808,-0.0213399181717743,0.0013265538796832,7.54977194942897,9.062624179827315,34.64423411389397,26.37007629005741
1.07,31.2221800877202,131.01046308919655,22.170165361791888,4.396761609152671,-6.090474996780249,30.935600280080447,1.9237070513374483,1.707314932463338,348.5093681440308,35.836852969980086,13.696376275159173,71.79559617739962,-0.8878578157659687,119.06590018957162,784.9549372085158,15.288,0,4.478797542926476,0.1053379491168232,-1.218926576968053e-07,-0.0139955581427484,-0.021931596000269,0.0013765346572161,7.5068304301832125,9.033554348335974,34.88196405369224,31.04234104874971
1.08,31.22217943979443,131.0104643141569,22.50027281656705,4.394454816414611,-6.036923949964671,20.769182884639697,1.9539034420775705,1.6786513802060377,261.00157857466235,36.074195999816936,13.791847153080388,71.78726748574557,-0.9261312523239364,119.02560993130804,795.3614664200497,15.288,0,4.489846715029903,0.1060359842751841,-1.2743066222949798e-07,-0.0144267056118495,-0.0225315222508605,0.0014282923908465,7.462180715356402,9.003305782537227,35.12767179867149,20.92831973219161
1.09,31.22217878675915,131.01046554744624,22.832637541930847,4.385655074874077,-5.97531391117788,19.09057952849953,1.9873033686238155,1.647522744273028,246.54375332474407,36.3610563555207,13.90284447687478,71.77867529128089,-0.9654060092863812,118.98426356833632,808.0353195520579,15.288,0,4.500834444831728,0.1068795784313037,-1.3308362745610908e-07,-0.0148670351008086,-0.023139097560582,0.0014835435038015,7.4073300377942415,8.962360229945546,35.424156712729065,19.264317600314985
1.1,31.22217812869245,131.01046678889983,23.16720708966305,4.37994231511462,-5.9186650287076255,38.47436834017812,2.0194884473199104,1.61698849633634,413.1890617385841,36.619728360199936,14.004912055090273,71.7698134067359,-1.0056924899564903,118.94184997934536,819.5465776657281,15.288,0,4.511762885649256,0.1076403245310648,-1.3885095993583518e-07,-0.0153166221853135,-0.0237542833614487,0.0015392302477659,7.358408700597013,8.928631050507379,35.6916792131907,38.561250038890634
1.11,31.22217746518604,131.01046803940153,23.504274999037136,4.380596023933952,-5.871223786069838,28.124168436387965,2.0487714629463274,1.588252949437135,324.1593910376397,36.82207372268315,14.089168580261788,71.76067545497311,-1.0470011463967723,118.89835798657236,828.6017183275569,15.288,0,4.5226424595738335,0.1082355118173917,-1.4473149190933948e-07,-0.0157763176102408,-0.0243780858632769,0.0015941357236044,7.320768394148924,8.908247224069891,35.90143722110399,28.24338616697899
1.12,31.22217679630593,131.01046929881875,23.84379841264522,4.368854605606613,-5.808033685301347,10.507700683022122,2.084291893430215,1.554868724881577,172.73281794065943,37.12398003942755,14.204726132019829,71.75125517811571,-1.089341920556902,118.85377693243468,842.2174603488218,15.288,0,4.533468432127826,0.1091233591542633,-1.5072463728780022e-07,-0.0162461000373359,-0.0250103104959961,0.0016550110591188,7.26324296910612,8.866148234744685,36.21321790556801,10.824678429062793
1.13,31.222176122652822,131.0104705658569,24.18535278325247,4.363583165116308,-5.754116563234678,33.18145106649877,2.1168337657731526,1.5233299055999003,367.5328077900705,37.3687295106873,14.302227884692014,71.74154579163424,-1.1327257650112277,118.80809509335496,853.3311446490686,15.288,0,4.544233640597354,0.1098432065952495,-1.568303712065821e-07,-0.0167251614832848,-0.0256497305365014,0.0017149902307788,7.217106990638642,8.837491003232321,36.46639358376386,33.283783049281894
1.14,31.222175443557283,131.01047184197367,24.529419109079008,4.362808780270133,-5.706708141520772,18.303618922361224,2.1472378844706848,1.4930690033548424,239.69531773195544,37.57144975445878,14.38641024304621,71.73154081804789,-1.177162031194135,118.76130242141092,862.586158290671,15.288,0,4.554952335791201,0.1104395197722562,-1.63046900044522e-07,-0.0172148306589596,-0.0262979573492244,0.0017747179964548,7.178970037012826,8.818626966413268,36.67652351049608,18.48952003801897
1.15,31.222174759514587,131.01047312610692,24.87564860758924,4.349464605955748,-5.643671388298671,18.03895996602452,2.1842876323428486,1.4577796226451123,237.41251153546767,37.877939443828325,14.503268390636928,71.72123369110457,-1.2226598539249067,118.71338908613625,876.6875223408239,15.288,0,4.565611547242606,0.1113408669172659,-1.6937404238461488e-07,-0.0177142845018457,-0.0269537440239189,0.0018410439754267,7.120928544002173,8.777677119383988,36.99286645562916,18.22910613674847
1.16,31.22217407066497,131.01047441795654,25.223944590290174,4.349470573196332,-5.598464668069699,47.46894896746818,2.214532816124529,1.4271254418530024,490.0437743845894,38.066251980180326,14.582799960986115,71.71061743980411,-1.26922932849296,118.66434423625928,885.3965816238702,15.288,0,4.576215807477266,0.111894844786903,-1.7581091155858557e-07,-0.0182235518526043,-0.0276169880341377,0.0019033244057816,7.08522637899994,8.762933642334557,37.18824590103395,47.54200204762705
1.17,31.222173376133263,131.0104757194429,25.5749373476166,4.342764035920941,-5.545249994583175,8.289786983970435,2.2484471901910967,1.3935558760590254,153.70937929486794,38.30835471810411,14.679232449025632,71.69968533954352,-1.3168790376541366,118.61415860454194,896.6644723551988,15.288,0,4.586764676469707,0.1126069460833847,-1.8235520656535945e-07,-0.0187443734087584,-0.0282897780687828,0.0019701053776278,7.039208205933227,8.737098532662051,37.438668085788194,8.70161370013531
1.18,31.222172677080685,131.0104770280448,25.9278009432382,4.327167579085824,-5.481461992440655,23.009671178562964,2.2874155060824,1.3560128235867603,280.02501822196746,38.62528524623597,14.799263823846182,71.68843034143421,-1.3656181857512733,118.56282225648567,911.5314153267268,15.288,0,4.597247555237456,0.1135390116770984,-1.8900767799440401e-07,-0.0192746126352523,-0.0289692046242021,0.0020425263445284,6.979514471701565,8.69597092885088,37.76557205606243,23.162815204995898
1.19,31.22217197298817,131.0104783449038,26.282910743313927,4.3305033485079445,-5.442058835023212,40.3104569285814,2.3160896789393006,1.3257315502256584,428.4078130529292,38.771560024670656,14.865343614937224,71.6768451765393,-1.4154561755761048,118.510325039735,918.417136634168,15.288,0,4.607684108420876,0.1139694430743332,-1.9576612667908586e-07,-0.0198156415035867,-0.0296568779291975,0.0021077393627477,6.950741954836422,8.691438656169732,37.91800816749933,40.39869766880078
1.2,31.222171263414207,131.01047967100794,26.64058905555997,4.318211550026754,-5.383713646732995,4.026925936210479,2.353612731028554,1.2886703144838512,117.1843741360236,39.05208147290704,14.973776033536137,71.66492292381419,-1.46640053628465,118.45665876452732,931.723133626352,15.288,0,4.618075609327366,0.1147945024500236,-2.0262874691587585e-07,-0.020368330383548,-0.0303537197519046,0.0021821278372793,6.897564182877423,8.659137251136565,38.20765358798853,4.83903880567373
1.21,31.22217054951719,131.01048100382448,27.000009280708763,4.306513638528954,-5.326752770654017,32.33677098530889,2.391022597666819,1.2513862561029288,359.92343213200894,39.3244455793869,15.079615741764888,71.65265605065139,-1.518460393600722,118.4018135461764,944.7322206715756,15.288,0,4.628404668549776,0.1155955919681536,-2.09596202425751e-07,-0.0209305006595179,-0.0310568409629711,0.0022579161127036,6.845938270318258,8.629157708306625,38.488926033922006,32.44918665206929
1.22,31.22216983042228,131.0104823452918,27.361804427249226,4.307838003535564,-5.2863033724911945,23.37537881866,2.420951776310664,1.2193866026721896,283.0687504825761,39.47494995076833,15.146859063027868,71.64003722118017,-1.5716435326500977,118.34578090296787,951.9444212207204,15.288,0,4.6386923071224615,0.1160384786635317,-2.166653587781809e-07,-0.0215042703618505,-0.0317687300011033,0.0023286101352964,6.815406433155806,8.624776035249191,38.64575695055439,23.53202596687877
1.23,31.22216910648609,131.0104836946456,27.725724268819423,4.294486053312403,-5.228489181331903,8.99241101132062,2.459615720760663,1.1805738381002049,159.79687382222795,39.75456776551129,15.254912415868995,71.62705929882671,-1.6259564203453472,118.28855372892892,965.4444855846916,15.288,0,4.648926624563294,0.1168609083905827,-2.238355612031652e-07,-0.0220888600907346,-0.0324882475515592,0.0024087717081782,6.762282843434394,8.594279707113554,38.93441799221586,9.39717616507959
