Time,Latitude,Longitude,Altitude,Angle of Attack,Angle of Sideslip,X-Acceleration,Y-Acceleration,Z-Acceleration,Thrust,True Velocity,Ground Velocity,Pitch,Roll,Yaw,Dynamic Pressure,cp,parachute_deploy_gain,Wind Speed,Mach,omega_x,omega_y,omega_z,Cmq
0,31.2221860000000042,131.010383999999988,3.00000000364323682,0,0,0,0,0,2.2828121974499247,0,0,69.9999999962342088,0,113.699999993883324,0,15.2880000000000003,0,0,0,0,0,0,-0
0.01,31.2221859999997946,131.010384000000556,3.00000016469923247,0,0,0,0,0,34.2421869617492334,9.11367326775851009e-12,8.66229497295429822e-12,69.9999999962370651,-4.92863947922479589e-13,113.699999993882884,5.08594204168408172e-23,15.2880000000000003,0,0,2.67827100510624443e-14,-3.65918233213857746e-19,7.58941520739853104e-19,4.81114714040442593e-19,-1.83541113936281872e-32
0.02,31.2221859999996028,131.010384000001039,3.00000030885429547,0,0,0,0,0,25.8718762377664078,1.96992978605390895e-11,1.88456988716431921e-11,69.9999999962400494,-1.04152381447771591e-12,113.699999993882386,2.37621641206600858e-22,15.2880000000000003,0,0,5.78911013494094702e-14,-7.28448334638698292e-19,1.51788304147970621e-18,9.75781955236953991e-19,-7.93451985123442364e-32
0.03,31.222185999409362,131.010384001586402,3.00018176030779937,18.6493779029494604,-0.000129237623237530007,10.7928899806483045,-1.97644583900689674e-05,3.34983967390763571,180.342193598546658,0.0785672533977095078,0.0490694047558625918,69.9999999976775626,-4.2497891361524094e-12,113.699999994705607,0.00377978965327356543,15.2880000000000003,0,0,0.000230888677896110966,2.88330015245363835e-17,-7.25223402354589416e-10,1.08188208080271277e-11,1.51197624781400831e-13
0.04,31.2221859959356287,131.010384010943454,3.00162780953569674,9.74253989061216075,-4.88763086122285772e-05,51.6475445943311158,1.54548216767323456e-06,3.34965665682309899,548.635972453807767,0.346420694310776434,0.171860503977579737,70.0000000036447574,-2.28205307288861013e-11,113.699999999565534,0.0734838809649275282,15.2880000000000003,0,0,0.00101804013696402693,1.80009747884589399e-15,-1.58734069119923437e-08,2.61929145365345784e-11,1.45916869803439425e-11
0.05,31.222185985910329,131.010384038045004,3.00715844163023283,5.5769968489095687,-4.21135943534799539e-06,75.3242160169835273,4.73080294831520123e-05,3.34902689347595528,761.698429882464552,0.947854334293939504,0.409211128642743283,70.0000000010935537,-1.04766136577077691e-10,113.700000013612069,0.55013262299765131,15.2880000000000003,0,0,0.00278549703395658196,1.95473045844392346e-14,-1.13584749331540247e-07,4.14067569904437612e-11,2.85688606727574374e-10
0.06,31.222185966868647,131.010384089593572,3.01868664272593046,4.48500474963244322,2.31139019787050305e-05,56.3605563030587007,9.71465785775115924e-05,3.34799244711343214,590.487539073720654,1.60618980149218604,0.665693519146445256,69.9999999197690244,-2.82941102348924619e-10,113.700000040305838,1.57971028663545732,15.2880000000000003,0,0,0.00472017413217633904,1.01936766184118274e-13,-4.07864410983111553e-07,5.76522069423461223e-11,1.73837509686130208e-09
0.07,31.2221859390775336,131.010384164863126,3.03600551209402658,4.00448286551149391,4.63712119495135773e-05,85.8192455386477917,0.000147926970097503541,3.34656708333141317,855.293774977913927,2.27788210706903049,0.926660947343454056,69.9999996219982279,-5.49831570978999292e-10,113.700000079276109,3.1772067926123353,15.2880000000000003,0,0,0.00669410445039518576,3.35900025920073467e-13,-9.92070622953462368e-07,7.83315922772719921e-11,5.99658406989250883e-09
0.08,31.2221859009658012,131.01038426812616,3.06033476575187802,3.77263127792190334,7.06371256062416025e-05,17.6076228145981588,0.000196957592070898702,3.34480227118667583,241.217198863884818,2.92612482887636283,1.17954495655796454,69.9999989088305909,-9.15694670892462832e-10,113.700000132739973,5.24285298735243899,15.2880000000000003,0,0,0.00859912396431777512,8.49635706706491564e-13,-2.01744800413265681e-06,1.10032289818440005e-10,1.56647792516492608e-08
0.09,31.2221858556197738,131.010384390989856,3.0892797608365723,3.74258231141200604,9.5325675231994802e-05,53.4176180048964397,0.000237730218002333866,3.34289666486112669,563.093737704317618,3.46187703891102627,1.39384941462988121,69.9999975134546446,-1.31671842773002699e-09,113.70000019638816,7.33844512707370811,15.2880000000000003,0,0,0.0101735644468633635,1.80613395740032365e-12,-3.4856561047658452e-06,1.59232278560273843e-10,3.20202005890100843e-08
0.1,31.2221858028175774,131.010384534057465,3.12301320909491364,3.81071421019783685,0.000121971080758598364,50.732831688561788,0.000271545837515448313,3.34090447591365036,538.7437595981919,3.9029133825176725,1.57567038389986336,69.999995157830341,-1.72222432289554893e-09,113.700000270567642,9.32732681847184431,15.2880000000000003,0,0,0.0114696609641860067,3.37914451533694905e-12,-5.48904943388414521e-06,2.34452541412924053e-10,5.68476506314615152e-08
0.11,31.2221857431700727,131.010384695667796,3.16106164078641116,3.84323765504598036,0.000147145408783231387,40.0848474374385688,0.000307099758177995722,3.33859717034531034,442.865639305294906,4.36819921201157246,1.76578242121538631,69.9999915253729768,-2.07703942468805025e-09,113.700000354470319,11.6837607126815346,15.2880000000000003,0,0,0.0128370221364947634,5.76365694334259916e-12,-8.08162139954488366e-06,3.4437809457680147e-10,9.36754562129998513e-08
0.12,31.2221856770245907,131.01038487487628,3.20315617196047642,3.86558564807459826,0.000171348089099210797,43.7480799143332604,0.000342946594964391399,3.33600966231316054,475.585948135404465,4.83801864946757032,1.95742650583495204,69.9999862600106582,-2.3147200577597177e-09,113.700000447673773,14.3321420062794882,15.2880000000000003,0,0,0.0142177082532951912,9.17772063248746377e-12,-1.13223702306849879e-05,4.98555567062495836e-10,1.45354343598177095e-07
0.13,31.2221856047215205,131.010385070757366,3.24903338361815308,3.95285669440916232,0.000198169826234992146,48.2585391180499741,0.000371981107240517913,3.33344523512332414,515.915632623689476,5.21512035057569623,2.1172615234944101,69.9999789703044399,-2.35265113573284059e-09,113.700000549782459,16.6533950244453948,15.2880000000000003,0,0,0.0153259223232261182,1.38588880633063252e-11,-1.52681962163171846e-05,7.07166414280215559e-10,2.11287244421402401e-07
0.14,31.2221855263490333,131.010385283071088,3.29862557546706325,3.99981420118284792,0.000223008237377726162,44.9721767850953427,0.000403855591455553264,3.33052592490198407,486.239086056840392,5.63167615200940475,2.29059513099545553,69.9999692426645623,-2.0964169591742506e-09,113.700000660771011,19.4199179783547713,15.2880000000000003,0,0,0.0165500839355928395,2.00553635588333716e-11,-1.99811439493909854e-05,9.81252131659242702e-10,2.9859131057555361e-07
0.15,31.2221854420015994,131.010385511560628,3.35186028506811029,4.05975476911301225,0.000248539990764711958,43.4637160193537753,0.000433543226731567866,3.32747422849243879,472.54218587214001,6.01888316560526437,2.45383766868271946,69.99995661705006,-1.43188768134039915e-09,113.700000780625842,22.182048585914238,15.2880000000000003,0,0,0.0176879988684610287,2.80404916713566325e-11,-2.55291719775422389e-05,1.33309260321839681e-09,4.07727088477750495e-07
0.16,31.2221853515819241,131.010385756490507,3.40881389436676407,4.08854462484130732,0.000272210944932510383,34.4023069357135967,0.000465877824565354701,3.32404684464906053,391.12189082975641,6.44303061809316624,2.62971580822363071,69.9999405987561403,-2.27841984783363582e-10,113.700000909623355,25.4183784408083007,15.2880000000000003,0,0,0.0189344747787753703,3.81042963600432359e-11,-3.19913711614788564e-05,1.77662362644707755e-09,5.46937370926295155e-07
0.17,31.2221852554099399,131.010386016990765,3.46923909377793649,4.13347468842419552,0.00029684158695823977,43.4155809381403728,0.000495744973995866601,3.3205135250562221,471.78125980632376,6.83404379119085981,2.79420112365087148,69.9999206448319882,1.67575894446247236e-09,113.700001047478835,28.5969980778046526,15.2880000000000003,0,0,0.0200835795555658371,5.05622819343119236e-11,-3.94162603380559734e-05,2.32482468580976756e-09,7.14768170397066036e-07
0.18,31.2221851530022434,131.010386294375877,3.53351204963262022,4.16207877285686756,0.000320492787063832857,36.2151660219171347,0.000526966735016640565,3.31665933612355879,407.101567211914528,7.2444022294323478,2.96528531587496236,69.9998961790314524,4.45070668055043651e-09,113.700001195059045,32.1341903991183955,15.2880000000000003,0,0,0.0212895378539265934,6.5741708189353534e-11,-4.79243856484647045e-05,2.99669991322666987e-09,9.21230820748327094e-07
0.19,31.2221850444828668,131.010386588308563,3.60153760019172342,4.17456309251139679,0.000342914278589344943,40.9041800427263027,0.00055982867240863632,3.31244583927210501,448.953132831826849,7.67810673790947895,3.14433961722118216,69.9998665624008964,8.30674092292676784e-09,113.700001352409558,36.0967170721845179,15.2880000000000003,0,0,0.0225641073333706747,8.40032927522686365e-11,-5.75836346763551867e-05,3.80911503044151526e-09,1.17316671380156179e-06
0.2,31.2221849296486234,131.01038689934137,3.67347464118590317,4.20078915399145636,0.000366573034254704516,37.5214898208491761,0.000590466919182690893,3.30812712915434881,418.515630199161365,8.08216006412957277,3.31318683933006453,69.9998311045104487,1.34800080829191884e-08,113.700001520067786,39.9955165273270055,15.2880000000000003,0,0,0.0237515420632470921,1.05728805481567758e-10,-6.85028882131185225e-05,4.78351733027568889e-09,1.4690610466811608e-06
0.21,31.2221848088436893,131.01038722653837,3.74905730552401684,4.22722562033261262,0.000390310433246848657,36.0064697775761644,0.000620601272787201603,3.30359776763142721,404.818761014464428,8.48018829437500621,3.47992805775657654,69.9997890742529592,2.02433263776548733e-08,113.700001697833756,44.0315784885794201,15.2880000000000003,0,0,0.0249212734096428447,1.31320595517854955e-10,-8.07208291683553139e-05,5.93661589182972911e-09,1.81631626331753899e-06
0.22,31.2221846819136672,131.010387570319409,3.82840670130281646,4.2176244726165093,0.000410696285369717819,43.5935627685881499,0.000655758920494764063,3.29841875767922987,472.542185872136486,8.94831461811120121,3.67066782999472752,69.9997397083127737,2.88926538075102191e-08,113.700001886238866,49.0266756129506618,15.2880000000000003,0,0,0.0262970098082033268,1.61186003536399267e-10,-9.43348117723774896e-05,7.29106197993283208e-09,2.23980539128825791e-06
0.23,31.2221845484548304,131.01038793178239,3.91183756115468473,4.25320537954326383,0.0004356497720089569,36.207459360748949,0.000683686922722525747,3.29355466128287455,406.340642146102141,9.31799902525197865,3.82760028360492655,69.9996821549030983,3.9766623706965518e-08,113.70000208621326,53.1608354775167555,15.2880000000000003,0,0,0.0273834518362109196,1.95767624418301473e-10,-0.000109505708778552874,8.87784718088286285e-09,2.70740355927931971e-06
0.24,31.2221844093456014,131.010388308538637,3.99866964940866776,4.27135264557773553,0.00045883378920767232,37.3286080087975947,0.000713911697673520317,3.2882529474867046,416.232824001711379,9.7203332459195213,3.9956861712714935,69.9996155408946805,5.32509871046438109e-08,113.700002296918697,57.8502398901668755,15.2880000000000003,0,0,0.0285658473732890855,2.35534745143307651e-10,-0.00012617657385590063,1.07071802425012536e-08,3.25424194465518317e-06
0.25,31.2221842644570167,131.010388700938847,4.08900446593793809,4.29698686981540234,0.000482848983334858658,38.3649566400252979,0.000742483922667206905,3.28284626589867479,425.364080791506922,10.1009615935159527,4.1562806652626314,69.9995389781877293,6.97479781374676735e-08,113.700002518962805,62.4689963611702623,15.2880000000000003,0,0,0.0296844577155840929,2.80933085873043406e-10,-0.000144451636124542286,1.28055329635332884e-08,3.87142965072796435e-06
0.26,31.2221841140756986,131.010389108203611,4.18262110402873155,4.32755423691547136,0.000507438991606541483,41.7865661614553829,0.000769736419800412888,3.27732087646770287,455.80158342417883,10.4644497354123782,4.31094871887776954,69.9994515368878751,8.97024502886333285e-08,113.700002752408935,67.0452443356678742,15.2880000000000003,0,0,0.0307527002093570291,3.32431765373287754e-10,-0.00016436315770221847,1.51925047864838523e-08,4.56355359993810651e-06
0.27,31.2221839578137299,131.010389531387915,4.27982215321117465,4.33742811840656994,0.000529702335486379188,38.2242911032538473,0.000800211178185602123,3.27123004841987974,423.842199659872563,10.8736118498261902,4.48123226393084195,69.9993522521519935,1.13587393208351198e-07,113.700002998306658,72.3900346549699947,15.2880000000000003,0,0,0.0319551720828357214,3.90484337603431509e-10,-0.000186059811616844751,1.79019946498730075e-08,5.36790267753501075e-06
0.28,31.2221837957695953,131.010389970223883,4.38053283172365671,4.35979025650862262,0.000553527510562852902,44.1207307275094038,0.000828072271385077072,3.26514386100193477,476.346873201222195,11.2478718916014184,4.63949182586423614,69.9992400702920463,1.41938296327408329e-07,113.700003257081931,77.4582454645660761,15.2880000000000003,0,0,0.0330550782151640757,4.55595825375374429e-10,-0.000209619220926101062,2.09616181379585756e-08,6.25569396794615011e-06
0.29,31.2221836278828384,131.010390424876022,4.48480177698289584,4.38135974025744623,0.00057737648726709299,35.3536197607625553,0.000855659611391794222,3.2588361863853601,397.970310422111766,11.6195889013503368,4.79682445966682813,69.9991139044831527,1.7532937395312496e-07,113.700003529427192,82.6616578528940948,15.2880000000000003,0,0,0.0341475147840558241,5.28268525040872464e-10,-0.000235137545717689308,2.44023887909330158e-08,7.24907222782668121e-06
0.3,31.2221834544381096,131.010390894570321,4.59240982688131272,4.39617507281761988,0.000600356665334356751,33.1490797613948018,0.000884158719714270942,3.25217107922164672,378.185945710871067,12.0052186882677852,4.95887519756831807,69.998972627127344,2.14383684192303281e-07,113.700003815596887,88.2385269149682756,15.2880000000000003,0,0,0.0352808420099011907,6.09029939588318471e-10,-0.000262641159892275291,2.82471356422800846e-08,8.36561857411674722e-06
0.31,31.2221832755909574,131.01039137888381,4.7032380575360353,4.42235615181669761,0.000624899913490765827,34.9528590290802086,0.000910025197609511073,3.24555398289468222,394.16562209302117,12.3556398803864607,5.10879227158949156,69.9988150759387651,2.59766173767152649e-07,113.700004116072961,93.4639131761651498,15.2880000000000003,0,0,0.0363107024397255479,6.98403788157463991e-10,-0.000292187019282257228,3.25229566712151178e-08,9.57826248689966157e-06
0.32,31.2221830914257232,131.010391877587324,4.81722282885169673,4.45155794779377789,0.000649944303128982049,38.0379859115142835,0.000934821026682707218,3.23882361682650144,421.559393462426954,12.6924793110791878,5.25399282922068878,69.9986400687318024,3.12179641788393281e-07,113.700004431478234,98.6283237403037703,15.2880000000000003,0,0,0.0373006526995305274,7.96905013945712519e-10,-0.000323836613651358495,3.72580440687311147e-08,1.09050644159405278e-05
0.33,31.22218290196043,131.01039239063175,4.9343519698327194,4.48019701204722054,0.000675004219851668761,37.7093551175013246,0.000959261610436717115,3.23189933669563656,418.515630199168186,13.0256844327599097,5.39788776638052958,69.9984463826819052,3.72372687880250348e-07,113.700004762578004,103.87354288045799,15.2880000000000003,0,0,0.0382799263433428877,9.05047894999210997e-10,-0.000357667290238851605,4.24836225249657193e-08,1.23603484615852587e-05
0.34,31.222182707020778,131.010392918491164,5.05476263450916541,4.49049305198152204,0.000697378143373914754,29.5227085089536203,0.000987142430045659337,3.22427911658814059,345.465636880756449,13.4081741031825317,5.55863100914667463,69.9982327456812641,4.41143957445642244e-07,113.700005110463266,110.062177258613033,15.2880000000000003,0,0,0.0394040418267209702,1.02333461745717641e-09,-0.000393806243978271305,4.82396483202145133e-08,1.40087103268591529e-05
0.35,31.2221825067937928,131.010393460657156,5.17831168393457641,4.50711781535187139,0.000720712543856854714,32.3530371383660977,0.00101333646443235357,3.21661305844837253,370.576570052703289,13.7686530554979374,5.71176159517965232,69.9979978091806316,5.19362042776584697e-07,113.700005475786654,116.058400304168075,15.2880000000000003,0,0,0.0404634764462946869,1.15232390415689195e-09,-0.000432299813734132244,5.45552399130644805e-08,1.57912776608867467e-05
0.36,31.2221823012122108,131.010394017312592,5.30505329869157727,4.52767240178778962,0.000744729708600240731,36.5526511043957356,0.00103828652712813154,3.20885713174522058,407.862523277719447,14.1132764952183631,5.85938873702120233,69.9977401961163537,6.07939829707116331e-07,113.700005859608282,121.939407863977465,15.2880000000000003,0,0,0.0414763190843316643,1.29254043868676357e-09,-0.000473255972436325862,6.14699225552327593e-08,1.77198251922661022e-05
0.37,31.222182090341061,131.010394588280832,5.43493909097431604,4.55039311415752579,0.00076918150115683735,34.6835787828593496,0.00106234372950533948,3.20097384516078431,391.121890829766642,14.446930470491731,6.00318739776240751,69.9974584775585669,7.0785096329375243e-07,113.700006262864989,127.771540530283914,15.2880000000000003,0,0,0.042456928843506235,1.4445318520011827e-09,-0.000516746496826029863,6.90186481791334769e-08,1.98053803654614999e-05
0.38,31.2221818741223878,131.010395173719473,5.56801609611825477,4.56315131642791805,0.000792019287104061913,36.2353933787001239,0.00108827974821363053,3.19255015153205646,404.818761014460279,14.8084413239345949,6.1564787166299757,69.9971511865591651,8.20121521966083772e-07,113.700006686723384,134.244380272309172,15.2880000000000003,0,0,0.0435194095147296359,1.60882660749176723e-09,-0.000562873331420229127,7.72423853301427293e-08,2.21128406351508731e-05
0.39,31.2221816525004634,131.010395773780147,5.704329739781131,4.57922628245169783,0.000815489716137310881,30.9425419640016202,0.00111309493143926189,3.18402316666385765,357.640624933827439,15.1559126959619999,6.30488433186772657,69.9968167722787769,9.45855271408966431e-07,113.700007132429306,140.616382889747683,15.2880000000000003,0,0,0.0445406353688629561,1.78596578656278109e-09,-0.000611756345505213715,8.61868943159197994e-08,2.45968452142520012e-05
0.4,31.2221814256617982,131.010396387955836,5.84373750626454935,4.59349479979191955,0.000838670682925170751,29.5834243852937959,0.00113797512888990423,3.17521289611434332,345.465636880754005,15.505969085398343,6.45410901523083158,69.9964536498379317,1.08621525395706341e-06,113.700007600947828,147.185065961143067,15.2880000000000003,0,0,0.045569462889951777,1.97653506559195414e-09,-0.000663427505461186432,9.58835144134294998e-08,2.72901174189528038e-05
0.41,31.2221811937141673,131.010397015953487,5.98615797249314241,4.60939449845229365,0.000862163931524819621,33.360545626359837,0.00116210409424792778,3.16624854525325983,378.946870776686467,15.8471768437686258,6.60022848408685459,69.9960602026584695,1.24241947051318175e-06,113.700008093413757,153.73182724817184,15.2880000000000003,0,0,0.0465722905345462151,2.18109996727848554e-09,-0.000717942131686907965,1.06367950505874699e-07,3.01820283711074823e-05
0.42,31.2221809567080335,131.010397657635991,6.13155423418529733,4.63387609959193458,0.000887317919769279608,37.5676427387571721,0.001183742077125155,3.15743374731593907,416.232824001711379,16.155026338188506,6.73482947265292431,69.9956347739890248,1.41574639558456e-06,113.700008611107208,159.760443802515937,15.2880000000000003,0,0,0.0474770882933877245,2.400206535531791e-09,-0.00077537935552726017,1.17680930846389008e-07,3.32294321368729263e-05
0.43,31.222180714655078,131.010398312971745,6.27991949833728835,4.65367427313455995,0.000911660169575580258,33.0386483003103493,0.00120612360190941372,3.14823214930187856,375.903139513433644,16.4750454055619109,6.87353555569934649,69.9951756835756242,1.60752723178871754e-06,113.700009155418982,166.15023929888028,15.2880000000000003,0,0,0.0484176551665520677,2.63438237315801404e-09,-0.000835821567166909188,1.29864614855892046e-07,3.65287677570896608e-05
0.44,31.2221804673911407,131.010398982407111,6.43138341412837455,4.65757387742934892,0.000932929976641759203,30.4788052564327749,0.00123214974254881528,3.13809943757763454,353.075012538921555,16.8483715860516412,7.03046484016701978,69.9946811832270441,1.81916859536649675e-06,113.700009728069276,173.762989227436179,15.2880000000000003,0,0,0.0495148886868988364,2.88411342836306464e-09,-0.000899417740154189794,1.42975581697416844e-07,4.01983191819108926e-05
0.45,31.2221802146980103,131.010399666535704,6.58611776122768511,4.65827001030579346,0.000953562143933252499,35.4620561517945134,0.00125873275223327787,3.12754579585638304,397.209385356286873,17.2316459864824161,7.19073264961644831,69.9941493995125938,2.05218870761162579e-06,113.700010330973456,181.755888424112015,15.2880000000000003,0,0,0.0506413642318551335,3.14987863732273609e-09,-0.000966369542842942814,1.57083782729145849e-07,4.41725079750487196e-05
0.46,31.2221799565319174,131.010400365476642,6.74415901717088939,4.66907507286434065,0.00097630283571516251,41.3913707355688842,0.0012823814722795761,3.11722412848720953,449.71405889764344,17.5754687869478978,7.33738035579407555,69.9935783582983362,2.30821229426708146e-06,113.700010965912341,189.078525726536213,15.2880000000000003,0,0,0.0516519027755614896,3.43223060675433133e-09,-0.00103681314204437207,1.7224885851047691e-07,4.83373548649469587e-05
0.47,31.2221796928065203,131.010401079464799,6.90557672428163105,4.67806301106434042,0.000998761260684927557,28.0209900204918974,0.00130616618884544979,3.10657060381263461,331.007810630253402,17.9233234115620377,7.48533101007974988,69.9929660462147325,2.5889364060732201e-06,113.700011634803886,196.634049649816575,15.2880000000000003,0,0,0.0526742959306323727,3.73170463860384924e-09,-0.0011108841623615434,1.88532207060213475e-07,5.28148505664365441e-05
0.48,31.2221794239793269,131.010401807256216,7.07001851744381948,4.68642527483421745,0.00102109091231145262,27.6007969606275125,0.00132978852885184593,3.09563681785184297,327.203122301157407,18.2709832353803314,7.63313726727991071,69.9923104035261474,2.89614261094227829e-06,113.700012338884164,204.33305198470137,15.2880000000000003,0,0,0.0536961221459722679,4.04904859899578719e-09,-0.00118849531779471017,2.05948560519311644e-07,5.75998398329450787e-05
0.49,31.2221791502289392,131.010402548365278,7.23734841566291642,4.70156796398202914,0.00104489945272251677,34.6487244505178253,0.00135120419031512233,3.08484494341801163,389.60000969812296,18.589315545984995,7.7707981814672209,69.9916093757078812,3.23165731652504743e-06,113.700013079832303,211.511801733856089,15.2880000000000003,0,0,0.0546317638991248022,4.38486615800834454e-09,-0.00126967773493266863,2.2453662401782158e-07,6.26054017926546362e-05
0.5,31.2221788715876762,131.010403302704333,7.40754387012007864,4.72212438923579736,0.00106996435823571525,35.6033845714535389,0.00137072557486675028,3.0741588573465477,397.970310422105001,18.8826594549893159,7.8998011517407587,69.9908609011483378,3.5973597360057951e-06,113.700013859590555,218.236320199079358,15.2880000000000003,0,0,0.0554939729313439212,4.73968531279909998e-09,-0.00135450679800636423,2.44344941868023912e-07,6.78409867869358833e-05
0.51,31.2221785881337617,131.010404070060673,7.5805467220577798,4.73558879650721298,0.00109346949398930206,27.1956639286467201,0.00139183542187690463,3.06284319292573448,323.39843497208409,19.200774511812984,8.03722958125224807,69.9900628955037689,3.99519228958782199e-06,113.700014680103109,225.647740475438098,15.2880000000000003,0,0,0.0564289867670437692,5.11403675587933804e-09,-0.00144303978709531136,2.65418546512062939e-07,7.34915902759761199e-05
0.52,31.2221782998674264,131.010404850463857,7.75636795277497626,4.74575656757034103,-7.31248016930203804,32.7537627487099599,0.419859657815482679,3.05096166624659038,372.098451184341457,19.6874088919211054,8.17731047612281259,69.9892128712149599,6.58698639781494765e-06,113.700017842098987,237.226545663045528,15.2880000000000003,0,2.50644307058047655,0.0578592670106701443,5.5088191854079998e-09,-0.00154119119287028715,-6.93760348672710792e-07,8.04782159258217759e-05
0.53,31.2221780064376375,131.010405644169253,7.93511635314027775,4.75646494287654242,-7.20961793526374706,34.3969104512001849,0.430744761049906999,3.03900109625872927,386.55624643486243,20.0088596024997365,8.31638373890122118,69.9883059219757655,-9.95611164008216979e-05,113.699905283911406,245.032325683935426,15.2880000000000003,0,2.51597451956732243,0.0588040961156032216,5.88606070894292263e-09,-0.00163754253051649691,-0.000149767395631459157,8.69041931034584013e-05
0.54,31.2221777076106335,131.010406451363906,8.11686563778491355,4.76693682643216032,-7.11031124710417739,30.1941783395186576,0.441757850870573177,3.02678393574914395,349.270324209843579,20.3284485662718915,8.45471310668714615,69.9873427168283513,-0.00044294068944696947,113.699540256008149,252.917918913623055,15.2880000000000003,0,2.52548585416132765,0.0597434595494691842,6.20030570167847761e-09,-0.001738040680681685,-0.000302715572694789762,9.37092365550857615e-05
0.55,31.2221774036365041,131.010407271330621,8.30141520722257376,4.77852011066968618,-7.01626515573251197,32.0093436966272122,0.452769347966276769,3.01440445132459311,365.250000591990727,20.6405143483084323,8.59034335933956505,69.9863208834078279,-0.0010295064882054842,113.698916417380701,260.738080486474985,15.2880000000000003,0,2.53496139718281954,0.0606607187603028439,6.45259765081411768e-09,-0.00184265265281760137,-0.000459379260532273266,0.00010087290388318166
0.56,31.2221770945124319,131.01040810405712,8.48876513260850629,4.79218098823981276,-6.92858401765801446,29.8677266279442115,0.463676415297626598,3.00194340714490782,346.226561946578727,20.9407025323747469,8.72176870389874104,69.9852380310122015,-0.00186510965227391998,113.698027537243561,268.372564064304186,15.2880000000000003,0,2.54440140487297262,0.0615430764104903036,6.64390218525656609e-09,-0.00195148731312292929,-0.000619814644291032525,0.000108382633188791445
0.57,31.2221767803023944,131.010408949349966,8.67886381952333252,4.8033648765191872,-6.84053847185898434,29.5321280837208811,0.474920088617015401,2.98906617707981903,343.182829683302316,21.2484936693101467,8.855730449131622,69.984091727160191,-0.00295559373519476906,113.696867392344132,276.314699017203793,15.2880000000000003,0,2.55380543132664961,0.062447784254369379,6.77533181923424153e-09,-0.00206460643423774393,-0.000784007415799544945,0.000116348346371503017
0.58,31.2221764609826309,131.010409807254518,8.87172779143818246,4.80909663504496798,-6.7479829319534792,38.924709091782411,0.486823059674954317,2.97551396020071435,426.12500585731533,21.5773985387154532,8.9969007103323726,69.982879483494699,-0.00430685069958579823,113.695429707555022,284.929762683229683,15.2880000000000003,0,2.5631727293595703,0.0634145498210302583,6.84799356535088061e-09,-0.00218212409689146243,-0.000952018779311281094,0.000124872060027200001
0.59,31.222176136175495,131.010410678777703,9.06764785341241186,4.82049994942998339,-6.66632397352899986,31.5300513804591489,0.498264946333552172,2.96215745568269551,360.68438819711065,21.8785608101516509,9.12837359258690562,69.9815986703924864,-0.00592514999033138916,113.693707805983621,292.933459434382598,15.2880000000000003,0,2.57251718882276226,0.0642997879703045006,6.86267950713104007e-09,-0.00230439321651870971,-0.00112424279041089723,0.00013370692969094479
0.6,31.2221758060740129,131.010411563374703,9.26647240217229751,4.82272775189734837,-6.57503200954111922,28.0076507072765892,0.510789970135726912,2.94777728339460632,329.48595949860578,22.2182388302172562,9.27306910340059964,69.9802465900246631,-0.00781683880679765776,113.691694926615142,302.09424365649943,15.2880000000000003,0,2.58182923472464898,0.0652982279154712408,6.82074192390652633e-09,-0.00243140155761784309,-0.00130055200987800462,0.000143263846607827463
0.61,31.2221754706294803,131.010412461158069,9.46823730514495132,4.82322348843155879,-6.48437422669544983,32.8416582047230818,0.523657003523615661,2.93294530398791098,372.09845118432969,22.5639388883440972,9.41974602300190966,69.9788204582189621,-0.00998841001788134362,113.68938415313913,311.562086690074068,15.2880000000000003,0,2.59110988652096008,0.0663143730304663892,6.72335155096272122e-09,-0.00256329793421488598,-0.00148104554409081261,0.000153382522050851634
0.62,31.2221751299439383,131.010413371830225,9.67286157329449559,4.83685382993453494,-6.41379764641709293,40.8670629167144739,0.535212456356238597,2.91900487998336811,442.86563930529212,22.8466149769466931,9.54453120530666332,69.9773174031209493,-0.0124464975260420285,113.68676841828065,319.411072055338423,15.2880000000000003,0,2.60035859438343886,0.0671452999837756914,6.57180093672129887e-09,-0.00270015912984323007,-0.0016657228080102194,0.000163592941375204271
0.63,31.2221747838442987,131.010414295843503,9.8804778114836882,4.8458921993754247,-6.33953419122284423,23.1166978263015821,0.547383990040873791,2.90440222133117842,286.112512747078938,23.1475570688085739,9.67553238871288457,69.9757345351907389,-0.0151974764706528844,113.683840932665902,327.874702567718657,15.2880000000000003,0,2.60957677267294619,0.0680299162567762905,6.36737116179426715e-09,-0.00284219508868211552,-0.00185475610890311043,0.000174463157710489253
0.64,31.2221744328658843,131.010415231723073,10.0906693960915668,4.8478018700495511,-6.25839766537430187,22.6917795727780778,0.560496323904105087,2.88884777134135495,282.307824417967538,23.4796920513761549,9.81722606025359745,69.9740690090644932,-0.018247799673711023,113.680594814133897,337.344481606254476,15.2880000000000003,0,2.61873816998842956,0.0690062137834021178,6.1118667778509877e-09,-0.0029891395191170133,-0.00204769164978406285,0.000186112052182661427
0.65,31.2221740769875851,131.010416179508724,10.3034513392950302,4.85941418467981112,-6.19191620287165811,40.2117473882270744,0.572604970758803677,2.87396211498612386,436.778144778747503,23.7629807130354536,9.9419383479746184,69.9723178664126095,-0.0216037333415440985,113.677023387536892,345.526828836006359,15.2880000000000003,0,2.6278668661833553,0.0698389595544990083,5.80669121175552143e-09,-0.00314113984501196474,-0.00224462727358646242,0.000197931642506375726
0.66,31.2221737157403254,131.010417140460049,10.5191861605683439,4.86817016665048108,-6.12385286457795974,34.1818858202161024,0.585161585427798503,2.85853583868687977,383.512515171600171,24.0569873255621509,10.0702561564623831,69.9704781207513946,-0.0252716088010763035,113.67311990544323,354.122421408065691,15.2880000000000003,0,2.63695411387845269,0.0707032116137571581,5.45304792724847715e-09,-0.00329864486578369202,-0.00244603812600131419,0.000210423793325347636
0.67,31.22217334929082,131.010418114105278,10.7377432196473084,4.87059699288118519,-6.04997782477540902,23.4868111046359438,0.598618772164881685,2.84217038882545436,289.156244010342505,24.3793039991203209,10.2082628048372435,69.9685466093808799,-0.0292581920895016202,113.668877155951435,363.6674551320246,15.2880000000000003,0,2.64600138931995454,0.0716506733108829286,5.05254087622886063e-09,-0.00346165009695685892,-0.00265181348739321502,0.000223775945054473593
0.68,31.2221729777902972,131.010419100015184,10.9590040071490886,4.87430438925011522,-5.97974556513716848,29.3652091234505228,0.612067861113366085,2.82563547468482623,340.899992485846269,24.6930440733553311,10.3432080063094691,69.966520087104513,-0.0335702127327493147,113.664287967955133,373.079913527493147,15.2880000000000003,0,2.65501589073821354,0.0725729352423838819,4.60676422187297524e-09,-0.00363017447850611874,-0.00286187720588318905,0.000237685031872235061
0.69,31.2221726013081877,131.010420097983825,11.1829135811334801,4.88331081422295199,-5.91778483698680091,36.1969828146385879,0.624966903626007708,2.8094043435693723,401.014072685363431,24.9776481832659094,10.4679868839905144,69.9643953989729823,-0.0382143147018237581,113.659345251986039,381.721265267533283,15.2880000000000003,0,2.6639784771830568,0.073409573066520864,4.11729828756043827e-09,-0.00380427897993080308,-0.00307620721714484992,0.00025194994398518197
0.7,31.2221722197153824,131.010421108346975,11.4095711761765735,4.89152229546464667,-5.85657413245215697,30.3310600355426878,0.638082067647679274,2.79281603556141622,349.270324209852845,25.263310327602472,10.5930344856715912,69.9621692508571726,-0.0431970321217388792,113.654042043286253,390.493966031214313,15.2880000000000003,0,2.67289740489664851,0.0742493270021357676,3.58569406786368901e-09,-0.00398418552676234588,-0.00329497505334133776,0.00026687673887654164
0.71,31.2221718330573133,131.010422130964969,11.6389406765242178,4.89549233356628033,-5.79204904675238019,24.894050084751477,0.651890000533129399,2.77544314668302938,301.331264063405797,25.5678953806014135,10.7245266595808797,69.9598382478031482,-0.0485250549151648586,113.648371209892005,399.957835300454178,15.2880000000000003,0,2.68178111179845979,0.0751447024457538859,3.01359170209086801e-09,-0.00416997327892246368,-0.00351817630276794876,0.00028268293943302592
0.72,31.2221714413318736,131.010423165827632,11.8710228912933626,4.8944742814902984,-5.72343029578250739,30.520477955353492,0.666530850065391256,2.75714334412250883,350.79220534145287,25.8960102724294075,10.864055945740871,69.9573990096641154,-0.0542052287934169444,113.642325444417835,410.279942922540215,15.2880000000000003,0,2.6906239467131563,0.076109239833848194,2.40257693792910723e-09,-0.00436177978707872911,-0.00374587668811019337,0.000299473405549061425
0.73,31.222171044532061,131.010424212937721,12.1058223954021766,4.90365574933248105,-5.66821587173716335,38.6577336883113958,0.679901562409948146,2.7398071845396319,422.320318528233997,26.1683219444042763,10.9841985645356708,69.9548479132269989,-0.0602446171318904503,113.635897215031392,418.944530778457079,15.2880000000000003,0,2.69941464878870319,0.0769097766732257798,1.75422050089217335e-09,-0.00455976246580011655,-0.00397816383949227761,0.000316351551163991272
0.74,31.2221706425957457,131.010425272450192,12.3433868671769353,4.90889206255703403,-5.60995584443510253,24.1344964190579816,0.693947975666285966,2.72168608288227931,294.482813471059444,26.4584923116540409,11.1104161503891667,69.9521813600707674,-0.0666500159874192782,113.629079273233259,428.277299219042675,15.2880000000000003,0,2.70817109407649248,0.0777628077605986151,1.07018948150100707e-09,-0.00476407709941807558,-0.00421511741118521174,0.000334184145019663227
0.75,31.2221702358518236,131.010426343453247,12.5834604990531744,4.91143627656370807,-5.55012072064115269,28.2076862289785524,0.708523813496288013,2.70289906403242952,330.246885564414924,26.760453074391517,11.2406174452783478,69.9493957898308594,-0.0734282908082555252,113.621864286177171,438.09851484149425,15.2880000000000003,0,2.71688402045402988,0.0786504982916033935,3.52163527888969688e-10,-0.00497454497881273661,-0.0044564345375460333,0.000352922038301137903
0.76,31.2221698241940437,131.010427426222748,12.8261253671785642,4.91729295178309123,-5.4953933385621232,30.37875231066905,0.722748724996227332,2.68425480247891013,349.270324209861712,27.0419368989282383,11.3636455258825002,69.9464874568716795,-0.0805862080827093735,113.614245036862329,447.352971402409764,15.2880000000000003,0,2.72554936049975449,0.0794780129027517906,-3.98223920134474323e-10,-0.00519140800432818864,-0.00470229715159449762,0.00037217293869086862
0.77,31.2221694075654241,131.010428520900746,13.0714254108626573,4.92362357765559722,-5.44247590040397355,28.394939766382997,0.737026392415957909,2.66538242793186519,331.76876669607077,27.3179465660836982,11.4846855787461699,69.9434526421664344,-0.0881306222627480235,113.606214204794597,456.520840560288036,15.2880000000000003,0,2.73416302440569803,0.0802894454836897281,-1.17932466683944373e-09,-0.00541485187236937122,-0.00495281722028819132,0.000392144597002321309
0.78,31.2221689860220408,131.010429627320974,13.3193168852200348,4.92621642158771511,-5.38675394027596344,23.2921577008898595,0.752008897197514625,2.64566637519046255,286.873437812889904,27.6117152020447669,11.6117712622790279,69.940287567285651,-0.0960684037357827925,113.597764450232361,466.381094982488946,15.2880000000000003,0,2.7427360526108755,0.0811530799835169375,-1.98949716887937274e-09,-0.00564493660180568398,-0.00520796411644796221,0.000413193726659263536
0.79,31.2221685596417338,131.010430745257821,13.5697392015370024,4.92651216410805137,-5.32984628086582646,33.1742881669126959,0.767505381612579085,2.62527382430123168,373.620332315953419,27.915786509312511,11.7423270375739008,69.9369882504291382,-0.104406472027543856,113.588888388309172,476.698142527412756,15.2880000000000003,0,2.75126667349926901,0.0820470021323204401,-2.82712065474748303e-09,-0.00588171785529921498,-0.00546770449576999135,0.000435256110665976947
0.8,31.2221681282160688,131.010431875267955,13.8228541593797978,4.93279108566744817,-5.28058439399819335,33.6158473226400218,0.782195001832160397,2.60546730415045369,377.42502064505743,28.1836129832116598,11.8602527625704806,69.93355069214644,-0.113151960491245332,113.579578396689428,485.877176932953262,15.2880000000000003,0,2.75976149670465842,0.0828344047301032005,-3.69052266138597302e-09,-0.00612557837617683405,-0.00573235937593088735,0.000457640057969487435
0.81,31.2221676918364643,131.010433017089525,14.0785908028624824,4.93457364879000426,-5.22767429545112083,21.8352013110086602,0.797742546718983481,2.58464698113454183,273.937492693991885,28.474023887805096,11.9858937061113693,69.9299708141936378,-0.122311930426958995,113.569826930069851,495.929783053809217,15.2880000000000003,0,2.76820355817733743,0.0836881923491854807,-4.57811208243169695e-09,-0.00637652903480343328,-0.00600184045308413579,0.000481285508298199942
0.82,31.2221672506740155,131.010434170242775,14.3368163292675206,4.93427675681376954,-5.17374002789156595,28.0834537318959683,0.813792857765193389,2.5631431315724349,328.725004432770049,28.7738408060750572,12.1146972141692348,69.9262444752245784,-0.131893431319324156,113.559626453638728,506.415982668882464,15.2880000000000003,0,2.7765975472824822,0.0845696326275759552,-5.48837074520872915e-09,-0.00663452034153317119,-0.00627599910362218721,0.000506018267280088693
0.83,31.2221668047097793,131.010435334767891,14.5975456396114822,4.94134617122553799,-5.12854352117693413,35.7227457219072377,0.828740636322650714,2.54252790181005883,395.68750322465047,29.0283775786728597,12.2277473717094232,69.922367452489965,-0.141903550645923054,113.548969390337874,515.4023367410947,15.2880000000000003,0,2.78495050745947914,0.0853179965011172797,-6.41969660425205889e-09,-0.00689973615361417179,-0.00655493619587419786,0.000530888357659169184
0.84,31.2221663538424075,131.010436510932294,14.8608579581292037,4.94649020302495845,-5.08234232133008046,22.0237589039024293,0.844133008828146347,2.52129156157776846,275.459374825645227,29.2909638582008363,12.3434867052408581,69.9183355199232324,-0.152349188200977453,113.537848360893292,524.755742948828811,15.2880000000000003,0,2.79326301980469305,0.0860900258545361508,-7.37042470239825521e-09,-0.00717240517026541263,-0.00683879341272461763,0.000556846443444662881
0.85,31.2221658983427481,131.010437697984258,15.126543205287124,4.94492706886868216,-5.03031640153175896,24.0248396545953327,0.860844195407707735,2.4985500970182084,292.960932339393764,29.590205516237706,12.4718197390006136,69.9141443971587933,-0.163237199642635139,113.526256030248746,535.518842399475261,15.2880000000000003,0,2.80152831562539095,0.086969797461197762,-8.33920546168653962e-09,-0.00745232767368583966,-0.00712726888949394635,0.000584474832201806464
0.86,31.2221654380461189,131.010438896364803,15.3947299169919543,4.94772971874724021,-4.98370781932929496,30.1068713135201271,0.876930851733662919,2.47623287005741854,346.226561946558718,29.8609603692582191,12.5902062389480545,69.9097896413877891,-0.174574680570753232,113.514184806524895,545.349789547997375,15.2880000000000003,0,2.80975216520805393,0.0877658498217981781,-9.32433411496400195e-09,-0.00773987890549303423,-0.00742065551018538348,0.000612565654070035682
0.87,31.2221649729722266,131.010440106010805,15.6654034480455309,4.95241383184945327,-4.93987811093104501,28.0300130837967139,0.89280243497767775,2.45393702808892034,327.964078366998024,30.1174615413206688,12.7035690920791993,69.9052667324225325,-0.186368634098405678,113.501627196213988,554.744553747365899,15.2880000000000003,0,2.8179273857838707,0.088520015647407399,-1.03242834907444475e-08,-0.00803517340463285636,-0.00771897305944169426,0.000641382393972209802
0.88,31.2221645031516246,131.010441326829977,15.9385408014351935,4.95357821571004298,-4.89344320211181305,24.2149947594347488,0.90945655258337621,2.43064956170018753,294.482813471041823,30.3921976891215451,12.8231530037803854,69.9005712170080074,-0.19862602610769281,113.488575733748718,564.896829314337992,15.2880000000000003,0,2.82605409591560131,0.0893277842247291454,-1.13376096852409224e-08,-0.0083382815884967109,-0.0080221961467580611,0.000671630928358369229
0.89,31.2221640286574953,131.010442558613164,16.2140858632396778,4.95129432615880738,-4.8445473541297206,26.5662573316493003,0.926916637679267241,2.40633153445533399,315.028134248086985,30.6852751697703852,12.9489993236575049,69.8956983998440649,-0.211353822840673722,113.475022962217722,575.828926756522833,15.2880000000000003,0,2.83413709576990769,0.0901894686620655917,-1.23628901081838298e-08,-0.00864926833616425604,-0.0083302949886008594,0.000703379853005093496
0.9,31.2221635494175551,131.010443801550565,16.4920957883515946,4.95656350047645144,-4.80384390021624341,29.3532134313243169,0.943069293157363209,2.38315369152206191,339.378142354214447,30.9291143305831184,13.0577108182232049,69.8906435367523926,-0.224559202130722391,113.46096118906884,585.001265988853675,15.2880000000000003,0,2.84217950373488071,0.0909064403773683916,-1.33985382852774588e-08,-0.00896839695314035311,-0.00864343509662508086,0.000735108157951082602
0.91,31.2221630654951738,131.010445055461332,16.772522343406969,4.95835854293899025,-4.760580524891739,22.3189831587788419,0.960021656082252095,2.35894845029155231,277.742181023078899,31.1912849175969775,13.1726806517020076,69.8854019468782042,-0.23824901144459909,113.446383069069128,594.944800251290076,15.2880000000000003,0,2.85017890598341994,0.0916772987437570047,-1.44432148568683508e-08,-0.00929570397362728708,-0.00896155485553256671,0.000768374228959091323
0.92,31.2221625770749789,131.010446319831033,17.0552228724972679,4.95677608949192994,-4.71490510308911581,26.5844277567778065,0.977789399272931958,2.33368192929914597,315.028134248062145,31.471722116702832,13.2938949966732398,69.8799687452088989,-0.252430093528179744,113.431281267704946,605.674607015473043,15.2880000000000003,0,2.85813147618078656,0.0925018536849688405,-1.54958122326830756e-08,-0.00963105708422892434,-0.00928443360183482842,0.000803229986224632156
0.93,31.2221620840712859,131.010447594888916,17.3402653408389007,4.9621033951414395,-4.67651242310619786,31.6348301610214264,0.994286810887434314,2.30953944693112456,359.162507065472823,31.7056717080071273,13.3989222665512813,69.8743390614191924,-0.267109316330775781,113.41564841326128,614.695987459410048,15.2880000000000003,0,2.86604136029640122,0.0931897792889815613,-1.65547061103241328e-08,-0.00997476575605157553,-0.00961227634314727568,0.000838056354356295826
0.94,31.2221615863811124,131.010448880914112,17.6277314842817923,4.96061782512376226,-4.63247093197505233,22.9424781401331224,1.01231496096588058,2.28357230108577891,283.068750483778672,31.9796459995890636,13.5177288450406206,69.8685079475844333,-0.282293351600801878,113.399477344696393,625.348014098385534,15.2880000000000003,0,2.87390846562126923,0.0939953534589527684,-1.7618383526381775e-08,-0.0103270687161708379,-0.00994521302497075946,0.00087512942738475106
0.95,31.2221610842698638,131.010450177169417,17.9174157577508524,4.95977662344333936,-4.58977478901230729,29.7350496264017714,1.03035492345783375,2.25737178179109321,342.421873617487279,32.2467223388977189,13.63406769532825,69.8624704053462295,-0.297989133499224623,113.382760607693783,635.819062609367279,15.2880000000000003,0,2.88172959628589531,0.0947806605330690638,-1.86859872811958986e-08,-0.010687754225840224,-0.0102829517184424863,0.000913232844554801785
0.96,31.2221605774655124,131.010451484400789,18.2095318860884916,4.96227200130007873,-4.55084525605173962,29.1325040372824091,1.04781553870311206,2.23157513009217023,337.095335156783449,32.4891663270543845,13.7417832768428507,69.8562212058676977,-0.314203447924518653,113.365490917280553,645.397589197268644,15.2880000000000003,0,2.88951096175167832,0.0954935748832432263,-1.97555562979475838e-08,-0.0110573929615676355,-0.0106259300933788901,0.000951894052431468784
0.97,31.2221600659850864,131.010452802557694,18.5040682799105056,4.96273584620270025,-4.51072823124199562,18.6040562909542047,1.06584295952107233,2.20495326670314418,245.021887192993233,32.7415428724010198,13.8528560929797333,69.849755161620962,-0.330943229143962681,113.347660812755763,655.444917131007401,15.2880000000000003,0,2.897251794202516,0.0962356908637972963,-2.0825845220665977e-08,-0.0114361049813703018,-0.010974159745610567,0.000992115627674231828
0.98,31.2221595500925027,131.010454130907249,18.800820669913815,4.95671724178054429,-4.46545645941121183,27.1426762142471141,1.08546243714239643,2.17637660474819006,319.593746642958081,33.0335798242474823,13.977607065988968,69.843066864535686,-0.348215268261849842,113.329262994766324,667.170479090671734,15.2880000000000003,0,2.90494679922667753,0.0970943865775627524,-2.18962597078127454e-08,-0.0118235931957063126,-0.011327273777295966,0.00103485084328326388
0.99,31.222159029650058,131.010455469826297,19.0998982965560948,4.96102956373756854,-4.43008587021816869,29.6748908866635652,1.10288324909117419,2.14996785005067714,341.660948551705417,33.2543387471305536,14.0775567654133855,69.8361509288069016,-0.366026517527720363,113.31028997586813,676.098073631928742,15.2880000000000003,0,2.91260189454622598,0.097743585016259793,-2.29650495337859622e-08,-0.0122203056473177245,-0.0116855860763083116,0.00107668967516132336
1,31.2221585046557948,131.010456819319387,19.4013047689408467,4.95903110661221547,-4.38971348798371963,26.5446625165883496,1.12187176573792091,2.12161832015720764,314.26720818227642,33.5137207411970905,14.1908241705331424,69.8290019493722411,-0.384383437010311468,113.290734797397349,686.666383396586639,15.2880000000000003,0,2.92021474357402422,0.0985063145655492856,-2.40311014629324712e-08,-0.0126263233907954863,-0.0120490705654373188,0.0011211072121780311
1.01,31.2221579752740368,131.010458178928985,19.7049136889418754,4.95784659074726353,-4.35067355875867712,27.7706652176829962,1.14080200090114925,2.09309911636671586,324.920316103697928,33.7645777589777794,14.3010598102677768,69.82161430259832,-0.403292750156732216,113.270590216310637,696.964207339425229,15.2880000000000003,0,2.92778426242465306,0.0992439943661235086,-2.50935756098875115e-08,-0.013041557302034306,-0.0124175533802067597,0.00116661002545077842
1.02,31.2221574414341241,131.010459548850065,20.0107824366439822,4.95804446233818386,-4.31342143102446141,23.1560609783300855,1.15952345480600605,2.06457924299911433,284.590631615404163,34.002829196976343,14.4068435284609411,69.8139824941080462,-0.422760965049607584,113.249849204971156,706.814057966151381,15.2880000000000003,0,2.93531233138817615,0.0999446301487285499,-2.61510749684458401e-08,-0.0134662775290385582,-0.0127911783442808367,0.00121306698602943481
1.03,31.2221569031979591,131.010460928910931,20.3188649124334511,4.95386575864660728,-4.27296777805627936,18.8878935997940083,1.17942797825094758,2.03450037648880144,247.30469339049705,34.2677111326211161,14.5218016899522411,69.8061008626488331,-0.44279441697348132,113.228504924756677,717.847867364508716,15.2880000000000003,0,2.94279757618367288,0.100723548666304438,-2.72026498742761799e-08,-0.0139005046842326264,-0.0131698671533395633,0.0012619001257470645
1.04,31.2221563606209074,131.010462318957025,20.6291200500907728,4.95347001960383704,-4.23632593921650269,30.1441473049534352,1.19853368053217646,2.00507509692376962,345.465636880722968,34.5034814043696088,14.6265791674363648,69.7979635458319763,-0.463399635814782329,113.206550325790985,727.738101751255726,15.2880000000000003,0,2.95024108205186453,0.101416906480655933,-2.82472243735620637e-08,-0.0143443304057633246,-0.0135536058282538438,0.0013111113413092801
1.05,31.2221558134445907,131.010463719709037,20.9417526834242942,4.94950201286510794,-4.19720245765681543,18.1102809134355702,1.21865981113771782,1.97425474785843713,240.456258798199826,34.7606041221478037,14.7386982316425268,69.7895648204115417,-0.484582969719419054,113.183978535447608,738.602662390812839,15.2880000000000003,0,2.95764699656180241,0.102173033866169841,-2.92828823440336881e-08,-0.0147983712596511802,-0.0139428258580999182,0.00136265078187819389
1.06,31.2221552618834259,131.010465130570765,21.2565973738713652,4.94247346016530642,-4.15607736499938962,25.8812336589012588,1.23972723496753034,1.94210768085857555,308.179683655939243,35.0361127600510827,14.8571424370616825,69.7808985544665035,-0.506351017114000879,113.160782421754561,750.33453363510273,15.2880000000000003,0,2.96501214475174457,0.102983211713653725,-3.03092655639481756e-08,-0.0152623847264115719,-0.0143372208117411443,0.00141647369718868061
1.07,31.2221547058324091,131.010466551835947,21.5737389411751224,4.94185939945923902,-4.12085687941469914,30.5135879318104095,1.25926286059752246,1.91145499804311991,348.509368144030759,35.2632687072925748,14.9587062806640265,69.7719585458608549,-0.528710485819175902,113.136954724555849,760.072479577299305,15.2880000000000003,0,2.97234080817786284,0.10365127227660538,-3.13247755773052598e-08,-0.0157368031011260283,-0.0147370589959628373,0.0014699279588054389
1.08,31.2221541452009497,131.010467983761032,21.8932512643903934,4.93964654314064422,-4.08480370919197622,20.4787229806576647,1.27933361998068196,1.87993934781986249,261.001578574662346,35.498124675249052,15.0628714893252162,69.7627385971859155,-0.551667761982728377,113.112488522253429,770.206833859282597,15.2880000000000003,0,2.97963345773276078,0.104341973590823908,-3.23281348536417958e-08,-0.0162219258289415386,-0.01514248729289756,0.00152528664124165097
1.09,31.2221535802375278,131.010469425655145,22.2149423251327178,4.93013542112985004,-4.04328016392510392,18.8231548571782845,1.30151280696769955,1.84572198240987673,246.543753324744074,35.7819672583213375,15.1840190682782534,69.7532324027299921,-0.575229202708448573,113.087376917972279,782.549026959757953,15.2880000000000003,0,2.98688574783999572,0.105176672573119162,-3.33193551891282423e-08,-0.016717389502199767,-0.0155531016948435123,0.0015843929492241665
1.1,31.2221530110107359,131.010470877328885,22.5387610642342509,4.92409383193712191,-4.00512634376410492,37.9603162338877169,1.32290437901673541,1.81214152554975283,413.189061738584087,36.0379134996164439,15.2954038738120772,69.7434335485800574,-0.59940112811499624,113.061613048580597,793.759428281252553,15.2880000000000003,0,2.99409911126574446,0.10592938201199377,-3.42975023486060185e-08,-0.0172232800010200041,-0.0159688769954213598,0.00164396367959842248
1.11,31.2221524371598314,131.010472339797388,22.864993789411038,4.92521029230910123,-3.97322542229905284,27.7442376796353152,1.34240212515951662,1.78051217620553004,324.159391037639693,36.2381330861782942,15.3873113807592823,69.7333354752583006,-0.624189895985167387,113.035190005275794,802.57872347348939,15.2880000000000003,0,3.00128049542743236,0.106518297040219909,-3.52600365097425063e-08,-0.0177405544068967268,-0.0163904936904033099,0.00170269206628488666
1.12,31.2221518587423148,131.010473812907378,23.193598788789842,4.91239103642313868,-3.93063322183054265,10.3551400906937499,1.36599999426705554,1.7437944473372442,172.73281794065943,36.536837770783066,15.513455892049226,69.7229316400494383,-0.649601545278417181,113.008101212147409,815.83853912632992,15.2880000000000003,0,3.00842673882207867,0.107396707250002582,-3.6206509516343205e-08,-0.0182691894648265019,-0.0168178210005340105,0.00176782649222145339
1.13,31.2221512762883009,131.010475295172142,23.5241621918089585,4.90684581525136565,-3.8943375193244254,32.7400546176546143,1.38765274155982965,1.70907987983485121,367.532807790070478,36.778995437164042,15.6198558341642961,69.7122150695232392,-0.675642742598238311,112.980339416907853,826.662504619945139,15.2880000000000003,0,3.01553306056199233,0.108108910938402414,-3.71379637551288099e-08,-0.0188082781897775213,-0.0172500314067250207,0.00183199597132164497
1.14,31.2221506892058436,131.010476788264384,23.8571530661903388,4.90635851104359499,-3.86246187845137001,18.0546542339144018,1.40791215273068171,1.67574804367100771,239.695317731955441,36.9795785916873427,15.711689703980559,69.7011791068539566,-0.702319188114301607,112.951898392401361,835.67717072837786,15.2880000000000003,0,3.02260896067117413,0.108698917516297053,-3.80508104450088494e-08,-0.0193593150006555956,-0.0176882142044396569,0.00189589230893131059
1.15,31.2221500979316211,131.010478290963619,24.1922314173207837,4.89173469035375863,-3.81997635346633269,17.7952351869732475,1.43254209250654974,1.63690999738328169,237.412511535467729,37.2827925131215352,15.8392688888175073,69.6898170171886164,-0.729636455659652072,112.922772037778003,849.410279158617868,15.2880000000000003,0,3.02964578468039569,0.109590608296994227,-3.89464278099038112e-08,-0.019921375539253959,-0.0181315278317584622,0.00196686928711296057
1.16,31.2221495025891613,131.010479802925346,24.5293030630763766,4.89212576233440721,-3.78959657516333071,46.8495814229506777,1.45271404676296667,1.60312428311521216,490.043774384589426,37.4691206881397818,15.9260217019896722,69.678121639132641,-0.757600702462766229,112.892953623431652,857.893911657244871,15.2880000000000003,0,3.03664655126229555,0.110138728122318272,-3.98239271249391593e-08,-0.0204944935398984306,-0.0185799042235067283,0.00203350091821041887
1.17,31.2221489024036529,131.010481326350714,24.8689825979527548,4.88496764952550144,-3.75379553443954883,8.17491223402527645,1.47530853802624251,1.56613775594521454,153.709379294867944,37.7086468417743461,16.0312651367301982,69.6660860684516052,-0.786217170378034735,112.862437392552181,868.86901327412852,15.2880000000000003,0,3.04362056457768837,0.110843228946637659,-4.06790432396838414e-08,-0.0210806265521888865,-0.0190347548877118043,0.0021049606113234063
1.18,31.2221482984011018,131.010482858346933,25.2104648310949173,4.86780760723135053,-3.7108140952093116,22.7079211391690947,1.50123074874132456,1.52479503655243809,280.025018221967457,38.0221635577728634,16.1623299279017125,69.653703170491525,-0.815491504067974771,112.831217140336534,883.347976311554362,15.2880000000000003,0,3.05055006728012446,0.111765230913012312,-4.15160378752679315e-08,-0.0216773738836103305,-0.0194941151899401741,0.00218247239355943241
1.19,31.2221476901217763,131.010484400222253,25.554115818596518,4.87194716297925012,-3.68437544877642642,39.788580012996924,1.52039752733434463,1.4913779971043819,428.407813052929214,38.1669190430365077,16.2343759316772491,69.6409654850490227,-0.845429450177693664,112.799286555602365,890.057447044801961,15.2880000000000003,0,3.05744039032216142,0.112191171262085804,-4.23309820220096726e-08,-0.0222862793168153474,-0.0199590744474812884,0.00225224484622747485
1.2,31.2221470771734388,131.010485953106695,25.9002498434907231,4.85850449883577173,-3.64507680913565002,3.97296889656906593,1.54538836397194901,1.45053207870425505,117.184374136023607,38.4444206358617606,16.3527606095262641,69.6278659918146445,-0.876035638067386935,112.766640508063034,903.017219107384221,15.2880000000000003,0,3.06430124699929163,0.113007325085038315,-4.31217921282144446e-08,-0.0229083220641134004,-0.020430256042949433,0.00233186331125525767
1.21,31.2221464605807775,131.010487514096724,26.2480611304003233,4.84572850046343184,-3.60671767662744269,31.9213721539344775,1.57031381979650386,1.40942934325844549,359.923432132008998,38.7138479743050681,16.468314789673606,69.6143970182968133,-0.907315665792488901,112.733272823843407,915.688081494604944,15.2880000000000003,0,3.07112103664718505,0.113799753086896868,-4.38926299276145388e-08,-0.0235410541979940678,-0.0209057091768469448,0.00241298280082635546
1.22,31.2221458395680607,131.010489085411479,26.5981668766668484,4.84760780576943695,-3.57956953964322588,23.0772117233554113,1.59033222216854098,1.37409243153294258,283.068750482576149,38.8627875713442066,16.541643192952268,69.6005511314731535,-0.939274328401597969,112.699178179790323,922.716257215376118,15.2880000000000003,0,3.07791377176147263,0.114238013927963261,-4.46380480165090108e-08,-0.0241868583658741143,-0.0213871163741344503,0.0024886325845594171
1.23,31.2221452144496041,131.010490666172871,26.9503231943821149,4.83296980962803868,-3.5406310962473877,8.88131230097742019,1.6161026124647464,1.33128700292771196,159.796873822227951,39.1393781436434409,16.6596295826019549,69.5863211400111226,-0.971915632036953858,112.664352084228909,935.8654748725844,15.2880000000000003,0,3.08467151133266304,0.115051515212461958,-4.53595798497828781e-08,-0.0248448591204518329,-0.0218737085225008052,0.00257444217329940057
1.24,31.2221445856583273,131.010492255154332,27.3041912738345154,4.8237812028192435,-3.50606150295765184,38.6930270031276464,1.64007548961931571,1.29038608186552572,418.515630199805003,39.3688174577356378,16.7610885607593225,69.5716993355526085,-1.00524424727309025,112.628789327644014,946.837740215092253,15.2880000000000003,0,3.0913918634624995,0.115726421944323352,-4.60583066967604345e-08,-0.0255140939283871743,-0.0223646791756537747,0.00265919654835575052
1.25,31.222143952478369,131.01049385441965,27.6603427005997418,4.82291334028955987,-3.47783008556956119,18.6187261450204993,1.66111018837830415,1.25286248190172844,244.260946125734876,39.5261838070815514,16.8372217780764828,69.5566782089318565,-1.03926412876233942,112.592485457099343,954.389678574673098,15.2880000000000003,0,3.0980860236254899,0.116189474472662993,-4.67291138309892506e-08,-0.0261968555481097952,-0.0228615964332245653,0.00274117720315323037
1.26,31.2221433153910475,131.010495462609043,28.0184008933776241,4.80477835578491419,-3.43753056636689935,10.9022271052950472,1.68846791087115533,1.20700756383044849,177.298446336408631,39.8204823322133805,16.9613701082597856,69.5412503258777406,-1.07397876145138738,112.555436510015525,968.621392519509527,15.2880000000000003,0,3.10472813282355853,0.117055054812534934,-4.73745636537458673e-08,-0.0268917306157124211,-0.0233633173436518272,0.00283474103406906094
1.27,31.2221426745563058,131.010497079273904,28.3782429588526632,4.80033534185223676,-3.40734168211504551,37.2263903180338502,1.71085560809852555,1.16710938987074297,405.579686079964688,39.9983831557174909,17.0446506049020847,69.5254075506041289,-1.10939259162468895,112.517637488863841,977.261712294121708,15.2880000000000003,0,3.1113373779437401,0.117578484060886695,-4.79938891636793436e-08,-0.0275986347062196456,-0.0238696839684855895,0.00292215429650378566
1.28,31.2221420294070739,131.010498706066642,28.7403242419347507,4.79251272975535247,-3.37506440188634693,11.9595164836225489,1.73452233011123313,1.12524943233387975,186.429688124688823,40.1994987665652772,17.1360349337255577,69.5091423770074641,-1.14550855613662783,112.479084998615491,987.079611313325358,15.2880000000000003,0,3.11791971905132748,0.118170162572171236,-4.85833229878031617e-08,-0.0283193343643111939,-0.0243818411536537299,0.0030134339896444721
1.29,31.2221413806541328,131.010500340957464,29.1040848761141149,4.77594536775813605,-3.33700260688148642,19.7734078517905587,1.76159180996598419,1.07866429053383128,254.153128984572163,40.4698463766232948,17.2517569546975267,69.4924469649523786,-1.18232986219371572,112.439775344066874,1000.3658108561101,15.2880000000000003,0,3.12446582468642431,0.118965362903414418,-4.91463994672483085e-08,-0.029051749668554408,-0.0248982030309520472,0.00311205078858881956
