Time,Latitude,Longitude,Altitude,Angle of Attack,Angle of Sideslip,X-Acceleration,Y-Acceleration,Z-Acceleration,Thrust,True Velocity,Ground Velocity,Pitch,Roll,Yaw,Dynamic Pressure,cp,parachute_deploy_gain,Wind Speed,Mach,omega_x,omega_y,omega_z,Cmq,Angle of Attack(total),Angle of Attack(gust),True Velocity(gust),Acceleration
0.0,31.222186000000004,131.010384,3.000000003643237,0.0,0.0,0.0,0.0,0.0,2.2828121974499247,0.0,0.0,69.99999999623421,0.0,113.69999999388332,0.0,15.288,0,0.0,0.0,0.0,0.0,0.0,-0.0,0.0,90.0,0.0,0.0
0.01,31.22218600000153,131.01038399999584,2.99999882256592,0.0,0.0,0.0,0.0,0.0,34.24218696174923,7.502283530665459e-11,7.190531319924593e-11,69.99999999623329,-4.83564628150269e-13,113.69999999388072,3.446445726795683e-21,15.288,0,0.0,2.204725565824978e-13,-3.659182332138578e-19,7.589415207398531e-19,4.811147140404426e-19,-1.5108918610345807e-31,0.0,89.9999999995224,7.502283530665459e-11,0.0
0.02,31.22218600000288,131.01038399999217,2.999997775701936,0.0,0.0,0.0,0.0,0.0,25.871876237766408,1.5320717031631675e-10,1.4674636035870463e-10,69.99999999623222,-9.67129256300373e-13,113.69999999387804,1.4372842949972735e-20,15.288,0,0.0,4.5023593667086093e-13,-7.284483346386986e-19,1.5178830414797062e-18,9.757819552369542e-19,-6.170906918166791e-31,0.0,89.99999999902465,1.5320717031631675e-10,0.0
0.03,31.22218599928065,131.01038400193067,3.000201659671132,18.81500467334555,-0.00012974450181,11.96616230539064,-1.8916256735984712e-05,3.349833086198469,180.34219359854663,0.0882870268161719,0.0553390044312322,69.99999999799445,-4.212591857125379e-12,113.69999999488518,0.0047728553458352,15.288,0,0.0,0.0002594525584132,3.2187251995663407e-17,-7.20264389268894e-10,1.2365134327422308e-11,1.6874092354518158e-13,18.815004673776716,89.46786891739345,0.0882666465974854,12.426199017587786
0.04,31.22218599548236,131.0103840121632,3.001799604587872,9.46752327608497,-4.6177622759613696e-05,55.21900012092241,3.931876292165237e-06,3.349616504302861,548.6359724538078,0.3767519978512604,0.1853356633749705,70.00000000507204,-2.4624598767003407e-11,113.70000000019972,0.086915163246288,15.288,0,0.0,0.0011071759353184,1.6174128009138757e-15,-1.3693172015529268e-08,2.7753303060112748e-11,1.3689612277852356e-11,9.467523276196548,87.63554493451223,0.3767447442872393,55.32050167054111
0.05,31.222185984749512,131.01038404118162,3.00777936418888,5.376730308971262,-2.257790939128127e-06,80.28807156553681,5.266841443842784e-05,3.348887800834877,761.6984298824644,1.018787885905993,0.4366201147110198,70.00000000894464,-1.1355399380652658e-10,113.70000001523856,0.635552918586145,15.288,0,0.0,0.0029939522895272,1.6418815498809788e-14,-9.32122351075408e-08,4.303264669380585e-11,2.5199270302492604e-10,5.3767303089717045,83.57022052969386,1.0187875312530217,80.35788377762394
0.06,31.22218596447235,131.01038409608267,3.0201664202003013,4.296730121134882,2.4863835723705905e-05,60.21296515808257,0.0001057204249726,3.347700952379021,590.4875390737208,1.721098934225416,0.7081674028809783,69.99999995523842,-3.0560354507026086e-10,113.70000004366592,1.8138247671743823,15.288,0,0.0,0.0050578622752421,8.328976953118383e-14,-3.2824985336199985e-07,5.923438275930214e-11,1.4991363363716091e-09,4.296730121206683,79.20467073327266,1.7211028398275985,60.305955550063224
0.07,31.22218593493329,131.01038417609837,3.038741944736831,3.8204913578752526,4.8016684030909405e-05,91.4060317508128,0.0001597686613101,3.346072557365335,855.2937749779139,2.4375792548422868,0.9844712334613328,69.99999973536046,-5.939103491363046e-10,113.7000000850886,3.6383156301599167,15.288,0,0.0,0.007163413150771,2.709313825263564e-13,-7.906546256197275e-07,7.920022733617308e-11,5.114174483651565e-09,3.820491358176508,74.87999294483174,2.437586797285377,91.46725557277466
0.08,31.222185894468456,131.01038428575305,3.0647976109320942,3.588632851766762,7.220043782492885e-05,19.18449428359557,0.0002119618497595,3.3440615022685813,241.2171988638848,3.1292508166901074,1.2522236515868983,69.99999919480445,-9.914748373602156e-10,113.7000001418522,5.996012698481753,15.288,0,0.0,0.0091960591623389,6.80386533246681e-13,-1.5973238302190878e-06,1.0839624626357699e-10,1.3263625118823921e-08,3.58863285249208,70.86684630658345,3.1292621579083604,19.473766155861934
0.09,31.22218584634549,131.01038441616095,3.0957981580345013,3.551302481506045,9.685468678862004e-05,57.102946699906326,0.0002554087225869,3.341892818148368,563.0937377043176,3.701810007254615,1.479132491047967,69.99999812344194,-1.4359264356978275e-09,113.7000002093888,8.390904013834115,15.288,0,0.0,0.010878666406854,1.440096519545733e-12,-2.748643691533636e-06,1.5214952332699618e-10,2.6999776649034504e-08,3.5513024828250237,67.68737872952666,3.701825221153239,57.20065357568538
0.1,31.222185790329306,131.01038456796124,3.1319266121977414,3.608446747536112,0.0001234669721807,54.26147302645416,0.0002914860332524,3.3396271157106168,538.7437595981919,4.174070299823608,1.6716491241860567,69.9999963052332,-1.902380107712657e-09,113.70000028805804,10.668380938744466,15.288,0,0.0,0.0122665227999911,2.687800116751415e-12,-4.315796035622946e-06,2.1749089204950437e-10,4.7802076800548326e-08,3.608446749645647,65.17160335282355,4.174089693970246,54.36414778470795
0.11,31.222185727066616,131.0103847393952,3.172681775073216,3.633547373470009,0.0001485939126744,42.987553988990406,0.0003293995000288,3.337005588796181,442.8656393052949,4.672024955140527,1.8729475711242067,69.99999349387662,-2.3433348587116544e-09,113.70000037699285,13.365573690709628,15.288,0,0.0,0.0137298902182575,4.5789425819531184e-12,-6.340230783164189e-06,3.1157625832417107e-10,7.860218435507205e-08,3.6335473765043056,62.62546922225161,4.672048296217748,43.116880735560244
0.12,31.22218565692512,131.0103849294629,3.2177790417108385,3.650108937861461,0.0001727442530266,46.86777100765684,0.000367618259785,3.334068179146888,475.58594813540446,5.17479364099247,2.0758708919414386,69.99998941286465,-2.702771525550512e-09,113.70000047573096,16.396890189902592,15.288,0,0.0,0.0152074069417046,7.288473386564583e-12,-8.86736416607888e-06,4.42271554299792e-10,1.217615295152289e-07,3.6501089419435786,60.16906436414164,5.174820775596283,46.986210423745625
0.13,31.222185580265183,131.0103851371844,3.2669395832841857,3.7280113734654137,0.0001995014041665,51.64515456841877,0.0003986198234033,3.3311573548369657,515.9156326236895,5.579364582999854,2.2451120211463422,69.99998375846928,-2.9114380666036422e-09,113.70000058383452,19.060875702782603,15.288,0,0.0,0.0163963474924215,1.100846422415094e-11,-1.1941028436408576e-05,6.179653149059831e-10,1.7678562106638216e-07,3.728011378795934,58.279338776943774,5.579395920607139,51.75247433579817
0.14,31.22218549718016,131.01038536230575,3.320091807147376,3.768719651034081,0.0002242721760019,48.1660778383537,0.0004326225136175,3.32784677779744,486.2390860568404,6.025734265159953,2.428648685938864,69.99997621008868,-2.890941335368725e-09,113.70000070125378,22.232643351545065,15.288,0,0.0,0.0177081261985351,1.5941871344608664e-11,-1.560901486259027e-05,8.477542742712431e-10,2.495765160917323e-07,3.7687196576976176,56.27980129251342,6.025769493750979,48.280903250602165
0.15,31.22218540777004,131.01038560455507,3.377159065217065,3.821894709649632,0.000249725644238,46.56959330999435,0.0004643042952466,3.324387732286376,472.54218587214,6.441023336496372,2.6014999612196745,69.99996641132823,-2.546763407193136e-09,113.70000082794672,25.402620271850456,15.288,0,0.0,0.0189285691155931,2.2314099732464315e-11,-1.992367942778425e-05,1.1417519574710292e-09,3.4051816697623295e-07,3.821894717796148,54.501255563441134,6.441062563308839,46.68809885900716
0.16,31.22218531193176,131.01038586421257,3.4382223512025254,3.8463320955387794,0.0002733212404609,36.974247749122085,0.0004987816203583,3.3205066466509234,391.1218908297564,6.895451966878468,2.7877331692857847,69.99995397923414,-1.77088415515292e-09,113.70000096417354,29.113317717489338,15.288,0,0.0,0.0202640360420561,3.0367358387834494e-11,-2.4945905791363795e-05,1.5114297685186711e-09,4.5643121540033697e-07,3.846332105235269,52.641145594326446,6.895494900078523,37.12304892183151
0.17,31.222185210004127,131.010386140357,3.503019838429153,3.8860314262554336,0.000297865039677,46.520531453299206,0.0005306403365217,3.31650761597812,471.78125980632376,7.314788342774694,2.9619016331667103,69.99993849340957,-4.3039914767238207e-10,113.70000110959404,32.761746921137856,15.288,0,0.0,0.0214963781445172,4.0366633128431416e-11,-3.0713078585132897e-05,1.96747427715988e-09,5.961228045584824e-07,3.886031437653654,51.00464968745696,7.314835131305714,46.63860064094784
0.18,31.22218510147516,131.01038643438045,3.571950002194137,3.9107265153396016,0.0003214293682635,38.895647526122765,0.0005639254295027,3.312149448254175,407.10156721191447,7.754626295791602,3.1430587898572058,69.9999195084231,1.6149322372810674e-09,113.70000126508234,36.81988229018681,15.288,0,0.0,0.0227889722876034,5.2593391349219385e-11,-3.731786027786564e-05,2.525509173087448e-09,7.6786585232224e-07,3.9107265285284982,49.36615848311875,7.754676785798701,39.036415444581515
0.19,31.222184986476247,131.0103867459258,3.644912152926752,3.920599115663931,0.0003437679584038,43.86258669386953,0.0005989384366483,3.307389681300437,448.9531328318269,8.219206165926856,3.332657190859447,69.99989653019398,4.538529095696477e-09,113.70000143063515,41.36350714675367,15.288,0,0.0,0.02415428010977,6.735860419174937e-11,-4.481243905342629e-05,3.199401151670645e-09,9.773118416308382e-07,3.92059913071168,47.71893898797248,8.21926016487149,43.987104227715655
0.2,31.222184864792144,131.01038707557822,3.722074668489528,3.943376465171875,0.000367328732016,40.28070981710589,0.0006315894240138,3.30251450988504,418.51563019916136,8.65238089736321,3.511445117640573,69.99986902534273,8.534090245934178e-09,113.7000016067622,45.83799876721736,15.288,0,0.0,0.025427299120469,8.499785987217288e-11,-5.328041996372527e-05,4.006766070954748e-09,1.2232205148646746e-06,3.9433764822533854,46.2587826635041,8.652438597225508,40.41586552155969
0.21,31.22218473678744,131.01038742234647,3.803156063113743,3.9664546506877016,0.000390962054969,38.67679184347145,0.0006636984664108,3.297405915846789,404.8187610144644,9.079179692250786,3.688002035198235,69.99983642883521,1.3827831253856693e-08,113.70000179318536,50.47126980736161,15.288,0,0.0,0.0266815841422463,1.0586558589671407e-10,-6.275155280099118e-05,4.961340042512481e-09,1.5117124669161171e-06,3.9664546699249135,44.88773728276958,9.079241104426773,38.817098210937615
0.22,31.2221846022986,131.01038778667507,3.8882846911135607,3.956175711337521,0.0004112685792646,46.713636108302936,0.0007011135033803,3.291572407481395,472.5421858721365,9.580256326712124,3.889976788904857,69.99979815126248,2.0662823443484168e-08,113.70000199039316,56.195522894218605,15.288,0,0.0,0.0281541581291438,1.3033127211465288e-10,-7.330053770532661e-05,6.0817207473359025e-09,1.8632831045819008e-06,3.956175732680424,43.35679625546934,9.580320928629488,46.8294591882524
0.23,31.222184460898035,131.01038816972698,3.977794004014759,3.9879066397329104,0.0004360962274406,38.89105719050748,0.0007308686121188,3.286096544282012,406.3406421461021,9.977039034039262,4.056142701351626,69.99975353557706,2.9316661139418326e-08,113.70000219928508,60.9462612310605,15.288,0,0.0,0.0293202403623685,1.5880617816859538e-10,-8.505067486192354e-05,7.393319440773217e-09,2.2514912291167663e-06,3.987906663538912,42.20670487756048,9.97710753587448,39.0296395118868
0.24,31.222184313516166,131.01038856897196,4.070963590490852,4.003523997322975,0.000459165577055,40.0792299321398,0.0007630441688766,3.280134925833028,416.2328240017114,10.408422364424831,4.234121060914368,69.99970190737699,4.010976417051318e-08,113.70000241888,66.32994780718496,15.288,0,0.0,0.030588009649109,1.91711512587616e-10,-9.795845222523724e-05,8.904557280909524e-09,2.7052895870113487e-06,4.003524023611085,41.011349410369874,10.408494489985014,40.21323112692186
0.25,31.22218416001652,131.01038898478134,4.167901030441617,4.0261356185860135,0.0004830526730531,41.17760020658354,0.0007934613160587,3.2740610008587527,425.36408079150686,10.816813039390448,4.4041629376391525,69.99964258149416,5.3372865854010094e-08,113.70000264972064,71.63651430352668,15.288,0,0.0,0.0317882126436337,2.2947426169209347e-10,-0.0001121037688082,1.0637152702866709e-08,3.217380562698304e-06,4.026135647516394,39.93186687113378,10.816888917126896,41.30755663120434
0.26,31.222184000702686,131.0103894163294,4.26837241014618,4.053359329950934,0.000507503069958,44.80261175215926,0.0008224724146494,3.2678597736729302,455.8015834241788,11.207047269494833,4.567925492611352,69.99957484039399,6.947299261165984e-08,113.70000289176392,76.89781807056055,15.288,0,0.0,0.0329350617559806,2.7254099134167665e-10,-0.0001275114371842,1.260720913253598e-08,3.7915697709142366e-06,4.053359361668992,38.945390435244384,11.207126987890645,44.921630958721536
0.27,31.22218383516388,131.01038986473338,4.372698316214008,4.0614460923241,0.0005296455772492,41.029837477288126,0.0008548809954683,3.2610328932384265,423.84219965987256,11.645685385842508,4.748226940060522,69.99949794024376,8.879821051920497e-08,113.70000314600205,83.0342688744587,15.288,0,0.0,0.0342241635563461,3.2137296827284217e-10,-0.0001442952656441,1.4842505534226832e-08,4.458527942364847e-06,4.061446126801262,37.8838346421185,11.645768582375233,41.15922617924542
0.28,31.222183663504484,131.01039032970942,4.48079961904222,4.081133040992532,0.0005533279247169,47.27661484082626,0.0008845140695959,3.254218495915602,476.3468732012221,12.047344998676092,4.915789434712848,69.99941106884992,1.1178948978424788e-07,113.70000341275257,88.85982357848233,15.288,0,0.0,0.0354045979054623,3.764736350660473e-10,-0.0001625146963723,1.7365685655384934e-08,5.194620655212288e-06,4.081133078439725,36.956255322213885,12.047431915223257,47.38848224631549
0.29,31.22218348566054,131.0103908114315,4.592727908358551,4.1001100265020245,0.0005770279952742,37.989969791857405,0.0009138463939581,3.247164755122801,397.97031042211177,12.446314684600782,5.082367374004485,69.99931338876085,1.3891902435864665e-07,113.70000369260468,94.8417675268915,15.288,0,0.0,0.0365771315767517,4.3836067907166327e-10,-0.0001822432988888,2.0202163500922312e-08,6.018074062137429e-06,4.100110067036654,36.07377590258778,12.446405323946324,38.12849176886316
0.3,31.222183301933686,131.01039130907952,4.708251093558373,4.112858061667493,0.0005998635114143,35.655053282557844,0.000944131403186,3.2397207148238625,378.1859457108711,12.860033399289696,5.253940723820665,69.99920403105713,1.707002607527005e-07,113.7000039856728,101.2505662360602,15.288,0,0.0,0.03779301412572,5.075709863465428e-10,-0.0002035013069687,2.3370674033523645e-08,6.94335970778e-06,4.112858105337573,35.19685285507256,12.860127625629724,35.80193592228613
0.31,31.222183112488807,131.0103918222051,4.827243246502713,4.136140889545823,0.0006242383343011,37.56633644061071,0.0009716215464757,3.232339252743767,394.1656220930212,13.2364445751808,5.4126574282679245,69.99908210036875,2.0768081583188525e-07,113.7000042923011,107.26326115439352,15.288,0,0.0,0.0388992619788015,5.846561731689753e-10,-0.0002263323252403,2.6893437641668458e-08,7.948283231812338e-06,4.1361409365698805,34.43286455705216,13.236542630309057,37.70514091683033
0.32,31.22218291741533,131.01039235056504,4.949637017503345,4.1622282001352975,0.0006491019906456,40.83513712643371,0.0009979686925508,3.224840963348891,421.55939346242695,13.59846554462374,5.566374262777002,69.99894668612772,2.504388718903276e-07,113.70000461297312,113.2095365840355,15.288,0,0.0,0.0399632243410653,6.701756367872645e-10,-0.00025078340164,3.0793566854276295e-08,9.047716714467492e-06,4.16222825066026,33.72644865222576,13.598567505326,40.96227562489027
0.33,31.222182716732533,131.01039289410716,5.075419569102976,4.187801887681037,0.0006739743721461,40.48743503284469,0.0010239291638211,3.217136801802925,418.5156301991682,13.956637761217308,5.718704299733134,69.99879684673242,2.995902922462564e-07,113.70000494831164,119.25032483364384,15.288,0,0.0,0.0410158804634189,7.647061680070125e-10,-0.0002769136723495,3.509664608790402e-08,1.0253455741189656e-05,4.187801941818244,33.053267359159875,13.956743628864118,40.61505097607
0.34,31.222182510255863,131.01039345333336,5.204736257784645,4.19642921746386,0.0006961879027693,31.814592723444047,0.0010535137542081,3.208669900766693,345.46563688075645,14.367047160772364,5.88887983533068,69.99863160305904,3.557915789971256e-07,113.70000529927128,126.36523219087664,15.288,0,0.0,0.042222056531773,8.688448410811866e-10,-0.0003048202762282,3.9835373705550826e-08,1.1618525957862828e-05,4.196429275109305,32.30947868183619,14.367156517712404,31.97598901989736
0.35,31.222182298183583,131.0103940277045,5.337435501771672,4.210915783240843,0.0007193441544952,34.813487415034444,0.0010813034848195,3.200164272309822,370.5765700527033,14.754132934586384,6.050986755458457,69.99844991734221,4.1975736284587617e-07,113.70000566632532,133.26448209504355,15.288,0,0.0,0.0433596939127697,9.832256819293898e-10,-0.0003345386312107,4.503361101379695e-08,1.309465610343774e-05,4.210915844572415,31.63649055965014,14.75424592890194,34.96026256388454
0.36,31.222182080444604,131.0103946174141,5.4735747500461605,4.22903876037745,0.0007431682866607,39.2632255716727,0.0011077666085529,3.1915717453569297,407.8625232777193,15.124417129017054,6.2072589919251575,69.99825073022951,4.922382611919288e-07,113.70000605036684,140.03566173682628,15.288,0,0.0,0.0444479595865755,1.1084921261805627e-09,-0.0003661511460057,5.0723697896912267e-08,1.4691545926915382e-05,4.229038825557203,31.017264542603208,15.124533865618538,39.39272792946638
0.37,31.22218185710795,131.01039522227452,5.613102797925907,4.249164960780052,0.0007674149135003,37.28328237034959,0.001133274451316,3.1828514669894137,391.1218908297666,15.483077353331511,6.359470679857624,69.99803294268581,5.740349991123437e-07,113.70000645214331,146.75405277514704,15.288,0,0.0,0.0455020695186381,1.245311285088233e-09,-0.0003997125883071,5.6934243389647934e-08,1.641828325195534e-05,4.2491650299519,30.439178816713017,15.483197898584232,37.418894813348615
0.38,31.2221816281124,131.0103958424523,5.756069531572451,4.260095806433531,0.0007900626414612,38.9278000801764,0.0011607546399008,3.1735466295306622,404.8187610144602,15.87126705947922,6.521735074464384,69.99779542676283,6.659911329739736e-07,113.70000687263192,154.20298254405043,15.288,0,0.0,0.0466429667223463,1.3943646956867835e-09,-0.0004353006984059,6.369875435270817e-08,1.8328108041903096e-05,4.260095879559656,29.83470194713067,15.87139116222873,39.05694584372078
0.39,31.22218139339905,131.0103964781077,5.9025231349944285,4.274091258047817,0.0008133283308351,33.320076729592266,0.0011870382950339,3.164143363712209,357.64062493382744,16.24457853509073,6.678818328235205,69.9975369905506,7.690136753559805e-07,113.70000731287368,161.54010621938565,15.288,0,0.0,0.0477401448128051,1.5563705124515804e-09,-0.0004730068442167,7.105463478762673e-08,2.0383860516746246e-05,4.274091335289374,29.274934656826048,16.244706292406182,33.46997636540994
0.4,31.22218115316572,131.01039712870306,6.0523126585892895,4.286421841403391,0.0008363022448449,31.88018820767003,0.0012133780841982,3.1544430614236454,345.465636880754,16.62063299903514,6.836764518435374,69.99725641601981,8.840594270905819e-07,113.70000777359816,169.10340080049767,15.288,0,0.0,0.0488453895716005,1.7320643186450851e-09,-0.0005128553637434,7.9027539265021e-08,2.2612406375611563e-05,4.286421922834417,28.730746964325096,16.620764365084565,32.03586915718869
0.41,31.22218090752676,131.01039779392735,6.205351877049411,4.30025870409831,0.0008595777771371,35.882550741685804,0.0012389121673015,3.1445895889870297,378.94687077668647,16.987310563534386,6.99141560549392,69.9969524610574,1.0121301778427253e-06,113.70000825570062,176.64448930727934,15.288,0,0.0,0.0499230826371405,1.922193031274436e-09,-0.0005548883906878,8.764667734700782e-08,2.5005077415911235e-05,4.300258789847355,28.21875643368965,16.987445585695873,36.020076248499606
0.42,31.222180656535848,131.0103984736348,6.36160173428776,4.322008670726048,0.0008844838439129,40.34064925656127,0.001261804338223,3.134918999355981,416.2328240017114,17.318628721060172,7.133856886815013,69.99662385300175,1.154276942054023e-06,113.70000876021427,183.59942989625057,15.288,0,0.0,0.0508968652507098,2.1275184665783874e-09,-0.0005991661829955,9.694534598491077e-08,2.752657757470936e-05,4.322008761057615,27.772396468009568,17.318767655457478,40.462275036947325
0.43,31.222180400205527,131.0103991677914,6.521055075967404,4.339436441324956,0.0009085827200945,35.541853595187746,0.0012854696362701,3.124839917627212,375.9031395134336,17.662848429084132,7.280642039343927,69.99626930133451,1.3115939750280808e-06,113.70000928827632,190.96736675963504,15.288,0,0.0,0.0519085689713619,2.3488101247838237e-09,-0.0006457514522491,1.0695800287133593e-07,3.0255957891170616e-05,4.339436536261635,27.322335771349252,17.662991148924057,35.67895714766603
0.44,31.22218013836212,131.0103998768696,6.683849332059896,4.342209064313268,0.0009296474314902,32.82948243168077,0.0013129688908547,3.113754688841357,353.0750125389216,18.063580761318697,7.446730341918701,69.99588746395321,1.4852372182848018e-06,113.7000098413532,199.7278270846888,15.288,0,0.0,0.0530863610987301,2.586862292117705e-09,-0.0006947575786514,1.1773083546077225e-07,3.329010177793299e-05,4.342209163639375,26.81344244367223,18.06372678999575,32.9768158972058
0.45,31.22217987077456,131.0104006014978,6.850166573233225,4.3420317510315165,0.0009500780330031,38.11022602597878,0.001341042003417,3.1022288449712887,397.2093853562869,18.47486275310604,7.616350301328129,69.99547690348253,1.6764536248320808e-06,113.70001042108892,208.92306716049887,15.288,0,0.0,0.0542951637545535,2.842521175226318e-09,-0.0007463379956615,1.2932090054593452e-07,3.657529369088674e-05,4.342031854775571,26.30944884471334,18.47501199101448,38.23628058998621
0.46,31.22217959739673,131.01040134180155,7.020045503401754,4.351169003849846,0.0009725797783515,44.3937050866137,0.0013660055515545,3.09098240974522,449.7140588976434,18.844323061800488,7.771531995684422,69.99503610583268,1.8865779683531e-06,113.70001102895836,217.3591612614144,15.288,0,0.0,0.0553810645782081,3.1166808800591503e-09,-0.000800596194505,1.417768495237597e-07,4.001824400409673e-05,4.351169112337076,25.873596578896564,18.844475834274814,44.50118229261506
0.47,31.22217931813738,131.01040209802923,7.193559875579052,4.358630093683735,0.0009947969928181,30.22514089990685,0.0013910994973101,3.079396422776949,331.0078106302534,19.2180591098146,7.9280875671397615,69.99456352718363,2.1170044481277104e-06,113.70001166656292,226.0625808853568,15.288,0,0.0,0.0564795377574197,3.4102493884459798e-09,-0.0008576351980594,1.551487523304888e-07,4.3718862242359527e-05,4.35863020698899,25.44665981168229,19.218215372160817,30.381603425148434
0.48,31.22217903348153,131.01040286886197,7.370336324605091,4.365514409145237,0.001016880998596,29.779838936311712,0.001416009414045,3.067527859335786,327.2031223011574,19.5915905767454,8.084483592791102,69.99405758812365,2.369198154608765e-06,113.70001233476164,234.93171707892955,15.288,0,0.0,0.057577416115756,3.7241711041759195e-09,-0.0009173883913609,1.6944871263079066e-07,4.767297940601472e-05,4.365514527349481,25.03354780044292,19.59175030803913,29.937410312943754
0.49,31.22217874361868,131.01040365378466,7.5502307795521535,4.3786401372577615,0.0010404145545081,37.2489281064929,0.0014385799934191,3.0558405437943126,389.60000969812296,19.93403005898306,8.23012235628909,69.99351671352461,2.644660619562788e-06,113.700013034871,243.21198709852868,15.288,0,0.0,0.0585839249886784,4.059374595909599e-09,-0.0009798792959512,1.8470833984680338e-07,5.180951737438081e-05,4.378640260624215,24.667474291142685,19.934193486919103,37.37406598941686
0.5,31.22217844858332,131.0104044527036,7.733219389747018,14.745680640952402,-11.164452809761332,38.66832741013906,0.9049036162843174,2.19450615257508,397.97031042210494,22.878315861793475,8.366120773869401,69.99293932307316,2.9449363413826395e-06,113.70001376847225,320.35774714398326,15.288,0,6.262892444746544,0.0672369963867846,4.416673716856832e-09,-0.0010561207172611,2.6601108099191817e-05,6.408727994651895e-05,18.42034311834097,17.283380487337183,21.1356844350319,38.74111836932648
0.51,31.222178148295363,131.01040526485357,7.919283215652109,14.613677737215168,-11.015558639671402,29.76111865889349,0.925055846539528,2.162512244683976,323.3984349720841,23.222467400592315,8.504668204697003,69.99226552957633,-0.0001071239050709,113.69989705085835,330.06242971293887,15.288,0,6.287750126124154,0.0682485652999037,4.792791368572984e-09,-0.0013268823794379,-0.000188883224565,8.172731952819184e-05,18.227806531884013,17.119623346834306,21.502787462304298,29.853917186130925
0.52,31.22217784238299,131.01040608976174,8.10845876805965,14.47975551808646,-10.868855718006374,35.601373188523695,0.9460229006439062,2.1294829950644862,372.0984511843415,23.57536998094886,8.646182508607994,69.99143461203312,-0.000559782024607,113.6994157446186,340.1641285338828,15.288,0,6.312528455915178,0.0692858594030394,5.143611862654009e-09,-0.0016054903801435,-0.0004094295035693,0.0001003886935599,18.03506794098562,16.95264821513208,21.87831511723615,35.67754798277686
0.53,31.22217753071013,131.010406927794,8.300858752143606,14.35122517342932,-10.727432331567908,37.34585416506662,0.9670947378821572,2.096133745039708,386.5562464348624,23.92489155217315,8.786197302734953,69.99044195061799,-0.001363168601973,113.69856118357464,350.3187738137985,15.288,0,6.337230874504332,0.0703132239931654,5.4691493767306e-09,-0.0018922948454559,-0.0006352661596989,0.0001200740995645,17.849738742487144,16.791546330386158,22.24965806733672,37.41713340473261
0.54,31.22217721317313,131.01040777919,8.496561129882249,14.22679797750546,-10.590310477602028,32.894553525759584,0.9883443970742328,2.062365697068983,349.2703242098436,24.272620999972048,8.92528246113731,69.98928279042221,-0.0025256131570782,113.6973244975954,360.5692152701069,15.288,0,6.361875049734475,0.071335328790942,5.769432770587464e-09,-0.0021875775788419,-0.0008665631150469,0.0001408258987101,17.670222217695365,16.635066772555984,22.61855492189089,32.973956823146615
0.55,31.222176890041982,131.0104086431741,8.695354175649035,14.109737597647063,-10.4597351794273,34.82130589264381,1.009521185613089,2.028522411214861,365.2500005919907,24.61275381200098,9.061375167084332,69.98795231759567,-0.0040554718320594,113.6956967862589,370.7382713573506,15.288,0,6.386431907486823,0.0723351146583432,6.0445351221310415e-09,-0.002491106502279,-0.0011031034063094,0.0001626097590207,17.500435965560882,16.486571045245416,22.978853361202496,34.89494777566049
0.56,31.2221765613128,131.0104095197167,8.8972387662194,14.002239192455644,-10.3371804817769,32.55431958339981,1.0304225948196628,1.9948865893624312,346.2265619465787,24.94081383727792,9.19287966690504,69.98644574898222,-0.0059609436965288,113.69366931516444,380.6797957837185,15.288,0,6.410900782927368,0.0732994264345226,6.294546309427658e-09,-0.0028030365285156,-0.0013449612724332,0.0001854065455601,17.342998240809784,16.348356312306223,23.32584806018984,32.631657432108184
0.57,31.222176227052465,131.01041040859658,9.102160986197749,13.892185163688763,-10.213997075971651,32.201416933595176,1.051904496203956,1.9602726869215064,343.1828296833023,25.27670438598027,9.326943385327478,69.9847582686212,-0.0082501985630425,113.69123337931224,390.9947618487162,15.288,0,6.435270754899753,0.0742867585995952,6.519587403002889e-09,-0.0031233956318757,-0.001592115789372,0.0002093748852799,17.183183392875957,16.208200145986662,23.68077786354556,32.27817257230426
0.58,31.22217588723499,131.01041130984575,9.310139118041995,13.771942919434975,-10.084807757699096,42.15968036173112,1.0745910985218283,1.9238037793136795,426.1250058573153,25.63427612838896,9.468518725216128,69.98288499023799,-0.0109314520573536,113.68838022333,402.12723123732167,15.288,0,6.459541593268125,0.0753378178371691,6.719794933075285e-09,-0.0034523493682412,-0.0018446481463869,0.0002346952295365,17.011745975035364,16.05828932267278,24.058325059371672,42.217228890746256
0.59,31.22217554145932,131.01041222451445,9.52148218380342,13.66988964404898,-9.9695643497355,34.32455838889711,1.0962977595551695,1.8885239940349483,360.68438819711065,25.9635017080318,9.599674940529535,69.98082073636343,-0.0140134114838032,113.6851005672182,412.5143728627557,15.288,0,6.483740031576779,0.0763055767953608,6.895276583604117e-09,-0.0037906754170608,-0.0021030896674744,0.0002609994043083,16.863013887964623,15.927534432611385,24.40537651865904,34.39394859922975
0.6,31.222175189929143,131.0104131520086,9.73603026547944,13.548157708194182,-9.841647206375018,30.59351142561327,1.1200210749897477,1.850239618360468,329.4859594986058,26.3322718911404,9.744713599722605,69.97856019803548,-0.0175048577367094,113.6813850526338,424.3070697000484,15.288,0,6.507850146749573,0.0773895632747935,7.046211895413053e-09,-0.004138199258046,-0.0023672667829316,0.0002889684535117,16.69116809050541,15.777261322305907,24.79394033650028,30.669867544593366
0.61,31.22217483259203,131.01041409243064,9.953822156532864,13.425694349273972,-9.714364513758948,35.720037129183666,1.1443194913962496,1.8109565237899992,372.0984511843297,26.707317300101245,9.891720113539115,69.97609803725278,-0.0214147694539292,113.67722410045693,436.4706609440768,15.288,0,6.531876722846365,0.0784920005733797,7.172761129822503e-09,-0.0044951607919243,-0.002637310905713,0.0003183589906719,16.519120276010412,15.626768590477576,25.188688817450924,35.78421555853512
0.62,31.22217446955528,131.01041504544818,10.174772766372463,13.339200571349508,-9.613188058289914,44.22977651217777,1.1659957105381276,1.7751865583680209,442.86563930529206,27.01773456688007,10.015390012700887,69.97342866463228,-0.0257522672817155,113.6726079864396,446.6662833835664,15.288,0,6.555825095573832,0.0794045054907523,7.275127727134588e-09,-0.0048616146145664,-0.0029132167614098,0.0003483067309253,16.391120261997283,15.513887540869256,25.514773321125432,44.280740323883435
0.63,31.22217410063473,131.010416011525,10.399023397836968,13.244215005939209,-9.507061827653857,25.41645007485557,1.1887668535461475,1.737692976889332,286.11251274707894,27.34691877881753,10.145513894463642,69.97054661727506,-0.03052610428762,113.6675273755398,457.6071052809151,15.288,0,6.579661476393928,0.0803721737110523,7.353544227959609e-09,-0.0052379438011469,-0.0031952173328989,0.000379832647686,16.25345918258887,15.392975722924904,25.860396281024023,25.50350324801764
0.64,31.222173726396868,131.01041698908165,10.626133144747792,13.134725896006517,-9.391881570118333,24.968242678903955,1.2132761573958954,1.6975507189922217,282.30782441796754,27.70821485683222,10.286860311457769,69.96744646043837,-0.0357451010389296,113.6619728487528,469.76816189919055,15.288,0,6.603403511412036,0.0814342259740299,7.408303811999951e-09,-0.005623356348712,-0.0034826939270644,0.0004131594934223,16.098915814418973,15.257667823803285,26.239539327676678,25.055276090083247
0.65,31.22217334681857,131.01041797814514,10.856118607212256,13.05158244485618,-9.29579371094646,43.54303497745088,1.235755772430036,1.66010813645602,436.7781447787475,28.01930180357113,10.410086938979756,69.96412267706373,-0.0414177968242495,113.65593529600764,480.3651733394419,15.288,0,6.627002868216486,0.0823487217306475,7.439708069087148e-09,-0.006018088474546,-0.0037757748320225,0.0004471156489842,15.97664417751949,15.150324992752234,26.565519455177338,43.59218905264259
0.66,31.22217296140214,131.0104189800364,11.089364756518144,12.96408656592277,-9.197586745216906,37.15335272617328,1.259007004217512,1.6213891554916495,383.51251517160017,28.341428710350463,10.537005411364763,69.96056977901124,-0.0475528020219341,113.64940552073408,491.4627956948592,15.288,0,6.65051599135206,0.083295671821725,7.4480352169945915e-09,-0.0064230956068549,-0.0040751022682243,0.0004826812088475,15.849670935380477,15.039138588287866,26.902872219278244,37.21002042764371
0.67,31.222172570323547,131.01041999423958,11.32573379781907,12.864034603162366,-9.091671589501347,25.81764004922832,1.283898696313843,1.5801395601572583,289.1562440103425,28.69273926458233,10.674076141780976,69.95678192921986,-0.0541592816455375,113.64237373207744,503.710882615974,15.288,0,6.673954911672061,0.0843284010527631,7.433617670753105e-09,-0.0068382299882826,-0.0043805237167916,0.000520235666248,15.708149484222808,14.915490945644065,27.27060843243129,25.897794782635227
0.68,31.222172173742308,131.01042102028407,11.565100796866348,12.769507404677318,-8.990385891558754,32.051563766131,1.3086656151029636,1.538872243556196,340.8999924858462,29.035226314749256,10.807784719876416,69.95275314789474,-0.0612463036554801,113.63483024792454,515.795748915962,15.288,0,6.697231687947348,0.0853352061954841,7.396829726215937e-09,-0.0072634044022134,-0.0046919311651141,0.0005591648534784,15.573775105097798,14.798267202566045,27.62880773699385,32.115159556329495
0.69,31.222171771731382,131.0104220579367,11.807408154629666,12.689838062820105,-8.900043999288028,39.296444352229,1.3322912015267374,1.499063953677252,401.0140726853634,29.347714576695267,10.93059738116914,69.9484775936004,-0.0688227752932427,113.62676554537175,526.9456157104203,15.288,0,6.720419017354053,0.0862538522626701,7.338057469955271e-09,-0.0076986333247514,-0.005009289628998,0.0005990350610428,15.45772525386506,14.697169054484627,27.95531427182255,39.347588634002854
0.7,31.222171364153382,131.01042310753945,12.05276170692832,12.610464820857375,-8.810676243345775,33.07976923063772,1.3562365439685586,1.4586141670178945,349.27032420985284,29.66129851530806,11.053577733351014,69.94394939502672,-0.0768974409039814,113.61817027473089,538.2540534568873,15.288,0,6.743512756374832,0.0871757265858664,7.257709950037791e-09,-0.0081443066747383,-0.0053328296020231,0.000640469371934,15.342501086035927,14.597017950702645,28.28276873352558,33.13967509200516
0.71,31.222170951055848,131.0104241689301,12.301123794315007,12.5232998566754,-8.71678334898702,27.317481507355566,1.3813949904063996,1.4162166243566348,301.33126406340574,29.99438620606381,11.183281907608183,69.93916248491546,-0.0854792089625733,113.60903491027751,550.3976740822355,15.288,0,6.766452978876882,0.0881549314612274,7.156236070100205e-09,-0.008600476735482,-0.0056625413011838,0.0006839214647794,15.218397783265257,14.489373852334566,28.63043289380994,27.38902549473671
0.72,31.22217053243599,131.01042524208364,12.552495902097776,12.426815203639032,-8.617401784617638,33.2844158371294,1.4080428514287855,1.371461683007758,350.79220534145287,30.351794079478697,11.321403733424546,69.93411075690996,-0.0945771490991165,113.59934974261816,563.5791041012066,15.288,0,6.789303875886016,0.089205623231048,7.034085290801629e-09,-0.0090673305817862,-0.0059985097310074,0.0007296205591523,15.083617868474947,14.372501752412072,29.003273318712974,33.34240287439357
0.73,31.22217010828583,131.0104263269884,12.806883491133048,12.355789725042788,-8.535884003034651,41.91369106039748,1.4321764438930964,1.3301789742602252,422.320318528234,30.65160369763146,11.438842497426272,69.92878777333726,-0.1042005925975094,113.5891047876994,574.753920543025,15.288,0,6.81206973039691,0.0900870390467507,6.891738285928024e-09,-0.0095450972523096,-0.0063408481135536,0.0007756328534704,14.979726860370263,14.282989242339202,29.31574452640188,41.95924217352418
0.74,31.222169678539,131.01042742379556,13.064337691506529,12.277555951191196,-8.450200644240434,26.51739549732749,1.4574770754973652,1.287000761292568,294.48281347105944,30.96982926765472,11.562615607117692,69.92318721873495,-0.1143584614390707,113.57829049380608,586.7355784177959,15.288,0,6.834684427059817,0.0910225888967405,6.729721119751825e-09,-0.010033997223325,-0.0066896620554641,0.0008238054998651,14.867629574566603,14.186551829343108,29.647281610483155,26.588585414550586
0.75,31.22216924354351,131.01042853152364,13.32458790422816,12.195082358710176,-8.362376837250373,30.837617093129623,1.4836822578290825,1.2423044970342343,330.24688556441487,31.300245169710035,11.690520057074597,69.9173027667101,-0.1250597089462839,113.5668972646464,599.3071044228147,15.288,0,6.857184981893345,0.091993975464108,6.548599690926113e-09,-0.0105334989863322,-0.007044534602274,0.0008740201446489,14.750887807230177,14.0862160420538,29.99134462954766,30.898272791339462
0.76,31.22216880318636,131.01042965045266,13.58772168522958,12.121847636226407,-8.281376993962853,33.141173422297264,1.5091204064283583,1.1985423754822004,349.27032420986166,31.60949387360968,11.810708948946846,69.91112805299518,-0.1363131438760657,113.55491565592573,611.1925574070159,15.288,0,6.879584389380325,0.0929031584532545,6.3489407966365195e-09,-0.0110440183688137,-0.0074057075683687,0.000925411161692,14.64556847761567,13.9962145719407,30.31318278796948,33.19715837287444
0.77,31.22216835740672,131.01043078072078,13.853786152176909,12.051311842471184,-8.202794767363974,31.039307565160176,1.5345543642175024,1.154595764783937,331.7687666960708,31.913063736907343,11.928684520537429,69.90465658229047,-0.1481276085597864,113.542336184439,622.9724995139342,15.288,0,6.901865257497422,0.0937956592676932,6.131347922931471e-09,-0.0115658391955384,-0.0077733291075189,0.0009784184280151,14.54384448899932,13.90966952777716,30.62896882229922,31.09865853379219
0.78,31.2221679062636,131.01043192213913,14.122735461729611,11.974069237208642,-8.120387875213062,25.630117314639943,1.5612045971585704,1.1086547537691251,286.8734378128899,32.23498706003706,12.05298248042323,69.89788180926051,-0.1605119179173884,113.52914938914948,635.5879571871434,15.288,0,6.924003201659118,0.0947421113254875,5.896459080373459e-09,-0.0120989646571175,-0.0081473529759583,0.0010338165150479,14.4345055610433,13.81661816121195,30.963705482434765,25.70154448120677
0.79,31.2221674498391,131.01043307445568,14.394505891843556,11.893408980769674,-8.036363419862157,36.109736530278575,1.5887163335557073,1.0612367109647278,373.6203323159534,32.56758196724753,12.180875058510225,69.89079706374517,-0.1734749314347661,113.51534575676256,648.7544568032746,15.288,0,6.946032779472927,0.0957199372089941,5.644939541036431e-09,-0.0126433903975351,-0.0085277284418997,0.0010914541225945,14.321481070023143,13.720475060874708,31.309367946944224,36.160244955355886
0.8,31.22216698791201,131.0104342382497,14.669269465713208,11.827423926776149,-7.96259187430233,36.57933365923616,1.614594499416228,1.0160483836633651,377.42502064505743,32.86263647334382,12.29525110058187,69.8833954142504,-0.1870257002994556,113.50091556899964,660.5453967059638,15.288,0,6.967970490775684,0.0965874363783739,5.377467494595754e-09,-0.0131998182810299,-0.00891488556416,0.0011497815039517,14.226261781499968,13.640479124569795,31.61589770053885,36.62904476872442
0.81,31.222166520578885,131.01043541323122,14.94695144393107,11.753096537871349,-7.883930613597783,24.088631982271863,1.6419771406268449,0.9684224170708186,273.9374926939919,33.1810768896148,12.417729844507912,69.87567001167938,-0.2011731514589463,113.48584922565834,673.390891023122,15.288,0,6.9898009090046855,0.0975236784931932,5.094762917267665e-09,-0.0137681403632103,-0.0093087005505857,0.0012108745276234,14.121482837219078,13.552154928561436,31.9465762414527,24.163942593988203
0.82,31.222166048020675,131.01043659887847,15.22741152924372,11.675702798516811,-7.803833400172003,30.715145938938903,1.6701841558877224,0.9193541572543606,328.72500443277005,33.509245426885904,12.54348577212974,69.86761391220341,-0.2159261295745249,113.47013721053791,686.7582461628481,15.288,0,7.011474635184912,0.0984885219171327,4.797581985135689e-09,-0.0143481230508327,-0.0097089657758785,0.001274328585005,14.01340415429129,13.461125012717924,32.28720869979992,30.77425737903929
0.83,31.22216557021708,131.01043779522274,15.510665955881402,11.615540786068976,-7.7355020608645795,38.8170089381214,1.6962125505047492,0.8733476675117166,395.68750322465047,33.79045118570215,12.652411797177988,69.85922003224515,-0.2312934620923189,113.45377002280291,698.3140073964379,15.288,0,7.033042954067037,0.099315343740157,4.486703718426519e-09,-0.0149400310861165,-0.010115810943856,0.0013379976848886,13.92608236347487,13.389019923002271,32.57904938164777,38.8638656860976
0.84,31.22216508706041,131.0104390025382,15.796799138426303,11.552504982520423,-7.665814712348227,24.29124671596561,1.7229547531288378,0.8260753621435449,275.4593748256452,34.079977837823286,12.764106456991383,69.85048132966952,-0.2472836553085758,113.43673849914232,710.3124803017948,15.288,0,7.054507202857182,0.1001666305685176,4.162947333040916e-09,-0.0155442192217939,-0.0105294243904585,0.0014039969107393,13.835665079019774,13.314388044384136,32.87942377728166,24.366280811834617
0.85,31.22216459883749,131.01044022001463,16.085588793720508,11.476492425938003,-7.588258255915519,26.41401829861981,1.7520343780578331,0.7750778837786563,292.96093233939376,34.40752458206858,12.889119351213628,69.84139086025068,-0.2639051184882383,113.4190335616192,724.011810375743,15.288,0,7.075850219985205,0.1011296735574946,3.8271593625121205e-09,-0.016160137718396,-0.010949387732948,0.0014736161664675,13.730203885430896,13.226380012392816,33.219045281624666,26.48340485790378
0.86,31.222164105373626,131.01044144811107,16.377171583615937,11.411002798803365,-7.518011621894643,32.864561859427475,1.779832161647152,0.7258049377945834,346.2265619465587,34.70549478666712,13.003476009594502,69.83194127127257,-0.2811664839632704,113.4006459001628,736.5854098786275,15.288,0,7.097086412948852,0.1020057951827542,3.480212023211935e-09,-0.0167884424681931,-0.0113760899920621,0.0015441247230086,13.637498344090638,13.150150692352232,33.527954060529986,32.920723284027275
0.87,31.22216360668949,131.01044268675048,16.67153237288201,11.350609175278226,-7.451512095177349,30.66286601912116,1.8071105419420013,0.6771112864638295,327.964078366998,34.988629755468466,13.112410095189896,69.82212527278973,-0.29907621636634,113.3815663697345,748.6317179495561,15.288,0,7.118188937753011,0.102838322183144,3.12301127846013e-09,-0.0174292421153246,-0.0118095521905798,0.0016160950104802,13.551098287477316,13.079929834660916,33.82144574763545,30.723533011547186
0.88,31.222163102817376,131.0104439358254,16.968647156538648,11.283983268881828,-7.381490319151965,26.617618754642177,1.8357243170069708,0.6261841672332594,294.4828134710418,35.290677525762185,13.227889850071696,69.8119355244245,-0.3176426231701819,113.36178598637608,761.5912640926814,15.288,0,7.1391693152028735,0.1037264464890621,2.7564997987080883e-09,-0.0180825541049366,-0.0122497345564598,0.001691098205839,13.457623513728382,13.003530541997216,34.134400494825854,26.68819249306373
0.89,31.222162593834696,131.01044519510378,17.26845680659328,11.21136473619356,-7.308131833737938,29.11154556374771,1.8657105794783648,0.5729528762486981,315.028134248087,35.61177282033061,13.349969109785947,69.80136457725443,-0.3368739844862099,113.34129578739434,775.4907907765041,15.288,0,7.160036871459665,0.1046705646515635,2.3816510723931588e-09,-0.0187483852600797,-0.0126965906244983,0.0017692696096944,13.357370850738183,12.921165696319203,34.466924362580855,29.17689558666134
0.9,31.222162079664727,131.01044646477905,17.571022258562774,11.155461016644578,-7.245875671155265,32.067662052546005,1.89315926754432,0.5233786052765155,339.37814235421445,35.88167090511548,13.453736861995909,69.79040475096122,-0.3567787635534622,113.3200866070602,787.2671926861203,15.288,0,7.1807993520595605,0.1054642124987287,1.9994643732280275e-09,-0.0194271427828459,-0.0131503368164429,0.0018471642945437,13.277093664731089,12.857296662165142,34.746522854317185,32.12775944091105
0.91,31.22216156037464,131.01044774465035,17.876292696438384,11.093418509043772,-7.180154418608193,24.607788126829178,1.921965063020836,0.47152179780118,277.7421810230789,36.17059765950359,13.564101184984128,69.77904853112274,-0.3773648987060376,113.29814983033872,799.9732648740505,15.288,0,7.201450579326963,0.1063137986946273,1.610982441230832e-09,-0.0201187725909413,-0.0136108850036369,0.001928272323866,13.189846429167828,12.787306320827504,35.04569138053242,24.68723392776496
0.92,31.22216103615998,131.01044903416087,18.184117224259783,11.025507773507224,-7.111163481582319,29.13163788364089,1.9521545388088857,0.4173248609945235,315.02813424806214,36.47850313962118,13.68106325481916,69.76728829794496,-0.3986402780534903,113.2754768869014,813.6268691392912,15.288,0,7.221980823508792,0.107219176915429,1.2172807585799303e-09,-0.0208228851677812,-0.014077929301514,0.0020126871561825,13.09595742670023,12.711452339770783,35.3643497608695,29.199955362407277
0.93,31.22216050692997,131.01045033354734,18.49456816343713,10.972623701074005,-7.052066005365838,34.48817708017054,1.9798887559381817,0.3666844192984274,359.1625070654728,36.7380177900184,13.780719836277004,69.75511633510547,-0.4206127185607988,113.2520592737265,825.2200190408092,15.288,0,7.242400424393942,0.1079823317361268,8.194621503006336e-10,-0.0215399734880282,-0.0145517394772432,0.0020967482888848,13.01998565596266,12.652326791837565,35.63307660572372,34.54690688415458
0.94,31.22215997257557,131.0104516431009,18.807732386340668,10.906893351519203,-6.985302799110896,25.26897180815081,2.0103091107972304,0.3116910431079148,283.0687504837787,37.03915539223711,13.895001327335784,69.74252497240516,-0.4432897127521505,113.22788882441392,838.7787166087681,15.288,0,7.262709054948157,0.1088678360554985,4.1866765791514176e-10,-0.0222703850277702,-0.0150324879915731,0.0021855520338112,12.929167555618786,12.579778846666526,35.94462276038332,25.350728397196566
0.95,31.22215943337804,131.01045296202696,19.12339231737233,10.843419414765618,-6.920368443998815,32.47307291671515,2.0406293158831885,0.2566241134434114,342.4218736174873,37.333091702258095,14.00660815212287,69.7295062591078,-0.4666789860843529,113.20295711422848,852.1185110461413,15.288,0,7.282893656700627,0.1097321831546239,1.6072231819220942e-11,-0.0230135763741438,-0.0155197706783363,0.0022763406568358,12.841243981923853,12.510137107871524,36.248683926083935,32.53813898480891
0.96,31.222158889049208,131.01045429111576,19.44177467817833,10.787513295527152,-6.860551504364961,31.83377869185181,2.069761785657484,0.2031719285846556,337.09533515678345,37.601345226096,14.108962180636713,69.71605219100519,-0.4907880289359482,113.17725596284748,864.3817133127628,15.288,0,7.30296216848965,0.110521050794792,-3.871096663842855e-10,-0.0237705401735661,-0.016014174106228,0.0023680361985993,12.762429614689736,12.449193666773654,36.52626560804557,31.901640372929588
0.97,31.22215833960727,131.0104556303071,19.762867397213743,10.728418946608413,-6.799130949758523,20.66630224940627,2.0998038369861014,0.1480879004584834,245.02188719299323,37.87991362725285,14.21484217064342,69.702154681005,-0.5156244171212823,113.15077707991814,877.20959241673,15.288,0,7.322927061293423,0.1113402459774519,-7.89642063725221e-10,-0.0245413790545053,-0.0165157082165167,0.0024628641291448,12.680106945212197,12.38526022670703,36.81441346243049,20.7732316899393
0.98,31.222157785331987,131.01045697881128,20.08645420450505,10.657389773760483,-6.730703255291274,29.722214508495984,2.132622979533638,0.0884487713807049,319.5937466429581,38.199788873592496,14.335282982573618,69.68780551277935,-0.5411954729426889,113.12351244266804,892.0595350072342,15.288,0,7.3427751028033725,0.1122808637067947,-1.1902405583787796e-09,-0.0253253909375262,-0.0170238694880899,0.0025629263909299,12.584044353877156,12.308780662455222,37.14496247160294,29.79875734400753
0.99,31.22215722607761,131.01045833702497,20.412651051607725,10.60756799799619,-6.675771532913689,32.40754043202685,2.161316244685533,0.0350101916831777,341.6609485517054,38.44535321994753,14.429206430756649,69.67299629430438,-0.5675086069248653,113.09545392139056,903.5371600751988,15.288,0,7.362520920341453,0.1130030683726337,-1.587584630703247e-09,-0.0261233117424031,-0.017539073093525,0.0026605871814423,12.513018123475549,12.255865183203335,37.39909648739973,32.47955034289296
1.0,31.22215666184231,131.0104597049487,20.74146189751588,10.5461480726557,-6.614039987726008,29.08648631350152,2.19273158555937,-0.0229085418586921,314.2672081822764,38.73114826908936,14.537306395460472,69.65771889159494,-0.594570514912427,113.06659413717324,916.9915586220836,15.288,0,7.382158634359384,0.113843532925994,-1.9803210259778863e-09,-0.0269351687573702,-0.0180612802005055,0.0027635782362391,12.428643383780472,12.190762964321834,37.694523165294775,29.1690295120203
1.01,31.2221560928004,131.0104610820873,21.072752953056945,10.487117936521008,-6.554138341387169,30.385988557440005,2.2239161993344125,-0.0807031876407792,324.9203161036979,39.008029526516125,14.642136856084392,69.64196484383699,-0.6223881558177127,113.03692541895612,930.1196046565371,15.288,0,7.401685482214034,0.114657806275476,-2.367060367507812e-09,-0.0277606637738278,-0.0185902465227062,0.0028685454132877,12.347273903564233,12.128717453539004,37.9807516930366,30.467369707262755
1.02,31.222155518877283,131.01046246864524,21.406585129284405,10.4315282835525,-6.496689575852455,25.490032982863443,2.2545971814343324,-0.1379420621735248,284.59063161540416,39.27173269218786,14.742175779561675,69.62572576483952,-0.6509680739048792,113.0064405265726,942.7075248853272,15.288,0,7.421106066869006,0.1154333540062708,-2.746372815085474e-09,-0.0286001822790935,-0.0191261598300471,0.0029751770118842,12.270125287143086,12.07089091861424,38.2534204275497,25.589920240800176
1.03,31.222154940138857,131.0104638644349,21.742909670366902,10.368245732044263,-6.434889057834292,20.961081869198928,2.287299512585468,-0.1986037965141334,247.30469339049705,39.56319520761077,14.851994714398268,69.60899326411614,-0.6803165265638292,112.97513251370432,956.7215049848394,15.288,0,7.440416908349181,0.1162905055949129,-3.116796034035863e-09,-0.0294536390678686,-0.0196689101871039,0.0030865991745665,12.184209516976455,12.005081243310354,38.55452879774451,21.086444357822007
1.04,31.222154356644097,131.01046526928627,22.081683147130448,10.31297533599104,-6.378305614943256,32.8999217425918,2.31843861591384,-0.257043951840835,345.46563688072297,39.82425023146232,14.950903879306644,69.59175866388617,-0.7104399437659153,112.9429942376414,969.3573393689024,15.288,0,7.459620640073192,0.1170582879979024,-3.4768247833587758e-09,-0.0303210831830428,-0.0202184724481804,0.0031983655914632,12.107831279443776,11.94850295936648,38.824416422126006,32.98251172784758
1.05,31.222153768119565,131.01046668396953,22.423122601600696,10.251596169980804,-6.318350144121967,20.132842804313164,2.351278250327381,-0.3184175570610547,240.45625879819983,40.10756735873444,15.05763400264246,69.5740133301522,-0.7413443774730182,112.91001894678804,983.1665330294225,15.288,0,7.478727502452751,0.1178915166742261,-3.824906332701199e-09,-0.0312035366191955,-0.0207754264465545,0.0033147568981659,12.024537536045584,11.885666652920582,39.117093582863504,20.272179422407735
1.06,31.22215317479288,131.01046810784155,22.767052811433445,10.185148226621887,-6.255675870370347,28.37434395341633,2.385678363640656,-0.3825229988432572,308.17968365593924,40.410067227856125,15.171119014853776,69.5557482620519,-0.7730361611213385,112.87619957543536,998.019995594192,15.288,0,7.497729552474053,0.1187811407614294,-4.159460042106648e-09,-0.0321004155134414,-0.0213393494050605,0.0034356381898871,11.935548574735874,11.817678994111068,39.42937909451727,28.477028986292808
1.07,31.222152576553125,131.0104695412143,23.113563648185696,10.13155835329512,-6.2010837653854285,33.28660463444081,2.4171975968849013,-0.4423061813271911,348.5093681440308,40.662040725564886,15.266509538995226,69.53695424428236,-0.8055216503443444,112.84152902113097,1010.4713022877908,15.288,0,7.516637368790047,0.1195222577076444,-4.4788449204838715e-09,-0.0330123864245802,-0.0219105955667289,0.0035551573808537,11.86170186522356,11.764303910352943,39.68987728264101,33.37718572722996
1.08,31.22215197330477,131.0104709843615,23.462733350804843,10.07559818794794,-6.145371763921828,22.639161901439767,2.449541498142262,-0.5036499447354118,261.00157857466235,40.92202444239885,15.364657505757933,69.51762218022118,-0.8388066785185444,112.80600072489553,1023.3997275795736,15.288,0,7.535452067492691,0.1202869294412125,-4.781386954338857e-09,-0.0339398634266861,-0.0224893584777115,0.0036782849903281,11.785282453445337,11.70877781965167,39.95856147432599,22.776864762683093
1.09,31.22215136531156,131.01047243653866,23.814358501790338,10.006642926373305,-6.082199715299057,20.880306946825847,2.485516941598709,-0.5710554520243541,246.54375332474407,41.23318143901679,15.48099767891858,69.49774285176055,-0.8728969378430947,112.7696082637604,1038.9869625642834,15.288,0,7.554162806048901,0.1212020308063026,-5.065387527014662e-09,-0.0348820471938383,-0.0230750846284814,0.0038090117837484,11.693967814250664,11.639315871059896,40.27958507382191,21.035472825442376
1.1,31.22215075264669,131.01047389753967,24.168384983152265,9.94487693771592,-6.023651790556976,41.17997665028489,2.519954591532977,-0.6362765642564289,413.1890617385841,41.515168184672575,15.586875699443794,69.47730692066906,-0.9077979701725976,112.73234536101354,1053.210651316614,15.288,0,7.572773095378402,0.1220313985054549,-5.3290914516069906e-09,-0.0358389624737611,-0.0236677298450222,0.0039401337765302,11.611183365229676,11.578229067472224,40.570717233284746,41.26191338180549
1.11,31.222150134928366,131.01047536845584,24.525115965844307,9.89702151195604,-5.973675355040252,30.33949169595478,2.550882400080347,-0.6961271340409184,324.1593910376397,41.7388564632007,15.67184002518946,69.45630486172806,-0.9435152651820958,112.69420578140549,1064.5543781299766,15.288,0,7.591300140919664,0.1226894109733767,-5.5706717933704596e-09,-0.0368122065102936,-0.0242682077934581,0.0040687991461895,11.544693669816184,11.533040065402346,40.8022128061809,30.454496390101358
1.12,31.22214951221809,131.01047684912285,24.88450713734256,9.824028069422248,-5.909090362547972,11.888162698046232,2.5889509417855128,-0.7677239158858244,172.73281794065943,42.06551842818388,15.793529396246448,69.43472725914334,-0.9800537858344638,112.65518383620667,1081.2453590319897,15.288,0,7.609736047324015,0.1236501199935527,-5.7882958529685406e-09,-0.0378015955390358,-0.0248763392606601,0.0042107091080668,11.449269973226851,11.460377619496152,41.13896526184306,12.190999931310516
1.13,31.22214888507821,131.01047833793626,25.246120154137508,9.765103061055306,-5.8531415990778735,35.63381876131221,2.6234404387594146,-0.8338447945588067,367.5328077900705,42.33302059747348,15.894046998711593,69.41256400281625,-1.0174192135998008,112.61527305285898,1095.0027134998322,15.288,0,7.628068906218543,0.1244369410733702,-5.980084645708241e-09,-0.0388053635167934,-0.0254909901692628,0.0043498551139605,11.370308501911683,11.403775282475117,41.41520958544832,35.73998847777062
1.14,31.222148252881983,131.0104798367003,25.6104515795634,9.716009490985783,-5.803261775129274,20.050495236808025,2.655322294098816,-0.8960217418900526,239.69531773195544,42.556986199842775,15.978901898732795,69.38980563011053,-1.055615856712806,112.57446841122564,1106.5810014322378,15.288,0,7.646320102273406,0.1250957971547085,-6.1440731602585596e-09,-0.0398260434251491,-0.0261136287578579,0.0044877288215784,11.302877171585411,11.358615809706867,41.64696979114318,20.24539332017877
1.15,31.22214761609285,131.01048134409987,25.977141217574253,9.641717269323363,-5.738860707188081,19.77153488158707,2.694783033429099,-0.9707502577952069,237.41251153546767,42.88833796140163,16.10218313881569,69.36644261864866,-1.0946477483751091,112.53276516729684,1123.8403378977755,15.288,0,7.664453050678267,0.126070323753726,-6.278329772233904e-09,-0.0408618525953431,-0.0267431132966935,0.0046401342982863,11.206496242306848,11.285766917198403,41.98838637608082,19.97793290693712
1.16,31.22214697484238,131.0104828597618,26.34608922579704,9.595287063208556,-5.691059826396006,50.59423629536372,2.7262574935860755,-1.0328167462684463,490.0437743845894,43.09731034575542,16.181595375731916,69.34246476888767,-1.1345195824254948,112.49015785509084,1134.7785701157993,15.288,0,7.682490574680705,0.1266851258263912,-6.38081299594379e-09,-0.0419127140814749,-0.0273793361617513,0.0047824874741058,11.142447841809664,11.244522968135952,42.20482998456649,50.678160352007716
1.17,31.222146328310128,131.01048438606745,26.717946031240967,9.535725813119232,-5.635852577235755,9.557132057296888,2.761838174695482,-1.1018285806415304,153.70937929486794,43.36194609018888,16.28087273897675,69.31786247959454,-1.1752347603225233,112.44664237408068,1148.7163654345568,15.288,0,7.700456030445154,0.1274635610853405,-6.4494167475397755e-09,-0.0429819350827235,-0.0280242073412203,0.0049344312799843,11.06340384992737,11.189074261230662,42.47809533289904,10.009023403156556
1.18,31.222145677584194,131.01048591989138,27.091859000702826,9.458787679966056,-5.570833570325017,24.97234345918657,2.803134988955372,-1.1804655008514884,280.02501822196746,43.704072764089545,16.407992536871024,69.29262563984155,-1.2167970668302774,112.40221419406404,1166.872755712635,15.288,0,7.718311307344705,0.1284697934069035,-6.482096752312768e-09,-0.0440651608125432,-0.0286750602778334,0.0050985190553798,10.964498541691624,11.114511553876827,42.8303863664729,25.15688777270719
1.19,31.222145022178065,131.01048746264874,27.46821545392813,9.420557868920705,-5.528526046089774,43.09166718436236,2.8324613522631714,-1.2398525483699905,428.4078130529292,43.86938458605486,16.47157895348768,69.26674383381226,-1.2592103482501291,112.35686870361624,1175.6743999193448,15.288,0,7.736087128864399,0.1289562815661711,-6.476621770699675e-09,-0.0451649486709342,-0.0293333527260813,0.0052453459714303,10.910335310637816,11.083966354342556,43.00231268862121,43.20245192557496
1.2,31.22214436167682,131.01048901556882,27.847347696813408,9.351449747481585,-5.4686162058646826,5.085378186716143,2.871824345078911,-1.3159462304349347,117.1843741360236,44.17375131207091,16.585079893129283,69.2402074349857,-1.3024768765542585,112.31060295646556,1192.0012864356163,15.288,0,7.753785558331265,0.1298515386094893,-6.430792370928802e-09,-0.0462828554939966,-0.0299999321779466,0.005412272889281,10.820775953417025,11.019132148329794,43.31604672778992,5.986665253069709
1.21,31.222143697167294,131.01049057550756,28.228402641183763,9.284121850385802,-5.410018161802226,34.73542277282051,2.910948792757581,-1.3919757667501895,359.92343213200894,44.46965688517911,16.695601407548796,69.21300576900838,-1.3466000741991069,112.26341275572716,1207.9802114846425,15.288,0,7.771377787158,0.1307219339520241,-6.342392645390702e-09,-0.0474145012810406,-0.0306721459551677,0.0055815436601753,10.7334269065834,10.956705017702614,43.62111541300226,34.88496545241022
1.22,31.22214302782813,131.01049214487358,28.612033197296224,9.243187077667912,-5.366814462344066,25.34678502568149,2.941377801480205,-1.4540079078787596,283.0687504825761,44.63922333486654,16.760590170838547,69.18512865889741,-1.3915822201671215,112.21529511158757,1217.1651730294916,15.288,0,7.7888985630314975,0.1312209555516372,-6.2090529803739884e-09,-0.048563849633615,-0.0313522586586625,0.0057384300387226,10.67655173598625,10.92466024776696,43.79743829437499,25.558273680069355
1.23,31.22214235399339,131.0104937227211,28.997980858645622,9.173641236512283,-5.307471372564182,10.278422774265854,2.9816798249997185,-1.5326039481642384,159.79687382222795,44.94260239047848,16.87380059602253,69.15656642637117,-1.437424461246755,112.1662482251544,1233.7199532949198,15.288,0,7.806328160033287,0.132113340654397,-6.028492198346361e-09,-0.0497292559799043,-0.0320392320843159,0.0059158537890891,10.58695836412562,10.860662961707336,44.110098527568994,10.81134885975316
