Time,Latitude,Longitude,Altitude,Angle of Attack,Angle of Sideslip,X-Acceleration,Y-Acceleration,Z-Acceleration,Thrust,True Velocity,Ground Velocity,Pitch,Roll,Yaw,Dynamic Pressure,cp,parachute_deploy_gain,Wind Speed,Mach,omega_x,omega_y,omega_z,Cmq,Angle of Attack(total),Angle of Attack(gust),True Velocity(gust),Acceleration
0.0,31.222186000000004,131.010384,3.000000003643237,0.0,0.0,0.0,0.0,0.0,2.2828121974499247,0.0,0.0,69.99999999623421,0.0,113.69999999388332,0.0,15.288,0.0,0.0,0.0,0.0,0.0,0.0,-0.0,0.0,90.0,0.0,0.0
0.01,31.22218600000153,131.01038399999584,2.99999882256592,0.0,0.0,0.0,0.0,0.0,34.24218696174923,7.502283530665459e-11,7.190531319924593e-11,69.99999999623329,-4.83564628150269e-13,113.69999999388072,3.446445726795683e-21,15.288,0.0,0.0,2.204725565824978e-13,-3.659182332138578e-19,7.589415207398531e-19,4.811147140404426e-19,-1.5108918610345807e-31,0.0,89.9999999995224,7.502283530665459e-11,0.0
0.02,31.22218600000288,131.01038399999217,2.999997775701936,0.0,0.0,0.0,0.0,0.0,25.871876237766408,1.5320717031631675e-10,1.4674636035870463e-10,69.99999999623222,-9.67129256300373e-13,113.69999999387804,1.4372842949972735e-20,15.288,0.0,0.0,4.5023593667086093e-13,-7.284483346386986e-19,1.5178830414797062e-18,9.757819552369542e-19,-6.170906918166791e-31,0.0,89.99999999902465,1.5320717031631675e-10,0.0
0.03,31.22218599928065,131.01038400193067,3.000201659671132,18.81500467334555,-0.00012974450181,11.96616230539064,-1.8916256735984712e-05,3.349833086198469,180.34219359854663,0.0882870268161719,0.0553390044312322,69.99999999799445,-4.212591857125379e-12,113.69999999488518,0.0047728553458352,15.288,0.0,0.0,0.0002594525584132,3.2187251995663407e-17,-7.20264389268894e-10,1.2365134327422308e-11,1.6874092354518158e-13,18.815004673776716,89.46786891739345,0.0882666465974854,12.426199017587786
0.04,31.22218599548236,131.0103840121632,3.001799604587872,9.46752327608497,-4.6177622759613696e-05,55.21900012092241,3.931876292165237e-06,3.349616504302861,548.6359724538078,0.3767519978512604,0.1853356633749705,70.00000000507204,-2.4624598767003407e-11,113.70000000019972,0.086915163246288,15.288,0.0,0.0,0.0011071759353184,1.6174128009138757e-15,-1.3693172015529268e-08,2.7753303060112748e-11,1.3689612277852356e-11,9.467523276196548,87.63554493451223,0.3767447442872393,55.32050167054111
0.05,31.222185984749512,131.01038404118162,3.00777936418888,5.376730308971262,-2.257790939128127e-06,80.28807156553681,5.266841443842784e-05,3.348887800834877,761.6984298824644,1.018787885905993,0.4366201147110198,70.00000000894464,-1.1355399380652658e-10,113.70000001523856,0.635552918586145,15.288,0.0,0.0,0.0029939522895272,1.6418815498809788e-14,-9.32122351075408e-08,4.303264669380585e-11,2.5199270302492604e-10,5.3767303089717045,83.57022052969386,1.0187875312530217,80.35788377762394
0.06,31.22218596447235,131.01038409608267,3.0201664202003013,4.296730121134882,2.4863835723705905e-05,60.21296515808257,0.0001057204249726,3.347700952379021,590.4875390737208,1.721098934225416,0.7081674028809783,69.99999995523842,-3.0560354507026086e-10,113.70000004366592,1.8138247671743823,15.288,0.0,0.0,0.0050578622752421,8.328976953118383e-14,-3.2824985336199985e-07,5.923438275930214e-11,1.4991363363716091e-09,4.296730121206683,79.20467073327266,1.7211028398275985,60.305955550063224
0.07,31.22218593493329,131.01038417609837,3.038741944736831,3.8204913578752526,4.8016684030909405e-05,91.4060317508128,0.0001597686613101,3.346072557365335,855.2937749779139,2.4375792548422868,0.9844712334613328,69.99999973536046,-5.939103491363046e-10,113.7000000850886,3.6383156301599167,15.288,0.0,0.0,0.007163413150771,2.709313825263564e-13,-7.906546256197275e-07,7.920022733617308e-11,5.114174483651565e-09,3.820491358176508,74.87999294483174,2.437586797285377,91.46725557277466
0.08,31.222185894468456,131.01038428575305,3.0647976109320942,3.588632851766762,7.220043782492885e-05,19.18449428359557,0.0002119618497595,3.3440615022685813,241.2171988638848,3.1292508166901074,1.2522236515868983,69.99999919480445,-9.914748373602156e-10,113.7000001418522,5.996012698481753,15.288,0.0,0.0,0.0091960591623389,6.80386533246681e-13,-1.5973238302190878e-06,1.0839624626357699e-10,1.3263625118823921e-08,3.58863285249208,70.86684630658345,3.1292621579083604,19.473766155861934
0.09,31.22218584634549,131.01038441616095,3.0957981580345013,3.551302481506045,9.685468678862004e-05,57.102946699906326,0.0002554087225869,3.341892818148368,563.0937377043176,3.701810007254615,1.479132491047967,69.99999812344194,-1.4359264356978275e-09,113.7000002093888,8.390904013834115,15.288,0.0,0.0,0.010878666406854,1.440096519545733e-12,-2.748643691533636e-06,1.5214952332699618e-10,2.6999776649034504e-08,3.5513024828250237,67.68737872952666,3.701825221153239,57.20065357568538
0.1,31.222185790329306,131.01038456796124,3.1319266121977414,3.608446747536112,0.0001234669721807,54.26147302645416,0.0002914860332524,3.3396271157106168,538.7437595981919,4.174070299823608,1.6716491241860567,69.9999963052332,-1.902380107712657e-09,113.70000028805804,10.668380938744466,15.288,0.0,0.0,0.0122665227999911,2.687800116751415e-12,-4.315796035622946e-06,2.1749089204950437e-10,4.7802076800548326e-08,3.608446749645647,65.17160335282355,4.174089693970246,54.36414778470795
0.11,31.222185727066616,131.0103847393952,3.172681775073216,3.633547373470009,0.0001485939126744,42.987553988990406,0.0003293995000288,3.337005588796181,442.8656393052949,4.672024955140527,1.8729475711242067,69.99999349387662,-2.3433348587116544e-09,113.70000037699285,13.365573690709628,15.288,0.0,0.0,0.0137298902182575,4.5789425819531184e-12,-6.340230783164189e-06,3.1157625832417107e-10,7.860218435507205e-08,3.6335473765043056,62.62546922225161,4.672048296217748,43.116880735560244
0.12,31.22218565692512,131.0103849294629,3.2177790417108385,3.650108937861461,0.0001727442530266,46.86777100765684,0.000367618259785,3.334068179146888,475.58594813540446,5.17479364099247,2.0758708919414386,69.99998941286465,-2.702771525550512e-09,113.70000047573096,16.396890189902592,15.288,0.0,0.0,0.0152074069417046,7.288473386564583e-12,-8.86736416607888e-06,4.42271554299792e-10,1.217615295152289e-07,3.6501089419435786,60.16906436414164,5.174820775596283,46.986210423745625
0.13,31.222185580265183,131.0103851371844,3.2669395832841857,3.7280113734654137,0.0001995014041665,51.64515456841877,0.0003986198234033,3.3311573548369657,515.9156326236895,5.579364582999854,2.2451120211463422,69.99998375846928,-2.9114380666036422e-09,113.70000058383452,19.060875702782603,15.288,0.0,0.0,0.0163963474924215,1.100846422415094e-11,-1.1941028436408576e-05,6.179653149059831e-10,1.7678562106638216e-07,3.728011378795934,58.279338776943774,5.579395920607139,51.75247433579817
0.14,31.22218549718016,131.01038536230575,3.320091807147376,3.768719651034081,0.0002242721760019,48.1660778383537,0.0004326225136175,3.32784677779744,486.2390860568404,6.025734265159953,2.428648685938864,69.99997621008868,-2.890941335368725e-09,113.70000070125378,22.232643351545065,15.288,0.0,0.0,0.0177081261985351,1.5941871344608664e-11,-1.560901486259027e-05,8.477542742712431e-10,2.495765160917323e-07,3.7687196576976176,56.27980129251342,6.025769493750979,48.280903250602165
0.15,31.22218540777004,131.01038560455507,3.377159065217065,3.821894709649632,0.000249725644238,46.56959330999435,0.0004643042952466,3.324387732286376,472.54218587214,6.441023336496372,2.6014999612196745,69.99996641132823,-2.546763407193136e-09,113.70000082794672,25.402620271850456,15.288,0.0,0.0,0.0189285691155931,2.2314099732464315e-11,-1.992367942778425e-05,1.1417519574710292e-09,3.4051816697623295e-07,3.821894717796148,54.501255563441134,6.441062563308839,46.68809885900716
0.16,31.22218531193176,131.01038586421257,3.4382223512025254,3.8463320955387794,0.0002733212404609,36.974247749122085,0.0004987816203583,3.3205066466509234,391.1218908297564,6.895451966878468,2.7877331692857847,69.99995397923414,-1.77088415515292e-09,113.70000096417354,29.113317717489338,15.288,0.0,0.0,0.0202640360420561,3.0367358387834494e-11,-2.4945905791363795e-05,1.5114297685186711e-09,4.5643121540033697e-07,3.846332105235269,52.641145594326446,6.895494900078523,37.12304892183151
0.17,31.222185210004127,131.010386140357,3.503019838429153,3.8860314262554336,0.000297865039677,46.520531453299206,0.0005306403365217,3.31650761597812,471.78125980632376,7.314788342774694,2.9619016331667103,69.99993849340957,-4.3039914767238207e-10,113.70000110959404,32.761746921137856,15.288,0.0,0.0,0.0214963781445172,4.0366633128431416e-11,-3.0713078585132897e-05,1.96747427715988e-09,5.961228045584824e-07,3.886031437653654,51.00464968745696,7.314835131305714,46.63860064094784
0.18,31.22218510147516,131.01038643438045,3.571950002194137,3.9107265153396016,0.0003214293682635,38.895647526122765,0.0005639254295027,3.312149448254175,407.10156721191447,7.754626295791602,3.1430587898572058,69.9999195084231,1.6149322372810674e-09,113.70000126508234,36.81988229018681,15.288,0.0,0.0,0.0227889722876034,5.2593391349219385e-11,-3.731786027786564e-05,2.525509173087448e-09,7.6786585232224e-07,3.9107265285284982,49.36615848311875,7.754676785798701,39.036415444581515
0.19,31.222184986476247,131.0103867459258,3.644912152926752,3.920599115663931,0.0003437679584038,43.86258669386953,0.0005989384366483,3.307389681300437,448.9531328318269,8.219206165926856,3.332657190859447,69.99989653019398,4.538529095696477e-09,113.70000143063515,41.36350714675367,15.288,0.0,0.0,0.02415428010977,6.735860419174937e-11,-4.481243905342629e-05,3.199401151670645e-09,9.773118416308382e-07,3.92059913071168,47.71893898797248,8.21926016487149,43.987104227715655
0.2,31.222184864792144,131.01038707557822,3.722074668489528,3.943376465171875,0.000367328732016,40.28070981710589,0.0006315894240138,3.30251450988504,418.51563019916136,8.65238089736321,3.511445117640573,69.99986902534273,8.534090245934178e-09,113.7000016067622,45.83799876721736,15.288,0.0,0.0,0.025427299120469,8.499785987217288e-11,-5.328041996372527e-05,4.006766070954748e-09,1.2232205148646746e-06,3.9433764822533854,46.2587826635041,8.652438597225508,40.41586552155969
0.21,31.22218473678744,131.01038742234647,3.803156063113743,3.9664546506877016,0.000390962054969,38.67679184347145,0.0006636984664108,3.297405915846789,404.8187610144644,9.079179692250786,3.688002035198235,69.99983642883521,1.3827831253856693e-08,113.70000179318536,50.47126980736161,15.288,0.0,0.0,0.0266815841422463,1.0586558589671407e-10,-6.275155280099118e-05,4.961340042512481e-09,1.5117124669161171e-06,3.9664546699249135,44.88773728276958,9.079241104426773,38.817098210937615
0.22,31.2221846022986,131.01038778667507,3.8882846911135607,3.956175711337521,0.0004112685792646,46.713636108302936,0.0007011135033803,3.291572407481395,472.5421858721365,9.580256326712124,3.889976788904857,69.99979815126248,2.0662823443484168e-08,113.70000199039316,56.195522894218605,15.288,0.0,0.0,0.0281541581291438,1.3033127211465288e-10,-7.330053770532661e-05,6.0817207473359025e-09,1.8632831045819008e-06,3.956175732680424,43.35679625546934,9.580320928629488,46.8294591882524
0.23,31.222184460898035,131.01038816972698,3.977794004014759,3.9879066397329104,0.0004360962274406,38.89105719050748,0.0007308686121188,3.286096544282012,406.3406421461021,9.977039034039262,4.056142701351626,69.99975353557706,2.9316661139418326e-08,113.70000219928508,60.9462612310605,15.288,0.0,0.0,0.0293202403623685,1.5880617816859538e-10,-8.505067486192354e-05,7.393319440773217e-09,2.2514912291167663e-06,3.987906663538912,42.20670487756048,9.97710753587448,39.0296395118868
0.24,31.222184313516166,131.01038856897196,4.070963590490852,4.003523997322975,0.000459165577055,40.0792299321398,0.0007630441688766,3.280134925833028,416.2328240017114,10.408422364424831,4.234121060914368,69.99970190737699,4.010976417051318e-08,113.70000241888,66.32994780718496,15.288,0.0,0.0,0.030588009649109,1.91711512587616e-10,-9.795845222523724e-05,8.904557280909524e-09,2.7052895870113487e-06,4.003524023611085,41.011349410369874,10.408494489985014,40.21323112692186
0.25,31.22218416001652,131.01038898478134,4.167901030441617,4.0261356185860135,0.0004830526730531,41.17760020658354,0.0007934613160587,3.2740610008587527,425.36408079150686,10.816813039390448,4.4041629376391525,69.99964258149416,5.3372865854010094e-08,113.70000264972064,71.63651430352668,15.288,0.0,0.0,0.0317882126436337,2.2947426169209347e-10,-0.0001121037688082,1.0637152702866709e-08,3.217380562698304e-06,4.026135647516394,39.93186687113378,10.816888917126896,41.30755663120434
0.26,31.222184000702686,131.0103894163294,4.26837241014618,4.053359329950934,0.000507503069958,44.80261175215926,0.0008224724146494,3.2678597736729302,455.8015834241788,11.207047269494833,4.567925492611352,69.99957484039399,6.947299261165984e-08,113.70000289176392,76.89781807056055,15.288,0.0,0.0,0.0329350617559806,2.7254099134167665e-10,-0.0001275114371842,1.260720913253598e-08,3.7915697709142366e-06,4.053359361668992,38.945390435244384,11.207126987890645,44.921630958721536
0.27,31.22218383516388,131.01038986473338,4.372698316214008,4.0614460923241,0.0005296455772492,41.029837477288126,0.0008548809954683,3.2610328932384265,423.84219965987256,11.645685385842508,4.748226940060522,69.99949794024376,8.879821051920497e-08,113.70000314600205,83.0342688744587,15.288,0.0,0.0,0.0342241635563461,3.2137296827284217e-10,-0.0001442952656441,1.4842505534226832e-08,4.458527942364847e-06,4.061446126801262,37.8838346421185,11.645768582375233,41.15922617924542
0.28,31.222183663504484,131.01039032970942,4.48079961904222,4.081133040992532,0.0005533279247169,47.27661484082626,0.0008845140695959,3.254218495915602,476.3468732012221,12.047344998676092,4.915789434712848,69.99941106884992,1.1178948978424788e-07,113.70000341275257,88.85982357848233,15.288,0.0,0.0,0.0354045979054623,3.764736350660473e-10,-0.0001625146963723,1.7365685655384934e-08,5.194620655212288e-06,4.081133078439725,36.956255322213885,12.047431915223257,47.38848224631549
0.29,31.22218348566054,131.0103908114315,4.592727908358551,4.1001100265020245,0.0005770279952742,37.989969791857405,0.0009138463939581,3.247164755122801,397.97031042211177,12.446314684600782,5.082367374004485,69.99931338876085,1.3891902435864665e-07,113.70000369260468,94.8417675268915,15.288,0.0,0.0,0.0365771315767517,4.3836067907166327e-10,-0.0001822432988888,2.0202163500922312e-08,6.018074062137429e-06,4.100110067036654,36.07377590258778,12.446405323946324,38.12849176886316
0.3,31.222183301933686,131.01039130907952,4.708251093558373,4.112858061667493,0.0005998635114143,35.655053282557844,0.000944131403186,3.2397207148238625,378.1859457108711,12.860033399289696,5.253940723820665,69.99920403105713,1.707002607527005e-07,113.7000039856728,101.2505662360602,15.288,0.0,0.0,0.03779301412572,5.075709863465428e-10,-0.0002035013069687,2.3370674033523645e-08,6.94335970778e-06,4.112858105337573,35.19685285507256,12.860127625629724,35.80193592228613
0.31,31.222183112488807,131.0103918222051,4.827243246502713,4.136140889545823,0.0006242383343011,37.56633644061071,0.0009716215464757,3.232339252743767,394.1656220930212,13.2364445751808,5.4126574282679245,69.99908210036875,2.0768081583188525e-07,113.7000042923011,107.26326115439352,15.288,0.0,0.0,0.0388992619788015,5.846561731689753e-10,-0.0002263323252403,2.6893437641668458e-08,7.948283231812338e-06,4.1361409365698805,34.43286455705216,13.236542630309057,37.70514091683033
0.32,31.22218291741533,131.01039235056504,4.949637017503345,4.1622282001352975,0.0006491019906456,40.83513712643371,0.0009979686925508,3.224840963348891,421.55939346242695,13.59846554462374,5.566374262777002,69.99894668612772,2.504388718903276e-07,113.70000461297312,113.2095365840355,15.288,0.0,0.0,0.0399632243410653,6.701756367872645e-10,-0.00025078340164,3.0793566854276295e-08,9.047716714467492e-06,4.16222825066026,33.72644865222576,13.598567505326,40.96227562489027
0.33,31.222182716732533,131.01039289410716,5.075419569102976,4.187801887681037,0.0006739743721461,40.48743503284469,0.0010239291638211,3.217136801802925,418.5156301991682,13.956637761217308,5.718704299733134,69.99879684673242,2.995902922462564e-07,113.70000494831164,119.25032483364384,15.288,0.0,0.0,0.0410158804634189,7.647061680070125e-10,-0.0002769136723495,3.509664608790402e-08,1.0253455741189656e-05,4.187801941818244,33.053267359159875,13.956743628864118,40.61505097607
0.34,31.222182510255863,131.01039345333336,5.204736257784645,4.19642921746386,0.0006961879027693,31.814592723444047,0.0010535137542081,3.208669900766693,345.46563688075645,14.367047160772364,5.88887983533068,69.99863160305904,3.557915789971256e-07,113.70000529927128,126.36523219087664,15.288,0.0,0.0,0.042222056531773,8.688448410811866e-10,-0.0003048202762282,3.9835373705550826e-08,1.1618525957862828e-05,4.196429275109305,32.30947868183619,14.367156517712404,31.97598901989736
0.35,31.222182298183583,131.0103940277045,5.337435501771672,4.210915783240843,0.0007193441544952,34.813487415034444,0.0010813034848195,3.200164272309822,370.5765700527033,14.754132934586384,6.050986755458457,69.99844991734221,4.1975736284587617e-07,113.70000566632532,133.26448209504355,15.288,0.0,0.0,0.0433596939127697,9.832256819293898e-10,-0.0003345386312107,4.503361101379695e-08,1.309465610343774e-05,4.210915844572415,31.63649055965014,14.75424592890194,34.96026256388454
0.36,31.222182080444604,131.0103946174141,5.4735747500461605,4.22903876037745,0.0007431682866607,39.2632255716727,0.0011077666085529,3.1915717453569297,407.8625232777193,15.124417129017054,6.2072589919251575,69.99825073022951,4.922382611919288e-07,113.70000605036684,140.03566173682628,15.288,0.0,0.0,0.0444479595865755,1.1084921261805627e-09,-0.0003661511460057,5.0723697896912267e-08,1.4691545926915382e-05,4.229038825557203,31.017264542603208,15.124533865618538,39.39272792946638
0.37,31.22218185710795,131.01039522227452,5.613102797925907,4.249164960780052,0.0007674149135003,37.28328237034959,0.001133274451316,3.1828514669894137,391.1218908297666,15.483077353331511,6.359470679857624,69.99803294268581,5.740349991123437e-07,113.70000645214331,146.75405277514704,15.288,0.0,0.0,0.0455020695186381,1.245311285088233e-09,-0.0003997125883071,5.6934243389647934e-08,1.641828325195534e-05,4.2491650299519,30.439178816713017,15.483197898584232,37.418894813348615
0.38,31.2221816281124,131.0103958424523,5.756069531572451,4.260095806433531,0.0007900626414612,38.9278000801764,0.0011607546399008,3.1735466295306622,404.8187610144602,15.87126705947922,6.521735074464384,69.99779542676283,6.659911329739736e-07,113.70000687263192,154.20298254405043,15.288,0.0,0.0,0.0466429667223463,1.3943646956867835e-09,-0.0004353006984059,6.369875435270817e-08,1.8328108041903096e-05,4.260095879559656,29.83470194713067,15.87139116222873,39.05694584372078
0.39,31.22218139339905,131.0103964781077,5.9025231349944285,4.274091258047817,0.0008133283308351,33.320076729592266,0.0011870382950339,3.164143363712209,357.64062493382744,16.24457853509073,6.678818328235205,69.9975369905506,7.690136753559805e-07,113.70000731287368,161.54010621938565,15.288,0.0,0.0,0.0477401448128051,1.5563705124515804e-09,-0.0004730068442167,7.105463478762673e-08,2.0383860516746246e-05,4.274091335289374,29.274934656826048,16.244706292406182,33.46997636540994
0.4,31.22218115316572,131.01039712870306,6.0523126585892895,4.286421841403391,0.0008363022448449,31.88018820767003,0.0012133780841982,3.1544430614236454,345.465636880754,16.62063299903514,6.836764518435374,69.99725641601981,8.840594270905819e-07,113.70000777359816,169.10340080049767,15.288,0.0,0.0,0.0488453895716005,1.7320643186450851e-09,-0.0005128553637434,7.9027539265021e-08,2.2612406375611563e-05,4.286421922834417,28.730746964325096,16.620764365084565,32.03586915718869
0.41,31.22218090752676,131.01039779392735,6.205351877049411,4.30025870409831,0.0008595777771371,35.882550741685804,0.0012389121673015,3.1445895889870297,378.94687077668647,16.987310563534386,6.99141560549392,69.9969524610574,1.0121301778427253e-06,113.70000825570062,176.64448930727934,15.288,0.0,0.0,0.0499230826371405,1.922193031274436e-09,-0.0005548883906878,8.764667734700782e-08,2.5005077415911235e-05,4.300258789847355,28.21875643368965,16.987445585695873,36.020076248499606
0.42,31.222180656535848,131.0103984736348,6.36160173428776,4.322008670726048,0.0008844838439129,40.34064925656127,0.001261804338223,3.134918999355981,416.2328240017114,17.318628721060172,7.133856886815013,69.99662385300175,1.154276942054023e-06,113.70000876021427,183.59942989625057,15.288,0.0,0.0,0.0508968652507098,2.1275184665783874e-09,-0.0005991661829955,9.694534598491077e-08,2.752657757470936e-05,4.322008761057615,27.772396468009568,17.318767655457478,40.462275036947325
0.43,31.222180400205527,131.0103991677914,6.521055075967404,4.339436441324956,0.0009085827200945,35.541853595187746,0.0012854696362701,3.124839917627212,375.9031395134336,17.662848429084132,7.280642039343927,69.99626930133451,1.3115939750280808e-06,113.70000928827632,190.96736675963504,15.288,0.0,0.0,0.0519085689713619,2.3488101247838237e-09,-0.0006457514522491,1.0695800287133593e-07,3.0255957891170616e-05,4.339436536261635,27.322335771349252,17.662991148924057,35.67895714766603
0.44,31.22218013836212,131.0103998768696,6.683849332059896,4.342209064313268,0.0009296474314902,32.82948243168077,0.0013129688908547,3.113754688841357,353.0750125389216,18.063580761318697,7.446730341918701,69.99588746395321,1.4852372182848018e-06,113.7000098413532,199.7278270846888,15.288,0.0,0.0,0.0530863610987301,2.586862292117705e-09,-0.0006947575786514,1.1773083546077225e-07,3.329010177793299e-05,4.342209163639375,26.81344244367223,18.06372678999575,32.9768158972058
0.45,31.22217987077456,131.0104006014978,6.850166573233225,4.3420317510315165,0.0009500780330031,38.11022602597878,0.001341042003417,3.1022288449712887,397.2093853562869,18.47486275310604,7.616350301328129,69.99547690348253,1.6764536248320808e-06,113.70001042108892,208.92306716049887,15.288,0.0,0.0,0.0542951637545535,2.842521175226318e-09,-0.0007463379956615,1.2932090054593452e-07,3.657529369088674e-05,4.342031854775571,26.30944884471334,18.47501199101448,38.23628058998621
0.46,31.22217959739673,131.01040134180155,7.020045503401754,4.351169003849846,0.0009725797783515,44.3937050866137,0.0013660055515545,3.09098240974522,449.7140588976434,18.844323061800488,7.771531995684422,69.99503610583268,1.8865779683531e-06,113.70001102895836,217.3591612614144,15.288,0.0,0.0,0.0553810645782081,3.1166808800591503e-09,-0.000800596194505,1.417768495237597e-07,4.001824400409673e-05,4.351169112337076,25.873596578896564,18.844475834274814,44.50118229261506
0.47,31.22217931813738,131.01040209802923,7.193559875579052,4.358630093683735,0.0009947969928181,30.22514089990685,0.0013910994973101,3.079396422776949,331.0078106302534,19.2180591098146,7.9280875671397615,69.99456352718363,2.1170044481277104e-06,113.70001166656292,226.0625808853568,15.288,0.0,0.0,0.0564795377574197,3.4102493884459798e-09,-0.0008576351980594,1.551487523304888e-07,4.3718862242359527e-05,4.35863020698899,25.44665981168229,19.218215372160817,30.381603425148434
0.48,31.22217903348153,131.01040286886197,7.370336324605091,4.365514409145237,0.001016880998596,29.779838936311712,0.001416009414045,3.067527859335786,327.2031223011574,19.5915905767454,8.084483592791102,69.99405758812365,2.369198154608765e-06,113.70001233476164,234.93171707892955,15.288,0.0,0.0,0.057577416115756,3.7241711041759195e-09,-0.0009173883913609,1.6944871263079066e-07,4.767297940601472e-05,4.365514527349481,25.03354780044292,19.59175030803913,29.937410312943754
0.49,31.22217874361868,131.01040365378466,7.5502307795521535,4.3786401372577615,0.0010404145545081,37.2489281064929,0.0014385799934191,3.0558405437943126,389.60000969812296,19.93403005898306,8.23012235628909,69.99351671352461,2.644660619562788e-06,113.700013034871,243.21198709852868,15.288,0.0,0.0,0.0585839249886784,4.059374595909599e-09,-0.0009798792959512,1.8470833984680338e-07,5.180951737438081e-05,4.378640260624215,24.667474291142685,19.934193486919103,37.37406598941686
0.5,31.22217844858332,131.0104044527036,7.733219389747018,-13.308198218356669,-18.46930853285004,38.7674900991572,1.0603763095032013,4.030403562660106,397.97031042210494,19.577266232935663,8.366023506705158,69.99293932307316,2.9449363413826395e-06,113.70001376847225,234.5801293224832,15.288,0.0,8.768049422645161,0.0575355540555872,4.416605232284705e-09,-0.0010607533276333,3.84562001333629e-05,5.5080855290314166e-05,22.62795701560688,13.416500219087483,16.726096607284866,38.99085584318342
0.51,31.222178147922527,131.01040526576492,7.919258060369507,-13.019296154400848,-18.20752582598648,29.856114299088635,1.086019390609724,4.043670907409292,323.3984349720841,19.88911370947093,8.523242886181794,69.99237532135469,-0.0001147404912631,113.699888945619,242.1086081490336,15.288,0.0,8.802846459184616,0.0584521641028653,4.72204127088108e-09,-0.0008933217163503,-0.0002143765347243,4.7124829287689176e-05,22.25426296971233,13.174684542798094,17.07697645387011,30.148271485517263
0.52,31.22217784084912,131.01040609324593,8.10835281428805,-12.736051604390791,-17.948376564282256,35.69228818878333,1.112761625995308,4.057456431618757,372.0984511843415,20.21055514951519,8.682846813209801,69.99190813022929,-0.0006347356602045,113.6993359796582,249.9930701572224,15.288,0.0,8.837522410054715,0.0593969758270824,4.8193341646136334e-09,-0.0007224813506534,-0.0004736202569167,3.872785702143897e-05,21.88591193094742,12.934801066563608,17.437115436050416,35.93940215532159
0.53,31.222177527217887,131.0104069355384,8.300615357615726,-12.464200289493467,-17.699131159099462,37.43263419841381,1.1396570441864908,4.071140160495422,386.5562464348624,20.52926231257413,8.841288428448713,69.99153976374066,-0.0015674183774007,113.69834382431044,257.9349272360718,15.288,0.0,8.872082562762621,0.0603337579310347,4.703964097604998e-09,-0.0005480706946167,-0.0007395869925997,2.984148900189731e-05,21.531996114456973,12.70291009866676,17.793094781139892,37.67061326043182
0.54,31.22217720690902,131.0104077929122,8.496122075666609,-12.202054231084796,-17.457930892806367,32.97714685616624,1.1668052739558628,4.084792621228472,349.2703242098436,20.8467460618524,8.999143502967465,69.99127227364897,-0.0029234700868203,113.69690111084996,265.9695178252828,15.288,0.0,8.906551899672259,0.0612669508241239,4.371321960211748e-09,-0.0003699853713511,-0.0010125112650541,2.045621317318408e-05,21.19007457326285,12.47784926755536,18.146696947528465,33.24964932264593
0.55,31.222176880176463,131.0104086646212,8.694659693991406,-11.952574054110707,-17.22908788065177,34.89964454919869,1.1938575977524006,4.098179979194281,365.2500005919907,21.15730059487096,9.154327551614491,69.99110769368605,-0.0047136613500695,113.69499637599527,273.94762959930847,15.288,0.0,8.940889981324005,0.0621797854921347,3.816837123561624e-09,-0.0001884777897341,-0.0012921095701077,1.0575832618989893e-05,20.8653042556484,12.262091031024388,18.49156371226678,35.159715083686244
0.56,31.222176547000867,131.01040955066446,8.896227565401846,-11.717523823791268,-17.015422600536255,32.62832155494905,1.220532929908677,4.11112170957148,346.2265619465787,21.456488696991578,9.305244508131247,69.99104797897463,-0.0069486067006586,113.69261832378696,281.74481524128754,15.288,0.0,8.975096122808909,0.0630592212069878,3.036075418985173e-09,-3.5305671522060263e-06,-0.0015784886272676,2.009041254573017e-07,20.560971927772453,12.05721490023206,18.822826728483324,32.90894087990458
0.57,31.22217620743396,131.01041045084875,9.100770289315966,-11.484379825009253,-16.800395139051506,32.27104768444048,1.2480215415614595,4.1244118924357815,343.1828296833023,21.76380189339731,9.459033119947136,69.99109504965928,-0.0096389403347304,113.68975563819052,289.86756788358326,15.288,0.0,9.009155263591731,0.0639625422448686,2.0246644989903302e-09,0.0001847856816445,-0.0018716267742495,-1.0665476837036108e-05,20.25666449227285,11.853474655805549,19.162456301767968,32.5574699551132
0.58,31.22217586143463,131.0104113652338,9.308304664004623,-11.245683486588309,-16.573776049804614,42.22494157285952,1.2771902152516257,4.138609230718616,426.1250058573153,22.0928655924366,9.620642510847452,69.99125081614145,-0.0127954195651409,113.68639687329772,298.69334376528667,15.288,0.0,9.043067292840623,0.0649297932472356,7.782341882739145e-10,0.000376493215048,-0.0021716395645025,-2.205858987936261e-05,19.939892801038287,11.644890641698366,19.52561812375918,42.44649563912107
0.59,31.222175508585966,131.01041229489863,9.519138186578433,-11.029116960008496,-16.373688491948506,34.38532179048463,1.3050015535656334,4.151722498086305,360.68438819711065,22.39449049716117,9.772177383644175,69.99151732445233,-0.0164295261990103,113.6825298137909,306.898682348636,15.288,0.0,9.07687302351058,0.065816409837681,-7.078889578295941e-10,0.0005720171443394,-0.0024792493140886,-3.397112905424588e-05,19.65709733712237,11.453671269284328,19.85738249996791,34.65963334184454
0.6,31.22217514907588,131.01041323927797,9.733109426028014,-10.79783868606592,-16.14935848590022,30.64982469789028,1.3356218547238827,4.166459792934491,329.4859594986058,22.73545622157603,9.93790898261507,69.9918966204587,-0.0205529240452404,113.67814205097504,316.30865476820367,15.288,0.0,9.11054458402004,0.0668186542026445,-2.438384906119081e-09,0.0007711443231089,-0.0027942280786941,-4.6493277830326254e-05,19.346416324343195,11.250219416234824,20.23217614361895,30.96053983632005
0.61,31.22217478283597,131.01041419850307,9.950255650885902,-10.570286329581476,-15.92622311642538,35.77186249121856,1.3670448215231183,4.181501535927312,372.0984511843297,23.08305678650836,10.10592718486528,69.99239077977725,-0.0251775848834716,113.6732208500188,326.04782889101614,15.288,0.0,9.144091420527651,0.0678404054313463,-4.418017720243063e-09,0.0009739378664592,-0.0031167611104,-5.961648166498084e-05,19.03881660110731,11.049335763725011,20.613462551199127,36.041363913282545
0.62,31.22217440995741,131.01041517227068,10.170490243647151,-10.380327207039247,-15.752693268556463,44.27688252308745,1.3948251542055023,4.194017420296342,442.86563930529206,23.367318759837264,10.25094060247942,69.9930019038533,-0.0303157828426991,113.6677531554342,334.1206011058943,15.288,0.0,9.177525478715888,0.068676013399018,-6.651629924942247e-09,0.001180341250287,-0.0034468518769895,-7.313900606474294e-05,18.792655872540674,10.878980243989476,20.92394753971407,44.49693972955714
0.63,31.222174030241224,131.0104161610711,10.393953073695368,-10.185909088461417,-15.569682295304906,25.458824203358628,1.4241356557704834,4.207321797351981,286.11251274707894,23.67044398857839,10.40272947340032,69.99373195075452,-0.0359793797317719,113.66172635237218,342.8380192220992,15.288,0.0,9.210789127582933,0.0695670668653078,-9.143754196012477e-09,0.0013904987737628,-0.0037848192413052,-8.72770947840078e-05,18.53634097001199,10.70488557746789,21.254752804890728,25.843402424797493
0.64,31.222173644238413,131.01041716335288,10.620201746717417,-9.981861728271316,-15.36945103878706,25.005916464663542,1.4558658776993074,4.221954658420238,282.30782441796754,24.005650099257057,10.566003273224302,69.99458282966697,-0.0421803798210377,113.65512767766052,352.60923049519755,15.288,0.0,9.243912863660986,0.0705524124930257,-1.1898981323051856e-08,0.0016038194586767,-0.0041298381852825,-0.000102089900755,18.26065165908305,10.522581757818944,21.620271708481805,25.40158075453842
0.65,31.22217325191152,131.0104181791687,10.849251466157844,-9.80490158624914,-15.205413007371405,43.57580780216834,1.4847815953226116,4.234629741072452,436.7781447787475,24.29159254530215,10.711457549781269,69.99555645799724,-0.0489305632622964,113.64794460051236,361.0515029600994,15.288,0.0,9.276841607261,0.0713929795237732,-1.4921673279482555e-08,0.0018203675247123,-0.0044820927704972,-0.0001172517535218,18.029662569002905,10.362790649375173,21.931069420394277,43.80625173467024
0.66,31.222172852749488,131.010419209863,11.0814858961277,-9.62713046013826,-15.037302230176897,37.18119142010458,1.5147748190956647,4.247793441179838,383.51251517160017,24.588755322921497,10.860914099755252,69.9966546323312,-0.0562418448706116,113.64016445771848,369.9308813244455,15.288,0.0,9.309631343373324,0.0722665301302346,-1.8216096493654236e-08,0.0020406360561254,-0.0048424542381384,-0.0001330444295244,17.79495218683937,10.202307141226454,22.253724645366,37.45369524212472
0.67,31.22217244691312,131.01042025494675,11.3167657974094,-9.441544471292488,-14.854592451645647,25.84056772877761,1.5470524215930084,4.262176209859603,289.1562440103425,24.915118939781667,11.02079954205527,69.99787929609879,-0.0641269935052785,113.63177367803851,379.80756752732174,15.288,0.0,9.342311217366571,0.0732259095335476,-2.1786954115603322e-08,0.0022644375164529,-0.0052107248218969,-0.0001495919034834,17.543996236216497,10.035110554711382,22.60781730241635,26.23536654564965
0.68,31.222172034546983,131.01042131397583,11.55496481226542,-9.263873445187048,-14.68067482016999,32.06949251812556,1.5791661063662514,4.276255574544726,340.8999924858462,25.233098727268644,11.177606328899996,69.99923245733521,-0.0725988104239221,113.62275864899884,389.5551265481213,15.288,0.0,9.374771855391591,0.074160656206679,-2.563889086170404e-08,0.0024916275412344,-0.0055867696169612,-0.0001666972970045,17.304681097311814,9.874591283580848,22.952213586253613,32.39185820079533
0.69,31.2221716157098,131.0104223867422,11.796023974849946,-9.101792674330513,-14.527393247626229,39.30922299006847,1.609697845913291,4.28918150803838,401.0140726853634,25.52163675232729,11.323812454244676,70.00071592912788,-0.0816699364748509,113.61310593957256,398.50588848330415,15.288,0.0,9.40708603511507,0.0750088800766912,-2.9776374331505162e-08,0.0027221240943592,-0.00597055191886,-0.0001841964422763,17.09098913152903,9.72738930749527,23.264051110462358,39.57528543481353
0.7,31.22217119025104,131.01042347361076,12.040047833708735,-8.94265328042829,-14.375957938320964,33.08733894500325,1.6406833529832772,4.302200900218536,349.27032420985284,25.811530461697327,11.470467400850294,70.00233145336617,-0.0913529200907238,113.60280221941215,407.6008043839428,15.288,0.0,9.439276076569124,0.0758610955072444,-3.420367745764102e-08,0.0029560631699647,-0.0063623907189832,-0.0002022935727656,16.88049895989929,9.582760817840978,23.57697954610589,33.40617866371619
0.71,31.22217075820452,131.010424574443,12.286997414287564,-8.779615222645997,-14.215991473139884,27.31983339192214,1.6733619845069778,4.316045811952603,301.33126406340574,26.121075626884227,11.624098270443788,70.00408087433395,-0.1016606819541445,113.59183375821308,417.4258440394401,15.288,0.0,9.471240611518937,0.0767710747195121,-3.892522657140884e-08,0.0031933801302245,-0.0067622820895615,-0.0002211495164465,16.660891988981557,9.434864077084596,23.910874056557827,27.709234712356285
0.72,31.22217031955377,131.01042568923765,12.536872884806128,-8.61169482466891,-14.045706109629078,33.281559725820344,1.708110945753542,4.330926270429508,350.79220534145287,26.45505506447028,11.786382593025074,70.00596605413361,-0.1126064602076616,113.58018649010512,428.1580751832233,15.288,0.0,9.503066269470576,0.0777528752500114,-4.394549508881742e-08,0.003434088638123,-0.007170350112758,-0.0002408541136194,16.430135709787884,9.282691613625069,24.270792460474183,33.605606424319234
0.73,31.222169874276787,131.01042681800715,12.789678389038988,-8.467082317505763,-13.909054489101488,41.9053898659996,1.7393783871978907,4.343549927633861,422.320318528234,26.732079327556484,11.92831988039036,70.00798880021159,-0.1242039905671884,113.56784583081152,437.16133018134974,15.288,0.0,9.534766718154865,0.0785672890228065,-4.9269087822105496e-08,0.0036782282424198,-0.0075867614746959,-0.0002606722317634,16.239993256569132,9.150939080163376,24.56864634568214,42.16578663998955
0.74,31.222169422294616,131.0104279609241,13.0454638324541,-8.31899098409587,-13.764630276263784,26.503640798640888,1.7722838290995848,4.356953495923351,294.48281347105944,27.02767212120875,12.076836935847304,70.01015088777287,-0.1364666220435116,113.55479760145826,446.8717206245954,15.288,0.0,9.566279003073728,0.079436284365916,-5.490032415086422e-08,0.0039258238158061,-0.0080116667937911,-0.0002812886013455,16.041579318538,9.016294955449178,24.886266900932217,26.917782399742894
0.75,31.22216896394085,131.01042911703232,13.303957240325108,-8.169864352376115,-13.616165301875933,30.81837935639191,1.806446074462236,4.370897725741765,330.24688556441487,27.335642330149025,12.229698797745211,70.01245403227378,-0.1494078655928418,113.54102745585388,457.1022663130545,15.288,0.0,9.59759855256808,0.0803416654040682,-6.084372296359517e-08,0.0041764833313409,-0.0084445144106551,-0.0003026508803973,15.839307652713384,8.880849970392525,25.216895354547283,31.17916773269161
0.76,31.22216849909044,131.01043028663184,13.56524501058626,-8.030273541282913,-13.480534141646991,33.11632352819662,1.839554890992836,4.384038111407703,349.27032420986166,27.622796902889576,12.375119129195532,70.01489988681878,-0.1630411957256175,113.52652108973284,466.7445021320262,15.288,0.0,9.628770908948969,0.0811858752652439,-6.710343277682018e-08,0.0044303470136588,-0.0088856435164098,-0.0003244116210261,15.652930740174794,8.753988511950375,25.52476195504932,33.45586101691959
0.77,31.222168027670687,131.01043146988073,13.829373103905557,-7.894922081245139,-13.349500225201623,31.008765758707884,1.872674781042708,4.39699998152255,331.7687666960708,27.90453308180156,12.518580615623131,70.01749009173716,-0.1773803005787007,113.51126397422712,476.30201037644406,15.288,0.0,9.65979939045516,0.0820141675407228,-7.368363729670936e-08,0.0046874750589492,-0.0093352651947791,-0.000346731838608,15.472736097853304,8.631074930515398,25.826519290607187,31.374895594272136
0.78,31.22216754972828,131.01043266661085,14.096294483162207,-7.756482970309331,-13.211304102772027,25.593872541462943,1.9074905093422647,4.410741647323188,286.8734378128899,28.204787043684608,12.668560871481944,70.020226217323,-0.1924389849846056,113.49524146183364,486.59474243682087,15.288,0.0,9.690606262337726,0.0828968931138656,-8.058857174741324e-08,0.0049477726609387,-0.0097933284140806,-0.0003699145566092,15.284968274261065,8.505606251876051,26.14790052285788,26.041111220362943
0.79,31.2221670653328,131.01043387659115,14.36594423253638,-7.617606654661677,-13.070107185151826,36.067757799528046,1.943507271148448,4.424968902615195,373.6203323159534,28.51590613066368,12.822328272808203,70.02310993034145,-0.2082313145774715,113.47843862232996,497.37604969038375,15.288,0.0,9.72124768171322,0.0838115604481497,-8.782252041018818e-08,0.0052111433890205,-0.0102597768345716,-0.0003938925924901,15.094515979674526,8.379877860074199,26.480617996317267,36.39011847998759
0.8,31.2221665742525,131.01043510041762,14.638493356437555,-7.491724261055863,-12.948136234865729,36.53143796257383,1.977275680308004,4.437729930533449,377.42502064505743,28.78983167828104,12.962900578899545,70.02614278163091,-0.22477178288032,113.46084008517349,506.9643260690033,15.288,0.0,9.75175564721666,0.0846169196515967,-9.538956641205573e-08,0.0054778658287164,-0.0107352069747461,-0.0004180197132806,14.927168434411591,8.266107155374788,26.7732109582672,36.853073490085876
0.81,31.222166076571785,131.01043633782035,14.913865953507653,-7.361609756725392,-12.817065506654908,24.03482959454196,2.013142423981558,4.451482605237835,273.9374926939919,29.087279941734383,13.111741920754737,70.02932641384898,-0.242074909318231,113.44243044303668,517.4803757428681,15.288,0.0,9.7821145676989,0.0854914229516947,-1.0329404755280553e-07,0.0057477812371351,-0.0112194619051572,-0.000443137091058,14.749999143500608,8.148684456351726,27.090729523848488,24.526342439153854
0.82,31.222165572458778,131.0104375882992,15.191920509864357,-7.231226042720562,-12.683415668789063,30.655407294945714,2.0501708925829503,4.465682647780496,328.72500443277005,29.39466954830468,13.264030591286796,70.03266226335413,-0.2601552743556457,113.423194239148,528.4613513031371,15.288,0.0,9.812286688734153,0.0863951533345405,-1.1154029386486729e-07,0.0060206722201966,-0.0117122750418588,-0.000469068998266,14.570580577791285,8.031209971363744,27.41859511863772,31.046731206658347
0.83,31.222165061882016,131.01043885190327,15.472672201194817,-7.115008731809454,-12.571721464009345,38.75111482559864,2.084194674697261,4.478016250754187,395.68750322465047,29.655413378200063,13.399823779444258,70.03615185824052,-0.2790276757826742,113.403115780221,537.8638067005973,15.288,0.0,9.842266718881165,0.0871617929774103,-1.2013240304129522e-07,0.0062965824885468,-0.0122138389440137,-0.000494903282378,14.4172006397501,7.927043412907689,27.69645944931405,39.06463102616977
0.84,31.22216454472469,131.01044012892072,15.756204525713311,-6.998402768983559,-12.457531813682122,24.219138068945743,2.1192289253365764,4.490724482606464,275.4593748256452,29.92464515105961,13.538573338494803,70.03979653029931,-0.2987066709132975,113.38217963898944,547.6594041514116,15.288,0.0,9.87209692342917,0.0879533876783032,-1.290742003518039e-07,0.0065755922134647,-0.0127244202949177,-0.0005215110451716,14.261583078463516,7.82280008801234,27.983201920562852,24.722952623408904
0.85,31.222164021260586,131.0104414185634,16.04229396972311,-6.874402969621838,-12.328707237678808,26.33564929839002,2.1575287179935074,4.505027225897766,292.96093233939376,30.232028411438733,13.690687814655607,70.04359768701627,-0.3192068949598,113.3603702982478,558.9528474038149,15.288,0.0,9.901753417378464,0.0888571237794938,-1.3836995173125476e-07,0.0068573284144595,-0.0132434699809997,-0.0005494269183284,14.08978807960214,7.711918987408787,28.310349362355858,26.805160406959658
0.86,31.222163491306446,131.01044272130255,16.3310763473204,-6.759449497612689,-12.213563704530644,32.77978109845344,2.194073709198599,4.518170634878783,346.2265619465587,30.510075972259664,13.832428634037244,70.04755659768294,-0.3405435291563881,113.33767167848954,569.2658508585739,15.288,0.0,9.931256559464016,0.0896746455030368,-1.480233774240227e-07,0.0071420278064547,-0.0137715354462091,-0.0005774846937821,13.934363904477166,7.609732227673522,28.6060703930316,33.16235628223367
0.87,31.22216295487298,131.0104440370768,16.62253554428461,-6.649582298735489,-12.105498592295788,30.571567963897223,2.229929827229767,4.530748421796121,327.964078366998,30.77349848663916,13.968984956320888,70.05167463445609,-0.3627317769478566,113.31406766675256,579.1221036112997,15.288,0.0,9.960604891307966,0.090449189483419,-1.5803841909749406e-07,0.0074296446505454,-0.0143086608237726,-0.0006059104041258,13.787659197126311,7.512621885766003,28.88608690132853,30.985819919233442
0.88,31.222162411982776,131.0104453657934,16.916646604486388,-6.537009090234507,-11.990912616771803,26.51979005954716,2.2676518286203105,4.544135517394011,294.4828134710418,31.05599920248464,14.112184430631036,70.05595294104182,-0.3857868393503821,113.28954216910574,589.7869299222169,15.288,0.0,9.989772250913733,0.0912798159525062,-1.6841897346339145e-07,0.0077200872433553,-0.0148548069896438,-0.0006353586448203,13.634083524214851,7.413276146818581,29.186190258423554,27.001679155540366
0.89,31.222161862702965,131.01044670723627,17.21334941200193,-6.421992701339144,-11.870136719645984,29.007171898073288,2.3072854758197647,4.5583381733125865,315.028134248087,31.35772033380403,14.262053814553296,70.0603927661871,-0.4097241621226589,113.26407882496127,601.2854847070886,15.288,0.0,10.018751913046303,0.0921669434776445,-1.79168961881073e-07,0.0080132608197837,-0.0154099272687783,-0.0006658748531273,13.47404563839738,7.311900003094979,29.50647301773243,29.45365910534004
0.9,31.222161306948507,131.01044806161056,17.512704080458462,-6.319546751283917,-11.770071085175523,31.956532455127867,2.343436747772754,4.570486749744898,339.37814235421445,31.60844183968292,14.393999465156796,70.06499525438666,-0.4345596809842599,113.23766076681764,610.921548465986,15.288,0.0,10.04758137345848,0.0929041805827683,-1.9029210125350057e-07,0.0083092645383146,-0.01597433652681,-0.0006959724363912,13.338194360105014,7.222832926829456,29.772579497820484,32.366665127504966
0.91,31.222160744777383,131.0104494287293,17.81465889043027,-6.214464315467764,-11.66361154567964,24.48989273043783,2.381487263572465,4.583446416847058,277.7421810230789,31.878352273938265,14.532608497844638,70.06976153746885,-0.4603089050142645,113.2102715737457,621.381623243431,15.288,0.0,10.07625213470057,0.093697826100604,-2.017921758959835e-07,0.0086079688973279,-0.016547929325473,-0.0007271270928987,13.195606829475915,7.131590037428266,30.05886410843994,25.02866973274884
0.92,31.22216017637364,131.01045080805395,18.119061868556194,-6.1070195464783374,-11.551129034526868,29.0069679143922,2.421471868698195,4.59721653937339,315.02813424806214,32.167416017149165,14.677840324658629,70.07469258228929,-0.4869875256945855,113.18189464483092,632.6832385079678,15.288,0.0,10.104750711330436,0.0945477758214371,-2.136732096331197e-07,0.0089090938795931,-0.0171303080230971,-0.0007593653678509,13.046732342191143,7.038389186226687,30.36523522422423,29.46866324602057
0.93,31.222159601639987,131.01045219982953,18.425984653554025,-6.010524136352164,-11.45708683676884,34.35653251060975,2.458095104330982,4.609029099630538,359.1625070654728,32.40824124633096,14.806154066510455,70.07978929769182,-0.5146114176279034,113.15251319052518,642.1730883573792,15.288,0.0,10.133091766408596,0.0952559490034809,-2.259384587291253e-07,0.0092127740225498,-0.0177218618612921,-0.0007911050468293,12.919291327042288,6.956167281168608,30.620535799920805,34.75135546904267
0.94,31.22215902046247,131.01045360435208,18.735513586220897,-5.907221751648839,-11.348860666032776,25.130408966318345,2.498452831784648,4.6225814874434175,283.0687504837787,32.69086522301067,14.948998471280104,70.08505262199515,-0.54319632631216,113.12211055288677,653.4029559984629,15.288,0.0,10.161275004686814,0.0960869873447983,-2.3859117770203044e-07,0.0095190636926301,-0.0183228395947384,-0.0008245101578662,12.776307409335333,6.867687876473087,30.919824334306035,25.673877404379745
0.95,31.222158433109097,131.01045502084872,19.047429875375784,-5.806676492204887,-11.244100027948107,32.327511703892185,2.5387015997406004,4.635865008987356,342.4218736174873,32.966451963924634,15.08930380498938,70.09048340719421,-0.5727586071358375,113.09066943881538,664.4459690338433,15.288,0.0,10.189289171782708,0.0968973497571483,-2.516355128448852e-07,0.0098276190773666,-0.0189327138822084,-0.0008583864931102,12.637761537922223,6.782258495223409,31.211548032991487,32.75674378138592
0.96,31.22215783929079,131.01045645010632,19.36196004515627,-5.71207119117086,-11.14892431828731,31.68108733595761,2.577347810386288,4.648121383324297,337.09533515678345,33.21649265533863,15.220641508236804,70.0960824531621,-0.6033146149764897,113.058172559162,674.543063965198,15.288,0.0,10.217156231412476,0.0976326337173255,-2.6507410507772776e-07,0.0101387862710781,-0.019552304542472,-0.0008922549661743,12.510521815694858,6.703082247127743,31.47625434139425,32.12380813226217
0.97,31.222157239018777,131.0104578920734,19.679091334378832,-5.616730924196338,-11.05083002342942,20.5064501648197,2.6172796730033583,4.660830428689045,245.02188719299323,33.47700536048079,15.355561215782275,70.10185054762702,-0.6348811213910229,113.0246021864806,685.1443964485393,15.288,0.0,10.244873510647606,0.098398706094992,-2.789104921339409e-07,0.0104525032773304,-0.0201816444230947,-0.0009270494885992,12.38047233828912,6.623597683987322,31.75188741270016,21.191696287318393
0.98,31.22215663255991,131.01045934598133,19.99860630323016,-5.515483311392536,-10.939794703033408,29.55526042662518,2.66106793307864,4.675274318069046,319.5937466429581,33.77903194983656,15.504828654319612,70.10778839124339,-0.6674749098898917,112.98994058568528,697.5413817472294,15.288,0.0,10.272422348859488,0.0992868085065196,-2.931489287831297e-07,0.0107683584297086,-0.0208200672482303,-0.0009636501177748,12.236374531622394,6.538588633738192,32.071035211528795,30.040853705900098
0.99,31.2221560197652,131.01046081222793,20.32062052780583,-5.428047960197716,-10.853853821833477,32.23321741978238,2.6992075811224554,4.6866591102004,341.6609485517054,34.006793635636626,15.62820331544847,70.11389667486044,-0.7011132223170095,112.95416954045793,706.9578458862832,15.288,0.0,10.299823689471603,0.0999566323045001,-3.077922049175162e-07,0.0110865757690564,-0.0214681681533511,-0.0009987858020412,12.120905447432492,6.4678650683921255,32.31205305012843,32.68380027494012
1.0,31.222155400628097,131.0104622908179,20.645137476306008,-5.334903656690114,-10.755362805690348,28.90495083862579,2.741112411263167,4.699722826100202,314.2672081822764,34.27498740491191,15.76554593673482,70.12017588194291,-0.7358126395028747,112.91727154291252,718.130244921963,15.288,0.0,10.327069326728164,0.10074530682286,-3.2284355231778825e-07,0.0114070548991523,-0.0221259075358322,-0.0010357299712643,11.991819952127152,6.391837492943155,32.59544348420633,29.41253601573183
1.01,31.222154775312507,131.01046378127197,20.97202241143744,-5.244283902443663,-10.660320057104164,30.19716624309088,2.7827341731937385,4.712427328799113,324.9203161036979,34.53439822817572,15.899748734938877,70.12662652964724,-0.7715904753511393,112.87922831114416,729.0188539263947,15.288,0.0,10.35415039298804,0.1015081738089282,-3.383066789610068e-07,0.0117295664614787,-0.0227929753083488,-0.0010730400352999,11.86704135814201,6.31881702031338,32.86952362790356,30.689076719913558
1.02,31.222154143741143,131.0104652837947,21.301335928447607,-5.156724941886284,-10.56988874083953,25.29383153877427,2.823702561796257,4.724594482218879,284.59063161540416,34.7807458605044,16.029337261989365,70.13324900191508,-0.808463821617541,112.84002180576351,739.4333258900574,15.288,0.0,10.381079640171183,0.1022326519867389,-3.541843372504475e-07,0.0120541694365322,-0.0234696518908487,-0.001110566371714,11.7478444136044,6.2493981701080665,33.129833085427826,25.885768350404433
1.03,31.222153505973782,131.01046679820556,21.63302868825828,-5.065902040522478,-10.47145800632755,20.75754279241807,2.8674896944463644,4.737927124995708,247.30469339049705,35.05504701080273,16.16851318240749,70.1400435818775,-0.8464497419274652,112.7996340231023,751.1185878923836,15.288,0.0,10.407854173016569,0.1030393036879533,-3.704797195889038e-07,0.0123807219171719,-0.0241558095816639,-0.0011496112966246,11.620166791477862,6.177076983959003,33.41933577619907,21.483622445216113
1.04,31.222152862062806,131.01046832434244,21.967056639681967,-4.980636440610157,-10.382764230775509,32.68889987176176,2.9091686551868774,4.750006553613384,345.46563688072297,35.29901421139717,16.297091170338312,70.14701056178029,-0.8855659409429661,112.75804628405932,761.5854220801452,15.288,0.0,10.434477830875448,0.1037568015169894,-3.8719595381748453e-07,0.0127091434470727,-0.024851442886389,-0.0011882817436909,11.503749953661634,6.110991169775381,33.677004887503934,33.160066335123005
1.05,31.222152211740507,131.0104698629584,22.30363721781041,-4.893047525903483,-10.287893934620325,19.914364082702097,2.953229584504496,4.763021523851696,240.45625879819983,35.565423409883564,16.433340575473355,70.15415010999983,-0.9258299807401756,112.71524006791068,773.0995041173076,15.288,0.0,10.460965144616418,0.1045402733123609,-4.0433484541783693e-07,0.0130397381849421,-0.025557366651946,-0.0012283535375805,11.380891584905685,6.0429749072816135,33.95807448157176,20.687915212362082
1.06,31.22215155522284,131.01047141342826,22.642594183593705,-4.803787434706802,-10.188055470971536,28.1484260657168,2.999475884963402,4.776854606967702,308.17968365593924,35.8511967986627,16.57616605162842,70.16146242722185,-0.9672602511125395,112.67119597964704,785.547778011699,15.288,0.0,10.48730260440458,0.1053806728050838,-4.2190040645472644e-07,0.0133721617730751,-0.0262730306061115,-0.0012697483770571,11.252955575628608,5.973655736795003,34.25928075977032,28.70799689107045
1.07,31.22215089239886,131.01047297605817,22.98401735825154,-4.722490932564108,-10.103255182491775,33.053039268910545,3.041811205773956,4.788579973136434,348.5093681440308,36.086447424203406,16.701449608641838,70.16894768217725,-1.0098756042364336,112.62589413983544,795.8648148292122,15.288,0.0,10.513500530757703,0.1060725749742904,-4.398950351104801e-07,0.01370657309956,-0.0269989514860632,-0.0013099995909548,11.142080092178343,5.9132937550329805,34.507643492931386,33.536346230363826
1.08,31.222150223174346,131.01047455111356,23.32798503478182,-4.640880955856103,-10.016453231773951,22.397932566954623,3.085328155960316,4.800646585243023,261.00157857466235,36.32984973563969,16.82945564467327,70.17660588394709,-1.0536945765138344,112.57931501149272,806.6105544183539,15.288,0.0,10.539565213532288,0.1067884467169395,-4.583212719564647e-07,0.0140430166755858,-0.0277354198695894,-0.0013511631999937,11.02937689156555,5.853164671040737,34.7644709973767,23.113477469654228
1.09,31.222149547800296,131.01047613787003,23.674292706408234,-4.55345466960655,-9.915902224700073,20.631541695201086,3.1338791908507635,4.814857442971204,246.54375332474407,36.624691111104255,16.975065527860007,70.18443697071287,-1.0987359532570355,112.53143879937188,819.7287967975187,15.288,0.0,10.565481345092657,0.1076555281218219,-4.771833301792362e-07,0.0143810677035674,-0.0284817052646459,-0.0013948723009491,10.901906279515766,5.787268719562054,35.074868548251295,21.416455442014758
1.1,31.22214886634397,131.01047773612763,24.022885742504315,-4.470802895244344,-9.823987481067425,40.92354257062378,3.1803685259852075,4.8278459549242925,413.1890617385841,36.89040928392684,17.11051545237552,70.19244080586313,-1.1450187616619747,112.48224545836868,831.6386333495764,15.288,0.0,10.591254050399458,0.1084370133012362,-4.96484120030363e-07,0.0147206312849607,-0.0292377828943622,-0.0014381186397817,10.784362242031042,5.72704297066475,35.354810963309696,41.329882374079084
1.11,31.222148178438104,131.01047934694236,24.37406845473961,-4.396189537622904,-9.748026218503218,30.075160198415183,3.222098251274309,4.838377159101295,324.1593910376397,37.09777424257202,17.225800015975484,70.20061719926778,-1.1925624252552047,112.43171452989456,840.9860015034125,15.288,0.0,10.616907966079133,0.1090469815787921,-5.162243229227182e-07,0.0150621982017929,-0.030004938226855,-0.0014797091828802,10.68473627890209,5.676240460421141,35.57393427149557,30.63179837415549
1.12,31.222147484141725,131.01048097014908,24.727796296326648,-4.3098016023614125,-9.645082814521066,11.616236338595046,3.2736800128598795,4.853247789386815,172.73281794065943,37.40853521592584,17.376504637767077,70.20896579976754,-1.2413860818187203,112.37982586565776,855.1055176589848,15.288,0.0,10.642431976294068,0.1099608862733465,-5.364071986340098e-07,0.0154055680073531,-0.0307829481532978,-0.0015260677658899,10.555859106326176,5.6129779612059725,35.90063453923382,13.007995295428206
1.13,31.222146783987675,131.0104826041968,25.083628534091865,-4.231434606948379,-9.55820507764359,35.35407229130604,3.3204064501619737,4.865611055488119,367.5328077900705,37.66007913700464,17.506723240799676,70.21748637218231,-1.2915104398249788,112.32655765470112,866.6144273654221,15.288,0.0,10.667809222146712,0.1107007340541695,-5.570385675283062e-07,0.0157499832529288,-0.031570301677655,-0.0015706227395805,10.444991966991545,5.559168538502748,36.16563400851263,35.84145222387701
1.14,31.22214607737989,131.01048425082186,25.442064192370225,-4.158767532733298,-9.482653929667102,19.762753418405914,3.363620138501501,4.8761249301616685,239.69531773195544,37.868057305006765,17.62189843565671,70.22617832892705,-1.3429546727021753,112.27188972669904,876.1824634676937,15.288,0.0,10.693073388114923,0.1113125302397904,-5.781170188477099e-07,0.0160962520493114,-0.032369047852876,-0.0016139623260323,10.346874596440186,5.512446535148832,36.385316266831154,20.631455533902393
1.15,31.2221453647596,131.0104859087483,25.802741250145463,-4.07473873301744,-9.380303510187264,19.4761274458604,3.4172932778991005,4.891157894962801,237.41251153546767,38.18388864892584,17.773896893585835,70.23504097698309,-1.3957380663426369,112.21580179764533,890.8278142436939,15.288,0.0,10.718193914455812,0.1122413681310455,-5.996480797436642e-07,0.0164436013090664,-0.0331776440516797,-0.0016624846725156,10.219830294044996,5.453360752301091,36.7170074483094,20.36960626001465
1.16,31.222144646249244,131.01048757761507,26.16555914563216,-4.004980922570591,-9.308782260858408,50.290733456750175,3.460078979616391,4.900991230663854,490.0437743845894,38.37705126576564,17.88374614392559,70.24407371785816,-1.4498814237040418,112.15827197954113,899.8321942216367,15.288,0.0,10.743181544217416,0.1128096306744672,-6.216344888348914e-07,0.0167919042567531,-0.0339959941638504,-0.0017062276373314,10.126789934445208,5.411283474902637,36.92125551134394,50.64730726510659
1.17,31.222143921076466,131.01048925970068,26.53117219051164,-3.929792242360063,-9.223628742696224,9.24569242977554,3.5085670459655613,4.913157727247378,153.70937929486794,38.62616196644039,18.01264311818808,70.25327562262771,-1.5054041411007286,112.09927988818002,911.5199629439228,15.288,0.0,10.768069289818609,0.11354236194139,-6.440732729881063e-07,0.0171421898353987,-0.0348267500308961,-0.0017530650254801,10.019227278646046,5.363621356872018,37.18356755042037,11.042281923355102
1.18,31.222143190268543,131.01049095199627,26.898722833698,-3.8473969807471486,-9.120361892462215,24.65320616107304,3.5649537760754137,4.928580040046879,280.02501822196746,38.953143636842896,18.16797045435688,70.26264579424134,-1.5623267582629072,112.03880392939053,926.9851157229118,15.288,0.0,10.792803590595195,0.1145040059506448,-6.669743881136858e-07,0.0174928178563525,-0.0356662811355579,-0.0018040024401188,9.892329956367588,5.307995297430336,37.52656293908315,25.392525881784046
1.19,31.22214245336677,131.0104926558545,27.268600681956247,-3.7836958118019366,-9.059273111316536,42.7642245577679,3.6050057678860594,4.936467743552321,428.4078130529292,39.102798034782815,18.262610852196065,70.27218329141832,-1.6206704640682694,111.97682182955884,934.0883918069696,15.288,0.0,10.817427822537752,0.1149443996331151,-6.903356758109443e-07,0.0178445674126968,-0.0365166510384491,-0.001847282272042,9.811587338995576,5.275265959707354,37.68569263480765,43.19888519854214
1.2,31.22214170998757,131.01049437243583,27.641140575731004,-3.7066569128006166,-8.965619648838128,4.750073856592927,3.6588865051161865,4.950223893582976,117.1843741360236,39.392094101542405,18.404781471368928,70.28188678674455,-1.6804546250449568,111.91331325892864,947.9270155542748,15.288,0.0,10.841926684996066,0.1157952850316919,-7.141567911536691e-07,0.0181978160746037,-0.0373790473144312,-0.0018977202910252,9.695838640909988,5.227277857064223,37.98951813372135,7.775305054916414
1.21,31.222140961148924,131.0104960987284,28.01548390551616,-3.631276726240789,-8.874439299046836,34.392215712661205,3.712503799556824,4.963565826336957,359.92343213200894,39.67300945673813,18.543893483201973,70.29175513534958,-1.741700959705041,111.84825539487773,961.4604793581364,15.288,0.0,10.866251129746324,0.116621544282443,-7.384479134148226e-07,0.0185509835109255,-0.038249866141871,-0.0019482753193153,9.58312054785039,5.181863295098903,38.284582842058526,34.94630412218614
1.22,31.222140206086127,131.01049783702055,28.3922881979508,-3.5683363404760646,-8.811903600034176,24.99524055283159,3.754287944388449,4.971478531649536,283.0687504825761,39.827220469782496,18.63973671317428,70.30178689291692,-1.8044300147174177,111.7816266705135,968.9144254505992,15.288,0.0,10.890474915240276,0.1170753560528356,-7.632035666824207e-07,0.0189052677553571,-0.0391322835678686,-0.0019931287527527,9.501688877495964,5.152556991838745,38.4485001705603,25.759897652241353
