Time,Latitude,Longitude,Altitude,Angle of Attack,Angle of Sideslip,X-Acceleration,Y-Acceleration,Z-Acceleration,Thrust,True Velocity,Ground Velocity,Pitch,Roll,Yaw,Dynamic Pressure,cp,parachute_deploy_gain,Wind Speed,Mach,omega_x,omega_y,omega_z,Cmq,Angle of Attack(total),Angle of Attack(gust),True Velocity(gust),Acceleration
0.0,31.222186000000004,131.010384,3.000000003643237,0.0,0.0,0.0,0.0,0.0,2.2828121974499247,0.0,0.0,69.99999999623421,0.0,113.69999999388332,0.0,15.288,0.0,0.0,0.0,0.0,0.0,0.0,-0.0,0.0,90.0,0.0,0.0
0.01,31.22218600000153,131.01038399999584,2.99999882256592,0.0,0.0,0.0,0.0,0.0,34.24218696174923,7.502283530665459e-11,7.190531319924593e-11,69.99999999623329,-4.83564628150269e-13,113.69999999388072,3.446445726795683e-21,15.288,0.0,0.0,2.204725565824978e-13,-3.659182332138578e-19,7.589415207398531e-19,4.811147140404426e-19,-1.5108918610345807e-31,0.0,89.9999999995224,7.502283530665459e-11,0.0
0.02,31.22218600000288,131.01038399999217,2.999997775701936,0.0,0.0,0.0,0.0,0.0,25.871876237766408,1.5320717031631675e-10,1.4674636035870463e-10,69.99999999623222,-9.67129256300373e-13,113.69999999387804,1.4372842949972735e-20,15.288,0.0,0.0,4.5023593667086093e-13,-7.284483346386986e-19,1.5178830414797062e-18,9.757819552369542e-19,-6.170906918166791e-31,0.0,89.99999999902465,1.5320717031631675e-10,0.0
0.03,31.22218599928065,131.01038400193067,3.000201659671132,18.81500467334555,-0.00012974450181,11.96616230539064,-1.8916256735984712e-05,3.349833086198469,180.34219359854663,0.0882870268161719,0.0553390044312322,69.99999999799445,-4.212591857125379e-12,113.69999999488518,0.0047728553458352,15.288,0.0,0.0,0.0002594525584132,3.2187251995663407e-17,-7.20264389268894e-10,1.2365134327422308e-11,1.6874092354518158e-13,18.815004673776716,89.46786891739345,0.0882666465974854,12.426199017587786
0.04,31.22218599548236,131.0103840121632,3.001799604587872,9.46752327608497,-4.6177622759613696e-05,55.21900012092241,3.931876292165237e-06,3.349616504302861,548.6359724538078,0.3767519978512604,0.1853356633749705,70.00000000507204,-2.4624598767003407e-11,113.70000000019972,0.086915163246288,15.288,0.0,0.0,0.0011071759353184,1.6174128009138757e-15,-1.3693172015529268e-08,2.7753303060112748e-11,1.3689612277852356e-11,9.467523276196548,87.63554493451223,0.3767447442872393,55.32050167054111
0.05,31.222185984749512,131.01038404118162,3.00777936418888,5.376730308971262,-2.257790939128127e-06,80.28807156553681,5.266841443842784e-05,3.348887800834877,761.6984298824644,1.018787885905993,0.4366201147110198,70.00000000894464,-1.1355399380652658e-10,113.70000001523856,0.635552918586145,15.288,0.0,0.0,0.0029939522895272,1.6418815498809788e-14,-9.32122351075408e-08,4.303264669380585e-11,2.5199270302492604e-10,5.3767303089717045,83.57022052969386,1.0187875312530217,80.35788377762394
0.06,31.22218596447235,131.01038409608267,3.0201664202003013,4.296730121134882,2.4863835723705905e-05,60.21296515808257,0.0001057204249726,3.347700952379021,590.4875390737208,1.721098934225416,0.7081674028809783,69.99999995523842,-3.0560354507026086e-10,113.70000004366592,1.8138247671743823,15.288,0.0,0.0,0.0050578622752421,8.328976953118383e-14,-3.2824985336199985e-07,5.923438275930214e-11,1.4991363363716091e-09,4.296730121206683,79.20467073327266,1.7211028398275985,60.305955550063224
0.07,31.22218593493329,131.01038417609837,3.038741944736831,3.8204913578752526,4.8016684030909405e-05,91.4060317508128,0.0001597686613101,3.346072557365335,855.2937749779139,2.4375792548422868,0.9844712334613328,69.99999973536046,-5.939103491363046e-10,113.7000000850886,3.6383156301599167,15.288,0.0,0.0,0.007163413150771,2.709313825263564e-13,-7.906546256197275e-07,7.920022733617308e-11,5.114174483651565e-09,3.820491358176508,74.87999294483174,2.437586797285377,91.46725557277466
0.08,31.222185894468456,131.01038428575305,3.0647976109320942,3.588632851766762,7.220043782492885e-05,19.18449428359557,0.0002119618497595,3.3440615022685813,241.2171988638848,3.1292508166901074,1.2522236515868983,69.99999919480445,-9.914748373602156e-10,113.7000001418522,5.996012698481753,15.288,0.0,0.0,0.0091960591623389,6.80386533246681e-13,-1.5973238302190878e-06,1.0839624626357699e-10,1.3263625118823921e-08,3.58863285249208,70.86684630658345,3.1292621579083604,19.473766155861934
0.09,31.22218584634549,131.01038441616095,3.0957981580345013,3.551302481506045,9.685468678862004e-05,57.102946699906326,0.0002554087225869,3.341892818148368,563.0937377043176,3.701810007254615,1.479132491047967,69.99999812344194,-1.4359264356978275e-09,113.7000002093888,8.390904013834115,15.288,0.0,0.0,0.010878666406854,1.440096519545733e-12,-2.748643691533636e-06,1.5214952332699618e-10,2.6999776649034504e-08,3.5513024828250237,67.68737872952666,3.701825221153239,57.20065357568538
0.1,31.222185790329306,131.01038456796124,3.1319266121977414,3.608446747536112,0.0001234669721807,54.26147302645416,0.0002914860332524,3.3396271157106168,538.7437595981919,4.174070299823608,1.6716491241860567,69.9999963052332,-1.902380107712657e-09,113.70000028805804,10.668380938744466,15.288,0.0,0.0,0.0122665227999911,2.687800116751415e-12,-4.315796035622946e-06,2.1749089204950437e-10,4.7802076800548326e-08,3.608446749645647,65.17160335282355,4.174089693970246,54.36414778470795
0.11,31.222185727066616,131.0103847393952,3.172681775073216,3.633547373470009,0.0001485939126744,42.987553988990406,0.0003293995000288,3.337005588796181,442.8656393052949,4.672024955140527,1.8729475711242067,69.99999349387662,-2.3433348587116544e-09,113.70000037699285,13.365573690709628,15.288,0.0,0.0,0.0137298902182575,4.5789425819531184e-12,-6.340230783164189e-06,3.1157625832417107e-10,7.860218435507205e-08,3.6335473765043056,62.62546922225161,4.672048296217748,43.116880735560244
0.12,31.22218565692512,131.0103849294629,3.2177790417108385,3.650108937861461,0.0001727442530266,46.86777100765684,0.000367618259785,3.334068179146888,475.58594813540446,5.17479364099247,2.0758708919414386,69.99998941286465,-2.702771525550512e-09,113.70000047573096,16.396890189902592,15.288,0.0,0.0,0.0152074069417046,7.288473386564583e-12,-8.86736416607888e-06,4.42271554299792e-10,1.217615295152289e-07,3.6501089419435786,60.16906436414164,5.174820775596283,46.986210423745625
0.13,31.222185580265183,131.0103851371844,3.2669395832841857,3.7280113734654137,0.0001995014041665,51.64515456841877,0.0003986198234033,3.3311573548369657,515.9156326236895,5.579364582999854,2.2451120211463422,69.99998375846928,-2.9114380666036422e-09,113.70000058383452,19.060875702782603,15.288,0.0,0.0,0.0163963474924215,1.100846422415094e-11,-1.1941028436408576e-05,6.179653149059831e-10,1.7678562106638216e-07,3.728011378795934,58.279338776943774,5.579395920607139,51.75247433579817
0.14,31.22218549718016,131.01038536230575,3.320091807147376,3.768719651034081,0.0002242721760019,48.1660778383537,0.0004326225136175,3.32784677779744,486.2390860568404,6.025734265159953,2.428648685938864,69.99997621008868,-2.890941335368725e-09,113.70000070125378,22.232643351545065,15.288,0.0,0.0,0.0177081261985351,1.5941871344608664e-11,-1.560901486259027e-05,8.477542742712431e-10,2.495765160917323e-07,3.7687196576976176,56.27980129251342,6.025769493750979,48.280903250602165
0.15,31.22218540777004,131.01038560455507,3.377159065217065,3.821894709649632,0.000249725644238,46.56959330999435,0.0004643042952466,3.324387732286376,472.54218587214,6.441023336496372,2.6014999612196745,69.99996641132823,-2.546763407193136e-09,113.70000082794672,25.402620271850456,15.288,0.0,0.0,0.0189285691155931,2.2314099732464315e-11,-1.992367942778425e-05,1.1417519574710292e-09,3.4051816697623295e-07,3.821894717796148,54.501255563441134,6.441062563308839,46.68809885900716
0.16,31.22218531193176,131.01038586421257,3.4382223512025254,3.8463320955387794,0.0002733212404609,36.974247749122085,0.0004987816203583,3.3205066466509234,391.1218908297564,6.895451966878468,2.7877331692857847,69.99995397923414,-1.77088415515292e-09,113.70000096417354,29.113317717489338,15.288,0.0,0.0,0.0202640360420561,3.0367358387834494e-11,-2.4945905791363795e-05,1.5114297685186711e-09,4.5643121540033697e-07,3.846332105235269,52.641145594326446,6.895494900078523,37.12304892183151
0.17,31.222185210004127,131.010386140357,3.503019838429153,3.8860314262554336,0.000297865039677,46.520531453299206,0.0005306403365217,3.31650761597812,471.78125980632376,7.314788342774694,2.9619016331667103,69.99993849340957,-4.3039914767238207e-10,113.70000110959404,32.761746921137856,15.288,0.0,0.0,0.0214963781445172,4.0366633128431416e-11,-3.0713078585132897e-05,1.96747427715988e-09,5.961228045584824e-07,3.886031437653654,51.00464968745696,7.314835131305714,46.63860064094784
0.18,31.22218510147516,131.01038643438045,3.571950002194137,3.9107265153396016,0.0003214293682635,38.895647526122765,0.0005639254295027,3.312149448254175,407.10156721191447,7.754626295791602,3.1430587898572058,69.9999195084231,1.6149322372810674e-09,113.70000126508234,36.81988229018681,15.288,0.0,0.0,0.0227889722876034,5.2593391349219385e-11,-3.731786027786564e-05,2.525509173087448e-09,7.6786585232224e-07,3.9107265285284982,49.36615848311875,7.754676785798701,39.036415444581515
0.19,31.222184986476247,131.0103867459258,3.644912152926752,3.920599115663931,0.0003437679584038,43.86258669386953,0.0005989384366483,3.307389681300437,448.9531328318269,8.219206165926856,3.332657190859447,69.99989653019398,4.538529095696477e-09,113.70000143063515,41.36350714675367,15.288,0.0,0.0,0.02415428010977,6.735860419174937e-11,-4.481243905342629e-05,3.199401151670645e-09,9.773118416308382e-07,3.92059913071168,47.71893898797248,8.21926016487149,43.987104227715655
0.2,31.222184864792144,131.01038707557822,3.722074668489528,3.943376465171875,0.000367328732016,40.28070981710589,0.0006315894240138,3.30251450988504,418.51563019916136,8.65238089736321,3.511445117640573,69.99986902534273,8.534090245934178e-09,113.7000016067622,45.83799876721736,15.288,0.0,0.0,0.025427299120469,8.499785987217288e-11,-5.328041996372527e-05,4.006766070954748e-09,1.2232205148646746e-06,3.9433764822533854,46.2587826635041,8.652438597225508,40.41586552155969
0.21,31.22218473678744,131.01038742234647,3.803156063113743,3.9664546506877016,0.000390962054969,38.67679184347145,0.0006636984664108,3.297405915846789,404.8187610144644,9.079179692250786,3.688002035198235,69.99983642883521,1.3827831253856693e-08,113.70000179318536,50.47126980736161,15.288,0.0,0.0,0.0266815841422463,1.0586558589671407e-10,-6.275155280099118e-05,4.961340042512481e-09,1.5117124669161171e-06,3.9664546699249135,44.88773728276958,9.079241104426773,38.817098210937615
0.22,31.2221846022986,131.01038778667507,3.8882846911135607,3.956175711337521,0.0004112685792646,46.713636108302936,0.0007011135033803,3.291572407481395,472.5421858721365,9.580256326712124,3.889976788904857,69.99979815126248,2.0662823443484168e-08,113.70000199039316,56.195522894218605,15.288,0.0,0.0,0.0281541581291438,1.3033127211465288e-10,-7.330053770532661e-05,6.0817207473359025e-09,1.8632831045819008e-06,3.956175732680424,43.35679625546934,9.580320928629488,46.8294591882524
0.23,31.222184460898035,131.01038816972698,3.977794004014759,3.9879066397329104,0.0004360962274406,38.89105719050748,0.0007308686121188,3.286096544282012,406.3406421461021,9.977039034039262,4.056142701351626,69.99975353557706,2.9316661139418326e-08,113.70000219928508,60.9462612310605,15.288,0.0,0.0,0.0293202403623685,1.5880617816859538e-10,-8.505067486192354e-05,7.393319440773217e-09,2.2514912291167663e-06,3.987906663538912,42.20670487756048,9.97710753587448,39.0296395118868
0.24,31.222184313516166,131.01038856897196,4.070963590490852,4.003523997322975,0.000459165577055,40.0792299321398,0.0007630441688766,3.280134925833028,416.2328240017114,10.408422364424831,4.234121060914368,69.99970190737699,4.010976417051318e-08,113.70000241888,66.32994780718496,15.288,0.0,0.0,0.030588009649109,1.91711512587616e-10,-9.795845222523724e-05,8.904557280909524e-09,2.7052895870113487e-06,4.003524023611085,41.011349410369874,10.408494489985014,40.21323112692186
0.25,31.22218416001652,131.01038898478134,4.167901030441617,4.0261356185860135,0.0004830526730531,41.17760020658354,0.0007934613160587,3.2740610008587527,425.36408079150686,10.816813039390448,4.4041629376391525,69.99964258149416,5.3372865854010094e-08,113.70000264972064,71.63651430352668,15.288,0.0,0.0,0.0317882126436337,2.2947426169209347e-10,-0.0001121037688082,1.0637152702866709e-08,3.217380562698304e-06,4.026135647516394,39.93186687113378,10.816888917126896,41.30755663120434
0.26,31.222184000702686,131.0103894163294,4.26837241014618,4.053359329950934,0.000507503069958,44.80261175215926,0.0008224724146494,3.2678597736729302,455.8015834241788,11.207047269494833,4.567925492611352,69.99957484039399,6.947299261165984e-08,113.70000289176392,76.89781807056055,15.288,0.0,0.0,0.0329350617559806,2.7254099134167665e-10,-0.0001275114371842,1.260720913253598e-08,3.7915697709142366e-06,4.053359361668992,38.945390435244384,11.207126987890645,44.921630958721536
0.27,31.22218383516388,131.01038986473338,4.372698316214008,4.0614460923241,0.0005296455772492,41.029837477288126,0.0008548809954683,3.2610328932384265,423.84219965987256,11.645685385842508,4.748226940060522,69.99949794024376,8.879821051920497e-08,113.70000314600205,83.0342688744587,15.288,0.0,0.0,0.0342241635563461,3.2137296827284217e-10,-0.0001442952656441,1.4842505534226832e-08,4.458527942364847e-06,4.061446126801262,37.8838346421185,11.645768582375233,41.15922617924542
0.28,31.222183663504484,131.01039032970942,4.48079961904222,4.081133040992532,0.0005533279247169,47.27661484082626,0.0008845140695959,3.254218495915602,476.3468732012221,12.047344998676092,4.915789434712848,69.99941106884992,1.1178948978424788e-07,113.70000341275257,88.85982357848233,15.288,0.0,0.0,0.0354045979054623,3.764736350660473e-10,-0.0001625146963723,1.7365685655384934e-08,5.194620655212288e-06,4.081133078439725,36.956255322213885,12.047431915223257,47.38848224631549
0.29,31.22218348566054,131.0103908114315,4.592727908358551,4.1001100265020245,0.0005770279952742,37.989969791857405,0.0009138463939581,3.247164755122801,397.97031042211177,12.446314684600782,5.082367374004485,69.99931338876085,1.3891902435864665e-07,113.70000369260468,94.8417675268915,15.288,0.0,0.0,0.0365771315767517,4.3836067907166327e-10,-0.0001822432988888,2.0202163500922312e-08,6.018074062137429e-06,4.100110067036654,36.07377590258778,12.446405323946324,38.12849176886316
0.3,31.222183301933686,131.01039130907952,4.708251093558373,4.112858061667493,0.0005998635114143,35.655053282557844,0.000944131403186,3.2397207148238625,378.1859457108711,12.860033399289696,5.253940723820665,69.99920403105713,1.707002607527005e-07,113.7000039856728,101.2505662360602,15.288,0.0,0.0,0.03779301412572,5.075709863465428e-10,-0.0002035013069687,2.3370674033523645e-08,6.94335970778e-06,4.112858105337573,35.19685285507256,12.860127625629724,35.80193592228613
0.31,31.222183112488807,131.0103918222051,4.827243246502713,4.136140889545823,0.0006242383343011,37.56633644061071,0.0009716215464757,3.232339252743767,394.1656220930212,13.2364445751808,5.4126574282679245,69.99908210036875,2.0768081583188525e-07,113.7000042923011,107.26326115439352,15.288,0.0,0.0,0.0388992619788015,5.846561731689753e-10,-0.0002263323252403,2.6893437641668458e-08,7.948283231812338e-06,4.1361409365698805,34.43286455705216,13.236542630309057,37.70514091683033
0.32,31.22218291741533,131.01039235056504,4.949637017503345,4.1622282001352975,0.0006491019906456,40.83513712643371,0.0009979686925508,3.224840963348891,421.55939346242695,13.59846554462374,5.566374262777002,69.99894668612772,2.504388718903276e-07,113.70000461297312,113.2095365840355,15.288,0.0,0.0,0.0399632243410653,6.701756367872645e-10,-0.00025078340164,3.0793566854276295e-08,9.047716714467492e-06,4.16222825066026,33.72644865222576,13.598567505326,40.96227562489027
0.33,31.222182716732533,131.01039289410716,5.075419569102976,4.187801887681037,0.0006739743721461,40.48743503284469,0.0010239291638211,3.217136801802925,418.5156301991682,13.956637761217308,5.718704299733134,69.99879684673242,2.995902922462564e-07,113.70000494831164,119.25032483364384,15.288,0.0,0.0,0.0410158804634189,7.647061680070125e-10,-0.0002769136723495,3.509664608790402e-08,1.0253455741189656e-05,4.187801941818244,33.053267359159875,13.956743628864118,40.61505097607
0.34,31.222182510255863,131.01039345333336,5.204736257784645,4.19642921746386,0.0006961879027693,31.814592723444047,0.0010535137542081,3.208669900766693,345.46563688075645,14.367047160772364,5.88887983533068,69.99863160305904,3.557915789971256e-07,113.70000529927128,126.36523219087664,15.288,0.0,0.0,0.042222056531773,8.688448410811866e-10,-0.0003048202762282,3.9835373705550826e-08,1.1618525957862828e-05,4.196429275109305,32.30947868183619,14.367156517712404,31.97598901989736
0.35,31.222182298183583,131.0103940277045,5.337435501771672,4.210915783240843,0.0007193441544952,34.813487415034444,0.0010813034848195,3.200164272309822,370.5765700527033,14.754132934586384,6.050986755458457,69.99844991734221,4.1975736284587617e-07,113.70000566632532,133.26448209504355,15.288,0.0,0.0,0.0433596939127697,9.832256819293898e-10,-0.0003345386312107,4.503361101379695e-08,1.309465610343774e-05,4.210915844572415,31.63649055965014,14.75424592890194,34.96026256388454
0.36,31.222182080444604,131.0103946174141,5.4735747500461605,4.22903876037745,0.0007431682866607,39.2632255716727,0.0011077666085529,3.1915717453569297,407.8625232777193,15.124417129017054,6.2072589919251575,69.99825073022951,4.922382611919288e-07,113.70000605036684,140.03566173682628,15.288,0.0,0.0,0.0444479595865755,1.1084921261805627e-09,-0.0003661511460057,5.0723697896912267e-08,1.4691545926915382e-05,4.229038825557203,31.017264542603208,15.124533865618538,39.39272792946638
0.37,31.22218185710795,131.01039522227452,5.613102797925907,4.249164960780052,0.0007674149135003,37.28328237034959,0.001133274451316,3.1828514669894137,391.1218908297666,15.483077353331511,6.359470679857624,69.99803294268581,5.740349991123437e-07,113.70000645214331,146.75405277514704,15.288,0.0,0.0,0.0455020695186381,1.245311285088233e-09,-0.0003997125883071,5.6934243389647934e-08,1.641828325195534e-05,4.2491650299519,30.439178816713017,15.483197898584232,37.418894813348615
0.38,31.2221816281124,131.0103958424523,5.756069531572451,4.260095806433531,0.0007900626414612,38.9278000801764,0.0011607546399008,3.1735466295306622,404.8187610144602,15.87126705947922,6.521735074464384,69.99779542676283,6.659911329739736e-07,113.70000687263192,154.20298254405043,15.288,0.0,0.0,0.0466429667223463,1.3943646956867835e-09,-0.0004353006984059,6.369875435270817e-08,1.8328108041903096e-05,4.260095879559656,29.83470194713067,15.87139116222873,39.05694584372078
0.39,31.22218139339905,131.0103964781077,5.9025231349944285,4.274091258047817,0.0008133283308351,33.320076729592266,0.0011870382950339,3.164143363712209,357.64062493382744,16.24457853509073,6.678818328235205,69.9975369905506,7.690136753559805e-07,113.70000731287368,161.54010621938565,15.288,0.0,0.0,0.0477401448128051,1.5563705124515804e-09,-0.0004730068442167,7.105463478762673e-08,2.0383860516746246e-05,4.274091335289374,29.274934656826048,16.244706292406182,33.46997636540994
0.4,31.22218115316572,131.01039712870306,6.0523126585892895,4.286421841403391,0.0008363022448449,31.88018820767003,0.0012133780841982,3.1544430614236454,345.465636880754,16.62063299903514,6.836764518435374,69.99725641601981,8.840594270905819e-07,113.70000777359816,169.10340080049767,15.288,0.0,0.0,0.0488453895716005,1.7320643186450851e-09,-0.0005128553637434,7.9027539265021e-08,2.2612406375611563e-05,4.286421922834417,28.730746964325096,16.620764365084565,32.03586915718869
0.41,31.22218090752676,131.01039779392735,6.205351877049411,4.30025870409831,0.0008595777771371,35.882550741685804,0.0012389121673015,3.1445895889870297,378.94687077668647,16.987310563534386,6.99141560549392,69.9969524610574,1.0121301778427253e-06,113.70000825570062,176.64448930727934,15.288,0.0,0.0,0.0499230826371405,1.922193031274436e-09,-0.0005548883906878,8.764667734700782e-08,2.5005077415911235e-05,4.300258789847355,28.21875643368965,16.987445585695873,36.020076248499606
0.42,31.222180656535848,131.0103984736348,6.36160173428776,4.322008670726048,0.0008844838439129,40.34064925656127,0.001261804338223,3.134918999355981,416.2328240017114,17.318628721060172,7.133856886815013,69.99662385300175,1.154276942054023e-06,113.70000876021427,183.59942989625057,15.288,0.0,0.0,0.0508968652507098,2.1275184665783874e-09,-0.0005991661829955,9.694534598491077e-08,2.752657757470936e-05,4.322008761057615,27.772396468009568,17.318767655457478,40.462275036947325
0.43,31.222180400205527,131.0103991677914,6.521055075967404,4.339436441324956,0.0009085827200945,35.541853595187746,0.0012854696362701,3.124839917627212,375.9031395134336,17.662848429084132,7.280642039343927,69.99626930133451,1.3115939750280808e-06,113.70000928827632,190.96736675963504,15.288,0.0,0.0,0.0519085689713619,2.3488101247838237e-09,-0.0006457514522491,1.0695800287133593e-07,3.0255957891170616e-05,4.339436536261635,27.322335771349252,17.662991148924057,35.67895714766603
0.44,31.22218013836212,131.0103998768696,6.683849332059896,4.342209064313268,0.0009296474314902,32.82948243168077,0.0013129688908547,3.113754688841357,353.0750125389216,18.063580761318697,7.446730341918701,69.99588746395321,1.4852372182848018e-06,113.7000098413532,199.7278270846888,15.288,0.0,0.0,0.0530863610987301,2.586862292117705e-09,-0.0006947575786514,1.1773083546077225e-07,3.329010177793299e-05,4.342209163639375,26.81344244367223,18.06372678999575,32.9768158972058
0.45,31.22217987077456,131.0104006014978,6.850166573233225,4.3420317510315165,0.0009500780330031,38.11022602597878,0.001341042003417,3.1022288449712887,397.2093853562869,18.47486275310604,7.616350301328129,69.99547690348253,1.6764536248320808e-06,113.70001042108892,208.92306716049887,15.288,0.0,0.0,0.0542951637545535,2.842521175226318e-09,-0.0007463379956615,1.2932090054593452e-07,3.657529369088674e-05,4.342031854775571,26.30944884471334,18.47501199101448,38.23628058998621
0.46,31.22217959739673,131.01040134180155,7.020045503401754,4.351169003849846,0.0009725797783515,44.3937050866137,0.0013660055515545,3.09098240974522,449.7140588976434,18.844323061800488,7.771531995684422,69.99503610583268,1.8865779683531e-06,113.70001102895836,217.3591612614144,15.288,0.0,0.0,0.0553810645782081,3.1166808800591503e-09,-0.000800596194505,1.417768495237597e-07,4.001824400409673e-05,4.351169112337076,25.873596578896564,18.844475834274814,44.50118229261506
0.47,31.22217931813738,131.01040209802923,7.193559875579052,4.358630093683735,0.0009947969928181,30.22514089990685,0.0013910994973101,3.079396422776949,331.0078106302534,19.2180591098146,7.9280875671397615,69.99456352718363,2.1170044481277104e-06,113.70001166656292,226.0625808853568,15.288,0.0,0.0,0.0564795377574197,3.4102493884459798e-09,-0.0008576351980594,1.551487523304888e-07,4.3718862242359527e-05,4.35863020698899,25.44665981168229,19.218215372160817,30.381603425148434
0.48,31.22217903348153,131.01040286886197,7.370336324605091,4.365514409145237,0.001016880998596,29.779838936311712,0.001416009414045,3.067527859335786,327.2031223011574,19.5915905767454,8.084483592791102,69.99405758812365,2.369198154608765e-06,113.70001233476164,234.93171707892955,15.288,0.0,0.0,0.057577416115756,3.7241711041759195e-09,-0.0009173883913609,1.6944871263079066e-07,4.767297940601472e-05,4.365514527349481,25.03354780044292,19.59175030803913,29.937410312943754
0.49,31.22217874361868,131.01040365378466,7.5502307795521535,4.3786401372577615,0.0010404145545081,37.2489281064929,0.0014385799934191,3.0558405437943126,389.60000969812296,19.93403005898306,8.23012235628909,69.99351671352461,2.644660619562788e-06,113.700013034871,243.21198709852868,15.288,0.0,0.0,0.0585839249886784,4.059374595909599e-09,-0.0009798792959512,1.8470833984680338e-07,5.180951737438081e-05,4.378640260624215,24.667474291142685,19.934193486919103,37.37406598941686
0.5,31.22217844858332,131.0104044527036,7.733219389747018,2.073488585221971,-2.5482111994289047,38.25598763367274,0.1606127596823113,3.1982258332945905,397.97031042210494,19.92011266156572,8.3664649573212,69.99293932307316,2.9449363413826395e-06,113.70001376847225,242.8682303000176,15.288,0.0,1.2525784889493092,0.058543144134432,4.416769394513709e-09,-0.0010472760810716,5.18679161945689e-06,5.533338013374264e-05,3.284798305112679,21.836223967218235,19.519972525465658,38.38977773792194
0.51,31.22217814838021,131.0104052654333,7.919237978294979,2.1200700310259446,-2.510221623165843,29.34519917616826,0.1644992530797931,3.189777197764845,323.3984349720841,20.260290007369736,8.513397285671074,69.99233203907191,-1.5665810336416746e-05,113.69999438342045,251.2295298638934,15.288,0.0,1.2575490378616687,0.0595430150037401,4.7854232378905775e-09,-0.0010786561002742,-3.279717309453199e-05,5.7963570528999424e-05,3.285275195122121,21.51891190848133,19.86611144670897,29.518510349687883
0.52,31.22217784288788,131.0104060920344,8.108294498750553,2.16364287184452,-2.472801344342664,35.181810825322046,0.1685401387114793,3.1810487251667188,372.0984511843415,20.609285206455883,8.663162271387113,69.99170628207469,-9.471704798888528e-05,113.69991068266684,259.9545032934509,15.288,0.0,1.2625018003590722,0.0605688070100033,5.142792112112825e-09,-0.0011120198699517,-7.174549983749384e-05,6.078466973121865e-05,3.2852990339952286,21.202014639303847,20.220979052744973,35.32573126941592
0.53,31.222177531965468,131.01040693288883,8.300500481283585,2.205944236598251,-2.436915789325459,36.92266697949353,0.1725982038687292,3.1721182582871297,386.5562464348624,20.95457986394756,8.811583521744867,69.99106088844024,-0.0002357655269643,113.69976100914576,268.73323904683343,15.288,0.0,1.2674375925617831,0.0615837300030609,5.4890411348524555e-09,-0.0011474583637432,-0.0001117034490198,6.377147510600366e-05,3.2866112641562983,20.89740105683141,20.571905426846104,37.059080685617644
0.54,31.222177215513927,131.0104077882576,8.495932939542113,2.2468662794143524,-2.402286108907529,32.467762396970464,0.1766885540730626,3.162971774500018,349.2703242098436,21.29784944024916,8.959233748651346,69.99039464997833,-0.0004404089834254,113.69954366206474,277.604707601083,15.288,0.0,1.2723600198496965,0.0625927081214373,5.824351391233442e-09,-0.0011850572907807,-0.0001527047361601,6.693873772033723e-05,3.2888337917058457,20.60303290540125,20.92060977083172,32.621943601777524
0.55,31.22217689380776,131.0104086573861,8.69437921746871,2.2871364684647384,-2.369498817162147,34.39092194186624,0.1807593313976315,3.1536640428253,365.2500005919907,21.633042874978205,9.104039180104529,69.98970632295905,-0.0007102540006923,113.69925693063642,286.40610288364087,15.288,0.0,1.2772633426680349,0.0635779576520412,6.148946252188945e-09,-0.0012248318939257,-0.0001947060502779,7.027295909918428e-05,3.2928004882207187,20.32350582420582,21.260948956566832,34.5356885387049
0.56,31.222176566847445,131.0104095402652,8.895839278313357,2.3273172958738906,-2.338927567419152,32.120349508612655,0.184768992689752,3.144245401554697,346.2265619465787,21.95550781186097,9.244403770863446,69.98899464180604,-0.0010468794278218,113.6988991339246,295.00244631826666,15.288,0.0,1.2821474975279123,0.0645258055643301,6.463057786745368e-09,-0.0012668502879194,-0.0002377221851183,7.376570941256902e-05,3.299087540627975,20.06179672564309,21.58821196096384,32.27440582383029
0.57,31.222176234704182,131.0104104366935,9.100258312048634,2.365261904977833,-2.308257958568313,31.763908165646274,0.1888950614968453,3.1345186568472063,343.1828296833023,22.286086149271856,9.387470574516591,69.9882583100663,-0.0014518624000087,113.69846859266012,303.9469080758571,15.288,0.0,1.287010364367193,0.0654975047808581,6.7669450853101245e-09,-0.0013111627688792,-0.0002817488965646,7.749392026579172e-05,3.304465368556451,19.80035674233702,21.923603908132275,31.918752333228678
0.58,31.22217589735615,131.0104113467227,9.307653713464523,2.3994859467689262,-2.276071879235414,41.71870602784036,0.1932661262703433,3.124325283283174,426.1250058573153,22.639222611199752,9.538190386147322,69.98749599514905,-0.0019267935136383,113.6979636133186,313.6494214500834,15.288,0.0,1.2918519562009168,0.0665355078759859,7.060879541498392e-09,-0.0013578400805294,-0.0003268023217202,8.152272776752774e-05,3.306812171251661,19.528259873227935,22.281792102252258,41.83597964561951
0.59,31.222175554406657,131.01041227142355,9.518333610986398,2.435576730923791,-2.24764114140026,33.88010089400066,0.1974307415351153,3.114192205805639,360.68438819711065,22.962669842210808,9.678649666084064,69.98670629440876,-0.0024733656343369,113.697382394,322.6691523580815,15.288,0.0,1.2966782882613517,0.0674862630063469,7.34510895397558e-09,-0.0014070494103712,-0.0003729883748295,8.568237837115057e-05,3.3137412557870207,19.28594616512471,22.609701743656768,34.02349788866613
0.6,31.22217520606372,131.01041321022245,9.732137189011848,2.4660713091651334,-2.2159411559918007,30.145683302732284,0.2020074506441656,3.103376628102152,329.4859594986058,23.32727457517332,9.833135301634725,69.98588776222863,-0.0030932931590597,113.69672310896004,332.99044471531425,15.288,0.0,1.3014851157589706,0.0685579854233771,7.619948853746193e-09,-0.0014588135986461,-0.000420272231172,9.024323829371344e-05,3.314946456353236,19.01940532687949,22.979282121542465,30.305675628413212
0.61,31.222174852279192,131.01041416324236,9.9491023533517,2.494719976922303,-2.1844883086682514,35.268886178418,0.206698011377339,3.092222914377317,372.0984511843297,23.69828803335512,9.989734620407408,69.98503890334834,-0.0037883303527325,113.6959838903102,343.6597486495328,15.288,0.0,1.306273943896967,0.0696485505435243,7.885710332996182e-09,-0.0015132200032464,-0.000468680218957,9.509569702208704e-05,3.3155091073778515,18.75560932104474,23.35523253901931,35.40478638385369
0.62,31.222174493164754,131.01041513017157,10.169143123778252,2.52934656260864,-2.159923052695756,43.77521844146128,0.2108446609063689,3.0815683459276624,442.86563930529206,24.001920026896247,10.123148594863483,69.98415817127554,-0.0045602701643208,113.6951628286814,352.5149282217266,15.288,0.0,1.3110466965204215,0.0705410908825181,8.142731701905789e-09,-0.0015703267550539,-0.0005182117615942,9.994674547804752e-05,3.325632324799003,18.546162850212905,23.66272046113339,43.884054832470845
0.63,31.222174128540168,131.0104161114928,10.392399970168483,2.560819652315873,-2.134108197500088,24.95857205171502,0.2152135796375712,3.0704521542508645,286.11251274707894,24.325062642108712,10.26316344152222,69.98324401312368,-0.005410838542539,113.69425808633711,362.06301909931983,15.288,0.0,1.3157946859154788,0.0714909796577071,8.391364304079965e-09,-0.0016302488104107,-0.0005689128966774,0.0001051553059045,3.333043915352359,18.328185783912023,23.98991521763452,25.147650231722533
0.64,31.22217375897611,131.01041710564652,10.6184311205714,2.5877372971962966,-2.10599156870383,24.507145769328137,0.2199357896397685,3.0586855635575163,282.30782441796754,24.68152202336212,10.414518728949458,69.98229483365068,-0.0063417772142386,113.69326780758956,372.7440183022396,15.288,0.0,1.320522551918775,0.072538793190933,8.632042670232805e-09,-0.0016928994015059,-0.0006206609475692,0.0001107941919855,3.3359509037397386,18.09318086980059,24.35078812548136,24.698261535731167
0.65,31.22217338445332,131.010418112678,10.847252372957744,2.6191434920106023,-2.082877877191041,43.07867003990402,0.2242382176939037,3.0472920375872894,436.7781447787475,24.98577922928284,10.547889344365917,69.98130902298209,-0.0073547848709213,113.69219018328992,381.9821434472804,15.288,0.0,1.325222963337931,0.0734331922184484,8.86516918841083e-09,-0.0017583650030088,-0.0006734821071494,0.0001164947335564,3.345933397222712,17.898357893428948,24.65867359606164,43.18689713266677
0.66,31.222173004477536,131.01041913392478,11.079247938246258,2.648351015870235,-2.0592489040447086,36.68579314047957,0.2286956755711425,3.0355115998646345,383.51251517160017,25.30147852685956,10.685092814567955,69.9802849307904,-0.0084515767354456,113.6910233872634,391.6872101665192,15.288,0.0,1.3299029543604028,0.0743612269154478,9.091127928377062e-09,-0.0018268647616897,-0.0007275037711717,0.0001225595018094,3.3542880756434585,17.700587930891405,24.97808209949668,36.81187377370236
0.67,31.22217261922865,131.01042016889016,11.314279205545104,2.673430028893902,-2.0336734753974834,25.346990830401776,0.2334858311148973,3.02308533857063,289.1562440103425,25.64740489958072,10.83257327358378,69.9792208161206,-0.0096339863993504,113.68976546628454,402.461780427784,15.288,0.0,1.3345671713389504,0.0753781068756236,9.31037660804388e-09,-0.0018984229654952,-0.0007826958097518,0.0001290985287489,3.358579129508775,17.488438851394665,25.32802328883138,25.52770073379277
0.68,31.22217222887013,131.01042121712243,11.552220432517307,2.698571364304477,-2.009340081112493,31.577864141358216,0.2382476787286531,3.010502705101078,340.8999924858462,25.984157851056008,10.976818781379794,69.97811490438593,-0.0109038410876725,113.68841447380456,413.0904514118433,15.288,0.0,1.339200684068602,0.0763680338422655,9.52339111492915e-09,-0.0019730729768047,-0.000839037376955,0.000135933580693,3.36403758073237,17.287140930694964,25.668596142142945,31.721938658031565
0.69,31.22217183347857,131.0104222784062,11.793013248833716,2.726060755734905,-1.9878488020195328,38.81969135516847,0.242772577847425,2.998075487059413,401.0140726853634,26.28978629596908,11.110300569981614,69.97696539811379,-0.0122629400930081,113.68696849299762,422.85545168911534,15.288,0.0,1.3438126074308157,0.0772664927281903,9.730665304762294e-09,-0.0020508663610795,-0.0008965220920377,0.0001429517044699,3.373420765970826,17.109271890703116,25.97759837567928,38.9360479769224
0.7,31.222171432919897,131.0104233530998,12.036762771714915,2.7525513451378583,-1.966639903866024,32.600023726098065,0.2473604949838199,2.9853789763758285,349.27032420985284,26.59653766798129,11.244075918740904,69.97577047480219,-0.0137130610219071,113.68542563028116,432.7707148156263,15.288,0.0,1.3484067657074152,0.0781682594299991,9.932695391039769e-09,-0.0021319271648971,-0.0009551958759808,0.0001503322723912,3.3824895074683328,16.934611943728914,26.28767925006696,32.73736736191874
0.71,31.22217102724513,131.01042444105784,12.283430604226908,2.776116691899821,-1.9443064987854008,26.83484401193752,0.2521935847558395,2.9721295615159726,301.33126406340574,26.923488006414384,11.384687209150677,69.97452825352954,-0.0152560252289521,113.68378394510256,443.4656806914932,15.288,0.0,1.352969529791116,0.0791293994090992,1.0130015967649008e-08,-0.0022163160974049,-0.0010150571851422,0.0001582003687788,3.3888335285625013,16.75213433453438,26.6181356685784,27.00011127531974
0.72,31.22217061645485,131.01042554227217,12.533017505132916,2.7962843599968297,-1.9206075743043824,32.79898834214535,0.2573266545838335,2.9582312725056563,350.79220534145287,27.275547805670808,11.533820499674253,69.97323679698228,-0.0168936916130603,113.68204145686587,455.1283871395201,15.288,0.0,1.357511670319923,0.0801643454718321,1.0323174228414428e-08,-0.0023041203585326,-0.0010761232582771,0.0001666144644463,3.39190363982369,16.55967040155854,26.973915969009948,32.933128997059725
0.73,31.22217020054456,131.0104266567483,12.785528212726597,2.821778206839423,-1.901488354934552,41.42542870306599,0.2619445895286937,2.9449349259249726,422.320318528234,27.5680262599504,11.66242115934401,69.97189405801714,-0.0186279783233036,113.680196124542,464.930221244708,15.288,0.0,1.3620359337266623,0.0810241866709411,1.0512738260664634e-08,-0.002395436460759,-0.0011384174581859,0.0001750708566368,3.402229602930881,16.404626762618012,27.269395992842103,41.53080061735771
0.74,31.22216977945091,131.01042778465256,13.041013192199228,2.844535973343123,-1.8813436565672368,26.026409971854942,0.266799324156402,2.9310860908232788,294.48281347105944,27.87956384377731,11.79746469128692,69.97049809745286,-0.0204607567096431,113.67824594845789,475.4859894711855,15.288,0.0,1.3665343325236667,0.0819400516757884,1.0699287791655008e-08,-0.0024903616662229,-0.0012019609109387,0.0001840607850762,3.4099751000363714,16.24242119227185,27.584096174461568,26.192297791035028
0.75,31.2221693535256,131.01042892502156,13.299201100122268,2.865268596204732,-1.86067691807698,30.34399337615988,0.2718344107869539,2.91675869711542,330.24688556441487,28.2036805832494,11.93673223773274,69.96904681976751,-0.0223938899068554,113.67618894527516,486.59381137638826,15.288,0.0,1.3710042930322663,0.0828928956424746,1.0883481591275457e-08,-0.0025888373502292,-0.0012666717819341,0.0001935586825205,3.4159912138040607,16.076995123723147,27.911457506872832,30.485066987896236
0.76,31.22216892265835,131.0104300781495,13.560178870291375,2.887490132996052,-1.84176407947853,32.64494245333963,0.2767112542598941,2.902496017108969,349.27032420986166,28.50593647268417,12.068405005047037,69.96753813662244,-0.0244292328990297,113.67402313800488,497.0667895570269,15.288,0.0,1.3754532697345496,0.0837814968066928,1.1065939827908627e-08,-0.0026910001005969,-0.001332598731107,0.0002033481598368,3.424444741246082,15.92654155811871,28.21668266750524,32.77488855861181
0.77,31.222168486791155,131.0104312441887,13.823993003211289,2.909574691383201,-1.8234904616125376,30.54053396023316,0.2815860366941943,2.8880527232027964,331.7687666960708,28.802346835583787,12.197976126487587,69.96596990935336,-0.0265686609489553,113.67174652779484,507.4448749678807,15.288,0.0,1.379881746377011,0.0846529253375651,1.1247313028763537e-08,-0.0027969616126779,-0.0013997716590634,0.0002135475526862,3.4333487178885007,15.78213891419209,28.51596197539104,30.67807610989019
0.78,31.22216804598592,131.010432422965,14.090597028437834,2.9290479822379583,-1.8042734896243349,25.1289142398311,0.2867055766404957,2.8730118201216275,286.8734378128899,29.117705230400087,12.333954005342532,69.964339955902,-0.0288140561321453,113.66935710815488,518.6045110964858,15.288,0.0,1.3842798224649353,0.0855800520424848,1.1428289560951837e-08,-0.0029067747119607,-0.0014681821005435,0.000224355962709,3.4397512009140594,15.631111336769072,28.834337452538705,25.294242978967006
0.79,31.222167600327666,131.0104336142413,14.35992659483786,2.946743738603266,-1.7846712996834486,35.60619613828036,0.2919968430913584,2.857484221051752,373.6203323159534,29.444050480968784,12.47360867068578,69.96264604078834,-0.0311673234002426,113.66685284798416,530.2807650026465,15.288,0.0,1.3886531912087996,0.0865394786289074,1.1609579505386593e-08,-0.0030204897363661,-0.0015378207935724,0.0002357397305542,3.444639515091659,15.477818155611269,29.16376029785212,35.721865596125106
0.8,31.222167149597336,131.0104348186085,14.632153209872422,2.967639814697312,-1.7676700344236198,36.07346837924516,0.296955303895192,2.842330480293409,377.42502064505743,29.731717378950083,12.599889141444592,69.96088585556134,-0.0336304222371097,113.6642316583262,540.6788790878138,15.288,0.0,1.3930075734314888,0.087385233394502,1.1791874295784324e-08,-0.0031383144746448,-0.0016087738051792,0.0002473221235414,3.4538020409865093,15.34645770447288,29.45409646522584,36.18649120763323
0.81,31.22216669389425,131.01043603579097,14.907201535873527,2.985462762290461,-1.74946250535773,23.580570887942844,0.3022168642329215,2.826464351726534,273.9374926939919,30.04347633667936,12.734342141863864,69.95905702130403,-0.0362052904406303,113.66149147541412,552.0625771940921,15.288,0.0,1.3973407502020612,0.0883018059596838,1.197594225637848e-08,-0.0032602792106231,-0.0016810171844839,0.0002596211191045,3.4598896480133323,15.20613666319372,29.768714107885348,23.75128542133889
0.82,31.22216623340237,131.0104372652824,15.184930654459237,3.0016613704465875,-1.7309272025914744,30.204991587552648,0.307644626896039,2.810106121723197,328.72500443277005,30.365264727973305,12.872143342641852,69.95715722685676,-0.0388938894635727,113.65863020147096,563.9368853546802,15.288,0.0,1.4016487122126209,0.0892478648556311,1.216256246529214e-08,-0.0033863838837982,-0.0017545109006561,0.0002725440569098,3.4645834180713444,15.063962482366769,30.09341267493113,30.336988288818826
0.83,31.22216576810373,131.01043850712668,15.465356274186536,3.022022137082217,-1.7153471918727157,38.30476145837207,0.3126291989544019,2.794333681715024,395.68750322465047,30.6387484411648,12.993262021821144,69.95518399957822,-0.0416981716936113,113.65564575681492,574.1253242431047,15.288,0.0,1.4059280035576251,0.0900519576045702,1.2352523289465802e-08,-0.0035167417297451,-0.0018292819227901,0.0002855770188128,3.474522206111074,14.946839573623627,30.369342583802844,38.407821965370445
0.84,31.222165297892428,131.01043976160776,15.748562361520111,3.040897154491272,-1.6994442502357483,23.77699511697812,0.3177576473521876,2.778118148488402,275.4593748256452,30.92081669905152,13.117228436069864,69.95313489053011,-0.0446200507903533,113.6525361000042,584.729173555533,15.288,0.0,1.4101859964617596,0.0908812896605817,1.2546626325227438e-08,-0.003651489556477,-0.0019053680975184,0.0002992409101433,3.4831672136696885,14.827921231169942,30.653907760844035,23.940852264742222
0.85,31.222164823058304,131.0104410279313,16.03432601913475,3.0553260302313814,-1.6815951543763783,25.897812602715305,0.3233591324204285,2.760845447932569,292.96093233939376,31.241978915129167,13.25452547162014,69.95100741247187,-0.0476614328510462,113.64929919677544,596.9225712099408,15.288,0.0,1.414419286004426,0.0918255335111325,1.2745744846425436e-08,-0.0037905526807709,-0.0019826882699065,0.0003138550354736,3.4871332641868285,14.693801753083964,30.977872486022623,26.04656457810222
0.86,31.22216434342816,131.01044230656487,16.32278350849811,3.072143443391054,-1.66558846961947,32.34644985140437,0.3287005008324085,2.743846832507101,346.2265619465587,31.53275340053513,13.381288662145757,69.94879895252461,-0.050824285627632,113.64593295040112,608.0687558053806,15.288,0.0,1.4186307843044292,0.0926804712291516,1.2950712298900625e-08,-0.0039341403800887,-0.0020613210512559,0.0003287666412942,3.494222522164306,14.575604884754958,31.27116022304068,32.464281255695845
0.87,31.22216385902464,131.01044359744233,16.613919226382595,3.0898487138095194,-1.6505380316816367,30.142925271122056,0.3339375014274189,2.72684771083428,327.964078366998,31.808324808188328,13.502730744538871,69.94650697598613,-0.0541105820748937,113.64243524948895,618.7259794972823,15.288,0.0,1.4228202876559204,0.0934907325949245,1.3162400280426474e-08,-0.0040823340632036,-0.0021412717103412,0.0003441225980791,3.502684580049136,14.46609411903578,31.54909475810858,30.267856821938853
0.88,31.22216336988189,131.01044490046664,16.907708715720553,3.1050815840945325,-1.6346281648720355,26.095973562767128,0.3394431207232714,2.70914603523296,294.4828134710418,32.10334100855429,13.630754086948986,69.94412880012268,-0.057522260071605,113.63880402811527,630.2385539742195,15.288,0.0,1.4269856736948976,0.0943581542520385,1.3381724592867938e-08,-0.0042351932422082,-0.002222533430648,0.0003603089615875,3.508692683776216,14.350261657908762,31.84660904758212,26.23841706469858
0.89,31.222162876079395,131.0104462154171,17.20409239344864,3.117872853995908,-1.617900319751279,28.58831982814284,0.3452231264909209,2.690711299900536,315.028134248087,32.41791258326312,13.765399561000471,69.9416617238917,-0.0610612794149569,113.6350371937482,642.6318329672978,15.288,0.0,1.431122801903718,0.0952830618055137,1.3609618430830729e-08,-0.0043927744287991,-0.0023050982369981,0.0003773663649205,3.512285318865746,14.228414401343436,32.163807167678314,28.71673966352486
0.9,31.222162377541768,131.01044754249523,17.503130821553167,3.135164448314281,-1.603944344615257,31.542885551443288,0.3504914788456067,2.6730569212638526,339.37814235421445,32.679977460403244,13.881904357814925,69.9391029234733,-0.0647296490728241,113.63113260413591,653.045084404143,15.288,0.0,1.435238603473616,0.0960536496821735,1.3847022119972349e-08,-0.0045552346762337,-0.0023890106091992,0.000394474805104,3.521267570093287,14.13036670938184,32.428063377847195,31.657885376198294
0.91,31.22216187433783,131.01044888151003,17.804772782647863,3.150016240549353,-1.5891432609556768,24.081594264277847,0.3560326913978352,2.654675248785496,277.7421810230789,32.96158690982027,14.005026355931024,69.93644969676892,-0.0685293168987257,113.6270881730684,664.3291530192214,15.288,0.0,1.4393318682430505,0.0968816916014567,1.4094906562003341e-08,-0.0047226171962919,-0.0024742540673409,0.0004124820375925,3.5278086084094227,14.026025690193588,32.711996873491366,24.230089604934562
0.92,31.22216136666559,131.01045023191787,18.108866884938205,3.162473901197975,-1.573547912189717,28.60415722877327,0.3618516512657389,2.6355382768245885,315.02813424806214,33.26266939413707,14.13474673293454,69.93369913935676,-0.0724622113175981,113.62290184565232,676.5012465593898,15.288,0.0,1.4434006741083767,0.0977669777904851,1.4354304681351253e-08,-0.0048948779644991,-0.0025607695432302,0.0004314201928939,3.531965330448747,13.915734861968096,33.015528136490474,28.72759665190448
0.93,31.22216085443505,131.01045159396097,18.41548517274908,3.1791160504252445,-1.5604152747152102,33.95945363169756,0.3671769718032639,2.617177275817247,359.1625070654728,33.514187143449654,14.247331701828967,69.93084844149135,-0.0765302994058016,113.61857151446875,686.7505157461483,15.288,0.0,1.447447116438129,0.0985065896959372,1.4626197520876017e-08,-0.0050721990161183,-0.0026486122485377,0.0004504158732869,3.541069793598216,13.826825711630493,33.26910798423779,34.062133326981936
0.94,31.22216033753733,131.0104529679337,18.72471433581809,3.191168702927292,-1.5454010602929142,24.73917867655039,0.3730420085737738,2.5975292004494905,283.0687504837787,33.808373102041614,14.374486350776024,69.92789466514799,-0.0807354822720215,113.61409515042604,698.8392036182304,15.288,0.0,1.4514711549683548,0.0993716226350554,1.4911615613197592e-08,-0.0052547279672828,-0.0027378172011957,0.0004707066386839,3.5453281880223884,13.722801293089468,33.565651503921366,24.87796776020168
0.95,31.22215981625669,131.01045435305718,19.03633623411429,3.20341167344641,-1.5308549153173068,31.94234226465211,0.3788862431234779,2.577707109354883,342.4218736174873,34.095202282820175,14.499018131755712,69.92483476980523,-0.0850797314926013,113.60947064834762,710.726092477154,15.288,0.0,1.455471185464616,0.1002150407542343,1.521166540197446e-08,-0.0054423789745707,-0.0028283063614474,0.0004916373470234,3.550059239048569,13.623380104306172,33.854764764516204,32.04842208407502
0.96,31.222159290303804,131.01045575011855,19.35057760949021,3.217602264280483,-1.517588668910532,31.302274657990168,0.3844910440791153,2.558166842285606,337.09533515678345,34.355771559605,14.614419438367548,69.92166579285876,-0.0895650194659017,113.60469589398672,721.6091344888225,15.288,0.0,1.4594503439775623,0.1009812825439275,1.5527370265372957e-08,-0.0056354713281618,-0.0029201967914024,0.0005129554616206,3.5571924339743037,13.535482813597683,34.11741716107646,31.408986766850663
0.97,31.222158759697663,131.01045715906366,19.66742613221015,3.230276964921441,-1.503939516428538,20.13417133824334,0.3902785453852699,2.5380411302319623,245.02188719299323,34.62692739030903,14.733361763988627,69.91838454305164,-0.0941933239535087,113.59976877780134,733.0225002321916,15.288,0.0,1.463408250298775,0.1017786497350284,1.585985724475493e-08,-0.0058340922988729,-0.0030134915522245,0.0005352094129263,3.5628817327470603,13.445029093802578,34.390716250355425,20.29726152956297
0.98,31.22215822472084,131.01045857911822,19.986665039453488,3.2385216685899256,-1.4885777813278391,29.189652966461328,0.3966222091281199,2.5165287648029167,319.5937466429581,34.94035422238587,14.866753475185387,69.91498794258568,-0.0989666331613127,113.59468716668955,746.3296300269893,15.288,0.0,1.4673422429248877,0.1027002726583894,1.6210298824295016e-08,-0.0060381108746649,-0.0031080926688151,0.0005589224599696,3.5639200366268597,13.340597193411773,34.70655527537125,29.3006154628755
0.99,31.22215768522708,131.01046001067928,20.30841021648476,3.2533285628591684,-1.4765519019420756,31.874554168608658,0.4021407816648798,2.49654059235772,341.6609485517054,35.17780765630998,14.973908740248024,69.9114726770013,-0.1038869457864727,113.58944892790193,756.4847821950059,15.288,0.0,1.4712553113570312,0.1033985955389143,1.6579828833283983e-08,-0.0062477862874153,-0.0032040847312566,0.000582243554551,3.572395354866103,13.265314703458545,34.94589709764812,31.974703057028307
1.0,31.222157141214687,131.01046145375008,20.63266549335816,3.263819427502257,-1.4628648232775798,28.5532813680637,0.408204777096727,2.4751781559090964,314.2672081822764,35.4564249636666,15.095131053269,69.90783558330874,-0.1089561663828995,113.58405201956464,768.491411764792,15.288,0.0,1.4751462850649684,0.1042179204004577,1.69696235741448e-08,-0.0064631869052742,-0.0033014611687409,0.0006070687644154,3.5763354775869143,13.176464010104464,35.2266636590046,28.66326943890644
1.01,31.222156592859832,131.01046290784697,20.959296718309563,3.274666985463996,-1.4496402225523963,29.85268780331248,0.4142235280497669,2.453690288496907,324.9203161036979,35.72595491616319,15.213132488491542,69.90407337774144,-0.1141762799024946,113.57849431336048,780.1950621169785,15.288,0.0,1.4790146247667046,0.105010543296612,1.7380907166410973e-08,-0.006684290085568,-0.0034001759459417,0.0006325891498638,3.580867475181817,13.092206426580946,35.49827025599086,29.956220493331525
1.02,31.22215604008733,131.01046437317413,21.288364781832207,3.2862600050930606,-1.4370302707124332,24.956757376130447,0.4201428562410128,2.4321989654796403,284.59063161540416,35.982049681709434,15.326413270142933,69.90018265586022,-0.1195491916533578,113.57277377399777,791.3955006253833,15.288,0.0,1.4828612854942191,0.1057636842868997,1.7814897313575198e-08,-0.0069112640951167,-0.0035002681819976,0.0006587373139319,3.586404291883343,13.013887567471649,35.756345159688,25.078513723073225
1.03,31.222155482963583,131.0104658495488,21.619820761373244,3.2947833102506743,-1.4233639087164052,20.42802500939144,0.4264671553898684,2.4095935411521343,247.30469339049705,36.2665211836502,15.449371467337924,69.89616009324465,-0.1250768007526363,113.56688836333451,803.9328032693323,15.288,0.0,1.4866855817081377,0.1066002430931651,1.827284485000059e-08,-0.0071441460674884,-0.0036017179193203,0.0006862956950906,3.5887780842077515,12.927021795807354,36.0429626999915,20.57406671157918
1.04,31.2221549215482,131.01046733680653,21.9536210510992,3.3056616670469814,-1.4109898631247495,32.36717497199749,0.4324806001383632,2.387447358115764,345.46563688072297,36.519967706731215,15.561553575427304,69.89200225639914,-0.1307610710660091,113.56083597336809,815.1824070154797,15.288,0.0,1.4904880676660308,0.1073456171770548,1.8756022780568452e-08,-0.0073830109017726,-0.0037045226679975,0.0007141756211022,3.593895081832969,12.851977197553822,36.29835233906336,32.45798761514908
1.05,31.22215435556432,131.0104688357043,22.28998307913245,3.313997712338633,-1.397800862212912,19.60060520210868,0.4388352187182165,2.364311784817211,240.45625879819983,36.79616316426522,15.681474200887903,69.88770557553,-0.1366038942526368,113.55461458179744,827.5325199306765,15.288,0.0,1.4942708417175865,0.1081578677416402,1.9265684205163666e-08,-0.007628216178577,-0.0038087988567354,0.0007434514684955,3.596421646502914,12.770428045855857,36.57661889769173,19.74756366881603
1.06,31.222153785241744,131.0104703456121,22.6287312396616,3.320120352889893,-1.3839582426314667,27.84280037674864,0.4455024476324122,2.340229119004529,308.17968365593924,37.0919442336286,15.808053245607327,69.88326646091221,-0.1426072751678141,113.54822203525674,840.862651837121,15.288,0.0,1.4980323104438955,0.1090276971633857,1.9803202491585497e-08,-0.0078796574998938,-0.0039144651763963,0.000774105055214,3.5967200610552483,12.683685931972365,36.87457371999932,27.944528580381483
1.07,31.22215321046796,131.0104718668371,22.96995555967493,3.330401641077377,-1.3721074415281589,32.75582914732484,0.4515972307477482,2.3172110938191395,348.5093681440308,37.33620179876719,15.916784260295271,69.87868118939402,-0.1487732463870315,113.54165615352692,851.9456759213776,15.288,0.0,1.5017746397822944,0.1097460880413551,2.0369908294479e-08,-0.0081375947844465,-0.0040215944908178,0.0008046831844107,3.6016847496319846,12.615010486317583,37.12069226623687,32.840793998331904
1.08,31.222152631145388,131.01047339964651,23.313734494196183,3.3394695945773964,-1.359993815118673,22.109336848411743,0.4578587499802324,2.2935820708043644,261.00157857466235,37.58866011751499,16.02824365524279,69.87394603943795,-0.1551037661183694,113.534914834732,863.4774137006185,15.288,0.0,1.5054980747198872,0.1104885930389717,2.0967166609563024e-08,-0.0084022185155925,-0.0041302271469087,0.0008364407964155,3.605488231032988,12.544631950129558,37.37505284817401,22.232699548794923
1.09,31.222152047540312,131.01047494331064,23.65986421640572,3.34345643411756,-1.346066735688972,20.35169006486725,0.4648459230306434,2.2680263746463414,246.54375332474407,37.89330363623804,16.15760643554096,69.86905721628457,-0.1616007959174988,113.52799597236368,877.5013481947116,15.288,0.0,1.5092004315470555,0.1113845012000132,2.1596449048518965e-08,-0.0086733581093203,-0.0042402558705419,0.0008704016359411,3.603961626101248,12.458709454168634,37.68188341745537,20.482951785928364
1.1,31.222151459726195,131.0104764976277,24.008290533068884,3.3496482003317007,-1.333282997688232,40.65268299894526,0.4715289704327544,2.2429226336542327,413.1890617385841,38.1682212952622,16.276635732736068,69.86401086395104,-0.1682663014659742,113.52089745430372,890.2503659525061,15.288,0.0,1.5128824400311056,0.1121930420107742,2.2259193577236304e-08,-0.0089510865614847,-0.0043516750776137,0.000904759379966,3.604963362219553,12.383423055223448,37.9588085924596,40.717240531785166
1.11,31.22215086731487,131.01047806366216,24.359317431756235,3.3605859076635007,-1.3226058978366388,29.813604001162936,0.4775165099783648,2.219219484236524,324.1593910376397,38.38376858592704,16.375089422122237,69.85880299136652,-0.1751022619898816,113.51361715725604,900.3034177179914,15.288,0.0,1.5165476111543763,0.1128270764111559,2.295677617156265e-08,-0.0092359565167939,-0.0044646684450305,0.0009387939109245,3.611207208473343,12.327542639012082,38.1760325876034,29.899898673317868
1.12,31.222150270367045,131.01047964124882,24.7129006847702,3.361883567473221,-1.3083709119574856,11.364047022239824,0.4849278707338464,2.1918864981854567,172.73281794065943,38.70422359402791,16.509643053057207,69.85342972543077,-0.182110608841112,113.5061529981197,915.3678267424305,15.288,0.0,1.5201943582940995,0.113769491078339,2.3690697264759533e-08,-0.0095279857196505,-0.0045792021677234,0.0009765297518081,3.607233081815061,12.240299413268946,38.49872303272422,11.583655993874297
1.13,31.22214966945277,131.01048122882307,25.068600859213447,3.368023752771141,-1.2962571148429032,35.11154504575337,0.4916300136372899,2.1659810877945853,367.5328077900705,38.96443631396592,16.623333253048727,69.84788682788376,-0.1892934328522655,113.49850273127636,927.685740009054,15.288,0.0,1.5238202775957357,0.1145348355419536,2.4462634279574366e-08,-0.009826700695877,-0.0046950558129821,0.0010138817585178,3.6085912231484176,12.17257671349442,38.76083809194382,35.1817249384245
1.14,31.222149063933816,131.01048282813807,25.42691607177436,3.377525401815385,-1.2856366459516215,19.5301851925296,0.4978176202951855,2.1410742840178427,239.69531773195544,39.18035988414712,16.721638095956223,69.84217023039939,-0.1966525780272327,113.49066437423002,937.9635871975644,15.288,0.0,1.527430168000178,0.1151700023510716,2.5273950068908826e-08,-0.0101329572152133,-0.0048125229760465,0.0010512375489887,3.613671867395257,12.118951494585016,38.97842949804003,19.653502362868082
1.15,31.222148454279136,131.01048443790785,25.787485360140018,3.37717714884444,-1.2714870547184256,19.25357179674439,0.5055162119013042,2.112228084396905,237.41251153546767,39.50559458684143,16.85760387352302,69.83627591651026,-0.2041898910014924,113.48263593089256,953.5671918206216,15.288,0.0,1.531019672218182,0.1161264967694563,2.61263278055935e-08,-0.0104462727379692,-0.0049313795162229,0.0010927005364274,3.608342011859723,12.0337509675051,39.305886259954256,19.375682724833233
1.16,31.222147840621425,131.0104860577681,26.15020871522452,3.38708088783958,-1.2613988218382173,50.0785895425644,0.5116316013317274,2.086996936498714,490.0437743845894,39.7063275967391,16.95049404445698,69.83019948234038,-0.211907362539065,113.47441526189048,963.248643175674,15.288,0.0,1.5345903199939357,0.1167170282217978,2.7021398086354826e-08,-0.0107666927620667,-0.0050516089151767,0.0011319001115772,3.6140821725645225,11.986068496435912,39.5082035386739,50.124669112933574
1.17,31.222147222123176,131.01048769002287,26.51573892471244,3.3916611564123635,-1.2495156878560698,9.044127180306528,0.518567751076956,2.0594911611215694,153.70937929486794,39.963715106194655,17.062852580907542,69.82393681391567,-0.2198067811434128,113.4660004329572,975.742950849484,15.288,0.0,1.5381468125535398,0.1174741052121477,2.7960525727845504e-08,-0.0110953424048159,-0.0051735915526438,0.001173971017388,3.614253826002922,11.922555579464518,39.76745719836036,9.290137394503603
1.18,31.222146599890245,131.01048933163403,26.883220901886663,3.389178568977574,-1.235251592639674,24.462309254084392,0.5266429051748749,2.028856552283742,280.02501822196746,40.29989684488216,17.202377458542788,69.81748345137854,-0.2278900239137954,113.45738942277998,992.1932130111768,15.288,0.0,1.5416815169428204,0.11846280915999,2.8945711322729893e-08,-0.0114309083353806,-0.0052968022860214,0.0012196076999671,3.607020620230857,11.8374695863667,40.105879009154975,24.55194871495496
1.19,31.22214597342541,131.0104909839697,27.253043465154583,3.401424303912085,-1.2265350747958323,42.58449435897149,0.5323463399040241,2.003907187140283,428.4078130529292,40.456344079583324,17.27969089963462,69.81083492497278,-0.2361590448258086,113.4485801197102,999.8761815008916,15.288,0.0,1.5452006112410757,0.1189231870563071,2.997844658978447e-08,-0.0117742849601399,-0.0054215353612543,0.0012610759084364,3.615564658003702,11.804206758010029,40.26369511533076,42.63494102786535
1.2,31.22214534230214,131.01049264820745,27.62554055923896,3.4013155778314648,-1.2135350608043964,4.581553688331288,0.5400464010134856,1.9736455542926563,117.1843741360236,40.75415574251827,17.40578684478184,69.80398693600391,-0.2446154987760757,113.43957073276756,1014.6148528650674,15.288,0.0,1.54870003501032,0.119799121047441,3.106030150579333e-08,-0.0121260587116968,-0.0055479601938395,0.0013082660742641,3.611078038720804,11.731770952883762,40.56354835275252,5.017724692356967
1.21,31.22214470762737,131.0104943213022,27.99985632828124,3.401566143295476,-1.2008638275800223,34.235129962310104,0.5477032259834914,1.9431888910773696,359.92343213200894,41.04336084650082,17.52885254028802,69.79693480045718,-0.2532613209983942,113.43035916942918,1029.0290362965548,15.288,0.0,1.552176557661696,0.1206497653138572,3.219338420248664e-08,-0.0124848772473194,-0.0056755555166032,0.0013564884125854,3.607080738838472,11.66273741570882,40.85474340761206,34.29460723534274
1.22,31.222144068559977,131.01049600557243,28.376646465752845,3.412020104082013,-1.1919542140076955,24.85002931152039,0.5536410563007985,1.9168801305977428,283.0687504825761,41.20425544493572,17.60743385078729,69.78967396483603,-0.2620982470515219,113.42094355082692,1037.075130623287,15.288,0.0,1.5556388033028368,0.1211232410550033,3.337911942215331e-08,-0.01285212006014,-0.0058047753462589,0.0014018127988722,3.613994481129781,11.62957887704461,41.0170372197694,24.93000009301494
