Time,Latitude,Longitude,Altitude,Angle of Attack,Angle of Sideslip,X-Acceleration,Y-Acceleration,Z-Acceleration,Thrust,True Velocity,Ground Velocity,Pitch,Roll,Yaw,Dynamic Pressure,cp,parachute_deploy_gain,Wind Speed,Mach,omega_x,omega_y,omega_z,Cmq,Angle of Attack(total),Angle of Attack(gust),True Velocity(gust),Acceleration
0.0,31.222186000000004,131.010384,3.000000003643237,0.0,0.0,0.0,0.0,0.0,2.2828121974499247,0.0,0.0,69.99999999623421,0.0,113.69999999388332,0.0,15.288,0.0,0.0,0.0,0.0,0.0,0.0,-0.0,0.0,90.0,0.0,0.0
0.01,31.22218600000153,131.01038399999584,2.99999882256592,0.0,0.0,0.0,0.0,0.0,34.24218696174923,7.502283530665459e-11,7.190531319924593e-11,69.99999999623329,-4.83564628150269e-13,113.69999999388072,3.446445726795683e-21,15.288,0.0,0.0,2.204725565824978e-13,-3.659182332138578e-19,7.589415207398531e-19,4.811147140404426e-19,-1.5108918610345807e-31,0.0,89.9999999995224,7.502283530665459e-11,0.0
0.02,31.22218600000288,131.01038399999217,2.999997775701936,0.0,0.0,0.0,0.0,0.0,25.871876237766408,1.5320717031631675e-10,1.4674636035870463e-10,69.99999999623222,-9.67129256300373e-13,113.69999999387804,1.4372842949972735e-20,15.288,0.0,0.0,4.5023593667086093e-13,-7.284483346386986e-19,1.5178830414797062e-18,9.757819552369542e-19,-6.170906918166791e-31,0.0,89.99999999902465,1.5320717031631675e-10,0.0
0.03,31.22218599928065,131.01038400193067,3.000201659671132,18.81500467334555,-0.00012974450181,11.96616230539064,-1.8916256735984712e-05,3.349833086198469,180.34219359854663,0.0882870268161719,0.0553390044312322,69.99999999799445,-4.212591857125379e-12,113.69999999488518,0.0047728553458352,15.288,0.0,0.0,0.0002594525584132,3.2187251995663407e-17,-7.20264389268894e-10,1.2365134327422308e-11,1.6874092354518158e-13,18.815004673776716,89.46786891739345,0.0882666465974854,12.426199017587786
0.04,31.22218599548236,131.0103840121632,3.001799604587872,9.46752327608497,-4.6177622759613696e-05,55.21900012092241,3.931876292165237e-06,3.349616504302861,548.6359724538078,0.3767519978512604,0.1853356633749705,70.00000000507204,-2.4624598767003407e-11,113.70000000019972,0.086915163246288,15.288,0.0,0.0,0.0011071759353184,1.6174128009138757e-15,-1.3693172015529268e-08,2.7753303060112748e-11,1.3689612277852356e-11,9.467523276196548,87.63554493451223,0.3767447442872393,55.32050167054111
0.05,31.222185984749512,131.01038404118162,3.00777936418888,5.376730308971262,-2.257790939128127e-06,80.28807156553681,5.266841443842784e-05,3.348887800834877,761.6984298824644,1.018787885905993,0.4366201147110198,70.00000000894464,-1.1355399380652658e-10,113.70000001523856,0.635552918586145,15.288,0.0,0.0,0.0029939522895272,1.6418815498809788e-14,-9.32122351075408e-08,4.303264669380585e-11,2.5199270302492604e-10,5.3767303089717045,83.57022052969386,1.0187875312530217,80.35788377762394
0.06,31.22218596447235,131.01038409608267,3.0201664202003013,4.296730121134882,2.4863835723705905e-05,60.21296515808257,0.0001057204249726,3.347700952379021,590.4875390737208,1.721098934225416,0.7081674028809783,69.99999995523842,-3.0560354507026086e-10,113.70000004366592,1.8138247671743823,15.288,0.0,0.0,0.0050578622752421,8.328976953118383e-14,-3.2824985336199985e-07,5.923438275930214e-11,1.4991363363716091e-09,4.296730121206683,79.20467073327266,1.7211028398275985,60.305955550063224
0.07,31.22218593493329,131.01038417609837,3.038741944736831,3.8204913578752526,4.8016684030909405e-05,91.4060317508128,0.0001597686613101,3.346072557365335,855.2937749779139,2.4375792548422868,0.9844712334613328,69.99999973536046,-5.939103491363046e-10,113.7000000850886,3.6383156301599167,15.288,0.0,0.0,0.007163413150771,2.709313825263564e-13,-7.906546256197275e-07,7.920022733617308e-11,5.114174483651565e-09,3.820491358176508,74.87999294483174,2.437586797285377,91.46725557277466
0.08,31.222185894468456,131.01038428575305,3.0647976109320942,3.588632851766762,7.220043782492885e-05,19.18449428359557,0.0002119618497595,3.3440615022685813,241.2171988638848,3.1292508166901074,1.2522236515868983,69.99999919480445,-9.914748373602156e-10,113.7000001418522,5.996012698481753,15.288,0.0,0.0,0.0091960591623389,6.80386533246681e-13,-1.5973238302190878e-06,1.0839624626357699e-10,1.3263625118823921e-08,3.58863285249208,70.86684630658345,3.1292621579083604,19.473766155861934
0.09,31.22218584634549,131.01038441616095,3.0957981580345013,3.551302481506045,9.685468678862004e-05,57.102946699906326,0.0002554087225869,3.341892818148368,563.0937377043176,3.701810007254615,1.479132491047967,69.99999812344194,-1.4359264356978275e-09,113.7000002093888,8.390904013834115,15.288,0.0,0.0,0.010878666406854,1.440096519545733e-12,-2.748643691533636e-06,1.5214952332699618e-10,2.6999776649034504e-08,3.5513024828250237,67.68737872952666,3.701825221153239,57.20065357568538
0.1,31.222185790329306,131.01038456796124,3.1319266121977414,3.608446747536112,0.0001234669721807,54.26147302645416,0.0002914860332524,3.3396271157106168,538.7437595981919,4.174070299823608,1.6716491241860567,69.9999963052332,-1.902380107712657e-09,113.70000028805804,10.668380938744466,15.288,0.0,0.0,0.0122665227999911,2.687800116751415e-12,-4.315796035622946e-06,2.1749089204950437e-10,4.7802076800548326e-08,3.608446749645647,65.17160335282355,4.174089693970246,54.36414778470795
0.11,31.222185727066616,131.0103847393952,3.172681775073216,3.633547373470009,0.0001485939126744,42.987553988990406,0.0003293995000288,3.337005588796181,442.8656393052949,4.672024955140527,1.8729475711242067,69.99999349387662,-2.3433348587116544e-09,113.70000037699285,13.365573690709628,15.288,0.0,0.0,0.0137298902182575,4.5789425819531184e-12,-6.340230783164189e-06,3.1157625832417107e-10,7.860218435507205e-08,3.6335473765043056,62.62546922225161,4.672048296217748,43.116880735560244
0.12,31.22218565692512,131.0103849294629,3.2177790417108385,3.650108937861461,0.0001727442530266,46.86777100765684,0.000367618259785,3.334068179146888,475.58594813540446,5.17479364099247,2.0758708919414386,69.99998941286465,-2.702771525550512e-09,113.70000047573096,16.396890189902592,15.288,0.0,0.0,0.0152074069417046,7.288473386564583e-12,-8.86736416607888e-06,4.42271554299792e-10,1.217615295152289e-07,3.6501089419435786,60.16906436414164,5.174820775596283,46.986210423745625
0.13,31.222185580265183,131.0103851371844,3.2669395832841857,3.7280113734654137,0.0001995014041665,51.64515456841877,0.0003986198234033,3.3311573548369657,515.9156326236895,5.579364582999854,2.2451120211463422,69.99998375846928,-2.9114380666036422e-09,113.70000058383452,19.060875702782603,15.288,0.0,0.0,0.0163963474924215,1.100846422415094e-11,-1.1941028436408576e-05,6.179653149059831e-10,1.7678562106638216e-07,3.728011378795934,58.279338776943774,5.579395920607139,51.75247433579817
0.14,31.22218549718016,131.01038536230575,3.320091807147376,3.768719651034081,0.0002242721760019,48.1660778383537,0.0004326225136175,3.32784677779744,486.2390860568404,6.025734265159953,2.428648685938864,69.99997621008868,-2.890941335368725e-09,113.70000070125378,22.232643351545065,15.288,0.0,0.0,0.0177081261985351,1.5941871344608664e-11,-1.560901486259027e-05,8.477542742712431e-10,2.495765160917323e-07,3.7687196576976176,56.27980129251342,6.025769493750979,48.280903250602165
0.15,31.22218540777004,131.01038560455507,3.377159065217065,3.821894709649632,0.000249725644238,46.56959330999435,0.0004643042952466,3.324387732286376,472.54218587214,6.441023336496372,2.6014999612196745,69.99996641132823,-2.546763407193136e-09,113.70000082794672,25.402620271850456,15.288,0.0,0.0,0.0189285691155931,2.2314099732464315e-11,-1.992367942778425e-05,1.1417519574710292e-09,3.4051816697623295e-07,3.821894717796148,54.501255563441134,6.441062563308839,46.68809885900716
0.16,31.22218531193176,131.01038586421257,3.4382223512025254,3.8463320955387794,0.0002733212404609,36.974247749122085,0.0004987816203583,3.3205066466509234,391.1218908297564,6.895451966878468,2.7877331692857847,69.99995397923414,-1.77088415515292e-09,113.70000096417354,29.113317717489338,15.288,0.0,0.0,0.0202640360420561,3.0367358387834494e-11,-2.4945905791363795e-05,1.5114297685186711e-09,4.5643121540033697e-07,3.846332105235269,52.641145594326446,6.895494900078523,37.12304892183151
0.17,31.222185210004127,131.010386140357,3.503019838429153,3.8860314262554336,0.000297865039677,46.520531453299206,0.0005306403365217,3.31650761597812,471.78125980632376,7.314788342774694,2.9619016331667103,69.99993849340957,-4.3039914767238207e-10,113.70000110959404,32.761746921137856,15.288,0.0,0.0,0.0214963781445172,4.0366633128431416e-11,-3.0713078585132897e-05,1.96747427715988e-09,5.961228045584824e-07,3.886031437653654,51.00464968745696,7.314835131305714,46.63860064094784
0.18,31.22218510147516,131.01038643438045,3.571950002194137,3.9107265153396016,0.0003214293682635,38.895647526122765,0.0005639254295027,3.312149448254175,407.10156721191447,7.754626295791602,3.1430587898572058,69.9999195084231,1.6149322372810674e-09,113.70000126508234,36.81988229018681,15.288,0.0,0.0,0.0227889722876034,5.2593391349219385e-11,-3.731786027786564e-05,2.525509173087448e-09,7.6786585232224e-07,3.9107265285284982,49.36615848311875,7.754676785798701,39.036415444581515
0.19,31.222184986476247,131.0103867459258,3.644912152926752,3.920599115663931,0.0003437679584038,43.86258669386953,0.0005989384366483,3.307389681300437,448.9531328318269,8.219206165926856,3.332657190859447,69.99989653019398,4.538529095696477e-09,113.70000143063515,41.36350714675367,15.288,0.0,0.0,0.02415428010977,6.735860419174937e-11,-4.481243905342629e-05,3.199401151670645e-09,9.773118416308382e-07,3.92059913071168,47.71893898797248,8.21926016487149,43.987104227715655
0.2,31.222184864792144,131.01038707557822,3.722074668489528,3.943376465171875,0.000367328732016,40.28070981710589,0.0006315894240138,3.30251450988504,418.51563019916136,8.65238089736321,3.511445117640573,69.99986902534273,8.534090245934178e-09,113.7000016067622,45.83799876721736,15.288,0.0,0.0,0.025427299120469,8.499785987217288e-11,-5.328041996372527e-05,4.006766070954748e-09,1.2232205148646746e-06,3.9433764822533854,46.2587826635041,8.652438597225508,40.41586552155969
0.21,31.22218473678744,131.01038742234647,3.803156063113743,3.9664546506877016,0.000390962054969,38.67679184347145,0.0006636984664108,3.297405915846789,404.8187610144644,9.079179692250786,3.688002035198235,69.99983642883521,1.3827831253856693e-08,113.70000179318536,50.47126980736161,15.288,0.0,0.0,0.0266815841422463,1.0586558589671407e-10,-6.275155280099118e-05,4.961340042512481e-09,1.5117124669161171e-06,3.9664546699249135,44.88773728276958,9.079241104426773,38.817098210937615
0.22,31.2221846022986,131.01038778667507,3.8882846911135607,3.956175711337521,0.0004112685792646,46.713636108302936,0.0007011135033803,3.291572407481395,472.5421858721365,9.580256326712124,3.889976788904857,69.99979815126248,2.0662823443484168e-08,113.70000199039316,56.195522894218605,15.288,0.0,0.0,0.0281541581291438,1.3033127211465288e-10,-7.330053770532661e-05,6.0817207473359025e-09,1.8632831045819008e-06,3.956175732680424,43.35679625546934,9.580320928629488,46.8294591882524
0.23,31.222184460898035,131.01038816972698,3.977794004014759,3.9879066397329104,0.0004360962274406,38.89105719050748,0.0007308686121188,3.286096544282012,406.3406421461021,9.977039034039262,4.056142701351626,69.99975353557706,2.9316661139418326e-08,113.70000219928508,60.9462612310605,15.288,0.0,0.0,0.0293202403623685,1.5880617816859538e-10,-8.505067486192354e-05,7.393319440773217e-09,2.2514912291167663e-06,3.987906663538912,42.20670487756048,9.97710753587448,39.0296395118868
0.24,31.222184313516166,131.01038856897196,4.070963590490852,4.003523997322975,0.000459165577055,40.0792299321398,0.0007630441688766,3.280134925833028,416.2328240017114,10.408422364424831,4.234121060914368,69.99970190737699,4.010976417051318e-08,113.70000241888,66.32994780718496,15.288,0.0,0.0,0.030588009649109,1.91711512587616e-10,-9.795845222523724e-05,8.904557280909524e-09,2.7052895870113487e-06,4.003524023611085,41.011349410369874,10.408494489985014,40.21323112692186
0.25,31.22218416001652,131.01038898478134,4.167901030441617,4.0261356185860135,0.0004830526730531,41.17760020658354,0.0007934613160587,3.2740610008587527,425.36408079150686,10.816813039390448,4.4041629376391525,69.99964258149416,5.3372865854010094e-08,113.70000264972064,71.63651430352668,15.288,0.0,0.0,0.0317882126436337,2.2947426169209347e-10,-0.0001121037688082,1.0637152702866709e-08,3.217380562698304e-06,4.026135647516394,39.93186687113378,10.816888917126896,41.30755663120434
0.26,31.222184000702686,131.0103894163294,4.26837241014618,4.053359329950934,0.000507503069958,44.80261175215926,0.0008224724146494,3.2678597736729302,455.8015834241788,11.207047269494833,4.567925492611352,69.99957484039399,6.947299261165984e-08,113.70000289176392,76.89781807056055,15.288,0.0,0.0,0.0329350617559806,2.7254099134167665e-10,-0.0001275114371842,1.260720913253598e-08,3.7915697709142366e-06,4.053359361668992,38.945390435244384,11.207126987890645,44.921630958721536
0.27,31.22218383516388,131.01038986473338,4.372698316214008,4.0614460923241,0.0005296455772492,41.029837477288126,0.0008548809954683,3.2610328932384265,423.84219965987256,11.645685385842508,4.748226940060522,69.99949794024376,8.879821051920497e-08,113.70000314600205,83.0342688744587,15.288,0.0,0.0,0.0342241635563461,3.2137296827284217e-10,-0.0001442952656441,1.4842505534226832e-08,4.458527942364847e-06,4.061446126801262,37.8838346421185,11.645768582375233,41.15922617924542
0.28,31.222183663504484,131.01039032970942,4.48079961904222,4.081133040992532,0.0005533279247169,47.27661484082626,0.0008845140695959,3.254218495915602,476.3468732012221,12.047344998676092,4.915789434712848,69.99941106884992,1.1178948978424788e-07,113.70000341275257,88.85982357848233,15.288,0.0,0.0,0.0354045979054623,3.764736350660473e-10,-0.0001625146963723,1.7365685655384934e-08,5.194620655212288e-06,4.081133078439725,36.956255322213885,12.047431915223257,47.38848224631549
0.29,31.22218348566054,131.0103908114315,4.592727908358551,4.1001100265020245,0.0005770279952742,37.989969791857405,0.0009138463939581,3.247164755122801,397.97031042211177,12.446314684600782,5.082367374004485,69.99931338876085,1.3891902435864665e-07,113.70000369260468,94.8417675268915,15.288,0.0,0.0,0.0365771315767517,4.3836067907166327e-10,-0.0001822432988888,2.0202163500922312e-08,6.018074062137429e-06,4.100110067036654,36.07377590258778,12.446405323946324,38.12849176886316
0.3,31.222183301933686,131.01039130907952,4.708251093558373,4.112858061667493,0.0005998635114143,35.655053282557844,0.000944131403186,3.2397207148238625,378.1859457108711,12.860033399289696,5.253940723820665,69.99920403105713,1.707002607527005e-07,113.7000039856728,101.2505662360602,15.288,0.0,0.0,0.03779301412572,5.075709863465428e-10,-0.0002035013069687,2.3370674033523645e-08,6.94335970778e-06,4.112858105337573,35.19685285507256,12.860127625629724,35.80193592228613
0.31,31.222183112488807,131.0103918222051,4.827243246502713,4.136140889545823,0.0006242383343011,37.56633644061071,0.0009716215464757,3.232339252743767,394.1656220930212,13.2364445751808,5.4126574282679245,69.99908210036875,2.0768081583188525e-07,113.7000042923011,107.26326115439352,15.288,0.0,0.0,0.0388992619788015,5.846561731689753e-10,-0.0002263323252403,2.6893437641668458e-08,7.948283231812338e-06,4.1361409365698805,34.43286455705216,13.236542630309057,37.70514091683033
0.32,31.22218291741533,131.01039235056504,4.949637017503345,4.1622282001352975,0.0006491019906456,40.83513712643371,0.0009979686925508,3.224840963348891,421.55939346242695,13.59846554462374,5.566374262777002,69.99894668612772,2.504388718903276e-07,113.70000461297312,113.2095365840355,15.288,0.0,0.0,0.0399632243410653,6.701756367872645e-10,-0.00025078340164,3.0793566854276295e-08,9.047716714467492e-06,4.16222825066026,33.72644865222576,13.598567505326,40.96227562489027
0.33,31.222182716732533,131.01039289410716,5.075419569102976,4.187801887681037,0.0006739743721461,40.48743503284469,0.0010239291638211,3.217136801802925,418.5156301991682,13.956637761217308,5.718704299733134,69.99879684673242,2.995902922462564e-07,113.70000494831164,119.25032483364384,15.288,0.0,0.0,0.0410158804634189,7.647061680070125e-10,-0.0002769136723495,3.509664608790402e-08,1.0253455741189656e-05,4.187801941818244,33.053267359159875,13.956743628864118,40.61505097607
0.34,31.222182510255863,131.01039345333336,5.204736257784645,4.19642921746386,0.0006961879027693,31.814592723444047,0.0010535137542081,3.208669900766693,345.46563688075645,14.367047160772364,5.88887983533068,69.99863160305904,3.557915789971256e-07,113.70000529927128,126.36523219087664,15.288,0.0,0.0,0.042222056531773,8.688448410811866e-10,-0.0003048202762282,3.9835373705550826e-08,1.1618525957862828e-05,4.196429275109305,32.30947868183619,14.367156517712404,31.97598901989736
0.35,31.222182298183583,131.0103940277045,5.337435501771672,4.210915783240843,0.0007193441544952,34.813487415034444,0.0010813034848195,3.200164272309822,370.5765700527033,14.754132934586384,6.050986755458457,69.99844991734221,4.1975736284587617e-07,113.70000566632532,133.26448209504355,15.288,0.0,0.0,0.0433596939127697,9.832256819293898e-10,-0.0003345386312107,4.503361101379695e-08,1.309465610343774e-05,4.210915844572415,31.63649055965014,14.75424592890194,34.96026256388454
0.36,31.222182080444604,131.0103946174141,5.4735747500461605,4.22903876037745,0.0007431682866607,39.2632255716727,0.0011077666085529,3.1915717453569297,407.8625232777193,15.124417129017054,6.2072589919251575,69.99825073022951,4.922382611919288e-07,113.70000605036684,140.03566173682628,15.288,0.0,0.0,0.0444479595865755,1.1084921261805627e-09,-0.0003661511460057,5.0723697896912267e-08,1.4691545926915382e-05,4.229038825557203,31.017264542603208,15.124533865618538,39.39272792946638
0.37,31.22218185710795,131.01039522227452,5.613102797925907,4.249164960780052,0.0007674149135003,37.28328237034959,0.001133274451316,3.1828514669894137,391.1218908297666,15.483077353331511,6.359470679857624,69.99803294268581,5.740349991123437e-07,113.70000645214331,146.75405277514704,15.288,0.0,0.0,0.0455020695186381,1.245311285088233e-09,-0.0003997125883071,5.6934243389647934e-08,1.641828325195534e-05,4.2491650299519,30.439178816713017,15.483197898584232,37.418894813348615
0.38,31.2221816281124,131.0103958424523,5.756069531572451,4.260095806433531,0.0007900626414612,38.9278000801764,0.0011607546399008,3.1735466295306622,404.8187610144602,15.87126705947922,6.521735074464384,69.99779542676283,6.659911329739736e-07,113.70000687263192,154.20298254405043,15.288,0.0,0.0,0.0466429667223463,1.3943646956867835e-09,-0.0004353006984059,6.369875435270817e-08,1.8328108041903096e-05,4.260095879559656,29.83470194713067,15.87139116222873,39.05694584372078
0.39,31.22218139339905,131.0103964781077,5.9025231349944285,4.274091258047817,0.0008133283308351,33.320076729592266,0.0011870382950339,3.164143363712209,357.64062493382744,16.24457853509073,6.678818328235205,69.9975369905506,7.690136753559805e-07,113.70000731287368,161.54010621938565,15.288,0.0,0.0,0.0477401448128051,1.5563705124515804e-09,-0.0004730068442167,7.105463478762673e-08,2.0383860516746246e-05,4.274091335289374,29.274934656826048,16.244706292406182,33.46997636540994
0.4,31.22218115316572,131.01039712870306,6.0523126585892895,4.286421841403391,0.0008363022448449,31.88018820767003,0.0012133780841982,3.1544430614236454,345.465636880754,16.62063299903514,6.836764518435374,69.99725641601981,8.840594270905819e-07,113.70000777359816,169.10340080049767,15.288,0.0,0.0,0.0488453895716005,1.7320643186450851e-09,-0.0005128553637434,7.9027539265021e-08,2.2612406375611563e-05,4.286421922834417,28.730746964325096,16.620764365084565,32.03586915718869
0.41,31.22218090752676,131.01039779392735,6.205351877049411,4.30025870409831,0.0008595777771371,35.882550741685804,0.0012389121673015,3.1445895889870297,378.94687077668647,16.987310563534386,6.99141560549392,69.9969524610574,1.0121301778427253e-06,113.70000825570062,176.64448930727934,15.288,0.0,0.0,0.0499230826371405,1.922193031274436e-09,-0.0005548883906878,8.764667734700782e-08,2.5005077415911235e-05,4.300258789847355,28.21875643368965,16.987445585695873,36.020076248499606
0.42,31.222180656535848,131.0103984736348,6.36160173428776,4.322008670726048,0.0008844838439129,40.34064925656127,0.001261804338223,3.134918999355981,416.2328240017114,17.318628721060172,7.133856886815013,69.99662385300175,1.154276942054023e-06,113.70000876021427,183.59942989625057,15.288,0.0,0.0,0.0508968652507098,2.1275184665783874e-09,-0.0005991661829955,9.694534598491077e-08,2.752657757470936e-05,4.322008761057615,27.772396468009568,17.318767655457478,40.462275036947325
0.43,31.222180400205527,131.0103991677914,6.521055075967404,4.339436441324956,0.0009085827200945,35.541853595187746,0.0012854696362701,3.124839917627212,375.9031395134336,17.662848429084132,7.280642039343927,69.99626930133451,1.3115939750280808e-06,113.70000928827632,190.96736675963504,15.288,0.0,0.0,0.0519085689713619,2.3488101247838237e-09,-0.0006457514522491,1.0695800287133593e-07,3.0255957891170616e-05,4.339436536261635,27.322335771349252,17.662991148924057,35.67895714766603
0.44,31.22218013836212,131.0103998768696,6.683849332059896,4.342209064313268,0.0009296474314902,32.82948243168077,0.0013129688908547,3.113754688841357,353.0750125389216,18.063580761318697,7.446730341918701,69.99588746395321,1.4852372182848018e-06,113.7000098413532,199.7278270846888,15.288,0.0,0.0,0.0530863610987301,2.586862292117705e-09,-0.0006947575786514,1.1773083546077225e-07,3.329010177793299e-05,4.342209163639375,26.81344244367223,18.06372678999575,32.9768158972058
0.45,31.22217987077456,131.0104006014978,6.850166573233225,4.3420317510315165,0.0009500780330031,38.11022602597878,0.001341042003417,3.1022288449712887,397.2093853562869,18.47486275310604,7.616350301328129,69.99547690348253,1.6764536248320808e-06,113.70001042108892,208.92306716049887,15.288,0.0,0.0,0.0542951637545535,2.842521175226318e-09,-0.0007463379956615,1.2932090054593452e-07,3.657529369088674e-05,4.342031854775571,26.30944884471334,18.47501199101448,38.23628058998621
0.46,31.22217959739673,131.01040134180155,7.020045503401754,4.351169003849846,0.0009725797783515,44.3937050866137,0.0013660055515545,3.09098240974522,449.7140588976434,18.844323061800488,7.771531995684422,69.99503610583268,1.8865779683531e-06,113.70001102895836,217.3591612614144,15.288,0.0,0.0,0.0553810645782081,3.1166808800591503e-09,-0.000800596194505,1.417768495237597e-07,4.001824400409673e-05,4.351169112337076,25.873596578896564,18.844475834274814,44.50118229261506
0.47,31.22217931813738,131.01040209802923,7.193559875579052,4.358630093683735,0.0009947969928181,30.22514089990685,0.0013910994973101,3.079396422776949,331.0078106302534,19.2180591098146,7.9280875671397615,69.99456352718363,2.1170044481277104e-06,113.70001166656292,226.0625808853568,15.288,0.0,0.0,0.0564795377574197,3.4102493884459798e-09,-0.0008576351980594,1.551487523304888e-07,4.3718862242359527e-05,4.35863020698899,25.44665981168229,19.218215372160817,30.381603425148434
0.48,31.22217903348153,131.01040286886197,7.370336324605091,4.365514409145237,0.001016880998596,29.779838936311712,0.001416009414045,3.067527859335786,327.2031223011574,19.5915905767454,8.084483592791102,69.99405758812365,2.369198154608765e-06,113.70001233476164,234.93171707892955,15.288,0.0,0.0,0.057577416115756,3.7241711041759195e-09,-0.0009173883913609,1.6944871263079066e-07,4.767297940601472e-05,4.365514527349481,25.03354780044292,19.59175030803913,29.937410312943754
0.49,31.22217874361868,131.01040365378466,7.5502307795521535,4.3786401372577615,0.0010404145545081,37.2489281064929,0.0014385799934191,3.0558405437943126,389.60000969812296,19.93403005898306,8.23012235628909,69.99351671352461,2.644660619562788e-06,113.700013034871,243.21198709852868,15.288,0.0,0.0,0.0585839249886784,4.059374595909599e-09,-0.0009798792959512,1.8470833984680338e-07,5.180951737438081e-05,4.378640260624215,24.667474291142685,19.934193486919103,37.37406598941686
0.5,31.22217844858332,131.0104044527036,7.733219389747018,20.72697158116082,-0.0039061315538349,38.84072594275956,0.0012420380796707,1.514406312893929,397.97031042210494,24.33770621856844,8.36606535597106,69.99293932307316,2.9449363413826395e-06,113.70001376847225,362.532058031957,15.288,0.0,7.5154709336958545,0.0715259932140928,4.416640996685587e-09,-0.0010584230784109,3.2419929184031423e-05,6.832398220241683e-05,20.72697193303097,28.68846585886213,24.33709264485924,38.87023822648566
0.51,31.22217814884389,131.01040526476413,7.919306902557083,20.525813702392146,-0.002240041351083,29.935355658998404,0.0011115997398498,1.4680105702391335,323.3984349720841,24.686788608881542,8.49848627525639,69.99222260221511,5.3916495069713614e-05,113.700068434404,372.99977001520097,15.288,0.0,7.545303243491069,0.0725520624404202,4.877491877681489e-09,-0.0014912267705607,3.2365781744560395e-05,9.764157031805112e-05,20.52581381934899,28.372112296697026,24.68643674400902,29.97132921144332
0.52,31.2221778444523,131.01040608940227,8.108546085275977,20.323083219500305,-0.0021843157346161,35.777409231798835,0.0011317352813728,1.4201042027126098,372.0984511843415,25.04442259384714,8.63403808107125,69.99125499312974,0.0001048027378719,113.70012301601842,383.87826456455446,15.288,0.0,7.575046545814153,0.0736032709467148,5.496245399540385e-09,-0.0019354918084938,3.231490693937362e-05,0.0001285644614747,20.32308333192021,28.05352258179192,25.044079482333974,35.80558208669412
0.53,31.222177535288168,131.0104069269823,8.30105022361652,20.12769801940152,-0.0021300040282163,37.523684100319706,0.0011515974974534,1.371796277538271,386.5562464348624,25.39872093036427,8.767980932124697,69.990029751783,0.0001556019045006,113.70017751160142,394.8090878926436,15.288,0.0,7.604704558763595,0.0746446835037731,6.276622143447944e-09,-0.002391721654232,3.226375246582756e-05,0.0001611139065517,20.127698127430108,27.745912454187565,25.398386350113988,37.54875090883624
0.54,31.2221772212647,131.01040777774105,8.496897800443454,19.938006935877148,-0.0020768933181847,33.074170616399364,0.0011712661919664,1.322939808755867,349.2703242098436,25.75125257021896,8.900883215959425,69.98853994960251,0.0002063115972072,113.700231918697,405.8373356357217,15.288,0.0,7.6342982514477615,0.0756809112561057,7.222427000386931e-09,-0.0028603136904434,3.2212323462246655e-05,0.0001953504439051,19.938007039647637,27.447147811036764,25.750926332579496,33.10061831857753
0.55,31.22217690266839,131.01040864090015,8.695877613002528,19.75819939726893,-0.0020253954341029,35.0027087837252,0.0011904463622127,1.2740426719731648,365.2500005919907,26.096282576016016,9.0306884336681,69.98677858996054,0.0002569294151838,113.70028623431467,416.777510385162,15.288,0.0,7.663792492558818,0.0766950995348933,8.337499515524753e-09,-0.0033408890757424,3.21607082073997e-05,0.0002312249978763,19.75819949693168,27.16258121267053,26.095964427645264,35.02588768818635
0.56,31.222176579511345,131.01040951642725,8.897991037079018,19.591100934362423,-0.0019757357788201,32.7375098012954,0.0012089078856005,1.2255210011407358,346.2265619465787,26.42938819735305,9.155801011457005,69.98473874263603,0.0003074529864863,113.70034045588224,427.4770215124303,15.288,0.0,7.693186260072709,0.077674250125162,9.625586721713725e-09,-0.0038336530985992,3.210893258583659e-05,0.0002687110799979,19.59110103007437,26.89581235864121,26.4290778495027,32.76044033854868
0.57,31.222176251876103,131.0104104040986,9.10318465628468,19.421116247214847,-0.0019263731165756,32.386374331769304,0.0012276697004565,1.175629310917376,343.1828296833023,26.77020818363001,9.28337127328387,69.9824134488603,0.0003578799444377,113.70039458073134,438.5645207619484,15.288,0.0,7.722466242032618,0.0786760799824375,1.1090428562577464e-08,-0.0043386199292026,3.205704283617976e-05,0.0003080210884562,19.42111633906566,26.626915367529044,26.769905589648516,32.40770507366028
0.58,31.222175919752107,131.01041130394364,9.31147723617548,19.238404659398974,-0.001876391996383,42.34637048931546,0.0012474356552568,1.123080823063931,426.1250058573153,27.13242146996193,9.418353218970092,69.97979562847857,0.0004082155752316,113.70044861726215,450.5037608975298,15.288,0.0,7.751631306475662,0.0797407910722491,1.2735782552116712e-08,-0.004856010352844,3.200506469660764e-05,0.0003494109960059,19.23840474743965,26.34328086638665,27.13212672699643,42.361260671863825
0.59,31.22217558275432,131.01041221700993,9.523178296809416,19.07949347622636,-0.001829185599501,34.512996485765925,0.001265644859678,1.0723517295247769,360.68438819711065,27.466639990621225,9.5428050590785,69.97687789459829,0.000458442052785,113.70050254142556,461.6613884789769,15.288,0.0,7.780713366201221,0.0807232349005292,1.456556363424848e-08,-0.00538696135169,3.1952936198066846e-05,0.000392381909166,19.07949356064477,26.091564799421388,27.4663526628192,34.52965198579567
0.6,31.22217524110243,131.01041314270077,9.738128413218188,18.895613407712343,-0.0017802327954693,30.78364212180057,0.0012857571750542,1.0172828423199392,329.4859594986058,27.839903273781367,9.681039185501712,69.97365263309173,0.000508564541171,113.70055636116088,474.284534197816,15.288,0.0,7.809694746005338,0.0818204375176861,1.6583818009372777e-08,-0.0059311817807556,3.1900739093182546e-05,0.0004378845011431,18.895613488511252,25.809392920481606,27.839623635467817,30.800446235688604
0.61,31.222174894759984,131.01041408111604,9.956366863942288,18.71114520772862,-0.0017318174725304,35.91183976077268,0.0013060724716893,0.9608242357788842,372.0984511843297,28.21936651139652,9.82113935460222,69.97011204193325,0.0005585882006673,113.70061008478064,487.2916147670459,15.288,0.0,7.838580079933338,0.0829358700123844,1.879463781579994e-08,-0.0064889999225511,3.184849507865341e-05,0.0004855864337318,18.711145285003575,25.527895112621607,28.219094478144108,35.92469095095042
0.62,31.222174543850468,131.0104150319206,10.177809046448369,18.57338911231627,-0.0016880947661753,44.42330275844108,0.0013229942714664,0.9095885202862508,442.86563930529206,28.534973766974964,9.937794191985192,69.96624824449765,0.0006084950432307,113.70066368730328,498.24177518743033,15.288,0.0,7.867372997561558,0.0838636397571216,2.1202196948405668e-08,-0.0070604652393996,3.179625374094101e-05,0.0005342482125533,18.57338918632373,25.30758423939121,28.534708601669205,44.43261393385122
0.63,31.22217418820441,131.01041599557593,10.402596720810068,18.425042030816584,-0.001643903122702,25.611660260159983,0.0013407517445489,0.8558995456741637,286.11251274707894,28.86910163714442,10.060800852117444,69.96205342997439,0.0006582979830352,113.70071718829064,509.9673215140671,15.288,0.0,7.896039198383918,0.0848458491417228,2.3810474548289693e-08,-0.0076461194030521,3.1744019874902694e-05,0.0005853252399192,18.4250421016065,25.07516280530931,28.86884341344578,25.625957681845932
0.64,31.222173828403832,131.0104169705,10.630289452003549,18.25834475910193,-0.001598666782395,25.165087043995005,0.0013600199575509,0.7984072100891727,282.30782441796754,29.234955845055367,10.19494672061688,69.95751979972529,0.0007079868602955,113.70077057326364,522.9632819415261,15.288,0.0,7.924596265325698,0.0859213097833845,2.662362939980203e-08,-0.0082447508101236,3.16919581307971e-05,0.0006391361573222,18.2583448267048,24.82058893153842,29.234704727064443,25.17774934053125
0.65,31.222173464439926,131.01041795671753,10.860904280466809,18.12592374203748,-0.0015568458710083,43.74154635403468,0.0013766398499502,0.7449401121716097,436.7781447787475,29.551154989075204,10.310873315259515,69.95263964076025,0.000757559484302,113.70082383994928,534.325148135666,15.288,0.0,7.952978634681126,0.0868508425891424,2.9645574046168424e-08,-0.0088566803218516,3.164009127066486e-05,0.0006939836238759,18.125923806651198,24.611295102718305,29.55091044029768,43.747889264603664
0.66,31.2221730958278,131.0104189555475,11.09482658500396,17.98823144566187,-0.001515010433072,37.35349897916585,0.0013936956581714,0.6896772033027215,383.51251517160017,29.878252878922066,10.430393407064354,69.94740514255207,0.0008070128489119,113.7008769855872,546.2070951647877,15.288,0.0,7.98126781789238,0.0878124150054716,3.2880111742842495e-08,-0.0094832987724899,3.158835181194344e-05,0.0007512918365456,17.988231507350644,24.396574780236303,29.87801490163976,37.35986539822765
0.67,31.22217272275832,131.01041996647157,11.33191901805328,17.834666044151565,-0.0014723476435992,26.01936853576138,0.001412096158449,0.6307953107017428,289.1562440103425,30.23419084281109,10.559979674343415,69.94180800000397,0.0008563447761462,113.70093000767784,559.2857477426685,15.288,0.0,8.009462340981484,0.0888587570987616,3.6331503368735896e-08,-0.010124354620441,3.153681975484121e-05,0.0008116145961328,17.834666102951015,24.16280696768299,30.23395956698408,26.027013730310824
0.68,31.22217234540564,131.0104209890169,11.572057076741824,17.688532183799502,-0.0014307774172431,32.2548617028942,0.0014299307509395,0.5719652935426066,340.8999924858462,30.58138223469441,10.686112841142627,69.93583989338111,0.0009055524695508,113.70098290285176,572.1913121031599,15.288,0.0,8.03747403141939,0.0898794014985897,4.0003979300822655e-08,-0.010779685484279,3.148556609729651e-05,0.0008740521312433,17.688532239815153,23.93989157658792,30.581157488703287,32.259932576100496
0.69,31.222171963856564,131.01042202294795,11.815183590429664,17.56185916859503,-0.001391177546104,39.50132065610185,0.0014461357554013,0.5153359641521372,401.0140726853634,30.898890301652383,10.801253112550896,69.92949252859391,0.0009546414926265,113.70103567980055,584.1207886267185,15.288,0.0,8.065381730459409,0.0908128142647988,4.390168163645989e-08,-0.0114492804135004,3.14346483671152e-05,0.0009379616252804,17.56185922196019,23.743130669782133,30.89867177599447,39.504682087360685
0.7,31.222171577986185,131.01042306860512,12.061404771624836,17.43584657297535,-0.0013520344512109,33.28619606635801,0.0014622690615301,0.4578487544578966,349.27032420985284,31.217454825186817,10.91647162211862,69.92275776938776,0.0010035930781694,113.7010883127087,596.2132358275458,15.288,0.0,8.09316803407964,0.091749340323314,4.8028581053837866e-08,-0.0121336847473331,3.138407990137225e-05,0.0010042548231566,17.435846623767763,23.548447287012245,31.21724244811187,33.28934478460363
0.71,31.22217118785517,131.01042412582387,12.310683361428008,17.30008606450273,-0.0013125859521639,27.5254129166396,0.0014792501564935,0.3976018083992713,301.33126406340574,31.555289946279505,11.03833615453662,69.91562710757164,0.0010524223719893,113.70114082400232,609.1729116292128,15.288,0.0,8.120784386680596,0.0927425119939894,5.238884495821143e-08,-0.0128329426760325,3.1333916323785004e-05,0.0010735981645687,17.30008611277424,23.3425266490632,31.555083765760298,27.5282844655771
0.72,31.222170793473687,131.01042519457735,12.563021224814491,17.15260446830538,-0.0012727244736885,33.49380189412072,0.0014973105310228,0.3340034526109993,350.79220534145287,31.91717986807489,11.168547250489416,69.90809198035274,0.0011011164430174,113.70119319603124,623.2104562108665,15.288,0.0,8.148296490176689,0.0938063909022871,5.698666804928627e-08,-0.0135472976370839,3.1284198433911495e-05,0.0011463308774405,17.15260451410441,23.122746844391862,31.91697994898208,33.49546724365701
0.73,31.222170394846955,131.0104262748518,12.818424219205696,17.03819030775251,-0.0012356562057564,42.12456336104036,0.0015123655620994,0.2755314040455782,422.320318528234,32.2220500664882,11.277961464402129,69.90014345765391,0.0011496755239364,113.70124542999424,635.157445932994,15.288,0.0,8.17569800771907,0.0947026944852696,6.182638201773876e-08,-0.0142770520894955,3.123496443588468e-05,0.001219590036081,17.03819035123047,22.946491315199147,32.2218559700653,42.12546448646197
0.74,31.222169991920207,131.01042736679673,13.07694381855806,16.914751801361533,-0.0011983291681133,26.72970222248188,0.0015282003022834,0.2143850297310744,294.48281347105944,32.54511558426599,11.393635413558652,69.89177282813533,0.001198101469321,113.7012975294631,647.9416719587086,15.288,0.0,8.202926700081123,0.0956524839752727,6.691214025969158e-08,-0.0150224969785311,3.1186255014102075e-05,0.0012961024072998,16.91475184256908,22.759864923928777,32.54492735116045,26.73056198771215
0.75,31.22216958505547,131.0104284694285,13.338309828401815,16.786119899398912,-0.0011610561740636,31.051318680829244,0.001544505453402,0.1511119908270166,330.24688556441487,32.880231318951964,11.513375533490176,69.88297135886448,0.0012463792813231,113.70134947329508,661.3374303075542,15.288,0.0,8.230025260143004,0.0966376986853837,7.22483657689017e-08,-0.0157828161198516,3.113819125288583e-05,0.001375687635884,16.786119938397203,22.567682680515656,32.880048940674634,31.051686412136846
0.76,31.22216917415053,131.01042958302543,13.60261013163338,16.669640065641826,-0.0011249889851788,33.35626111439061,0.0015596213930548,0.0892722753469271,349.27032420986166,33.19437300104353,11.625310401162016,69.87373018720709,0.0012945244194363,113.7014012845799,674.0176848659316,15.288,0.0,8.257004894333411,0.0975612777926288,7.783913478617214e-08,-0.0165585862492391,3.1090792598277154e-05,0.0014570591227909,16.66964010252588,22.392155714395763,33.19419628818698,33.35638061155574
0.77,31.22216875915531,131.01043070772428,13.869892167910765,16.556847698449676,-0.0010895259253285,31.25575110212912,0.0015743155282615,0.0272504496321786,331.7687666960708,33.502853177958904,11.734951104527562,69.86404048969571,0.0013425177972128,113.70145293688462,686.5857617460388,15.288,0.0,8.283824135204052,0.0984682259937281,8.368857621574924e-08,-0.0173501892971121,3.1044095386855705e-05,0.0015408640198512,16.556847733294457,22.22246085532191,33.50268203562677,31.25576302098095
0.78,31.222168340140065,131.01043184333457,14.140110419862072,16.4356829778055,-0.0010538965767136,25.84786519523224,0.0015897721106557,-0.0375831853344426,286.8734378128899,33.8294894798665,11.85085699427044,69.85389321177635,0.0013903733768036,113.70150445090574,700.0206033194403,15.288,0.0,8.310493246072525,0.0994285457820839,8.980095686281408e-08,-0.0181575945766038,3.099816552960022e-05,0.00162824889288,16.435683010662817,22.04310551084064,33.82932393417936,25.84789256736598
0.79,31.222167917198338,131.01043298960246,14.413201491410463,16.3103602768401,-0.0010183969174679,36.32879917692114,0.0016056059762421,-0.1044567381493019,373.6203323159534,34.16667785254574,11.970300805106548,69.8432793231381,0.0014380710624186,113.70155579853804,714.0260402514549,15.288,0.0,8.337034414881462,0.1004198884589601,9.61805779049685e-08,-0.0189807600204415,3.0953069560544174e-05,0.0017189846319633,16.310360307770274,21.859443205761647,34.16651788313203,36.32894938510032
0.8,31.222167490117567,131.0104341471064,14.68933767603292,16.204143595517383,-0.0009844059510052,36.79977653245085,0.0016194403495998,-0.168006560059994,377.42502064505743,34.46666398132986,12.076120117473936,69.83218940415269,0.0014856170576707,113.70160698977476,726.600225652006,15.288,0.0,8.363467331642095,0.1013018986148293,1.0283155383595853e-07,-0.0198206672956042,3.0908809972086306e-05,0.0018107631501145,16.204143624617334,21.701283649304305,34.46650935120468,36.800160076623726
0.81,31.2221670590052,131.01043531555484,14.968444551336404,16.08738826399612,-0.0009501334576885,24.31040173644916,0.0016342684998214,-0.2349847947773225,273.9374926939919,34.78978063591402,12.18999818960828,69.82061404655843,0.0015330170359869,113.70165803338529,740.2676446586406,15.288,0.0,8.389747722241395,0.1022519014566958,1.0975832654560952e-07,-0.0206771201515687,3.0865467140555205e-05,0.0019066642640933,16.08738829131269,21.530636198544364,34.789631389299494,24.311537448548176
0.82,31.222166624053912,131.01043649442445,15.25038215398368,15.966933876020208,-0.0009160209370174,30.93820676097261,0.0016494193144093,-0.3039637453755887,328.72500443277005,35.12252186958318,12.307105694568268,69.80854387973343,0.0015802577539824,113.70170891090063,754.4752737254931,15.288,0.0,8.415866116131204,0.1032302016170815,1.1696538703278928e-07,-0.021549740147736,3.082313098809536e-05,0.0020060809571572,15.966933901612444,21.356242747329667,35.12237798135087,30.9396999704874
0.83,31.22216618525285,131.01043768374507,15.53516700240465,15.868829099616,-0.0008834925201955,39.04135540513214,0.0016621197383822,-0.3684452675075678,395.68750322465047,35.408707134735906,12.407267119202256,69.79596935388263,0.0016273407021844,113.70175962524004,766.7996215940482,15.288,0.0,8.441859688696324,0.1040716761457963,1.244570090609801e-07,-0.0224388748735744,3.078184744764152e-05,0.002105813933076,15.868829123577994,21.21146239544972,35.40856835605536,39.043093967405184
0.84,31.222165742501527,131.01043888379047,15.822883734731429,15.767231160652557,-0.0008510707770903,24.51681270458582,0.0016750674342132,-0.4346742637260112,275.4593748256452,35.703113589786746,12.510143345649851,69.78288106948406,0.001674263772598,113.7018101742633,779.5822339184026,15.288,0.0,8.467729945302478,0.1049373229829676,1.322372973404093e-07,-0.0233450034993653,3.074165743303277e-05,0.0022090059366905,15.767231183038982,21.063149509849666,35.7029799039017,24.520665768146213
0.85,31.22216529609884,131.01044009374857,16.113310396750254,15.649174802796512,-0.0008181264464422,26.64063922452212,0.0016897054926084,-0.5062116236705522,292.96093233939376,36.03518064641921,12.626338776803273,69.76926960486618,0.0017210249088315,113.70186055531772,794.128978007116,15.288,0.0,8.493456203487614,0.10591366974137,1.4031084254923596e-07,-0.0242672965061376,3.070267563527536e-05,0.002317569863076,15.649174823647565,20.894651560425466,36.03505213541752,26.645448229560525
0.86,31.22216484587628,131.01044131407784,16.4065838370719,15.54479437825319,-0.0007862150640129,33.09222043271892,0.0017027405542845,-0.5751706336636991,346.2265619465587,36.337899188259854,12.731782178849116,69.7551252035726,0.001767622023361,113.70191076637823,807.5046578177933,15.288,0.0,8.519036437608305,0.106803765652893,1.4868169538833934e-07,-0.0252066706082625,3.066492027299331e-05,0.0024274360901033,15.544794397645308,20.744621439929613,36.3377756898864,33.097218573844145
0.87,31.222164391862663,131.01044254470045,16.70268914997877,15.447134108827456,-0.0007549367319327,30.891530497014603,0.0017148915500275,-0.6432086127274493,327.964078366998,36.625882254755865,12.831725629952045,69.74043812616654,0.0018140530910786,113.701960805205,820.3312274858122,15.288,0.0,8.544461936938157,0.107650560481768,1.573541770088461e-07,-0.0261632438374151,3.062845604341692e-05,0.0025394509922474,15.44713412682606,20.604133752419905,36.62576366957132,30.898226109411574
0.88,31.22216393409801,131.01044378550796,17.001602534154127,15.341679255511687,-0.0007235876012603,26.847225693353288,0.0017277877806173,-0.7143746430756983,294.4828134710418,36.93259768156645,12.938195054276685,69.7251986237056,0.001860316141239,113.7020106695986,834.1041790259885,15.288,0.0,8.569755370192134,0.1085524226278544,1.6633264649144221e-07,-0.0271370027614786,3.0593354922798274e-05,0.0026559470882514,15.341679272165855,20.454529777933583,36.93248402069184,26.85672842223656
0.89,31.222163472668218,131.01044503626727,17.30326509608802,15.22872913741329,-0.0006922211571622,29.34202893733441,0.0017414268033522,-0.7887604031462908,315.028134248087,37.25818069086536,13.051254472999668,69.70939683164985,0.0019064092360426,113.70206035732792,848.8506658775364,15.288,0.0,8.594914506886045,0.1095097501081934,1.756215041171029e-07,-0.028127917890597,3.055968971523203e-05,0.0027771179958629,15.228729152773486,20.29617151718937,37.25807195702026,29.35262864149493
0.9,31.222163007502434,131.0104462971714,17.607737926237014,15.137360686198209,-0.0006621100310162,32.29902332849443,0.0017524277207226,-0.8578027488101028,339.37814235421445,37.53296897410909,13.145862383529384,69.69302255581381,0.0019523383736383,113.70210987778316,861.3926159663441,15.288,0.0,8.619948548428102,0.1103177905488036,1.8522498657367865e-07,-0.0291365358089391,3.052750712889753e-05,0.0028978322259078,15.137360700340116,20.16637015322483,37.53286497010863,32.31041220104591
0.91,31.222162538674933,131.01044756801892,17.914970392368343,15.038295937113787,-0.0006319461088315,24.83995675839183,0.0017641654468007,-0.9300310863446158,277.7421810230789,37.82660380704155,13.247058812872355,69.67606599512696,0.0019980864127309,113.7021592068681,874.8975323385058,15.288,0.0,8.644849997723535,0.1111812344197739,1.9514746656089173e-07,-0.0301627387010941,3.0496886604490004e-05,0.0030232754030319,15.038295950085429,20.027535982743565,37.826504541178906,24.85736133809506
0.92,31.22216206639125,131.01044884825137,18.22481185885387,14.931888241003843,-0.000601789876701,29.36454387657385,0.0017766311089421,-1.0055216175875492,315.02813424806214,38.13904116536291,13.354859729895072,69.65851713183571,0.002043658987074,113.70220835298888,889.3835806312702,15.288,0.0,8.66960710106301,0.1120999527893118,2.053936181028901e-07,-0.0312059241993486,3.046792719443168e-05,0.0031535773245689,14.931888252854836,19.88009741193064,38.13894663643013,29.381754780119664
0.93,31.2221615905644,131.0104501381056,18.53733473940537,14.844851558086836,-0.0005726777477557,34.72181476841903,0.0017866052739223,-1.0758200099176891,359.1625070654728,38.40344921955137,13.445213755084495,69.64036588848835,0.0020890543622069,113.70225731436932,901.7309907222372,15.288,0.0,8.694232173669494,0.1128775106555695,2.1596741855732174e-07,-0.032266759883162,3.044067324337437e-05,0.003283289808177,14.8448515688848,19.758355757166285,38.40335926354111,34.73847740903593
0.94,31.2221611110872,131.01045143787323,18.85262596290089,14.741515535408269,-0.0005432203074088,25.50323887078202,0.00179837372772,-1.152249668606028,283.0687504837787,38.70911169174499,13.550250286277574,69.6216022983426,0.0021342708928602,113.70230608935508,916.114569365355,15.288,0.0,8.718697789402926,0.1137763352222135,2.268729024131773e-07,-0.0333457056737671,3.0415181707507056e-05,0.0034199802288832,14.74151554519518,19.61651190114803,38.70902636289863,25.52925528551739
0.95,31.22216062825285,131.01045274675772,19.1704682339588,14.641224135483368,-0.000514174709739,32.707921953741554,0.0018096106236064,-1.228687907942399,342.4218736174873,39.00761065848677,13.652572273635458,69.60221603927688,0.002179306933927,113.70235467572246,930.2695816792688,15.288,0.0,8.743023185740876,0.1146541139706076,2.381149755601193e-07,-0.034441936554325,3.039155991712317e-05,0.0035595420816916,14.64122414431447,19.47936501927242,39.00752989211223,32.7309919767468
0.96,31.22216014177009,131.010454065551,19.491088204459125,14.550756176134092,-0.0004857293773251,32.069178065015244,0.0018194374931302,-1.3027231324698123,337.09533515678345,39.28060697890689,13.74554328286008,69.58219681100447,0.0022241609081094,113.70240307214668,943.3071549147928,15.288,0.0,8.76722710976472,0.1154569430632994,2.496971802094347e-07,-0.0355568342246657,3.0369832966200345e-05,0.0037003697620329,14.550756184066286,19.355636814858705,39.28053068071472,32.09562700175648
0.97,31.222159651661208,131.01045539419275,19.814473887202343,14.456358794446112,-0.0004574072693207,20.902180247959983,0.0018295551501219,-1.3789934167221831,245.02188719299323,39.56381555432588,13.84203568068945,69.56153408864506,0.0022688312699641,113.7024512768904,956.9287360412958,15.288,0.0,8.791307098377068,0.1162897984436272,2.616239404888441e-07,-0.0366905017506413,3.0350077919273392e-05,0.0038457599887261,14.456358801528204,19.22764128033996,39.563743704960025,20.947619561870116
0.98,31.22215915821752,131.01045673189145,20.140409286462926,14.346888954067811,-0.0004289142482132,29.95846984408368,0.0018414160592955,-1.4616689696252947,319.5937466429581,39.888003106779536,13.953191102049228,69.5402173631208,0.0023133165554374,113.7024992879198,972.6447652806864,15.288,0.0,8.81524721108943,0.117243113094572,2.7390040530138335e-07,-0.037841889716409,3.033240887300248e-05,0.0039988201558475,14.346888960344636,19.081013116118587,39.88793573308698,29.99410600378764
0.99,31.222158661292763,131.01045807904498,20.4690103188286,14.26457924032219,-0.0004014812814551,32.64418245874891,0.0018495830252752,-1.5353856400894352,341.6609485517054,40.13840457085579,14.037590925562387,69.51823587474165,0.0023576153233815,113.7025471038438,984.8637874543898,15.288,0.0,8.839064911353507,0.1179795574956205,2.865303904637676e-07,-0.0390120033983385,3.0316872331474964e-05,0.0041482164980208,14.264579245854897,18.970090945667216,40.13834150632357,32.680270208259294
1.0,31.22215816088673,131.01045943565407,20.80028096500177,14.167623967186117,-0.0003738862866448,29.323409169992548,0.0018594296044626,-1.6153941691677782,314.2672081822764,40.42871948220946,14.136268994971866,69.49557928108301,0.0024017262931043,113.702594723233,999.13025588756,15.288,0.0,8.86275307588574,0.1188333297107829,2.9951822492198805e-07,-0.0402008382380205,3.030355013186412e-05,0.0043054081776721,14.16762397201863,18.84107309287454,40.42866075228889,29.367870660469457
1.01,31.222157657182045,131.0104608012227,21.13408761460781,14.073838441407233,-0.0003466406109216,30.6231341770703,0.0018686504907478,-1.695118512695999,324.9203161036979,40.710162600868976,14.231639572781228,69.47223682652421,0.0024456481873419,113.70264214440058,1013.0570157478022,15.288,0.0,8.88630832266676,0.1196610345149889,3.12868696685796e-07,-0.0414079209818187,3.0292536557953444e-05,0.0044654124139928,14.073838445589942,18.71687135871251,40.710108150689145,30.670014298835763
1.02,31.222157150103136,131.01046217595646,21.470491125838308,13.984549410640312,-0.0003197514982342,25.727344893725387,0.0018770461029146,-1.7739433497441994,284.59063161540416,40.978497314602926,14.32216208874639,69.44819791253259,0.0024893798371405,113.70268936613915,1026.4226792408808,15.288,0.0,8.909736098947453,0.1204502188738416,3.265857848081115e-07,-0.042633754455897,3.0283899350470257e-05,0.0046277606424667,13.98454941422294,18.59919757734837,40.97844708815504,25.788430619409578
1.03,31.222156639719127,131.01046355966764,21.80944279539109,13.885604281142491,-0.0002929037935615,21.19846162753059,0.0018865123742114,-1.8575339977705647,247.30469339049705,41.27437645647687,14.422557593858595,69.42345198677859,0.0025329201663984,113.70273638713309,1041.2645544187735,15.288,0.0,8.933032165116444,0.1213203757856205,3.4067393321350584e-07,-0.0438781707955898,3.0277725201067148e-05,0.0047970713291076,13.885604284171064,18.46979854752765,41.27433044725657,21.2796901172383
1.04,31.222156126092617,131.0104649521863,22.15089923866636,13.796953662787445,-0.0002665259537319,33.137329238065654,0.0018943531241833,-1.937850299614812,345.46563688072297,41.54003557670564,14.511930955834805,69.39798814381167,0.0025762681206282,113.70278320609695,1054.6771273358584,15.288,0.0,8.956199611120255,0.1221017148530026,3.5513755634201805e-07,-0.0451411905430664,3.027409603383244e-05,0.0049667553735825,13.796953665311827,18.354387589459986,41.53999371090673,33.193943068039566
1.05,31.22215560893896,131.01046635428617,22.495077198252925,13.700663991714425,-0.0002402401397879,20.370177966491564,0.0019029912306214,-2.0222264776760017,240.45625879819983,41.82778502781871,14.609202702485632,69.37179559348944,0.0026194227487715,113.70282982234583,1069.303963818356,15.288,0.0,8.979250644514721,0.1229479957213325,3.699799301403514e-07,-0.0464242178752302,3.0273068353304685e-05,0.0051431359363028,13.700663993780424,18.229841062641025,41.8277472909858,20.47030908254509
1.06,31.222155088495388,131.0104677653226,22.8418016315983,13.5980655060376,-0.0002141156550717,28.611513107031524,0.0019122761196547,-2.1103687660092154,308.17968365593924,42.13457243199027,14.713315898718903,69.34486308477527,0.0026623831155751,113.70287623447008,1085.01104940896,15.288,0.0,9.002175682571695,0.1238502468296616,3.8520637108901433e-07,-0.047726372881329,3.027474778475181e-05,0.00532599921046,13.598065507691564,18.097841706782805,42.13453879878182,28.68923739417247
1.07,31.222154564646463,131.01046918560957,23.191162254986555,13.51187731607415,-0.0001884891896973,33.523579246662074,0.0019190108222913,-2.192250252004498,348.5093681440308,42.39114622702041,14.799126888932909,69.317179121322,0.0027051483337108,113.70292244160888,1098.228536733553,15.288,0.0,9.024987341353484,0.1246049103843798,4.0082077354823393e-07,-0.049048547433653,3.0279207163435928e-05,0.0055066923386644,13.511877317364393,17.987744953998007,42.39111661920772,33.59518314218943
1.08,31.22215403729062,131.010470615423,23.54323710934296,13.422786176210987,-0.0001630371303274,22.875851594128378,0.0019258741470911,-2.2762309066205795,261.00157857466235,42.655655620668064,14.887726058498815,69.28873243177162,0.0027477176490672,113.7029684430216,1111.938994807996,15.288,0.0,9.047686896132738,0.1253829097926249,4.1682723718465444e-07,-0.0503912755445873,3.0286531132339296e-05,0.0056925491502141,13.422786177182951,17.87460868775927,42.65563001085552,22.988819391300453
1.09,31.222153506702536,131.01047205401676,23.89782297783808,13.317356930704625,-0.0001376486530883,21.11657745635276,0.0019348173722882,-2.3686901278038155,246.54375332474407,42.97099502591564,14.994768160277957,69.25951163347399,0.0027900903905827,113.70301423752112,1128.401738202209,15.288,0.0,9.070261296390868,0.1263103303373465,4.3323142651599284e-07,-0.0517533741098799,3.0296828511199702e-05,0.0058894413812756,13.317356931403143,17.741013532354,42.970973404115774,21.249012686127777
1.1,31.222152972958,131.01047350118506,24.254865749273275,13.221134094515271,-0.0001126258359457,41.415775215292605,0.0019421859839567,-2.457922169528439,413.1890617385841,43.25733326399584,15.091239255793248,69.22950523467263,0.0028322659660336,113.70305982428408,1143.4508890713244,15.288,0.0,9.092714691992008,0.1271525145232424,4.500378804700696e-07,-0.0531348228373364,3.0310188820252392e-05,0.0060867310021836,13.221134094986446,17.61999809989356,43.2573155727709,41.48864690306483
1.11,31.222152435653143,131.0104749580251,24.61466799192318,13.142585122225915,-8.7955207301436e-05,30.57478674926539,0.0019466722455612,-2.5394168367864367,324.1593910376397,43.48571179791232,15.16651291829859,69.19870154183693,0.0028742438471172,113.70310520323298,1155.51659862554,15.288,0.0,9.115067640387329,0.1278243394795433,4.672491844642386e-07,-0.0545378193767288,3.032668449927961e-05,0.0062802144289804,13.142585122515044,17.522586973390172,43.48569798194067,30.680062360163834
1.12,31.222151894848064,131.01047642437362,24.97718528671618,13.032386877287763,-6.330656038265618e-05,12.122758850646768,0.0019555243789974,-2.6374219521448183,172.73281794065943,43.81641999981459,15.27905181589351,69.16708907677686,0.0029160236472554,113.70315037378208,1173.1179512710007,15.288,0.0,9.137310625866684,0.1287969686249826,4.848703173260916e-07,-0.0559620502770857,3.034641995371108e-05,0.0064930015261446,13.032386877438856,17.384823632616452,43.81641005564334,12.406340335838992
1.13,31.2221513511356,131.01047789862025,25.341979952135567,12.940050818680769,-3.9021993138239166e-05,35.867689283789815,0.0019614624896705,-2.7275374020232244,367.5328077900705,44.08831040233184,15.37015428932618,69.13465545682433,0.0029576049544675,113.70319533456232,1187.6804067040907,15.288,0.0,9.159429333074009,0.1295967153094343,5.029085886166257e-07,-0.0574049672417469,3.0369506748748497e-05,0.006701510581859,12.940050818738609,17.270873364915268,44.088304272771495,35.971246832508626
1.14,31.222150803847786,131.0104793825794,25.709547479561948,12.86019755058583,-1.4967446864592095e-05,20.28358732155449,0.0019651941333614,-2.8119424346851605,239.69531773195544,44.3169004952101,15.445363329499198,69.10138926353262,0.0029989875958086,113.70324008624316,1199.9857904769335,15.288,0.0,9.18145191288901,0.1302691917306586,5.213649031726712e-07,-0.0588700750022918,3.039602513442971e-05,0.0069079376987127,12.860197550594366,17.17383904304961,44.31689814412904,20.47757160283165
1.15,31.222150253470303,131.01048087493177,26.07952811621864,12.7487037818459,8.876553844628777e-06,20.003646455133968,0.0019734237114501,-2.9139638482600305,237.41251153546767,44.65224560108243,15.559652234331937,69.06727906064981,0.0030401715147385,113.70328462798228,1218.1717434455277,15.288,0.0,9.203352533929916,0.1312554841575619,5.402464506161962e-07,-0.060354812774608,3.042608457856111e-05,0.007135496897373,12.748703781848937,17.036320069091268,44.65224699540824,20.214773328072745
1.16,31.222149700140747,131.01048237530372,26.451822083194408,12.672383346531104,3.250054018228618e-05,50.825399543016246,0.001975967737537,-2.997952181645679,490.0437743845894,44.86589518766258,15.629396281266402,69.03231253587394,0.0030811566364882,113.70332895940984,1229.8129311791176,15.288,0.0,9.225140087722943,0.1318840622260897,5.595579617933108e-07,-0.0618590077062779,3.0459779209210984e-05,0.0073480612018446,12.672383346572111,16.94521485435535,44.86590029283549,50.913740384056624
1.17,31.222149142976853,131.0104838860913,26.82707822948753,12.579616625715836,5.591288482338289e-05,9.787179688994112,0.0019806810494625,-3.0916116685500112,153.70937929486794,45.13487453568215,15.719351400320717,68.99647827114103,0.0031219431124452,113.7033730818394,1244.558182052178,15.288,0.0,9.246842139559764,0.1326752934726903,5.792991325711192e-07,-0.0633872373158354,3.049721939715724e-05,0.007574463663749,12.579616625838096,16.833406181055512,45.13488331845756,10.263866371736865
1.18,31.222148583134658,131.01048540415468,27.20444545086476,12.46508067566395,7.894254320921837e-05,25.201096426341927,0.001988501767778,-3.198693748576893,280.02501822196746,45.480894063549,15.837719758729431,68.9597642125922,0.0031625311422014,113.70341699374777,1263.6679442227332,15.288,0.0,9.268386828130286,0.1336929974461207,5.994812803616896e-07,-0.0649333411617112,3.053849373661937e-05,0.00781841688117,12.465080675909933,16.693825666525587,45.48090646381469,25.403285353298457
1.19,31.22214802008961,131.01048693091852,27.58431004582845,12.399239940439262,0.0001020620337237,43.31920420433473,0.0019883152274031,-3.278475663905851,428.4078130529292,45.651041472999616,15.89143568647785,68.92215795070739,0.0032029209780213,113.703460696047,1273.0941248798226,15.288,0.0,9.28983360686709,0.1341937281955147,6.201049487100897e-07,-0.0665008274871419,3.058371436972794e-05,0.0080368150005563,12.399239940852748,16.618474951051716,45.65105750486639,43.44308759203324
1.2,31.22214745338526,131.0104884676221,27.967003227460207,12.294714647795136,0.0001246941390701,5.311439304688559,0.001993877322874,-3.38166103252646,117.1843741360236,45.95947959253394,15.996032221056105,68.8836482341602,0.0032431131394624,113.70350418983573,1290.3079504680288,15.288,0.0,9.3111864796159,0.1351009823869543,6.411723719368122e-07,-0.0680918120589926,3.063300941578042e-05,0.0082843847505677,12.294714648417742,16.493281359855068,45.9594991794435,6.296588187411114
1.21,31.22214688418532,131.01049001110513,28.35167363340524,12.19251672242887,0.0001470607105521,34.959916346049724,0.0019987697068027,-3.4845946693576955,359.92343213200894,46.2594936191547,16.097687292958547,68.84422243917724,0.0032831081080988,113.703547473877,1307.160358583948,15.288,0.0,9.332410918058708,0.1359834841574485,6.626952435324985e-07,-0.0697001137547979,3.0686431340277295e-05,0.0085350993205817,12.19251672330232,16.37171078667129,46.2595167193971,35.13314894693601
1.22,31.22214631159653,131.01049156379318,28.738972329467742,12.1234463440458,0.0001696377336058,25.569726769724827,0.0019979233624453,-3.567668590040136,283.0687504825761,46.43380179284087,16.15292781508974,68.80386869431238,0.0033229065592098,113.70359055005216,1316.980814019572,15.288,0.0,9.353548478313982,0.136496473621372,6.846713441031753e-07,-0.0713311871311142,3.07441379974425e-05,0.0087674188486199,12.123446345214855,16.29422506055553,46.43382843947375,25.81742028628033
