Time,Latitude,Longitude,Altitude,Angle of Attack,Angle of Sideslip,X-Acceleration,Y-Acceleration,Z-Acceleration,Thrust,True Velocity,Ground Velocity,Pitch,Roll,Yaw,Dynamic Pressure,cp,parachute_deploy_gain,Wind Speed,Mach,omega_x,omega_y,omega_z,Cmq
0,31.2221860000000042,131.010383999999988,3.00000000364323682,0,0,0,0,0,2.2828121974499247,0,0,69.9999999962342088,0,113.699999993883324,0,15.2880000000000003,0,0,0,0,0,0,-0
0.01,31.2221859999997946,131.010384000000556,3.00000016469923247,0,0,0,0,0,34.2421869617492334,9.11367326775851009e-12,8.66229497295429822e-12,69.9999999962370651,-4.92863947922479589e-13,113.699999993882884,5.08594204168408172e-23,15.2880000000000003,0,0,2.67827100510624443e-14,-3.65918233213857746e-19,7.58941520739853104e-19,4.81114714040442593e-19,-1.83541113936281872e-32
0.02,31.2221859999996028,131.010384000001039,3.00000030885429547,0,0,0,0,0,25.8718762377664078,1.96992978605390895e-11,1.88456988716431921e-11,69.9999999962400494,-1.04152381447771591e-12,113.699999993882386,2.37621641206600858e-22,15.2880000000000003,0,0,5.78911013494094702e-14,-7.28448334638698292e-19,1.51788304147970621e-18,9.75781955236953991e-19,-7.93451985123442364e-32
0.03,31.222185999409362,131.010384001586402,3.00018176030779937,18.6493779029494604,-0.000129237623237530007,10.7928899806483045,-1.97644583900689674e-05,3.34983967390763571,180.342193598546658,0.0785672533977095078,0.0490694047558625918,69.9999999976775626,-4.2497891361524094e-12,113.699999994705607,0.00377978965327356543,15.2880000000000003,0,0,0.000230888677896110966,2.88330015245363835e-17,-7.25223402354589416e-10,1.08188208080271277e-11,1.51197624781400831e-13
0.04,31.2221859959356287,131.010384010943454,3.00162780953569674,9.74253989061216075,-4.88763086122285772e-05,51.6475445943311158,1.54548216767323456e-06,3.34965665682309899,548.635972453807767,0.346420694310776434,0.171860503977579737,70.0000000036447574,-2.28205307288861013e-11,113.699999999565534,0.0734838809649275282,15.2880000000000003,0,0,0.00101804013696402693,1.80009747884589399e-15,-1.58734069119923437e-08,2.61929145365345784e-11,1.45916869803439425e-11
0.05,31.222185985910329,131.010384038045004,3.00715844163023283,5.5769968489095687,-4.21135943534799539e-06,75.3242160169835273,4.73080294831520123e-05,3.34902689347595528,761.698429882464552,0.947854334293939504,0.409211128642743283,70.0000000010935537,-1.04766136577077691e-10,113.700000013612069,0.55013262299765131,15.2880000000000003,0,0,0.00278549703395658196,1.95473045844392346e-14,-1.13584749331540247e-07,4.14067569904437612e-11,2.85688606727574374e-10
0.06,31.222185966868647,131.010384089593572,3.01868664272593046,4.48500474963244322,2.31139019787050305e-05,56.3605563030587007,9.71465785775115924e-05,3.34799244711343214,590.487539073720654,1.60618980149218604,0.665693519146445256,69.9999999197690244,-2.82941102348924619e-10,113.700000040305838,1.57971028663545732,15.2880000000000003,0,0,0.00472017413217633904,1.01936766184118274e-13,-4.07864410983111553e-07,5.76522069423461223e-11,1.73837509686130208e-09
0.07,31.2221859390775336,131.010384164863126,3.03600551209402658,4.00448286551149391,4.63712119495135773e-05,85.8192455386477917,0.000147926970097503541,3.34656708333141317,855.293774977913927,2.27788210706903049,0.926660947343454056,69.9999996219982279,-5.49831570978999292e-10,113.700000079276109,3.1772067926123353,15.2880000000000003,0,0,0.00669410445039518576,3.35900025920073467e-13,-9.92070622953462368e-07,7.83315922772719921e-11,5.99658406989250883e-09
0.08,31.2221859009658012,131.01038426812616,3.06033476575187802,3.77263127792190334,7.06371256062416025e-05,17.6076228145981588,0.000196957592070898702,3.34480227118667583,241.217198863884818,2.92612482887636283,1.17954495655796454,69.9999989088305909,-9.15694670892462832e-10,113.700000132739973,5.24285298735243899,15.2880000000000003,0,0,0.00859912396431777512,8.49635706706491564e-13,-2.01744800413265681e-06,1.10032289818440005e-10,1.56647792516492608e-08
0.09,31.2221858556197738,131.010384390989856,3.0892797608365723,3.74258231141200604,9.5325675231994802e-05,53.4176180048964397,0.000237730218002333866,3.34289666486112669,563.093737704317618,3.46187703891102627,1.39384941462988121,69.9999975134546446,-1.31671842773002699e-09,113.70000019638816,7.33844512707370811,15.2880000000000003,0,0,0.0101735644468633635,1.80613395740032365e-12,-3.4856561047658452e-06,1.59232278560273843e-10,3.20202005890100843e-08
0.1,31.2221858028175774,131.010384534057465,3.12301320909491364,3.81071421019783685,0.000121971080758598364,50.732831688561788,0.000271545837515448313,3.34090447591365036,538.7437595981919,3.9029133825176725,1.57567038389986336,69.999995157830341,-1.72222432289554893e-09,113.700000270567642,9.32732681847184431,15.2880000000000003,0,0,0.0114696609641860067,3.37914451533694905e-12,-5.48904943388414521e-06,2.34452541412924053e-10,5.68476506314615152e-08
0.11,31.2221857431700727,131.010384695667796,3.16106164078641116,3.84323765504598036,0.000147145408783231387,40.0848474374385688,0.000307099758177995722,3.33859717034531034,442.865639305294906,4.36819921201157246,1.76578242121538631,69.9999915253729768,-2.07703942468805025e-09,113.700000354470319,11.6837607126815346,15.2880000000000003,0,0,0.0128370221364947634,5.76365694334259916e-12,-8.08162139954488366e-06,3.4437809457680147e-10,9.36754562129998513e-08
0.12,31.2221856770245907,131.01038487487628,3.20315617196047642,3.86558564807459826,0.000171348089099210797,43.7480799143332604,0.000342946594964391399,3.33600966231316054,475.585948135404465,4.83801864946757032,1.95742650583495204,69.9999862600106582,-2.3147200577597177e-09,113.700000447673773,14.3321420062794882,15.2880000000000003,0,0,0.0142177082532951912,9.17772063248746377e-12,-1.13223702306849879e-05,4.98555567062495836e-10,1.45354343598177095e-07
0.13,31.2221856047215205,131.010385070757366,3.24903338361815308,3.95285669440916232,0.000198169826234992146,48.2585391180499741,0.000371981107240517913,3.33344523512332414,515.915632623689476,5.21512035057569623,2.1172615234944101,69.9999789703044399,-2.35265113573284059e-09,113.700000549782459,16.6533950244453948,15.2880000000000003,0,0,0.0153259223232261182,1.38588880633063252e-11,-1.52681962163171846e-05,7.07166414280215559e-10,2.11287244421402401e-07
0.14,31.2221855263490333,131.010385283071088,3.29862557546706325,3.99981420118284792,0.000223008237377726162,44.9721767850953427,0.000403855591455553264,3.33052592490198407,486.239086056840392,5.63167615200940475,2.29059513099545553,69.9999692426645623,-2.0964169591742506e-09,113.700000660771011,19.4199179783547713,15.2880000000000003,0,0,0.0165500839355928395,2.00553635588333716e-11,-1.99811439493909854e-05,9.81252131659242702e-10,2.9859131057555361e-07
0.15,31.2221854420015994,131.010385511560628,3.35186028506811029,4.05975476911301225,0.000248539990764711958,43.4637160193537753,0.000433543226731567866,3.32747422849243879,472.54218587214001,6.01888316560526437,2.45383766868271946,69.99995661705006,-1.43188768134039915e-09,113.700000780625842,22.182048585914238,15.2880000000000003,0,0,0.0176879988684610287,2.80404916713566325e-11,-2.55291719775422389e-05,1.33309260321839681e-09,4.07727088477750495e-07
0.16,31.2221853515819241,131.010385756490507,3.40881389436676407,4.08854462484130732,0.000272210944932510383,34.4023069357135967,0.000465877824565354701,3.32404684464906053,391.12189082975641,6.44303061809316624,2.62971580822363071,69.9999405987561403,-2.27841984783363582e-10,113.700000909623355,25.4183784408083007,15.2880000000000003,0,0,0.0189344747787753703,3.81042963600432359e-11,-3.19913711614788564e-05,1.77662362644707755e-09,5.46937370926295155e-07
0.17,31.2221852554099399,131.010386016990765,3.46923909377793649,4.13347468842419552,0.00029684158695823977,43.4155809381403728,0.000495744973995866601,3.3205135250562221,471.78125980632376,6.83404379119085981,2.79420112365087148,69.9999206448319882,1.67575894446247236e-09,113.700001047478835,28.5969980778046526,15.2880000000000003,0,0,0.0200835795555658371,5.05622819343119236e-11,-3.94162603380559734e-05,2.32482468580976756e-09,7.14768170397066036e-07
0.18,31.2221851530022434,131.010386294375877,3.53351204963262022,4.16207877285686756,0.000320492787063832857,36.2151660219171347,0.000526966735016640565,3.31665933612355879,407.101567211914528,7.2444022294323478,2.96528531587496236,69.9998961790314524,4.45070668055043651e-09,113.700001195059045,32.1341903991183955,15.2880000000000003,0,0,0.0212895378539265934,6.5741708189353534e-11,-4.79243856484647045e-05,2.99669991322666987e-09,9.21230820748327094e-07
0.19,31.2221850444828668,131.010386588308563,3.60153760019172342,4.17456309251139679,0.000342914278589344943,40.9041800427263027,0.00055982867240863632,3.31244583927210501,448.953132831826849,7.67810673790947895,3.14433961722118216,69.9998665624008964,8.30674092292676784e-09,113.700001352409558,36.0967170721845179,15.2880000000000003,0,0,0.0225641073333706747,8.40032927522686365e-11,-5.75836346763551867e-05,3.80911503044151526e-09,1.17316671380156179e-06
0.2,31.2221849296486234,131.01038689934137,3.67347464118590317,4.20078915399145636,0.000366573034254704516,37.5214898208491761,0.000590466919182690893,3.30812712915434881,418.515630199161365,8.08216006412957277,3.31318683933006453,69.9998311045104487,1.34800080829191884e-08,113.700001520067786,39.9955165273270055,15.2880000000000003,0,0,0.0237515420632470921,1.05728805481567758e-10,-6.85028882131185225e-05,4.78351733027568889e-09,1.4690610466811608e-06
0.21,31.2221848088436893,131.01038722653837,3.74905730552401684,4.22722562033261262,0.000390310433246848657,36.0064697775761644,0.000620601272787201603,3.30359776763142721,404.818761014464428,8.48018829437500621,3.47992805775657654,69.9997890742529592,2.02433263776548733e-08,113.700001697833756,44.0315784885794201,15.2880000000000003,0,0,0.0249212734096428447,1.31320595517854955e-10,-8.07208291683553139e-05,5.93661589182972911e-09,1.81631626331753899e-06
0.22,31.2221846819136672,131.010387570319409,3.82840670130281646,4.2176244726165093,0.000410696285369717819,43.5935627685881499,0.000655758920494764063,3.29841875767922987,472.542185872136486,8.94831461811120121,3.67066782999472752,69.9997397083127737,2.88926538075102191e-08,113.700001886238866,49.0266756129506618,15.2880000000000003,0,0,0.0262970098082033268,1.61186003536399267e-10,-9.43348117723774896e-05,7.29106197993283208e-09,2.23980539128825791e-06
0.23,31.2221845484548304,131.01038793178239,3.91183756115468473,4.25320537954326383,0.0004356497720089569,36.207459360748949,0.000683686922722525747,3.29355466128287455,406.340642146102141,9.31799902525197865,3.82760028360492655,69.9996821549030983,3.9766623706965518e-08,113.70000208621326,53.1608354775167555,15.2880000000000003,0,0,0.0273834518362109196,1.95767624418301473e-10,-0.000109505708778552874,8.87784718088286285e-09,2.70740355927931971e-06
0.24,31.2221844093456014,131.010388308538637,3.99866964940866776,4.27135264557773553,0.00045883378920767232,37.3286080087975947,0.000713911697673520317,3.2882529474867046,416.232824001711379,9.7203332459195213,3.9956861712714935,69.9996155408946805,5.32509871046438109e-08,113.700002296918697,57.8502398901668755,15.2880000000000003,0,0,0.0285658473732890855,2.35534745143307651e-10,-0.00012617657385590063,1.07071802425012536e-08,3.25424194465518317e-06
0.25,31.2221842644570167,131.010388700938847,4.08900446593793809,4.29698686981540234,0.000482848983334858658,38.3649566400252979,0.000742483922667206905,3.28284626589867479,425.364080791506922,10.1009615935159527,4.1562806652626314,69.9995389781877293,6.97479781374676735e-08,113.700002518962805,62.4689963611702623,15.2880000000000003,0,0,0.0296844577155840929,2.80933085873043406e-10,-0.000144451636124542286,1.28055329635332884e-08,3.87142965072796435e-06
0.26,31.2221841140756986,131.010389108203611,4.18262110402873155,4.32755423691547136,0.000507438991606541483,41.7865661614553829,0.000769736419800412888,3.27732087646770287,455.80158342417883,10.4644497354123782,4.31094871887776954,69.9994515368878751,8.97024502886333285e-08,113.700002752408935,67.0452443356678742,15.2880000000000003,0,0,0.0307527002093570291,3.32431765373287754e-10,-0.00016436315770221847,1.51925047864838523e-08,4.56355359993810651e-06
0.27,31.2221839578137299,131.010389531387915,4.27982215321117465,4.33742811840656994,0.000529702335486379188,38.2242911032538473,0.000800211178185602123,3.27123004841987974,423.842199659872563,10.8736118498261902,4.48123226393084195,69.9993522521519935,1.13587393208351198e-07,113.700002998306658,72.3900346549699947,15.2880000000000003,0,0,0.0319551720828357214,3.90484337603431509e-10,-0.000186059811616844751,1.79019946498730075e-08,5.36790267753501075e-06
0.28,31.2221837957695953,131.010389970223883,4.38053283172365671,4.35979025650862262,0.000553527510562852902,44.1207307275094038,0.000828072271385077072,3.26514386100193477,476.346873201222195,11.2478718916014184,4.63949182586423614,69.9992400702920463,1.41938296327408329e-07,113.700003257081931,77.4582454645660761,15.2880000000000003,0,0,0.0330550782151640757,4.55595825375374429e-10,-0.000209619220926101062,2.09616181379585756e-08,6.25569396794615011e-06
0.29,31.2221836278828384,131.010390424876022,4.48480177698289584,4.38135974025744623,0.00057737648726709299,35.3536197607625553,0.000855659611391794222,3.2588361863853601,397.970310422111766,11.6195889013503368,4.79682445966682813,69.9991139044831527,1.7532937395312496e-07,113.700003529427192,82.6616578528940948,15.2880000000000003,0,0,0.0341475147840558241,5.28268525040872464e-10,-0.000235137545717689308,2.44023887909330158e-08,7.24907222782668121e-06
0.3,31.2221834544381096,131.010390894570321,4.59240982688131272,4.39617507281761988,0.000600356665334356751,33.1490797613948018,0.000884158719714270942,3.25217107922164672,378.185945710871067,12.0052186882677852,4.95887519756831807,69.998972627127344,2.14383684192303281e-07,113.700003815596887,88.2385269149682756,15.2880000000000003,0,0,0.0352808420099011907,6.09029939588318471e-10,-0.000262641159892275291,2.82471356422800846e-08,8.36561857411674722e-06
0.31,31.2221832755909574,131.01039137888381,4.7032380575360353,4.42235615181669761,0.000624899913490765827,34.9528590290802086,0.000910025197609511073,3.24555398289468222,394.16562209302117,12.3556398803864607,5.10879227158949156,69.9988150759387651,2.59766173767152649e-07,113.700004116072961,93.4639131761651498,15.2880000000000003,0,0,0.0363107024397255479,6.98403788157463991e-10,-0.000292187019282257228,3.25229566712151178e-08,9.57826248689966157e-06
0.32,31.2221830914257232,131.010391877587324,4.81722282885169673,4.45155794779377789,0.000649944303128982049,38.0379859115142835,0.000934821026682707218,3.23882361682650144,421.559393462426954,12.6924793110791878,5.25399282922068878,69.9986400687318024,3.12179641788393281e-07,113.700004431478234,98.6283237403037703,15.2880000000000003,0,0,0.0373006526995305274,7.96905013945712519e-10,-0.000323836613651358495,3.72580440687311147e-08,1.09050644159405278e-05
0.33,31.22218290196043,131.01039239063175,4.9343519698327194,4.48019701204722054,0.000675004219851668761,37.7093551175013246,0.000959261610436717115,3.23189933669563656,418.515630199168186,13.0256844327599097,5.39788776638052958,69.9984463826819052,3.72372687880250348e-07,113.700004762578004,103.87354288045799,15.2880000000000003,0,0,0.0382799263433428877,9.05047894999210997e-10,-0.000357667290238851605,4.24836225249657193e-08,1.23603484615852587e-05
0.34,31.222182707020778,131.010392918491164,5.05476263450916541,4.49049305198152204,0.000697378143373914754,29.5227085089536203,0.000987142430045659337,3.22427911658814059,345.465636880756449,13.4081741031825317,5.55863100914667463,69.9982327456812641,4.41143957445642244e-07,113.700005110463266,110.062177258613033,15.2880000000000003,0,0,0.0394040418267209702,1.02333461745717641e-09,-0.000393806243978271305,4.82396483202145133e-08,1.40087103268591529e-05
0.35,31.2221825067937928,131.010393460657156,5.17831168393457641,4.50711781535187139,0.000720712543856854714,32.3530371383660977,0.00101333646443235357,3.21661305844837253,370.576570052703289,13.7686530554979374,5.71176159517965232,69.9979978091806316,5.19362042776584697e-07,113.700005475786654,116.058400304168075,15.2880000000000003,0,0,0.0404634764462946869,1.15232390415689195e-09,-0.000432299813734132244,5.45552399130644805e-08,1.57912776608867467e-05
0.36,31.2221823012122108,131.010394017312592,5.30505329869157727,4.52767240178778962,0.000744729708600240731,36.5526511043957356,0.00103828652712813154,3.20885713174522058,407.862523277719447,14.1132764952183631,5.85938873702120233,69.9977401961163537,6.07939829707116331e-07,113.700005859608282,121.939407863977465,15.2880000000000003,0,0,0.0414763190843316643,1.29254043868676357e-09,-0.000473255972436325862,6.14699225552327593e-08,1.77198251922661022e-05
0.37,31.222182090341061,131.010394588280832,5.43493909097431604,4.55039311415752579,0.00076918150115683735,34.6835787828593496,0.00106234372950533948,3.20097384516078431,391.121890829766642,14.446930470491731,6.00318739776240751,69.9974584775585669,7.0785096329375243e-07,113.700006262864989,127.771540530283914,15.2880000000000003,0,0,0.042456928843506235,1.4445318520011827e-09,-0.000516746496826029863,6.90186481791334769e-08,1.98053803654614999e-05
0.38,31.2221818741223878,131.010395173719473,5.56801609611825477,4.56315131642791805,0.000792019287104061913,36.2353933787001239,0.00108827974821363053,3.19255015153205646,404.818761014460279,14.8084413239345949,6.1564787166299757,69.9971511865591651,8.20121521966083772e-07,113.700006686723384,134.244380272309172,15.2880000000000003,0,0,0.0435194095147296359,1.60882660749176723e-09,-0.000562873331420229127,7.72423853301427293e-08,2.21128406351508731e-05
0.39,31.2221816525004634,131.010395773780147,5.704329739781131,4.57922628245169783,0.000815489716137310881,30.9425419640016202,0.00111309493143926189,3.18402316666385765,357.640624933827439,15.1559126959619999,6.30488433186772657,69.9968167722787769,9.45855271408966431e-07,113.700007132429306,140.616382889747683,15.2880000000000003,0,0,0.0445406353688629561,1.78596578656278109e-09,-0.000611756345505213715,8.61868943159197994e-08,2.45968452142520012e-05
0.4,31.2221814256617982,131.010396387955836,5.84373750626454935,4.59349479979191955,0.000838670682925170751,29.5834243852937959,0.00113797512888990423,3.17521289611434332,345.465636880754005,15.505969085398343,6.45410901523083158,69.9964536498379317,1.08621525395706341e-06,113.700007600947828,147.185065961143067,15.2880000000000003,0,0,0.045569462889951777,1.97653506559195414e-09,-0.000663427505461186432,9.58835144134294998e-08,2.72901174189528038e-05
0.41,31.2221811937141673,131.010397015953487,5.98615797249314241,4.60939449845229365,0.000862163931524819621,33.360545626359837,0.00116210409424792778,3.16624854525325983,378.946870776686467,15.8471768437686258,6.60022848408685459,69.9960602026584695,1.24241947051318175e-06,113.700008093413757,153.73182724817184,15.2880000000000003,0,0,0.0465722905345462151,2.18109996727848554e-09,-0.000717942131686907965,1.06367950505874699e-07,3.01820283711074823e-05
0.42,31.2221809567080335,131.010397657635991,6.13155423418529733,4.63387609959193458,0.000887317919769279608,37.5676427387571721,0.001183742077125155,3.15743374731593907,416.232824001711379,16.155026338188506,6.73482947265292431,69.9956347739890248,1.41574639558456e-06,113.700008611107208,159.760443802515937,15.2880000000000003,0,0,0.0474770882933877245,2.400206535531791e-09,-0.00077537935552726017,1.17680930846389008e-07,3.32294321368729263e-05
0.43,31.222180714655078,131.010398312971745,6.27991949833728835,4.65367427313455995,0.000911660169575580258,33.0386483003103493,0.00120612360190941372,3.14823214930187856,375.903139513433644,16.4750454055619109,6.87353555569934649,69.9951756835756242,1.60752723178871754e-06,113.700009155418982,166.15023929888028,15.2880000000000003,0,0,0.0484176551665520677,2.63438237315801404e-09,-0.000835821567166909188,1.29864614855892046e-07,3.65287677570896608e-05
0.44,31.2221804673911407,131.010398982407111,6.43138341412837455,4.65757387742934892,0.000932929976641759203,30.4788052564327749,0.00123214974254881528,3.13809943757763454,353.075012538921555,16.8483715860516412,7.03046484016701978,69.9946811832270441,1.81916859536649675e-06,113.700009728069276,173.762989227436179,15.2880000000000003,0,0,0.0495148886868988364,2.88411342836306464e-09,-0.000899417740154189794,1.42975581697416844e-07,4.01983191819108926e-05
0.45,31.2221802146980103,131.010399666535704,6.58611776122768511,4.65827001030579346,0.000953562143933252499,35.4620561517945134,0.00125873275223327787,3.12754579585638304,397.209385356286873,17.2316459864824161,7.19073264961644831,69.9941493995125938,2.05218870761162579e-06,113.700010330973456,181.755888424112015,15.2880000000000003,0,0,0.0506413642318551335,3.14987863732273609e-09,-0.000966369542842942814,1.57083782729145849e-07,4.41725079750487196e-05
0.46,31.2221799565319174,131.010400365476642,6.74415901717088939,4.66907507286434065,0.00097630283571516251,41.3913707355688842,0.0012823814722795761,3.11722412848720953,449.71405889764344,17.5754687869478978,7.33738035579407555,69.9935783582983362,2.30821229426708146e-06,113.700010965912341,189.078525726536213,15.2880000000000003,0,0,0.0516519027755614896,3.43223060675433133e-09,-0.00103681314204437207,1.7224885851047691e-07,4.83373548649469587e-05
0.47,31.2221796928065203,131.010401079464799,6.90557672428163105,4.67806301106434042,0.000998761260684927557,28.0209900204918974,0.00130616618884544979,3.10657060381263461,331.007810630253402,17.9233234115620377,7.48533101007974988,69.9929660462147325,2.5889364060732201e-06,113.700011634803886,196.634049649816575,15.2880000000000003,0,0,0.0526742959306323727,3.73170463860384924e-09,-0.0011108841623615434,1.88532207060213475e-07,5.28148505664365441e-05
0.48,31.2221794239793269,131.010401807256216,7.07001851744381948,4.68642527483421745,0.00102109091231145262,27.6007969606275125,0.00132978852885184593,3.09563681785184297,327.203122301157407,18.2709832353803314,7.63313726727991071,69.9923104035261474,2.89614261094227829e-06,113.700012338884164,204.33305198470137,15.2880000000000003,0,0,0.0536961221459722679,4.04904859899578719e-09,-0.00118849531779471017,2.05948560519311644e-07,5.75998398329450787e-05
0.49,31.2221791502289392,131.010402548365278,7.23734841566291642,4.70156796398202914,0.00104489945272251677,34.6487244505178253,0.00135120419031512233,3.08484494341801163,389.60000969812296,18.589315545984995,7.7707981814672209,69.9916093757078812,3.23165731652504743e-06,113.700013079832303,211.511801733856089,15.2880000000000003,0,0,0.0546317638991248022,4.38486615800834454e-09,-0.00126967773493266863,2.2453662401782158e-07,6.26054017926546362e-05
0.5,31.2221788715876762,131.010403302704333,7.40754387012007864,4.72212438923579736,0.00106996435823571525,35.6033845714535389,0.00137072557486675028,3.0741588573465477,397.970310422105001,18.8826594549893159,7.8998011517407587,69.9908609011483378,3.5973597360057951e-06,113.700013859590555,218.236320199079358,15.2880000000000003,0,0,0.0554939729313439212,4.73968531279909998e-09,-0.00135450679800636423,2.44344941868023912e-07,6.78409867869358833e-05
0.51,31.2221785881337617,131.010404070060673,7.5805467220577798,4.73558879650721298,0.00109346949398930206,27.1956639286467201,0.00139183542187690463,3.06284319292573448,323.39843497208409,19.200774511812984,8.03722958125224807,69.9900628955037689,3.99519228958782199e-06,113.700014680103109,225.647740475438098,15.2880000000000003,0,0,0.0564289867670437692,5.11403675587933804e-09,-0.00144303978709531136,2.65418546512062939e-07,7.34915902759761199e-05
0.52,31.2221782998674264,131.010404850463857,7.75636795277497626,-0.149923367055522505,-5.3689520212724906,32.7158638630500676,0.286646213030977537,3.32750102671409609,372.098451184341457,18.9369429246000891,8.17767982505839974,69.9892128712149599,6.58698639781494765e-06,113.700017842098987,219.485534510166048,15.2880000000000003,0,2.50644307058047655,0.0556537248276424076,5.50941103265114337e-09,-0.00153147779966195932,3.986213184807222e-06,7.69225789398989164e-05
0.53,31.2221780064508749,131.010405644363004,7.93510776656269545,-0.0669546455619983855,-5.29144878063481361,34.3581063513284235,0.294208414455446987,3.3228879169550174,386.55624643486243,19.2551120407229774,8.31924281241938957,69.9883367647861832,-5.87785946647239693e-05,113.699948686986019,226.918972658652962,15.2880000000000003,0,2.51597414262150387,0.0565889051921919448,5.88789300164942642e-09,-0.00152933187815789068,-9.7672682204531211e-05,7.8104057841483254e-05
0.54,31.2221777076572664,131.010406452048812,8.11683528304731716,0.0132003251175862157,-5.21670053412856483,30.1544588238425746,0.301859495550235835,3.31810494938065004,349.270324209843579,19.5714276074963465,8.46010977430021249,69.9874615105237439,-0.000285957941499727667,113.699707326704043,234.431594742326467,15.2880000000000003,0,2.52548442886554358,0.0575186438542797246,6.1947972583269585e-09,-0.00152871188403588668,-0.000202023014045256806,7.93535528366571196e-05
0.55,31.2221774037370601,131.010407272811676,8.30134955877893788,0.090752053734369259,-5.14600704126401265,31.9686961586944989,0.309507477178257939,3.31316024524590702,365.250000591990727,19.8801924301038326,8.59832217104559859,69.9865862142388977,-0.000679091630850434981,113.69928935234087,241.88258626375665,15.2880000000000003,0,2.53495825024672516,0.058426197170273253,6.43107171660787873e-09,-0.00152968983115246357,-0.000308953066278136403,8.06555946257292634e-05
0.56,31.2221770946876305,131.010408106644576,8.48865042334883846,0.16593982711807595,-5.08020533059178803,29.8261366993681136,0.317079443946638839,3.30806621014763103,346.226561946578727,20.1770229184316001,8.73237404071571,69.9857099408465047,-0.00124225080186871192,113.698690429172686,249.155110596708795,15.2880000000000003,0,2.54439592908336643,0.0592986820608617446,6.59760340409226752e-09,-0.00153233622436745628,-0.000418502570971693386,8.20000049890318259e-05
0.57,31.222176780573168,131.010408953359388,8.67868603580371634,0.238765686103078217,-5.01414565847402827,29.4895900749627664,0.324888618231168658,3.30278180930233978,343.182829683302316,20.4815347062311801,8.86900541217359972,69.984831714396222,-0.00197950512902185082,113.6979062238604,256.727677386580751,15.2880000000000003,0,2.55379702830127409,0.0601937472779641852,6.69543965361080228e-09,-0.00153672143420444736,-0.000530661601704320355,8.3474234080382323e-05
0.58,31.2221764613700756,131.010409813006618,8.87147267904668446,0.309045821831249734,-4.94466547525664346,38.881223236030074,0.33316388375012379,3.29726298085499891,426.12500585731533,20.8073279011277883,9.01288791383305288,69.9839505177397854,-0.00289496244231338042,113.696932362496582,264.95509983060424,15.2880000000000003,0,2.56316082252366018,0.0611513628792484595,6.72563245309411501e-09,-0.0015429178196034476,-0.000645473387253197423,8.5142395462046728e-05
0.59,31.2221761367009307,131.010410686598618,9.06730091458778098,0.377537529383133008,-4.88352673721007768,31.4855961023080972,0.341109884666279561,3.29163486284543794,360.68438819711065,21.1052108883419614,9.14712054449881506,69.9830652872098398,-0.00399300040812213507,113.695764184400417,272.590606813497118,15.2880000000000003,0,2.5725012214054348,0.0620269583384993675,6.68891820165663591e-09,-0.0015510147817329803,-0.000763215498383646666,8.68128922013380731e-05
0.6,31.2221758067589263,131.010411573595917,9.2660188946105233,0.443206373225379535,-4.81506306314466759,27.9622343166209291,0.349822546416868274,3.28570567267734237,329.48595949860578,21.4418880897005266,9.29461909149447862,69.9821749131832576,-0.00527805635336247789,113.694396964483985,281.35151447213309,15.2880000000000003,0,2.58180866780173845,0.0630165738587692426,6.58659951895872262e-09,-0.00156108404122942495,-0.000883798281096435825,8.87686498119790747e-05
0.61,31.2221754714955431,131.010412474116464,9.46766224398875877,0.506589406885472049,-4.74711301904861926,32.7952742386622589,0.358775629211036617,3.27955411203741765,372.09845118432969,21.7846436142615332,9.44414270503130204,69.9812782386450323,-0.00675467508111561067,113.692825863505547,290.412775343944475,15.2880000000000003,0,2.59108419787430666,0.0640240598394001825,6.41980568065556728e-09,-0.00157320737485660807,-0.00100729178473169543,9.08862802724369831e-05
0.62,31.2221751310130102,131.010413387868027,9.67214972119244365,0.569538040735459439,-4.69447985320852634,40.8196736814353045,0.366796428582267187,3.27342356056622341,442.86563930529212,22.0639848317514478,9.57181976722304206,69.9803740569810344,-0.00842750610520324843,113.691045930445938,297.902515933527752,15.2880000000000003,0,2.60032727722221058,0.0648451803456661507,6.18979126114021865e-09,-0.00158746093067075765,-0.00113369608754355011,9.28838833451540069e-05
0.63,31.2221747851384102,131.010414315307941,9.87961370841649789,0.630270813521286666,-4.63905374513048052,23.068303078817106,0.375252496775165312,3.26704273674439793,286.112512747078938,22.3617330318492797,9.70575680779318795,69.9794611234530777,-0.0103010280111610272,113.689052396468881,305.990917094326846,15.2880000000000003,0,2.60953933473021715,0.0657204043675637811,5.89782744809998899e-09,-0.00160393883867262208,-0.00126313244451305672,9.51125835720722238e-05
0.64,31.2221744344072505,131.010415254966574,10.0896373384945246,0.688372602662977284,-4.57841778478207839,22.6423851160123775,0.38437385390992429,3.26033816739871662,282.307824417967538,22.690899126614859,9.85042140295376534,69.9785381456208739,-0.0123797643434317584,113.686840443748324,315.059275740577448,15.2880000000000003,0,2.61869423247735389,0.0666879707967098362,5.54569962856203604e-09,-0.00162267619932560179,-0.00139528190240311854,9.76381471456888518e-05
0.65,31.2221740787985667,131.01041620688838,10.3022354019311191,0.746298389436982013,-4.52894145594214681,40.1613216049821844,0.392781762296929959,3.25363692837976037,436.778144778747503,22.9709295810215188,9.97814501229557571,69.9776037923088836,-0.0146681298589450108,113.684405370887603,322.877019003924204,15.2880000000000003,0,2.62781569572770923,0.0675111350425633971,5.13481727012785679e-09,-0.00164375418515924328,-0.00153021393198754735,0.000100125001135933234
0.66,31.2221737178434218,131.01041717233727,10.5177702094542695,0.802342631883820934,-4.47827666405497826,34.1304254391340436,0.40150574414288881,3.24669544752013328,383.512515171600171,23.2617701054795134,10.1095161594424994,69.9766566864253861,-0.017170586486257404,113.681742426766704,331.097974578833089,15.2880000000000003,0,2.63689597301387746,0.0683660761735686573,4.66643814468905389e-09,-0.00166730389624828172,-0.00166826288906496509,0.000102843210984173997
0.67,31.2221733517086975,131.010418150846448,10.7361108862053118,0.85584748680638445,-4.42321200814833038,23.4343209864602535,0.410866037583324184,3.23941600700247756,289.156244010342505,23.5811176602509427,10.2506129313960876,69.9756953854265049,-0.0198919096727992774,113.678846525508277,340.244152689875818,15.2880000000000003,0,2.64593515563543136,0.0693048056961149128,4.14216816914248615e-09,-0.00169339358394389678,-0.00180935117986237527,0.000105884232503092481
0.68,31.2221729805457571,131.010419141991548,10.9571387051085143,0.908124077400318197,-4.37093022007741716,29.3116764619828061,0.420218635441748423,3.23196405705300949,340.899992485846269,23.8918531240632888,10.388685958698014,69.9747183632400294,-0.0228368547765219788,113.675712605264565,349.262818672782601,15.2880000000000003,0,2.65494110734494537,0.0702182310109116525,3.56361293049278446e-09,-0.00172209189654667872,-0.00195342575672664137,0.000109095274519893049
0.69,31.2221726044241876,131.010420145571288,11.1807984975843677,0.960125841416088699,-4.32493996192788988,36.1423861998250757,0.429180343950666343,3.22445273631537921,401.014072685363431,24.1733005016412825,10.5166322133906291,69.9737241615964933,-0.0260101317657168082,113.67233564399433,357.532278233090722,15.2880000000000003,0,2.66389576809637418,0.0710455849994377914,2.93238153119558509e-09,-0.00175347344664082065,-0.00210047162542259221,0.000112389463225998396
0.7,31.2221722232149972,131.010421161925507,11.4071892984135967,1.01077008892126941,-4.27952777408738072,30.2753921670187545,0.438293568143860168,3.21673037177405297,349.270324209852845,24.4558362909422193,10.644884459460501,69.9727111696099513,-0.0294163752661700875,113.668710708347191,365.9307873911157,15.2880000000000003,0,2.67280539085603897,0.0718761442398275219,2.25009244943967859e-09,-0.00178764472569796495,-0.00225060979507907917,0.000115916361737483886
0.71,31.2221718369637493,131.010422190918888,11.6362747860821987,1.05930432149097475,-4.23161509905403399,24.837311651953101,0.44789561242735132,3.20868666737321862,301.331264063405797,24.7574272125107591,10.7796138824187935,69.9716777561864234,-0.0330603464388014995,113.664832727016417,375.003551673885283,15.2880000000000003,0,2.6816793799622225,0.0727627134560615979,1.51842655162558551e-09,-0.00182468675675109436,-0.0024038375543248636,0.000119774754147934851
0.72,31.2221714456684509,131.010423232545577,11.8680555619601513,1.10549006146983975,-4.18061836182034607,30.4626720411690499,0.458085652438039947,3.20027274249048288,350.79220534145287,25.0827045321839712,10.922410233465051,69.9706222330367922,-0.0369469092996829035,113.660696519047747,384.913742983336761,15.2880000000000003,0,2.69051352325360549,0.0737189046084628097,7.39037651595228192e-10,-0.00186469218325579513,-0.0025602015689479801,0.000124006172603440944
0.73,31.2221710493222417,131.010424286812679,12.1025359932196928,1.15294094611453568,-4.13978420670724034,38.5988266714225148,0.467375385266715404,3.19198041534488253,422.320318528233997,25.3518774141257062,11.0458659272166493,69.96954284544681,-0.041081107673966985,113.656296711850658,393.210554205676829,15.2880000000000003,0,2.69929385369923835,0.0745102097878820591,-8.64487417604918248e-11,-0.00190775888148909728,-0.00271976431534338937,0.000128228813008445972
0.74,31.2221706478630381,131.010425353878958,12.339763568337343,1.19840485990487666,-4.09665414892411661,24.0744896137280797,0.477141906150026274,3.18335517337714569,294.482813471059444,25.6390320187924843,11.175427822385835,69.9684378059988745,-0.0454678078357878268,113.651628121617662,402.159442017002107,15.2880000000000003,0,2.70803955725842194,0.0753543706519451267,-9.56289462195189163e-10,-0.00195398841286411121,-0.00288258210864512964,0.000132820688435654965
0.75,31.2221702416199101,131.010426432837363,12.5794822620611413,1.24215959302626588,-4.05234354977525157,28.1465775599932648,0.487281419899647628,3.17441886167358289,330.246885564414924,25.9380642328485891,11.3089996950152454,69.9673052726463141,-0.0501119197112782286,113.64668551722886,411.585574994658657,15.2880000000000003,0,2.71674138336924109,0.0762334471467836089,-1.86879320356628199e-09,-0.00200340294932479547,-0.00304844253509084853,0.000137764712692696814
0.76,31.2221698304866813,131.010427523967223,12.8217739726208872,1.28579864487043172,-4.01191070131894367,30.3165252906216374,0.49717185953382742,3.1653951378394436,349.270324209861712,26.2165248488853493,11.4354344813635684,69.9661433207541563,-0.0550183091157867149,113.641463717645706,420.460462422950798,15.2880000000000003,0,2.72539724255315985,0.0770520693728749401,-2.8222189223190558e-09,-0.00205612195569363854,-0.00321747429066792084,0.000142904534383033767
0.77,31.2221694144064337,131.010428627414029,13.0666824554440293,1.32867217629990853,-3.97285301110818168,28.3315852003737767,0.507098285981587238,3.15618106892609829,331.76876669607077,26.4895050697906207,11.5599140732630481,69.9649500796234065,-0.0601919233352288044,113.635957446231274,429.25206355726931,15.2880000000000003,0,2.73399927752377403,0.0778545910922558149,-3.81482039413358256e-09,-0.00211225529521877559,-0.00338975673558171084,0.000148331043893199188
0.78,31.2221689934353606,131.010429743015294,13.3141637917050542,1.36960610623086998,-3.9316851884627213,23.2276774639945813,0.517521793105055194,3.14659495628327068,286.873437812889904,26.7803624724637679,11.6904624017840817,69.9637235141015452,-0.0656377093760434349,113.630161434604275,438.719849302113062,15.2880000000000003,0,2.74256036007675563,0.0787096620206216707,-4.84487218225065322e-09,-0.00217188230659981279,-0.00356526889799862155,0.000154189293442514154
0.79,31.22216856765138,131.010430870549129,13.5641571988674858,1.40897239443963085,-3.88963264571906064,33.1086804528714396,0.528307255173948165,3.13667715055976881,373.620332315953419,27.0815972323862511,11.8245033139007525,69.9624615661997069,-0.0713606871944517246,113.624070333496249,448.634332319001032,15.2880000000000003,0,2.75107873022939708,0.079595239962037545,-5.91069707733788514e-09,-0.00223507978096620062,-0.00374398803738339083,0.000160456885598962311
0.8,31.2221681368460828,131.010432010574959,13.8168243303979583,1.44924864055533464,-3.8533652316443856,33.5490886452139279,0.538521538715365122,3.1268119363961393,377.42502064505743,27.3464076900198663,11.9459582389898475,69.9611621062854425,-0.0773660248524772748,113.617678635989165,457.4398401215484,15.2880000000000003,0,2.75956101073872162,0.0803737707352845665,-7.01044028376097647e-09,-0.00230201518683742501,-0.00392614083543734414,0.000166874118467016648
0.81,31.2221677011109691,131.01043316283446,14.0720940485197392,1.48737882914798325,-3.81435640449950908,21.7672973557607357,0.54934159047388309,3.11650698970628603,273.937492693991885,27.633946891361802,12.075146177254366,69.9598229181278697,-0.0836588517455239961,113.610980878261913,467.098646335356591,15.2880000000000003,0,2.76799296898291258,0.081219110527178548,-8.14245038838282966e-09,-0.00237275711723246296,-0.00411166575003722549,0.000173806523495992956
0.82,31.2221672606171978,131.010434326851822,14.3298333626594445,1.52406045346464558,-3.77458111965206378,28.0144030182816053,0.560515268184495596,3.10585567494821957,328.725004432770049,27.9309620279188877,12.2075153460644596,69.9584418400225587,-0.0902443272420286047,113.603971555604005,477.181733714566462,15.2880000000000003,0,2.77637403195073951,0.0820923083385343422,-9.30518721640625698e-09,-0.00244735412473682471,-0.00430045911276801234,0.000181193172592825649
0.83,31.2221668153459113,131.010435502670248,14.5900570148110944,1.56233952625585992,-3.74140829167347322,35.6525209149069795,0.570909506537934264,3.09536310872931741,395.68750322465047,28.182476264796481,12.3241781784340994,69.9570165394890751,-0.0971276300427474093,113.596645150910803,485.802190318863154,15.2880000000000003,0,2.78471381184304345,0.0828317807869273365,-1.04969202118658023e-08,-0.00252592167055765799,-0.00449259293990057675,0.00018868930962047853
0.84,31.2221663651957364,131.010436690559374,14.8528441020018533,1.59931669308171531,-3.70748507748958245,21.9523594321112725,0.58161714963947575,3.08454833799050521,275.459374825645227,28.4421024591175815,12.4435517585537259,69.9555446459045669,-0.10431382264134248,113.588996270412025,494.781669550383697,15.2880000000000003,0,2.79301290169239635,0.0835951021114293286,-1.17158284443480399e-08,-0.00260859272819081783,-0.00468816753601360766,0.000196655131075311771
0.85,31.2221659104376279,131.010437889771651,15.1179843459076828,1.63336103967520119,-3.66917774764963101,23.9522783276705837,0.593255004996445456,3.07310882042774702,292.960932339393764,28.7385935828467929,12.5755166187258371,69.9540238470609239,-0.111807976949796745,113.581019500701387,505.138152530157697,15.2880000000000003,0,2.8012645429444607,0.0844667814317737464,-1.29606017759925467e-08,-0.00269536791022510248,-0.00488697137609406512,0.000205309862612052137
0.86,31.222165450906914,131.010439100749807,15.3856061681542471,1.66819104719009781,-3.63496441613178156,30.033129828941,0.604451361067264936,3.06168167009882453,346.226561946558718,29.0064685233117103,12.6975733295276925,69.9524516336943805,-0.11961532893707634,113.572709262299725,514.585688212606101,15.2880000000000003,0,2.80947451846647267,0.0852543611033190624,-1.42293179749079758e-08,-0.00278642585424474041,-0.00508921167357232265,0.000214218727339204965
0.87,31.2221649866232696,131.010440323433386,15.6556947804305775,1.70305014775599495,-3.60285905014070762,27.9550808175842498,0.615496218774656212,3.05013699173152064,327.964078366998024,29.2600374551605356,12.8146371660058698,69.9508254459955054,-0.127741072863945315,113.564060019225764,523.608247585565664,15.2880000000000003,0,2.81763937723325686,0.0859999002936659013,-1.55203470879299716e-08,-0.00288186675881754121,-0.00529490329770940845,0.00022348717024183793
0.88,31.2221645176173155,131.010441557732491,15.928227047582677,1.73606324466639661,-3.56879338717685313,24.1388771399187334,0.627092251711252047,3.03812404294962723,294.482813471041823,29.53195478014187,12.9379282694132236,69.9491427816182068,-0.136190401342341616,113.555066228091235,533.371426098021743,15.2880000000000003,0,2.82575198967831476,0.0867993754296645104,-1.68321634233524508e-08,-0.00298177679936804029,-0.00550402930296531572,0.000233377928327581932
0.89,31.2221640439622306,131.010442803440725,16.2031467135713285,1.7671990354737257,-3.53288266897347603,26.4889601588753827,0.639256384122592669,3.02562013851747613,315.028134248086985,29.8223220505788618,13.0674832777511973,69.947400923871129,-0.144968518560917636,113.545722343788228,543.897172948594061,15.2880000000000003,0,2.83382070781476836,0.0876530854996652592,-1.81632692921210683e-08,-0.00308623962958397323,-0.00571656976894372414,0.000243922626198887923
0.9,31.2221635655857064,131.010444060749961,16.4805108209992106,1.80051902812462372,-3.50315105175636754,29.2747092344251527,0.650498011161923628,3.01339054777076765,339.378142354214447,30.0632243776216193,13.1799609910899864,69.9455972179672756,-0.154080815172162044,113.536022610729873,552.705056333124276,15.2880000000000003,0,2.84184866157985683,0.0883614166248775784,-1.95119096522656458e-08,-0.0031954069783387217,-0.00593264255782504409,0.000254584029850013494
0.91,31.2221630825511269,131.010445329481712,16.7602710053219965,1.83200490554530826,-3.47149903352603539,22.2392788792665925,0.662303572949056507,3.00066907942873096,277.742181023078899,30.3225671869651272,13.2986979863236794,69.9437288378345841,-0.163532435137974413,113.525961546474491,562.266989064144582,15.2880000000000003,0,2.84983344731601651,0.0891239547760851597,-2.08766670940785121e-08,-0.00330935532459202897,-0.00615220519802998824,0.000265929867606569468
0.92,31.2221625950431481,131.010446609124841,17.0422844526070101,1.8616535000059875,-3.43803910855203165,26.5035304768836077,0.674683918853437148,2.98743240309307412,315.028134248062145,30.6002831730296734,13.4236734155733757,69.9417930024768424,-0.173328581925960679,113.515533595646204,572.597939456431845,15.2880000000000003,0,2.85777124787124936,0.0899405025586758333,-2.22564842061346723e-08,-0.00342809860885444177,-0.00637510365756836176,0.000277987161647342044
0.93,31.2221621029760605,131.01044789990965,17.3266190376546376,1.89345248112058751,-3.41006918256918068,31.5527149051977887,0.686168673532418172,2.97447861230157606,359.162507065472823,30.8313051447846327,13.5325201205816459,69.9397868666111862,-0.183474484788157644,113.504733174784732,581.260551480977597,15.2880000000000003,0,2.86566622138524352,0.0906198141991718525,-2.36495209391182756e-08,-0.00355180837384620187,-0.00660148370227733004,0.000290185404457408524
0.94,31.2221616062467682,131.01044920211541,17.6133564387071395,1.9220825120440066,-3.37785528484928177,22.8591643537183131,0.698732672485108397,2.96072213853874455,283.068750483778672,31.1025612863004142,13.6551183701631089,69.9377074292010121,-0.193975242617970001,113.493554847153433,591.517202969805908,15.2880000000000003,0,2.87351828545992838,0.0914173899059450568,-2.50540934442833926e-08,-0.00368063532281783694,-0.0068314376266713139,0.000303347983834990887
0.95,31.2221611051207546,131.010450515009126,17.9022909258236034,1.95045763730270161,-3.34666193053946603,29.6505330519960815,0.711305064611416515,2.94674406793113031,342.421873617487279,31.3669033077809694,13.7752628195270752,69.9355516996778732,-0.204836168936057467,113.481992937388739,601.597896951078042,15.2880000000000003,0,2.88132425308721185,0.0921946508478411197,-2.64694313708871919e-08,-0.00381456167458378353,-0.00706476163848210412,0.000317049011336628325
0.96,31.2221605993258216,131.010451839335047,18.1936362258931652,1.979704112556955,-3.31831022324447433,29.0467719998218925,0.723469483249125078,2.93278840433702648,337.095335156783449,31.6065142591877333,13.8868242418082541,69.9333166012112883,-0.216062517536229709,113.47004183599708,610.807092150277981,15.2880000000000003,0,2.88909034674648124,0.0928992287608335215,-2.78932167658661604e-08,-0.00395386468160615397,-0.00730176511013791787,0.000331128352810267795
0.97,31.2221600888789119,131.010453175043693,18.4873806660763869,2.00766687068190697,-3.28907275462196225,18.5171144265299468,0.736033757845951708,2.91838854053455377,245.021887192993233,31.8561212991755305,14.0017421470527559,69.930998998953271,-0.227659653092015829,113.457695811635801,620.475170792264976,15.2880000000000003,0,2.89681580830785679,0.09363319487289265,-2.93241133757044198e-08,-0.00409865546022893188,-0.00754245751556443383,0.000345955326193623169
0.98,31.2221595740440385,131.010454521406359,18.7833197932001852,2.03245916810397187,-3.25596643218817716,27.0545455335078273,0.749719983201743712,2.90309711978265872,319.593746642958081,32.1455868728247509,14.1302895950347764,69.9285955914362916,-0.239632867685309697,113.444949217200204,631.784531503145445,15.2880000000000003,0,2.90449535035141393,0.0944843228876181274,-3.07617136939894583e-08,-0.00424888099395452461,-0.00778658199847575769,0.000361883927239273608
0.99,31.2221590546833241,131.010455878799235,19.0815628229266814,2.06115791330071918,-3.2303137066912897,29.585536556848151,0.761858025990867049,2.88851487134683138,341.660948551705417,32.3634651141814018,14.2341380409582587,69.9261030986395298,-0.251987593872453064,113.4317962465297,640.359504659714162,15.2880000000000003,0,2.91213490339532344,0.095125044385869606,-3.22039483534641076e-08,-0.00440477868499414456,-0.00803436158165137838,0.000377693956473468262
1,31.2221585307947294,131.010457247226896,19.3821133157016412,2.08675939944917888,-3.20090747275319254,26.4541065667750637,0.775101036983765312,2.87303898959702098,314.26720818227642,32.6201582057598642,14.3512560965387053,69.9235182024285251,-0.264728951971114013,113.418231427481658,650.539123208540445,15.2880000000000003,0,2.91973213920873897,0.0958798605014407473,-3.36496603904907891e-08,-0.00456644577046461976,-0.0082857789854312823,0.000394650592772371361
1.01,31.2221580025425745,131.010458626234879,19.6848447283047783,2.11229462461120798,-3.17251070473238794,27.6789060727269032,0.788303791902156159,2.85735880781307428,324.920316103697928,32.8683038357003028,14.465355910117955,69.9208374638666612,-0.277862279517319566,113.40424905511108,660.455030417485432,15.2880000000000003,0,2.92728598250653693,0.0966095606255548967,-3.50980698725917163e-08,-0.00473390838580375201,-0.00854071375411178009,0.000412223651778661343
1.02,31.2221574698560431,131.010460016017305,19.9898144249731118,2.1380410586466545,-3.14546540726431045,23.0630956705222268,0.801360513905055805,2.84154318662993699,284.590631615404163,33.1038040312110908,14.5750259042160284,69.9180573622415125,-0.29139276146313442,113.389843589362172,669.933584909960473,15.2880000000000003,0,2.9347983241869291,0.0973020994353873681,-3.65475718619486379e-08,-0.0049073395525231463,-0.00879926884819159059,0.00043037501903664887
1.03,31.2221569327970023,131.010461416403331,20.2969762355638395,2.16145603884871962,-3.1160213780047572,18.79364778938535,0.815256110485329977,2.82495667665033912,247.30469339049705,33.3660665848226756,14.6938253006909214,69.9151744518966893,-0.305325536833239763,113.375009527635243,680.570558013685513,15.2880000000000003,0,2.94226779814117689,0.0980733083798869809,-3.79972282851341592e-08,-0.00508681185392611656,-0.00906139176764548041,0.000449635836560013903
1.04,31.222156391420711,131.010462827239451,20.6062890054346219,2.18618161225410157,-3.089449770498093,30.0486113360081681,0.828590306854263936,2.80849638998671391,345.465636880722968,33.5991048179413667,14.802490790978851,69.9121850433080283,-0.319665891550195147,113.359741219161407,690.089856651852415,15.2880000000000003,0,2.9496954988937234,0.0987586253500302297,-3.94459023660908789e-08,-0.00527242641882533745,-0.00932707619284806749,0.000469283800510349495
1.05,31.2221558454684569,131.010464249241267,20.9179576817935811,2.20891505945340505,-3.0610210572474692,18.0134609479675483,0.842644699492442917,2.79132389319995156,240.456258798199826,33.8536009600986603,14.9184599186093401,69.9090854133064425,-0.334418993581799939,113.344033136890729,700.562637216107305,15.2880000000000003,0,2.9570855857537035,0.0995070216987531397,-4.08912421215256133e-08,-0.00546451049543341012,-0.00959662774519149525,0.000490050078617634659
1.06,31.2221552951547316,131.010465681816129,21.2318166640847892,2.22985615536819104,-3.03109641186310874,25.7831736919713599,0.857361195815675048,2.77345665854064727,308.179683655939243,34.1265731724270793,15.0407115330929102,69.9058718021563976,-0.349590270434814554,113.32787946721723,711.884438068915756,15.2880000000000003,0,2.96443488979367054,0.100309733314102548,-4.23331281071550681e-08,-0.00566302538149896992,-0.00986983243407460464,0.000511932173613305363
1.07,31.2221547403742612,131.010467125255445,21.5479507939863986,2.2534025952958574,-3.00561577652432543,30.4143327251924838,0.870997872095067627,2.75607099918320309,348.509368144030759,34.3510017441965729,15.1461738722979149,69.9025402001268645,-0.36518521672167531,113.311274334819259,721.256539317967622,15.2880000000000003,0,2.97174770386432252,0.100969766251632273,-4.3769659145399619e-08,-0.00586822207865884439,-0.0101468800050342114,0.000533954186882645431
1.08,31.2221541810362346,131.010468579812851,21.8664340072837184,2.27587155118021833,-2.97951728315933506,20.3782839655127539,0.885012886669115817,2.73818293314907057,261.001578574662346,34.5831771128198966,15.2542212751909414,69.899086721831253,-0.381209165540788375,113.2942120228265,731.016943744532796,15.2880000000000003,0,2.97902450784896589,0.101652577256406557,-4.5199401437395802e-08,-0.00608030023603151667,-0.0104278750270591081,0.000556973685270016183
1.09,31.2221536173891678,131.010470044801622,22.1870741156457534,2.29453405882521189,-2.94931740163692302,18.7215646075534039,0.90051315046727809,2.71900117463337132,246.543753324744074,34.8645536988030003,15.37913398185961,69.8955072338109034,-0.397667430565919855,113.276686845072931,742.93789448508835,15.2880000000000003,0,2.98626096056160861,0.102480016516222544,-4.66227006765170394e-08,-0.00629916565755431635,-0.0107125349693648116,0.000581699282583556139
1.1,31.2221530495015678,131.010471520033121,22.509820002303158,2.31449000623581513,-2.92165658714679255,37.8575695369065457,0.915460978014375537,2.6999365889329705,413.189061738584087,35.1179306016837955,15.4943304013004308,69.8917976421261216,-0.414565362587045683,113.258693064436144,753.752316101888027,15.2880000000000003,0,2.99345850359373777,0.103225162336490442,-4.80385927957887508e-08,-0.00652492044352377589,-0.0110008447949387286,0.000606906881963134191
1.11,31.2221524770121128,131.010473006513024,22.8349582414791215,2.33758950377352326,-2.8986998821130654,27.6403174972775147,0.929078762296038918,2.68156665033623609,324.159391037639693,35.31536917081133,15.590177341366827,69.887953704926062,-0.431908367588092257,113.24022488687983,762.227766169065944,15.2880000000000003,0,3.00062409885451364,0.103805891420323329,-4.94438480158078918e-08,-0.006758065742565658,-0.0112932862768229201,0.00063210689087109446
1.12,31.2221518999781722,131.010474504087057,23.162447108437668,2.3535783039681033,-2.86772187352521124,10.2501064408682634,0.94558290928267319,2.66084282352861479,172.73281794065943,35.6116983895140464,15.7200116860724286,69.8839711404110346,-0.449701660679622361,113.22127671951506,775.048670695898181,15.2880000000000003,0,3.00775458960205988,0.104677307492331811,-5.0838162685583121e-08,-0.00699866451031829016,-0.0115897688890975303,0.000660083022573532997
1.13,31.2221513189302264,131.010476011281185,23.4918723190947958,2.37280146523426572,-2.84148009148976799,32.6338903386033437,0.960721010631956918,2.64083166465564334,367.532807790070478,35.851266544764016,15.8302198527953646,69.8798454348470131,-0.467950947684496132,113.2018424433913,785.486755287505616,15.2880000000000003,0,3.01484519701083808,0.105381887774533098,-5.22233489522603753e-08,-0.00724636309913287771,-0.0118897131684442148,0.000688020776891231159
1.14,31.2221507332754449,131.010477529750517,23.8237034592097388,2.39425075781650376,-2.81856537716619204,17.9473518616493486,0.97488189111065815,2.6212798473205714,239.695317731955441,36.0491106784902513,15.9259668046729441,69.8755721903167171,-0.486661284300120456,113.181916630495351,794.154732975989077,15.2880000000000003,0,3.02190543860797112,0.105963831343465389,-5.35946746971408916e-08,-0.00750192638347349072,-0.0121938890460234414,0.000716193655353998776
1.15,31.2221501434507829,131.010479058283693,24.157600213106182,2.40831998486279142,-2.78769149683620254,17.6868599042684949,0.992118956541826136,2.59913703393617634,237.412511535467729,36.3499930149359685,16.0571551616318295,69.871146886304345,-0.505837667050994977,113.161493915527387,807.440915420729084,15.2880000000000003,0,3.02892665785943072,0.106848656463991137,-5.49544006507204344e-08,-0.0077649919490541475,-0.0125017054853856883,0.000747471311257322528
1.16,31.2221495495796795,131.010480596538656,24.4934683062636225,2.42967610080487395,-2.765914965249197,46.7400880589677286,1.00622384016626398,2.57908218086947771,490.043774384589426,36.5335532600389499,16.1478274255088685,69.8665648651678026,-0.525485575097845437,113.140568409012445,815.59002507448406,15.2880000000000003,0,3.03591188304078097,0.107388627988992846,-5.63016248680374149e-08,-0.00803563920393018417,-0.0128131185754295218,0.000777405338513150238
1.17,31.222148950886119,131.010482146690265,24.8319231285921553,2.44692926407908695,-2.74007525755982595,8.06434543982819818,1.02203538148277895,2.55744423598651904,153.709379294867944,36.7705254333837317,16.2568296461164081,69.8618214204828689,-0.545609846821858979,113.119134914005201,826.17800785424788,15.2880000000000003,0,3.04286961645779197,0.10808560916099752,-5.76306142827806502e-08,-0.00831487986186290641,-0.0131291248529783588,0.000809611877893189145
1.18,31.2221483483971376,131.01048370587435,25.1721585666899337,2.45874375148875846,-2.70884270003727368,22.5963340885663797,1.04018765150958226,2.53366976678887568,280.025018221967457,37.0817745047213378,16.391385254460566,69.8569118090719741,-0.566215673602393332,113.097187839497508,840.196334121449468,15.2880000000000003,0,3.04977466080006465,0.109000932896996985,-5.8947745899465406e-08,-0.00860162736770049216,-0.0134483428458853031,0.000844594008375914814
1.19,31.2221477416521758,131.010485275383047,25.5145411658555297,2.48132394404388723,-2.69004861339671031,39.6759045540360589,1.05359586856704257,2.5133273778360441,428.407813052929214,37.2236504974685403,16.4674418818075807,69.85183096314789,-0.587308342830817232,113.074721504959868,846.610022404825713,15.2880000000000003,0,3.05664948729159258,0.109418396547193833,-6.02477750761754222e-08,-0.00889669694593065927,-0.0137715446585254652,0.00087688035136856534
1.2,31.2221471302581186,131.010486856328612,25.8593857530025666,2.4944840303512037,-2.66160716387157548,3.85929375797834329,1.07110240622351105,2.48944048495216563,117.184374136023607,37.4987694403746517,16.5893865605352175,69.8465741445970139,-0.608892414600346821,113.051730988311817,859.142351163259718,15.2880000000000003,0,3.06349494808741118,0.110227533777034509,-6.152804584163581e-08,-0.00920064890806039822,-0.0140991711467921051,0.000913510762552958793
1.21,31.2221465152408442,131.010488445840224,26.2058854920197106,2.50770192755736732,-2.63387847241948103,31.8067118136953084,1.08856631623980249,2.46525806174777706,359.923432132008998,37.7657910919370252,16.7084804923759371,69.8411361353001183,-0.630973168647139593,113.028210604729793,871.392491130000508,15.2880000000000003,0,3.0702994318871859,0.111012877320843695,-6.27948525852879279e-08,-0.00951234146088955797,-0.0144298511747265792,0.000951151629782259018
1.22,31.2221458958231928,131.01049004610644,26.5546585367172234,2.52846225064265751,-2.61457554624287702,22.961526342781081,1.10258501544615961,2.44357627988419202,283.068750482576149,37.9119066852773088,16.7857617302170716,69.8355117853359388,-0.653555350105188504,113.004155238909817,878.118938320577513,15.2880000000000003,0,3.07707697700399496,0.111442824048970088,-6.40407245251261908e-08,-0.00983303099150224617,-0.0147647751319119874,0.000986988796302271359
1.23,31.2221452723196329,131.010491656255653,26.9054607785370088,2.54016781975545891,-2.58642738025100272,8.76469086512713957,1.12065104686792005,2.41826326626625887,159.796873822227951,38.1861339912013378,16.9072027403550464,69.8296961509428797,-0.676643209097101961,112.979560288373207,890.838215766032476,15.2880000000000003,0,3.08381963716652807,0.112249365212122434,-6.52681828528309119e-08,-0.0101623557288388691,-0.015103402652446923,0.00102738835387637868
1.24,31.2221446451634463,131.010493275075106,27.2579529534878837,2.55454865628565875,-2.5615670142662319,38.5754677395931864,1.13745770938960233,2.39366155277585735,418.515630199805003,38.4130524797347022,17.012249045352835,69.8236838622271563,-0.700241496437371658,112.954420623205195,901.426640123108541,15.2880000000000003,0,3.0905250215179545,0.112916848580692744,-6.64791413650480702e-08,-0.0104998937121069287,-0.0154451695513976896,0.00106778439584982059
1.25,31.2221440136373189,131.01049490459593,27.6127076751909186,2.57325188446874042,-2.54146247214945742,18.5002176947879029,1.15220144796130453,2.37048065862041435,244.260946125734876,38.5676639700762038,17.0922375369768105,69.8174695993546663,-0.724354490795426575,112.928731615366615,908.666712410893638,15.2880000000000003,0,3.09719296018636081,0.113371789725981109,-6.76665360472330493e-08,-0.0108468875172042616,-0.0157911860412544257,0.00110747394746165762
1.26,31.2221433782229809,131.010496543472556,27.9693478971274843,2.582293746762228,-2.51231468911980782,10.7828680903592815,1.17139659556950759,2.34318979355000812,177.298446336408631,38.8596842024048854,17.2196408202036721,69.8110481864032266,-0.748986211093891074,112.90248889696143,922.447385807531873,15.2880000000000003,0,3.10382017256371778,0.114230659190671727,-6.88344117850247107e-08,-0.0112026882205971557,-0.0161406481998935397,0.00115242238313325424
1.27,31.222142739080347,131.01049819126024,28.327750597795248,2.59864146513760597,-2.49076772148826286,37.1061463777816982,1.18710361811892606,2.31854734553451802,405.579686079964688,39.0349227537673471,17.3066233141689132,69.8044138614143606,-0.774141383109017367,112.875687357610232,930.753689757156963,15.2880000000000003,0,3.11041465769774472,0.114746248854542987,-6.99820309630167457e-08,-0.0115673185168006318,-0.0164934499190554883,0.00119525683181206975
1.28,31.2221420956409581,131.010499849580611,28.6883720914872313,2.612924640211991,-2.46766063233774036,11.8384304160932299,1.20371498396825083,2.29279981240111574,186.429688124688823,39.2334636983162355,17.4015853167926231,69.7975612830048533,-0.79982371653796247,112.848322956280711,940.213267223438606,15.2880000000000003,0,3.11698239172210467,0.115330345087864147,-7.11042252164088926e-08,-0.0119417777153482309,-0.0168504024078402204,0.00124018308852510669
