Time,Latitude,Longitude,Altitude,Angle of Attack,Angle of Sideslip,X-Acceleration,Y-Acceleration,Z-Acceleration,Thrust,True Velocity,Ground Velocity,Pitch,Roll,Yaw,Dynamic Pressure,cp,cg,parachute_deploy_gain,Wind Speed,Wind Direction,Mach,omega_x,omega_y,omega_z,Cmq,Angle of Attack(total),Angle of Attack(gust),True Velocity(gust),Acceleration
0.0,31.222216000000007,131.010392,3.000000004412624,0.0,0.0,0.0,0.0,0.0,2.2828121974499247,0.0,0.0,69.99999999623412,0.0,119.9999999935444,0.0,1.274,1.0271675151847728,0,0.0,0.0,0.0,0.0,0.0,0.0,-0.0,0.0,90.0,0.0,0.0
0.01,31.22221599999084,131.01039200000497,3.000002745347096,0.0,0.0,0.0,0.0,0.0,34.242186961749226,3.465174813755316e-14,2.8705476994166025e-14,69.9999999962611,-2.1713911667908447e-11,119.99999999352175,7.352495975525499e-28,1.274,1.0271659134330349,0,0.0,0.0,1.0183245502395064e-16,-3.3305335486039093e-18,7.169286865560398e-18,5.624298769768554e-18,-7.715917190115602e-34,0.0,89.99999999999979,3.465174813755316e-14,0.0
0.02,31.222215999994315,131.0103920000094,3.0000030495639742,0.0,0.0,0.0,0.0,0.0,25.871876237766216,3.8197434737535036e-11,2.4171837235633357e-11,69.99999999628672,-1.1921727947863515e-11,119.99999999353136,8.93414285188691e-22,1.274,1.027164492361118,0,0.0,0.0,1.1225230367947217e-13,-6.657678965418802e-18,1.4338573731120796e-17,1.1241821275959074e-17,-1.7010872994127372e-30,0.0,89.99999999975682,3.8197434737535036e-11,0.0
0.03,31.222215999994315,131.0103920000094,3.0000030495639742,0.0,0.0,9.81877837424427,-2.5122800045972096e-05,3.3498614629347925,180.34219359854663,1.2659015405517447e-10,1.1364406173918436e-10,69.99999999631459,-1.6431898037347223e-11,119.99999999352724,9.812605835254651e-21,1.274,1.0271551940870716,0,0.0,0.0,3.720154642239108e-13,-9.991600645811728e-18,2.150108433310316e-17,1.6859343782149594e-17,-8.453698244545225e-30,0.0,89.99999999919412,1.2659015405517447e-10,10.374487003414373
0.04,31.222215999994315,131.0103920000094,3.0000030495639742,18.83801224594347,-0.0001111777826462,48.68248476615645,-1.016330065874988e-05,3.3497854396877287,548.635972453808,0.1556173050466994,0.0975908358443652,69.99999999633813,-2.0932768807056278e-11,119.99999999352085,0.0148286043323172,1.274,1.027133720825283,0,0.0,0.0,0.0004573186944143,-1.3322134194415637e-17,-1.04744143520903e-11,1.336824254131964e-11,5.0626055458604615e-15,18.83801224625964,89.06236267790787,0.1555998412814392,48.79759610369246
0.05,31.22221599164764,131.01039201704114,3.002326315126219,5.772385609593056,-4.395076213712875e-06,71.20344550265034,4.905512691849684e-05,3.349217396035405,761.6984298824663,0.8326471944351852,0.3620326097059287,70.00000001316391,-1.0866255162484559e-10,120.00000000231074,0.4245281043148827,1.274,1.027093426565204,0,0.0,0.0,0.0024469331205246,-5.0245994431125096e-18,-7.32924164976824e-07,2.217344936947165e-11,1.895424184525467e-09,5.772385609594774,84.74112356985832,0.8326465040582279,71.28217104309611
0.06,31.22221596664444,131.01039206837547,3.015081730143309,4.056581213689704,3.169093567502233e-05,53.16249142470188,0.0001203825427859,3.3481235983850643,590.4875390737236,1.657216205300742,0.6755452977614796,69.99999964391398,-3.9285905645317736e-10,120.0000000287861,1.6816755551786196,1.274,1.027050317124926,0,0.0,0.0,0.0048701272653724,3.095757869075056e-13,-7.483541766772344e-06,3.074135420506017e-11,3.8518749565858254e-08,4.056581213813337,79.59316473687034,1.657221183301277,53.26781792157489
0.07,31.22221592883117,131.0103921460222,3.034593611434361,4.115662018628709,6.450869598349036e-05,81.18203554989698,0.0001593212642178,3.347059402768047,855.2937749779172,2.099899704220947,0.8579771146174259,69.99999543281565,-8.233801910783518e-10,120.00000006883089,2.700101932075157,1.274,1.027003201295312,0,0.0,0.0,0.006171060252819,3.4704292086287e-12,-2.6327204536316785e-05,1.9541142932033486e-10,1.7170712165327165e-07,4.115662019133419,76.90111966094352,2.099909837223217,81.2510043180746
0.08,31.22221588914193,131.01039222747755,3.0542761843835606,3.459696193892355,8.037433511260004e-05,16.298214211652088,0.0002413456836072,3.344878926597744,241.2171988638792,3.051964775152957,1.2149999716613011,69.99998042886442,-1.0128995578004475e-09,120.00000011111383,5.703497661025892,1.274,1.0269597189470347,0,0.0,0.0,0.0089689344021769,1.458982438104473e-11,-5.702803872814215e-05,7.043261397829576e-10,5.405702492731987e-07,3.459696194824858,71.30331929508368,3.051977400323993,16.63790856991177
0.09,31.2222158241468,131.01039236098703,3.0886872184095737,4.313676956300389,0.0001337561018991,50.35975918308536,0.0002293282821279,3.344215841840564,563.0937377043203,2.893161298572128,1.191209213966114,69.99994788602814,-7.098432023887522e-10,120.00000018106356,5.125380275808925,1.274,1.026918932011013,0,0.0,0.0,0.0085022553945842,3.8672912027154325e-11,-0.0001115933708951,2.016054215232918e-09,1.0027525988343615e-06,4.313676958370176,72.2316578138625,2.893182308931483,50.47067588835877
0.1,31.2222157788302,131.01039245392113,3.109877853389092,4.035124630954496,0.0001457499816535,47.804664812504015,0.0002878217657545,3.341734392237128,538.7437595981891,3.5677148583138303,1.4531247507621967,69.99988403958329,1.9248461973355822e-09,120.0000002323013,7.7939962029572305,1.274,1.0268846934974103,0,0.0,0.0,0.0104845969583028,8.579678749070606e-11,-0.0001726817043215,3.984565639703107e-09,1.913455350430327e-06,4.0351246335824245,68.43243098813296,3.567737752667411,47.92132267234452
0.11,31.222215703308,131.01039260899836,3.148841432727305,4.043401107254707,0.0001752764476999,37.67622367577205,0.0003286462930162,3.3392563999062723,442.86563930529127,4.034183355956686,1.6436552022667772,69.99978525353545,7.302513231814865e-09,120.00000031883242,9.96528118825134,1.274,1.026848594915519,0,0.0,0.0,0.0118554331868328,1.5870341853361987e-10,-0.0002596204409236,7.232030302688121e-09,3.252930323390323e-06,4.04340111104746,65.92012987243639,4.034210888316708,37.82391391539392
0.12,31.222215627491828,131.01039276462643,3.186995101203875,4.17874459224363,0.0002066711490009,41.15991989399172,0.0003576945202315,3.336766085769504,475.58594813540793,4.361857560629481,1.7865750500940407,69.99963665601238,1.781774420198147e-08,120.00000041104812,11.649831899889556,1.274,1.0268114448194128,0,0.0,0.0,0.0128183893919737,2.682972478760441e-10,-0.0003710216542429,1.2215991071490164e-08,5.026311388647148e-06,4.178744597345269,64.21681651392016,4.361890024457652,41.29495143136631
0.13,31.22221554594398,131.01039293200228,3.2277173449026786,4.202734874672792,0.0002327160860324,45.44886120763352,0.0003953741266062,3.333578629398489,515.9156326236897,4.792165672014363,1.9646716520715424,69.99942424225341,3.613383418913551e-08,120.00000051758742,14.061726603124043,1.274,1.026779572895131,0,0.0,0.0,0.0140829618979635,4.248908088871395e-10,-0.0005056103199642,1.908859219307828e-08,7.5253154423526356e-06,4.202734881104192,62.048594618540655,4.792202226971676,45.570952718869485
0.14,31.222215454191247,131.01039312033683,3.2737880595608355,4.184830647080848,0.000257138757548,42.32232525579263,0.0004369426767266,3.329727443445437,486.2390860568421,5.269261304374574,2.158791628597544,69.99913473613935,6.515851355725497e-08,120.00000064630268,17.000925061330125,1.274,1.0267449573927567,0,0.0,0.0,0.0154850332441425,6.382432869666793e-10,-0.0006690086306358,2.8426433029675884e-08,1.0948547100483978e-05,4.184830654966803,59.74181173116622,5.269301695636157,42.45310707234106
0.15,31.222215353826755,131.0103933263496,3.3242182719560263,4.21963947489699,0.0002846467688673,40.886944113003565,0.0004726792395108,3.325585650885676,472.5421858721398,5.6781946837482895,2.329510773545807,69.99875162806286,1.0876776246115984e-07,120.00000079954532,19.742017654108928,1.274,1.0267115958081523,0,0.0,0.0,0.0166867950518804,9.204756288136623e-10,-0.000865746478554,4.08948221429571e-08,1.526771148078443e-05,4.219639484480408,57.84996018384879,5.678239395958187,41.02196629910223
0.16,31.222215247130432,131.01039354534575,3.3775922280208457,4.253495568077899,0.0003118339050386,32.26872905470846,0.0005078415214353,3.32090791922544,391.1218908297597,6.081244877834229,2.4981889727471702,69.99825581174558,1.7187028096464329e-07,120.0000009800088,22.644030778355887,1.274,1.026675762255412,0,0.0,0.0,0.0178712695992133,1.2856146928958252e-09,-0.0010961187242953,5.6923362293832417e-08,2.0702404729358337e-05,4.253495579487569,56.06022383757386,6.081293860589489,32.43916312841722
0.17,31.22221513260033,131.01039378041813,3.4348437275053194,4.364838523348639,0.0003448792023946,40.840448242802736,0.0005326487904353,3.3162727284953744,471.78125980632416,6.362544479165355,2.6250789114832647,69.99762801982864,2.5997588617291615e-07,120.00000119506798,24.78723182122683,1.274,1.0266409836796937,0,0.0,0.0,0.0186979513961862,1.747791994374917e-09,-0.0013624931601664,7.706724512977917e-08,2.6923621797558364e-05,4.364838536947241,54.85936171416122,6.362598652663785,40.97486885600156
0.18,31.222215014088988,131.01039402363364,3.4935801365785646,4.353948305387995,0.0003681615230806,33.992183768165326,0.0005718025428208,3.310131992647221,407.1015672119096,6.81502088160835,2.810667639293692,69.99684761766231,3.794979223522764e-07,120.00000144728236,28.437950785509614,1.274,1.0266048342046536,0,0.0,0.0,0.020027681385988,2.3221419748804155e-09,-0.0016616990447559,1.0147209890543081e-07,3.517105786247627e-05,4.353948320923495,52.99157233768714,6.815078712285162,34.152972512863755
0.19,31.22221488419521,131.01039429023237,3.558399965607869,4.432620772533925,0.0003996774584738,38.45149959021069,0.0005986099513107,3.304145139297767,448.95313283182486,7.1223367465208405,2.946425726785696,69.99589577323147,5.440084577183829e-07,120.00000176148238,31.060341085698347,1.274,1.026566130444714,0,0.0,0.0,0.0209308229359413,3.022391489754689e-09,-0.0020041563310821,1.3135864879722746e-07,4.433199397898183e-05,4.432620790516937,51.77883352025967,7.122399527709208,38.59320142454953
0.2,31.222214751373183,131.01039456280608,3.624052454705669,4.443889400961181,0.0004246617145652,35.23432408779927,0.0006337972852267,3.2968110145188256,418.5156301991588,7.530482904611057,3.1167566004785483,69.99474776398331,7.478025600151903e-07,120.00000211715036,34.72195181863731,1.274,1.026529240027363,0,0.0,0.0,0.0221302820454282,3.866698391504749e-09,-0.0023849544920781,1.668144671071589e-07,5.57780533277244e-05,4.443889421210987,50.22448880200342,7.530549610317194,35.38822625098952
0.21,31.222214608673173,131.01039485566503,3.6948551453492566,4.493351735844891,0.0004538195602194,33.79371564104691,0.0006629296043866,3.2891790438445727,404.8187610144608,7.868284042829251,3.2629204975089228,69.99338155599101,1.0150082652278477e-06,120.00000255293388,37.906665490338085,1.274,1.0264923657015164,0,0.0,0.0,0.0231230169900677,4.871073773182836e-09,-0.0028117605859743,2.089322918608601e-07,6.870935089180403e-05,4.493351758715364,48.992529909481824,7.868355328639073,33.95340801819282
0.22,31.22221446109996,131.01039515850383,3.767700382407304,4.5412639153933885,0.000482649303782,41.008966751568416,0.0006914639179131,3.2808061382386606,472.5421858721387,8.20057841132235,3.4071691679735228,69.9917708347139,1.3454961520984431e-06,120.00000305929996,41.175744234065135,1.274,1.0264494137127138,0,0.0,0.0,0.0240995709751246,6.054779813287368e-09,-0.0032829112061357,2.580881224843564e-07,8.3609968899004e-05,4.54126394098788,47.82515604752711,8.2006542256977,41.13999323561041
0.23,31.22221430675399,131.0103954752338,3.843768625625224,4.52371495179584,0.0005047555656171,33.98493478127787,0.0007294889663961,3.2705214710765107,406.340642146096,8.647938096586296,3.5908865300848416,69.98989017772566,1.7539876018835507e-06,120.00000365514876,45.79040229326471,1.274,1.0264133390858623,0,0.0,0.0,0.0254142776666487,7.436335125872812e-09,-0.0038001790077148,3.1489825108822685e-07,0.0001020628978177,4.523714979897577,46.31461705147579,8.648017383405135,34.14194053232237
0.24,31.222214142622448,131.0103958120587,3.92493179063287,4.57837522350066,0.0005351929930195,35.051650311058864,0.0007555049947555,3.26053011385611,416.2328240017099,8.954297884844461,3.72617527247482,69.98771316795013,2.25257161141768e-06,120.0000043564586,49.09180568115741,1.274,1.0263750048312463,0,0.0,0.0,0.0263146218848643,9.034877387788232e-09,-0.0043732521010013,3.809642748985157e-07,0.00012161410144,4.578375254714954,45.32798984252032,8.954381952763216,35.20297212911011
0.25,31.22221397517227,131.0103961556623,4.0071748888306855,4.6034117733065,0.0005618935542827,36.03738579534623,0.000785606492708,3.249069743648399,425.3640807915084,9.311611941121669,3.8789349536029696,69.98520781816889,2.8559738498748624e-06,120.00000517181904,53.08749562138344,1.274,1.0263373768840591,0,0.0,0.0,0.0273647110956883,1.0873791100894836e-08,-0.0049950711786164,4.5609738277273444e-07,0.0001444478241125,4.603411807525074,44.2165428352526,9.311700203154778,36.183554686886296
0.26,31.22221379934012,131.01039651647062,4.09364247475714,4.621386912291471,0.0005881033207375,39.29107511182762,0.0008162761165496,3.236407051295005,455.80158342417656,9.67833954512075,4.034902068846398,69.98234620927953,3.5784678110229355e-06,120.00000612171208,57.350948423913096,1.274,1.0263006300381676,0,0.0,0.0,0.0284424679130479,1.2973286442992724e-08,-0.0056712051373577,5.414206381221602e-07,0.0001704578711045,4.621386949630312,43.12063533194282,9.678431924174348,39.42414126789902
0.27,31.222213616776543,131.01039689108487,4.183310605341074,4.617158109135719,0.0006115457810536,35.90419462403674,0.0008503454714941,3.221982799915672,423.8421996598744,10.088790784535757,4.205862468567124,69.97909721779352,4.436165972465058e-06,120.000007221354,62.31798301949865,1.274,1.026260090595354,0,0.0,0.0,0.0296487219805601,1.5355910600537293e-08,-0.0064045199323113,6.379142666348734e-07,0.0002006609239367,4.617158149547818,41.94410287616451,10.08888684592241,36.048472443180565
0.28,31.22221342607797,131.0103972823952,4.277051150896916,4.642105655370123,0.0006389739579882,41.51133203546672,0.0008785747638736,3.2071101123224945,476.3468732012228,10.432377224420517,4.35383399240675,69.97542808435722,5.446665372087172e-06,120.00000849080963,66.63429581008447,1.274,1.0262212716723291,0,0.0,0.0,0.0306584788590473,1.8045308789081613e-08,-0.0072006835403936,7.469524967369969e-07,0.0002332868227611,4.642105699250441,41.0023231023774,10.432477594215127,41.63503624837164
0.29,31.22221323001776,131.01039768469093,4.373143569786686,4.62134615173668,0.0006600657405645,33.17552944492765,0.0009148746278066,3.1894209319791806,397.9703104221098,10.876662296046485,4.536381530986506,69.9713027936179,6.629751536885327e-06,120.00000994797426,72.43000748232016,1.274,1.026183007522519,0,0.0,0.0,0.0319641703260467,2.1067646517035105e-08,-0.0080566154554079,8.688043379161898e-07,0.000272130659453,4.621346198772975,39.83162628795024,10.876765978930557,33.32848872465723
0.3,31.22221302403368,131.01039810736614,4.4744193758467325,4.664362353358112,0.0006905183788532,31.08096762732793,0.0009381960428197,3.172549142946348,378.1859457108735,11.168362145070317,4.66647911311536,69.96668711012893,8.005507138509574e-06,120.00001161892672,76.36634300732833,1.274,1.0261430389738484,0,0.0,0.0,0.0328214509167604,2.4447409007156216e-08,-0.0089829108229115,1.0056222251461646e-06,0.0003115527202986,4.664362404357781,39.09908960432563,11.168470611443622,31.242464973103964
0.31,31.22221281503337,131.01039853619727,4.576593712520673,4.700143580504286,0.0007196683316923,32.79732593144512,0.0009620705970519,3.154230688182399,394.1656220930229,11.470279728974068,4.800072153432283,69.96154070456518,9.597499105113692e-06,120.00001352112182,80.55022837857167,1.274,1.0261054058068628,0,0.0,0.0,0.0337087616009043,2.8214060606649844e-08,-0.0099686353219717,1.1565909895184251e-06,0.0003550834484269,4.700143635477137,38.36463422765983,11.47039277421126,32.94865339301887
0.32,31.222212598991007,131.01039897947376,4.68216432480395,4.718667719113184,0.0007464384342556,35.7316568886908,0.0009885845337584,3.133859770838664,421.5593934624264,11.808280530415894,4.946054328851105,69.95582953472353,1.14278227255889e-05,120.00001568218067,85.36654007972253,1.274,1.026068246703101,0,0.0,0.0,0.0347021168382987,3.2392058795580455e-08,-0.0110163301561155,1.3226102501723267e-06,0.0004039614423012,4.718667778018562,37.5686120062341,11.808397780690962,35.8688218659563
0.33,31.222212376029034,131.0103994369436,4.791055524254013,4.72141404831576,0.0007708346814671,35.42013590291081,0.0010176135371143,3.1111955852784385,418.5156301991632,12.181577273013426,5.104163223586657,69.94951809396906,1.351997394754887e-05,120.00001812674968,90.84831229869296,1.274,1.0260310883392356,0,0.0,0.0,0.0357992034445943,3.700677535501642e-08,-0.0121310534481307,1.5051409581878843e-06,0.0004588955105349,4.721414111097893,36.7208578211118,12.181698355442045,35.55651229220977
0.34,31.222212145785647,131.0103999093516,4.903491659547144,4.73024573449122,0.0007962944975467,27.63851074646407,0.0010446307681611,3.0871492806781062,345.4656368807584,12.53557620048282,5.2556261014174765,69.94256797855994,1.5899658158227497e-05,120.000020882338,96.20413272674828,1.274,1.0259901535019136,0,0.0,0.0,0.0368395817555172,4.208561016221623e-08,-0.0133180771902383,1.7057647550599631e-06,0.0005184333231541,4.730245801363397,35.94841996438923,12.535701282129995,27.810389570354005
0.35,31.222211909310875,131.01040039453565,5.018822212845608,4.780248518778662,0.0008286678570753,30.332092807652543,0.0010618579815451,3.063967690608957,370.5765700527057,12.774786382148209,5.367579971644358,69.93493776125636,1.8594985713558667e-05,120.00002397748868,99.9096898192772,1.274,1.025950003202184,0,0.0,0.0,0.0375426220587071,4.7658312175989686e-08,-0.0145774693288123,1.9252724355785177e-06,0.0005782798420984,4.780248590437683,35.44790728185619,12.774916548990808,30.486451961956565
0.36,31.22221166933814,131.0104008868675,5.135354490370708,4.798132156899578,0.0008554457330409,34.32674769697476,0.0010851169437774,3.0374319611165923,407.8625232777224,13.09301701329486,5.506730645516068,69.92658597246795,2.163521613217148e-05,120.0000274401514,104.94818266210537,1.274,1.0259105142325406,0,0.0,0.0,0.0384778908056978,5.3755109608570216e-08,-0.0158991451700967,2.162609490834569e-06,0.0006464142451675,4.798132232978766,34.796094028187134,13.09315138639638,34.46087058603792
0.37,31.222211421355144,131.01040139563804,5.255882891363927,4.797392186816851,0.0008791822061288,32.551601855236584,0.00111162791192,3.0078619428913056,391.1218908297639,13.457513730739372,5.661815946371007,69.91747693543164,2.5047738471809164e-05,120.0000313040604,110.87154396328836,1.274,1.025872170958032,0,0.0,0.0,0.0395491312153729,6.040098808671168e-08,-0.0172926678053148,2.420031948898497e-06,0.0007226353721561,4.797392267189059,34.07332166419882,13.457651832357364,32.69027405888565
0.38,31.22221116634284,131.01040191882743,5.379799334000849,4.811698494594017,0.0009057112478668,34.02947987649063,0.0011338447913587,2.9774881690446744,404.81876101445977,13.77554886562956,5.800899861213392,69.90756948297444,2.886339581486796e-05,120.00003560072224,116.17243393848278,1.274,1.02583050512925,0,0.0,0.0,0.0404838339452728,6.762496638941508e-08,-0.0187646375218858,2.69955777313946e-06,0.0008026686661094,4.8116985796350695,33.46655348088405,13.775691134419684,34.15949264475229
0.39,31.222210906095896,131.01040245274032,5.505993307722699,4.813508003664984,0.000929862892873,29.00025983045028,0.0011579891265804,2.9442136901860865,357.6406249338268,14.124492165837273,5.950648592462506,69.8968186645841,3.311602501056718e-05,120.00004036395212,122.13093644173792,1.274,1.02579027384009,0,0.0,0.0,0.0415093739609825,7.545934774906889e-08,-0.020311592409804,3.0013532510753577e-06,0.0008908380763632,4.813508093268025,32.821616487639595,14.124638228358922,29.149330452482886
0.4,31.222210638473225,131.0104030017851,5.635788650457906,4.841647069358873,0.0009592124397379,27.71178845184976,0.0011749448424961,2.91135549588368,345.4656368807565,14.390874239274588,6.07193451174791,69.8851815212744,3.783947407715338e-05,120.00004563180136,126.77947425345651,1.274,1.0257493418632293,0,0.0,0.0,0.0422922854866381,8.39343718693383e-08,-0.021938519432511,3.3271332720311508e-06,0.0009803271643914,4.841647164150728,32.348088166612904,14.391024912012275,27.864299944624147
0.41,31.22221036681104,131.01040355909262,5.767123077463226,4.86553909860892,0.0009876699832274,31.306062598221665,0.0011918093836199,2.876450850006428,378.9468707766882,14.663028799871563,6.195223154320929,69.87261222561014,4.307011032901644e-05,120.0000514391194,131.6183642808765,1.274,1.025708445186429,0,0.0,0.0,0.0430921644173401,9.308325447883581e-08,-0.0236371933433427,3.6760977501392174e-06,0.0010761942383903,4.865539198612839,31.87689439156756,14.663183942709727,31.437931330109585
0.42,31.22221008906472,131.01040412887247,5.901259531771367,4.867510642114694,0.0010118258958528,35.308283402190774,0.0012128114559048,2.8374461227958245,416.23282400171047,14.9952917972178,6.33928625560071,69.85906967380902,4.884273094936628e-05,120.00005782486392,137.64909586091787,1.274,1.0256701057426505,0,0.0,0.0,0.0440686959134695,1.0293499639582845e-07,-0.0254093547296826,4.049238334851429e-06,0.0011830797791891,4.867510747027452,31.315270489291198,14.995450734457847,35.422111438762386
0.43,31.222209804115888,131.01040471342728,6.038886819939341,4.854590670645608,0.0010330089741511,31.00586934514032,0.0012363751872706,2.794478603999558,375.90313951343126,15.369430568701889,6.497852263156962,69.8445117629242,5.519340856908871e-05,120.00006482835984,144.60167924299955,1.274,1.0256308158337524,0,0.0,0.0,0.0451682983415116,1.135186446762958e-07,-0.0272634397889413,4.449073329427772e-06,0.0013010625065656,4.854590780289497,30.70250814963406,15.369592833372094,31.13154422839874
0.44,31.22220951192321,131.01040531284193,6.180028459770617,4.866912332640401,0.0010595850174406,28.57707721036899,0.0012525768202179,2.752165534925872,353.07501253892326,15.659290812546615,6.627318538707029,69.82889155423543,6.216182865383864e-05,120.00007249162944,150.1053167542629,1.274,1.025586171750536,0,0.0,0.0,0.0460202245100907,1.2486676023179565e-07,-0.0292060158163984,4.8779154055816594e-06,0.001420032405556,4.866912447705031,30.24619499837236,15.659457251771938,28.709297424144207
0.45,31.222209215425703,131.01040592106523,6.322872201489905,4.881836476567178,0.0010866574689855,33.31904824532484,0.0012669045761511,2.7082028218433374,397.2093853562887,15.934249290371609,6.751662050993672,69.81215834018458,6.97909417564726e-05,120.00008085697964,155.42080512416243,1.274,1.0255397023523487,0,0.0,0.0,0.0468283602442113,1.3701614206272197e-07,-0.0312276295846745,5.334643585560923e-06,0.0015449645531859,4.8818365972149325,29.82567893138932,15.934419982127675,33.428929688274074
0.46,31.22220891307435,131.0104065412864,6.468371919199588,4.869610441729251,0.0011078049156487,38.95909776354321,0.0012868374716666,2.6582856015412624,449.7140588976424,16.292139278621757,6.904766425053949,69.79426683863348,7.812149592850748e-05,120.00008996920153,162.4785746623087,1.274,1.02549635315424,0,0.0,0.0,0.0478802236363867,1.499987870203256e-07,-0.0333272350234362,5.819761874615242e-06,0.0016858511402973,4.869610567434908,29.29014635640275,16.292313292210977,39.04968351401366
0.47,31.22220860266524,131.01040717804253,6.6178810515614845,4.838450928223533,0.0011247917292402,26.253747818137555,0.0013104398935566,2.6026193242279367,331.0078106302504,16.710658191447514,7.078951441335346,69.77517236812905,8.719457259907165e-05,120.0000998741591,170.9309671061642,1.274,1.025453319323251,0,0.0,0.0,0.0491102725711187,1.6384464803343264e-07,-0.0355167087264168,6.3368207228363735e-06,0.0018427306558807,4.838451058652396,28.68386015667837,16.710834873319172,26.382435512333956
0.48,31.222208284201663,131.0104078313267,6.771393590864176,4.869339340099417,0.0011561785713505,25.860860976019296,0.0013165328518772,2.5543454292827983,327.20312230115803,16.911139899671,7.177575416403102,69.75482343794755,9.70562828082882e-05,120.00011062072316,175.0543877818846,1.274,1.0254092882449153,0,0.0,0.0,0.0496995461609974,1.7858865391586845e-07,-0.0378054080201581,6.88909442277235e-06,0.0019849793891693,4.869339477030596,28.40887970825325,16.911321511776286,25.986704537635287
0.49,31.22220796480208,131.01040848648364,6.924537656029012,4.881367714530694,0.0011829003785372,32.565703383222065,0.0013261973190012,2.5011623511055703,389.6000096981238,17.169005224738054,7.296160258358563,69.73316318155707,0.0001077573203115,120.000122255028,180.4309832312717,1.274,1.025367445590036,0,0.0,0.0,0.05045746454003,1.942747077649401e-07,-0.0401641298712614,7.47069711110948e-06,0.002140948887153,4.881367857509675,28.058569663954906,17.169191034294997,32.66161128464712
0.5,31.222207637929923,131.01040915697027,7.081324512896956,4.862566137860805,0.001202418260511,33.47759680712428,0.0013425340759632,2.4399894027711366,397.970310422106,17.52898693231981,7.450304424940405,69.71015149227495,0.0001193385310595,120.0001348274002,188.0736471953394,1.274,1.0253278572281015,0,0.0,0.0,0.0515154948878309,2.109295159784217e-07,-0.0426011733481599,8.084173008518589e-06,0.0023184335011768,4.862566286171007,27.57768313050809,17.529175807738486,33.56639745442473
0.51,31.22220730314019,131.01040984370235,7.24202048914867,4.8479762258125,0.001223054804074,25.49162310288008,0.0013562860883156,2.3767006597692686,323.39843497208153,17.86914397471067,7.597652147346554,69.68574349602717,0.0001318441288964,120.00014838524436,195.4407439266201,1.274,1.025286455263166,0,0.0,0.0,0.0525152689856776,2.2858192086249162e-07,-0.0451315948093539,8.734206149830708e-06,0.002503767471626,4.847976379721193,27.13799345359824,17.86933609171003,25.602178740977283
0.52,31.222206962738102,131.01041054193402,7.405210501673173,4.865306299521403,0.0012516517170965,30.733671928447727,0.0013599291289974,2.317711624364424,372.098451184342,18.08534843773428,7.701914987606457,69.65988568649581,0.0001453248538387,120.00016298000436,200.19561780583155,1.274,1.0252426840672306,0,0.0,0.0,0.0531507657929359,2.4726951523704535e-07,-0.0477531686556663,9.421346966092632e-06,0.0026812161964639,4.865306460134566,26.8699055233151,18.085545046726228,30.820940596104087
0.53,31.222206619320115,131.01041124632013,7.569307468221277,4.848802699234936,0.0012715119568563,32.301199055744725,0.0013711327835325,2.2490252325653923,386.55624643486095,18.41963113311156,7.8474319110539055,69.6325258319474,0.0001598315062727,120.0001786629144,207.6614205945027,1.274,1.0251993415311351,0,0.0,0.0,0.0541332845214831,2.67031759303889e-07,-0.0504479325599339,1.0141887756417996e-05,0.0028848299490111,4.848802865552398,26.45837260670532,18.419830861742675,32.37940050117613
0.54,31.22220626697288,131.01041196903336,7.737918664599091,4.831496690588052,0.0012913635058467,28.31291960103712,0.0013809098107221,2.177242866245296,349.2703242098436,18.75116898748492,7.992112829440902,69.60362200959217,0.0001754082864028,120.00019548734956,215.20067397992847,1.274,1.0251561018460285,0,0.0,0.0,0.0551077428911958,2.878941684235108e-07,-0.0532336286085667,1.090122304443916e-05,0.003098869611663,4.831496862756785,26.061835558272342,18.751371834390056,28.396510432451375
0.55,31.222205908994248,131.01041270328463,7.909026079894722,8.147849966218669,6.326266384276886,30.11508519815417,-0.3440850018762378,1.915160648435697,365.2500005919912,19.702746418726875,8.113323699629928,69.57312211246325,0.0001921068626005,120.00021350480982,237.59283081976648,1.274,1.025112921033824,0,2.506403565945852,0.0,0.0579044421403214,3.0989272306468813e-07,-0.0561100530405476,1.1700476995263424e-05,0.0034320151542407,10.302365719164625,31.75367225909729,20.69445611203908,30.177882485189663
0.56,31.222205546564343,131.01041344664463,8.081909946161325,9.384941469443667,-5.058286065636683,28.098879744514377,0.2128810457856745,1.706807118857827,346.22656194657776,20.228061735015228,8.24832211386639,69.54097415464405,0.0002099796112633,120.00023276987916,250.42698658993257,1.274,1.0250709539098009,0,2.5155477854450985,255.00010927308023,0.0594484083495788,3.330422384609979e-07,-0.0613846721018575,0.0041922756448518,0.0038546837320615,10.65054133077695,20.8990673242623,19.434539743600528,28.151475126133604
0.57,31.22220517792294,131.01041420485907,8.258267219218348,9.320922461030223,-4.993929025564079,27.7935239529918,0.2853858329257651,1.5594225875998493,343.1828296833045,20.501126864036,8.369373566260057,69.50580393392642,0.0066369969333632,120.00709344978245,257.22945567562545,1.274,1.0250279191823897,0,2.5246205648112747,255.00010927308023,0.0602510414543079,3.606234800979026e-07,-0.0677991221535239,0.0006588823081593,0.0043148826590203,10.56401513641821,20.680497916155872,19.717675181306525,27.83869999848916
0.58,31.22220480327264,131.01041497142955,8.436528374376987,9.253041831136247,-4.9365939080714405,36.7342656473606,0.3609735290480248,1.4060743842516052,426.12500585731766,20.779848271371744,8.492801126348054,69.46695861020339,0.0076332586733368,120.0081573333062,264.26676172300944,1.274,1.024981594484354,0,2.5337048099779813,255.00010927308023,0.0610703024111593,3.8896170277976603e-07,-0.0743441497336917,-0.0029238920067759,0.0047956659404029,10.47742357483765,20.454218548168782,20.005368970494,36.76293812678169
0.59,31.22220442313839,131.01041575020346,8.617464268564882,9.123509996352585,-4.8477509165740384,29.71902343225789,0.4420378651569445,1.232596255043562,360.68438819710633,21.19186402909565,8.663892879985777,69.42436347852612,0.0031550210083546,120.00337478634373,274.84546215417384,1.274,1.0249386802161349,0,2.5427274845274006,255.00010927308023,0.0622813107030966,4.180853046478145e-07,-0.0810205703470257,-0.0065620022127626,0.0053298705562038,10.321824730856257,20.12132755077735,20.43128931107444,29.747857818156817
0.6,31.22220403318008,131.0104165482119,8.803288055162083,9.057287431319224,-4.792840655054255,26.387008504278867,0.5235321569029084,1.0680633467717326,329.4859594986072,21.456315521881063,8.782480531364621,69.3779427800861,-0.0068440113800104,119.99269297184252,281.742781682208,1.274,1.024891335813742,0,2.551726688921978,255.00010927308023,0.063058646142009,4.480143512592725e-07,-0.0878699849866889,-0.0102772949129379,0.0058524829450795,10.237872060833917,19.91893300150164,20.70433558095504,26.413804402942677
0.61,31.222203640716064,131.0104173506618,8.989634002969263,8.994488361756545,-4.740450870704675,30.997001919334505,0.6071139527176889,0.9000522044093358,372.0984511843332,21.706033310587568,8.895944122803078,69.32759627887039,-0.0224364564042709,119.9760304044602,288.3338715628076,1.274,1.0248423929069768,0,2.560807418838671,255.00010927308023,0.0637926837750801,4.787875811431429e-07,-0.094841467339724,-0.0140421922346567,0.0063902142046384,10.158135163600289,19.732444949287967,20.96225427538759,31.016008919741328
0.62,31.222203242208,131.01041816484337,9.178633862334973,8.893371367729197,-4.668749766291797,38.63773683862095,0.6957576719107352,0.7160033547754153,442.86563930529206,22.040071594277848,9.039834325216656,69.27325229666363,-0.0436457256249017,119.95335764963498,297.2712116447859,1.274,1.0247996097896497,0,2.5697553168018894,255.00010927308023,0.0647745396526299,5.104318819816512e-07,-0.1019276085651432,-0.0178525431918411,0.0069732243923964,10.035629900015236,19.483391365176907,21.30751739497333,38.65063321024118
0.63,31.222202835741964,131.0104189946974,9.371425283765053,8.754319625986227,-4.57825247133325,21.78271412168504,0.7909760747864099,0.5126438224188083,286.11251274707456,22.464216776398143,9.216360691557508,69.21484274257303,-0.0704818015729003,119.92465909891618,308.8171241028612,1.274,1.024756158874558,0,2.5786696838550727,255.00010927308023,0.0660212222487223,5.429683482249284e-07,-0.1091531380467252,-0.0217210136601923,0.007611114792114,9.87092069100013,19.171866976280427,21.74583159951221,21.803097975897956
0.64,31.222202420443708,131.0104198420341,9.56851814643866,8.726925093651491,-4.545914669224558,21.397336367619268,0.8788595561687818,0.3423801318924653,282.3078244179702,22.601612152335928,9.28995331140388,69.15228467508851,-0.1029664464477822,119.88990600109264,312.6003273056646,1.274,1.024708534665538,0,2.58760793961328,255.00010927308023,0.0664251681578758,5.764209493198243e-07,-0.1165449003148423,-0.0256613356174774,0.0081760820007916,9.831807526802406,19.083602996973195,21.888290491899493,21.418114340511536
0.65,31.22220200638931,131.01042068606915,9.763886925465703,8.665228781519732,-4.4964195827187465,38.062492933572365,0.9711392463129728,0.1577678892792618,436.7781447787504,22.81624446787033,9.391565531275674,69.0854790340835,-0.1411342440417714,119.84905528894204,318.55965169161846,1.274,1.0246641738210605,0,2.5965894947962727,255.00010927308023,0.0670561111149678,6.108408491979706e-07,-0.1240034311607528,-0.0296209798954406,0.0087817741148765,9.754462367905298,18.93882077466467,22.110673284605184,38.075206768458436
0.66,31.222201584553392,131.0104215454448,9.96292126069044,8.505777794986527,-4.397399591110156,32.345021875734,1.0772813007312685,-0.07105353969678,383.5125151715984,23.27898919874063,9.583298482440942,69.01438314846132,-0.1849335425068783,119.80215563446008,331.60600163148007,1.274,1.0246195561629028,0,2.6053416358164005,255.00010927308023,0.0684162546379403,6.462445602184005e-07,-0.1315508791744499,-0.0336113904098225,0.0095050404986308,9.56781377072207,18.61685291936224,22.58892521371744,32.36303483525795
0.67,31.22220115087211,131.01042242860228,10.168016174313603,8.407384732970515,-4.330233633858922,22.197733878941023,1.1793640143723452,-0.281408202974035,289.15624401033847,23.57500835022065,9.715001962885369,68.9389409671816,-0.2343228534634228,119.74924431056004,340.08642892755097,1.274,1.024572383541697,0,2.614109720640275,255.00010927308023,0.0692864064034311,6.826394034102315e-07,-0.1392662161398494,-0.037673185942673,0.0101902579131383,9.449879233067149,18.42198483693645,22.89546418289889,22.23082273365931
0.68,31.22220071519748,131.0104233151594,10.373309297964887,8.349961023207571,-4.284452349702014,27.80101740474125,1.2772372230640203,-0.4760810275514596,340.89999248584934,23.749052365014183,9.80261320028042,68.85905037908421,-0.2893132694134684,119.69030167294852,345.11958071432144,1.274,1.0245245285832842,0,2.622991722803977,255.00010927308023,0.0697980794060073,7.200730298923581e-07,-0.1470887713662326,-0.0417744821806276,0.0108418848103846,9.378069810535886,18.31552422229218,23.076679193069,27.834413175195568
0.69,31.22220027607169,131.0104242081321,10.579673078060088,8.24132261906257,-4.213083696201996,34.30712866922926,1.3843650771355367,-0.6983440839833381,401.0140726853658,24.0559243759788,9.93902990800071,68.77464341055551,-0.3498609185179003,119.62536638281736,354.0890718777929,1.274,1.024479631064582,0,2.631730603167441,255.00010927308023,0.0707001358618129,7.585833616834379e-07,-0.1549729770096975,-0.0458915753775751,0.0115704007933854,9.24915383200885,18.11970611566893,23.39473095607866,34.34214944719505
0.7,31.22219982791633,131.01042511915247,10.79039512475868,8.106533384775936,-4.129039379815716,28.7462651540479,1.4986738860354054,-0.9398899182997948,349.270324209851,24.431391689622192,10.101069777858324,68.68567761480854,-0.4158802553908503,119.55452126118628,365.2212587102431,1.274,1.0244351749185203,0,2.640378306717436,255.00010927308023,0.0718038014684601,7.981825538454989e-07,-0.162958254453074,-0.0500444252761816,0.0123562350129008,9.091253770989034,17.882567360492775,23.78336495221229,28.800645423011524
0.71,31.22219937225757,131.01042604509925,11.004557188385382,8.008044215519186,-4.063829800932592,23.594977714792662,1.6085843758284175,-1.166012668485872,301.3312640634036,24.69237089444154,10.221539610950847,68.59208723251427,-0.4873081204684697,119.47782459129076,373.05794019645447,1.274,1.0243880468141104,0,2.649071741590175,255.00010927308023,0.0725709940627478,8.388932965005804e-07,-0.1710618913973794,-0.0542414931549807,0.0131089745204887,8.974172478517326,17.72589860587047,24.05456108442377,23.678473400935104
0.72,31.222198913193505,131.01042697743043,11.219744105020618,7.922027479548346,-4.005265501269909,28.95674418501179,1.7169558294441605,-1.38668259390708,350.7922053414578,24.90442019999743,10.324357163154012,68.49379589244974,-0.5640864490748274,119.39532862558576,379.4849886557124,1.274,1.024337302174265,0,2.657746019496883,255.00010927308023,0.073194385659711,8.807575174252674e-07,-0.1792397003526256,-0.0584599053752968,0.0138533347439673,8.871205084555347,17.60352092241528,24.275786850728597,29.040727603362853
0.73,31.222198449318544,131.01042791909998,11.436781224163749,7.798645401883687,-3.928403702325783,36.70068727654972,1.8347947771098616,-1.633605213625697,422.3203185282354,25.221282502949983,10.466454345251888,68.39075202961833,-0.6461175814354047,119.30712762282,389.1947850267521,1.274,1.024292465384646,0,2.6663277408346127,255.00010927308023,0.0741258292185914,9.238062532718392e-07,-0.187469527320782,-0.0626881298732044,0.0146734583437143,8.72672765788738,17.416843531775328,24.604693651156754,36.78281642885973
0.74,31.22219797710344,131.0104288775833,11.657722897604716,7.645472500618689,-3.83722960003992,22.911748205179265,1.9624072471303668,-1.906333449925696,294.4828134710563,25.626436843648342,10.642051936664163,68.28291627998584,-0.7332816430559947,119.2133392666354,401.79073216008646,1.274,1.0242470321640116,0,2.6748509692693663,255.00010927308023,0.0753167732715088,9.680530416710867e-07,-0.1957796192815393,-0.066940181762754,0.0155697314882808,8.54927234186463,17.180011150720393,25.024136711517087,23.07451744334929
0.75,31.22219749638407,131.0104298533126,11.88264739333218,7.563362955012183,-3.781746851207751,26.79602029319364,2.0727541574048254,-2.130156285535699,330.24688556441737,25.78880613762987,10.727600928392084,68.17023245895723,-0.8254729993705804,119.11406547557252,406.8895715731408,1.274,1.0241984712898409,0,2.6833941785222657,255.00010927308023,0.0757941732382083,1.013516714562788e-06,-0.204191980532667,-0.0712268183318052,0.016341275681598,8.451205650034753,17.09583427524965,25.19520195853161,26.960351984925783
0.76,31.22219701586875,131.0104308278676,12.106481379040408,7.439918781416747,-3.706198502547077,28.86943693484317,2.1948857709537646,-2.386234216504652,349.2703242098581,26.07694498917743,10.860754095978104,68.05263112050349,-0.9225951587480552,119.00939783389228,416.0237946237357,1.274,1.0241522053390697,0,2.691939147636905,255.00010927308023,0.0766412166056796,1.0602557021532072e-06,-0.2126192584712769,-0.075503743366177,0.0172054490841391,8.30728527591224,16.93750625260269,25.49518258927418,29.050921262817806
0.77,31.222196525831365,131.01043182193004,12.334875438841168,7.3099304399293406,-3.6277049674076567,26.99395499296548,2.319995016886361,-2.649880214616686,331.76876669606884,26.376580596623626,10.99892769962418,67.9300927970455,-1.0244852656997878,118.89949904260172,425.62998110377833,1.274,1.0241065975906936,0,2.700314965914796,255.00010927308023,0.0775220577649231,1.1082761099549647e-06,-0.2210956152271605,-0.0797879404502668,0.0180965505838496,8.156213920075219,16.775837417990555,25.807122688444185,27.222745052482136
0.78,31.2221960302468,131.01043282713223,12.56550621890674,7.187640791898274,-3.553422167118468,22.15519575227136,2.443304350958304,-2.908457202203743,286.8734378128874,26.63814421158385,11.123353663746045,67.80257787986497,-1.1310000516207084,118.78451035981344,434.10374951542127,1.274,1.0240588105546735,0,2.7087335309093064,255.00010927308023,0.0782910097072675,1.1576020321454217e-06,-0.229616599177628,-0.0840767453951648,0.0189799386847287,8.013904531590823,16.639450599681926,26.080331713327155,22.47846877057967
0.79,31.222195529695927,131.0104338422688,12.79803372599348,7.078852758531413,-3.486027108538546,31.553587536738977,2.561545267014812,-3.153946611762911,373.6203323159581,26.83712027029854,11.224560278691325,67.670048968281,-1.2419888024789412,118.66458076261284,440.6032870195512,1.274,1.0240083170932772,0,2.7171075434367458,255.00010927308023,0.0788760184997739,1.208263604933274e-06,-0.2381618696021122,-0.0883598090835346,0.0198328900697721,7.886737606928416,16.541251772433203,26.289874193609855,31.81411290329287
0.8,31.22219502522083,131.01043486513035,13.0318537699341,6.92298092543791,-3.3960218391073167,31.97755730475211,2.697655319208779,-3.4463582108822246,377.42502064505805,27.19969109753684,11.389035553750269,67.53248011666287,-1.3572837697335365,118.53987736436548,452.57868880625006,1.274,1.0239625010683884,0,2.7254187608719187,255.00010927308023,0.07994184831126,1.2602920394264803e-06,-0.2467033279213648,-0.0926229220768235,0.0208212639367136,7.707427317065221,16.35343702564025,26.666557524780515,32.27567040849308
0.81,31.222194510608936,131.01043590924584,13.270523443683976,6.775174786300173,-3.3103055305190687,20.78962971666684,2.831609126506396,-3.7329969535188425,273.9374926939922,27.52206078451565,11.539009321469596,67.38986144596694,-1.4766962711014433,118.41058974896328,463.3595320545281,1.274,1.0239149950770308,0,2.733643065739588,255.00010927308023,0.0808895338183155,1.3136844049692068e-06,-0.2552840044678523,-0.0968870851778342,0.0218003119955951,7.537239667711465,16.192374558367806,27.002368445568987,21.311076468738325
0.82,31.222193991077887,131.0104369634003,13.511035069454852,6.666309945846712,-3.2437783296959166,26.732129269512072,2.947911783188932,-3.974836927133463,328.725004432774,27.67606822814413,11.624596722837898,67.24215792548446,-1.600063538858951,118.2768792890648,468.548936554372,1.274,1.0238644186635044,0,2.741914908848147,255.00010927308023,0.0813423947135384,1.3684719642823847e-06,-0.263881265544684,-0.1011407545229814,0.0226600610517187,7.41041520731731,16.1254916259398,27.166808868949406,27.18632464605453
0.83,31.222193469912213,131.01043802040942,13.751515771369007,6.518403958988363,-3.1586891356229514,33.99076250154641,3.0807519668738803,-4.259828312442661,395.6875032246518,27.97395034394714,11.766748536988656,67.0893474862148,-1.7272060831878664,118.13892532370664,478.6783011606536,1.274,1.0238188483711983,0,2.75012891943029,255.00010927308023,0.0822181194807334,1.424702640400387e-06,-0.2724336698973053,-0.1053536088133254,0.0236457272398519,7.240429243798335,15.98333897344707,27.47803590640557,34.39489940920629
0.84,31.22219293920349,131.01043909770706,13.996463911765131,6.349382476587763,-3.063779275191896,20.974541158520022,3.2242490783664577,-4.572240469501613,275.45937482564227,28.350441931937063,11.940686383431576,66.93144371985909,-1.8579054114530136,117.99694950337744,491.6381684401432,1.274,1.0237739661568126,0,2.7582230596986568,255.00010927308023,0.0833248945954491,1.4823686993929331e-06,-0.2809760476630888,-0.1095424525862151,0.0247147949483514,7.04719360417765,15.803832748543572,27.869413924428184,21.707891234312598
0.85,31.22219240075084,131.0104401915095,14.244832448474876,6.230026291714104,-2.9929575133025983,22.87729668610025,3.340457214216524,-4.816726710040507,292.9609323393965,28.497332683451976,12.025210507133348,66.76843999764205,-1.99196528399875,117.85114938908734,496.7341198768121,1.274,1.0237227741398531,0,2.766349228433385,255.00010927308023,0.0837568564803428,1.5414767025815169e-06,-0.2895211806722472,-0.1137131011487762,0.0255977665587526,6.909101590138525,15.746489178895212,28.027413795992945,23.616312461158756
0.86,31.22219186250585,131.01044128417308,14.492117984188503,6.08606452303436,-2.9106582649252126,28.652622435793347,3.4676986232749405,-5.090269830292045,346.2265619465616,28.737243485343225,12.14715628072896,66.60032227326019,-2.129197315849508,117.70171404618736,505.121051830418,1.274,1.023674789281455,0,2.774468989743072,255.00010927308023,0.0844622168802849,1.6020863840432557e-06,-0.2979902599089014,-0.1178271385324606,0.0265677260006155,6.74390245152828,15.64330207310406,28.280234980248768,29.307141674601645
0.87,31.22219131597972,131.01044239467345,14.743114559805804,5.922484678061981,-2.819253463164066,26.673350336446983,3.6050203394122975,-5.390075640141204,327.9640783669946,29.05382188566793,12.30063237456588,66.42712257271052,-2.2693675894967886,117.54888229776924,516.2990484351542,1.274,1.0236288969245204,0,2.782428444684644,255.00010927308023,0.0853929207189777,1.6641918504404543e-06,-0.3064009971952108,-0.1218929779244746,0.0276178701066016,6.557109277548469,15.504547450708976,28.61115326609623,27.450258746045662
0.88,31.22219076234619,131.0104435205714,14.997137208135191,5.7683557115587325,-2.732645800646192,23.04254839343035,3.7348121964480736,-5.672349185748679,294.4828134710421,29.312421919825816,12.431936151517068,66.24886284225747,-2.412255898425781,117.39287834150954,525.5180009877587,1.274,1.0235805388426191,0,2.7903937961512506,255.00010927308023,0.0861532264106237,1.7277916997142388e-06,-0.3147643058591434,-0.1259154535558891,0.028623538739329,6.380911420737208,15.397998466580816,28.8833416348707,24.022560310911505
0.89,31.22219020447565,131.0104446554625,15.252566470128851,5.619903476395791,-2.648967942211813,25.26876178840427,3.8579652083736566,-5.939712437206004,315.02813424808807,29.52691721089821,12.546340402093303,66.06555893243704,-2.557651203225745,117.23391669383308,533.2240752321887,1.274,1.0235293752791452,0,2.798342262147633,255.00010927308023,0.0867839075807217,1.7929106756505095e-06,-0.3230523082129493,-0.1298809868169791,0.0295914635480429,6.211105004614724,15.315742619285144,29.110966519639398,26.242606610335816
0.9,31.222189641958884,131.0104458003183,15.50962844292256,5.458267205792819,-2.5593466085940166,27.90465454835123,3.987491564700429,-6.224381276554483,339.3781423542166,29.792823764947343,12.68255330766661,65.8772433108472,-2.7053303667325737,117.07222548342672,542.8578854143486,1.274,1.0234837388140003,0,2.806223587170035,255.00010927308023,0.0875656996205142,1.85956706630052e-06,-0.3312417984911422,-0.133778318840299,0.0306141052169202,6.026865353839546,15.21136657485868,29.390936220051294,28.867157059837016
0.91,31.222189072586406,131.01044696031497,15.769543104604589,5.288650629336686,-2.4662794240649646,21.20875924224576,4.120505109841944,-6.519180545363842,277.7421810230785,30.08719695849484,12.831536686327564,65.68396244231238,-2.855062289564732,116.90804206940278,553.6246680726638,1.274,1.023436404813438,0,2.814045881526895,255.00010927308023,0.0884311671246956,1.9277566524004275e-06,-0.3393352644737714,-0.1376083598774368,0.0316712097238819,5.833958616075739,15.096791802296227,29.6999143141768,22.567448813253765
0.92,31.222188496881284,131.01044813439722,16.03200368318801,5.136508917829224,-2.381551599143781,25.24734273326047,4.235677354845414,-6.772148836197132,315.0281342480675,30.268808589857617,12.93512008263606,65.48576181817008,-3.0066227654240585,116.74159684803767,560.3142685470257,1.274,1.0233859136578225,0,2.821846560940887,255.00010927308023,0.088965216711509,1.997479250098897e-06,-0.3473281639906525,-0.1413686605231456,0.0326120657353578,5.660415830740205,15.038210604482911,29.894823051888675,26.48077184684534
0.93,31.222187918696694,131.0104493136753,16.29487148966147,4.9650354042096,-2.2881558125511607,30.02625694066509,4.363370479525334,-7.0576120105558,359.16250706547066,30.54424983189205,13.078560243551692,65.28269010376175,-3.159790972190196,116.573117134124,570.5438004432466,1.274,1.0233407575091376,0,2.829616190377256,255.00010927308023,0.0897750520000056,2.068764138333739e-06,-0.3551795336162786,-0.1450397844144074,0.0336518863417552,5.465722299746133,14.938798865359852,30.18492268860467,31.151645142752464
0.94,31.22218733235012,131.01045051152784,16.561274649578436,4.782767542451857,-2.1900781953228496,21.748472950331426,4.497883315793936,-7.361539085208945,283.06875048378083,30.87121987172222,13.244847859903995,65.07482060305476,-3.314331597661236,116.40284693375828,582.809382066198,1.274,1.0232914783978162,0,2.837292534203932,255.00010927308023,0.0907363485800386,2.14158854672322e-06,-0.3629013620801599,-0.1486270994801069,0.0347506790349906,5.25929281702563,14.819641455533834,30.527286959786437,23.396993133666857
0.95,31.22218673904204,131.01045172534467,16.830529851697577,4.621560325663757,-2.1018635638987195,28.18043871670779,4.607458082346032,-7.606992464654085,342.421873617488,31.05110708989424,13.350440858533824,64.86222023012174,-3.470023060615995,116.2310159711931,589.6060079545867,1.274,1.0232418269359267,0,2.8449678163986607,255.00010927308023,0.0912653483719758,2.2159392846549564e-06,-0.3704932004585284,-0.1521300017270315,0.0356834639457203,5.076126876938846,14.770273981040328,30.721021180374944,29.55050135960477
0.96,31.222186143959007,131.01045294287206,17.09979098662759,4.43670571202161,-2.0032217763749527,27.58205043209929,4.736954787457685,-7.902931236439968,337.09533515678265,31.36861734720288,13.51544080425312,64.64495682363678,-3.626650930945724,116.05784693614538,601.7100209378833,1.274,1.0231951201821403,0,2.8526215683884475,255.00010927308023,0.0921988539599927,2.2918502230671845e-06,-0.377907199514827,-0.1555262240053309,0.0367687602712948,4.867158358817207,14.662699858306018,31.05401611021514,29.080312392152624
0.97,31.22218553906724,131.0104541834124,17.37343604741981,4.255853185460793,-1.9066272743759825,17.554450317989925,4.857847636936786,-8.180283808111476,245.0218871929888,31.645492206746543,13.664526883556622,64.42312712105374,-3.7839859529382975,115.88357988757429,612.3627823635363,1.274,1.0231476260761452,0,2.860173816169864,255.00010927308023,0.0930129336209535,2.369277339165834e-06,-0.385162597932543,-0.1588243117051837,0.0378044560420598,4.662705800002862,14.577042176303404,31.346055165754212,19.966833820406272
0.98,31.22218492973865,131.01045543425428,17.648519241775023,4.092859041822413,-1.8182369296101504,25.639662563703336,4.951338623395625,-8.393881731467209,319.593746642963,31.775840421487626,13.751600791420568,64.19681729533252,-3.9418170334453535,115.70843582766985,617.4015216974217,1.274,1.0230935628253934,0,2.8677483193760662,255.00010927308023,0.093396345052605,2.448223006058228e-06,-0.3922363301316506,-0.1620133518411554,0.0386563121967092,4.477929780535363,14.558112802471014,31.490280367480604,27.429278172528686
0.99,31.22218431881273,131.01045668849434,17.92350527061332,3.904583122923464,-1.7188691938919378,28.012024253675783,5.0705923844773135,-8.672216214268992,341.66094855170127,32.0774113786898,13.913953504710369,63.96612791144237,-4.099931288087332,115.53263883986492,629.1595046363731,1.274,1.0230490803133316,0,2.87526280014192,255.00010927308023,0.0942830224917892,2.528713807890353e-06,-0.3990851459049368,-0.1650737010850043,0.0397035157184764,4.265642421739011,14.468515064233832,31.807452534970448,29.75889352756701
1.0,31.22218369778884,131.01045796705887,18.202971136998062,3.7153914255263074,-1.6193602878771989,25.004842648807248,5.18629961677821,-8.944560505198453,314.2672081822764,32.374564371026565,14.075955526175772,63.73118592480477,-4.258106599695129,115.35642451772098,640.8528855214314,1.274,1.022999484445133,0,2.8826771409076075,255.00010927308023,0.0951567247707528,2.6106827976660165e-06,-0.4057322034580901,-0.1680153909876973,0.0407376379201905,4.052503466864512,14.384956315370456,32.12022971569185,27.05817847228005
1.01,31.22218307164573,131.01045925795327,18.484210883760856,3.5313118298024144,-1.5223981848897632,26.13428002908248,5.2888563590597,-9.187883676384391,324.92031610370094,32.6153608271773,14.214531864960945,63.492105503310974,-4.416141367607524,115.18000690284634,650.4038776567477,1.274,1.0229507481225095,0,2.890115857148333,255.00010927308023,0.0958647883800489,2.6941126378399545e-06,-0.4121626318409873,-0.1708313271279547,0.0416899622856969,3.845116890528668,14.328832919656945,32.37625121747556,28.202655915286353
1.02,31.22218244090145,131.01046055994607,18.76694327680138,3.3418392252530835,-1.4233830814252844,21.713287417854566,5.393423002732682,-9.438849247636751,284.59063161543185,32.88849844187023,14.368792811524605,63.249010496616606,-4.573837551832609,115.00359737121184,661.3251593168056,1.274,1.0229039803623294,0,2.8975060087747253,255.00010927308023,0.0966679172525539,2.778998038195395e-06,-0.418352136290939,-0.1735105561444545,0.0426692435757287,3.6320257057244487,14.262988305036206,32.664936947498745,24.282663307314138
1.03,31.222181803268857,131.01046187889267,19.0523770824545,3.158281795670604,-1.3271221947605962,17.621760040917582,5.481090589120841,-9.652012531650383,247.3046933904342,33.09028782133425,14.492452956905064,63.00204003017852,-4.730997665959755,114.827408070925,669.4469037164919,1.274,1.022853416101322,0,2.90484118985628,255.00010927308023,0.0972613423817951,2.865302117449768e-06,-0.4242930895893052,-0.1760493490534646,0.0435395067293344,3.425523748378052,14.23005124898256,32.881842594397824,20.82618848702193
1.04,31.222181162171168,131.0104632062947,19.338679961730747,2.976691830181245,-1.2318954169360947,28.273344229232688,5.5570165838251535,-9.839873365391066,345.4656368807608,33.25335541044438,14.59971006852636,62.751338670938665,-4.887431931438344,114.65164396773326,676.0425852029691,1.274,1.0228049544826707,0,2.9121534879501985,255.00010927308023,0.0977409580687911,2.953017067321521e-06,-0.4299605326967654,-0.1784366113221449,0.0443372880592171,3.221318816397116,14.216057936485733,33.05986463938314,30.448079332932082
1.05,31.222180517026977,131.0104645436832,19.626156301681068,2.7769246470090456,-1.1294186537412307,16.799370757190033,5.661448656074048,-10.099505245206675,240.4562587980608,33.596824920575926,14.790413272514284,62.49706671660141,-5.0429519380491,114.4765100204285,690.0611646983256,1.274,1.022755494436122,0,2.919396581328765,255.00010927308023,0.0987508318276868,3.0421202761343643e-06,-0.4353370133948723,-0.1806646848678248,0.0453541359554827,2.9976487493137376,14.13284786753466,33.419427742240444,20.40271709652544
1.06,31.22217986159452,131.0104659072987,19.91807352047621,2.595790384616619,-1.034778253937734,24.13942461769061,5.7193666833621295,-10.25018771113587,308.1796836557233,33.715778918088,14.87968184314686,62.23939578270153,-5.19737425839022,114.30220719449042,694.9368362867688,1.274,1.0227013895379469,0,2.926579816352981,255.00010927308023,0.0991007986278606,3.132511607148149e-06,-0.4404371791488126,-0.182739040869113,0.0460466522831156,2.7943086871065037,14.143122511168055,33.553245166104624,26.841932200298864
1.07,31.22217920751764,131.01046726718965,20.208305836797127,2.3996803009443526,-0.9344504843997684,28.49189730583532,5.803269702147073,-10.466755199164792,348.5093681440431,34.002508852987354,15.047619052998323,61.97848975039066,-5.350531586627234,114.12891986120692,706.7873311942715,1.274,1.0226540159946436,0,2.9337850773129808,255.00010927308023,0.0999439113196816,3.2242278192054137e-06,-0.445217088488633,-0.1846412918065254,0.0469409173607205,2.575102448185645,14.089996922643572,33.855732221225466,30.90338356428576
1.08,31.22217854297262,131.01046865418556,20.50303381249717,2.2010966556728246,-0.8334755903236641,18.91290920139968,5.887435186051014,-10.687396269002166,261.0015785751465,34.31830611487872,15.230932803499488,61.71453952921346,-5.502252606040247,113.95683860762574,719.9564474425254,1.274,1.0226061614050743,0,2.940861809727201,255.00010927308023,0.1008724728142505,3.317161896051569e-06,-0.449687526097377,-0.18637526811224,0.0478512377289066,2.3535433430304216,14.029642247938812,34.187388692702555,22.50734250285941
1.09,31.22217787238283,131.0104700570317,20.79991856180201,2.0133103643338908,-0.7369771649407051,17.296141520530913,5.934598496116244,-10.82205044965136,246.54375332456465,34.469383822607234,15.338312643678751,61.447730576374575,-5.65238067267761,113.78613907833302,726.2885437750444,1.274,1.0225512795791307,0,2.947962425388163,255.00010927308023,0.1013168779132673,3.4112537109120663e-06,-0.4538380062870237,-0.1879358939321391,0.0485041043943994,2.143905408341832,14.036951669818691,34.35362291238469,21.24835868351101
1.1,31.222177200604715,131.0104714628863,21.096443772065417,1.8229466959728768,-0.6397647025475682,35.423906782680135,5.980125859920288,-10.956144971063624,413.1890617384087,34.64461640478138,15.458150736801455,61.1782555168209,-5.800766070671449,113.6169907342321,733.670908696567,1.274,1.0224981043155532,0,2.955029853176476,255.00010927308023,0.1018322849515656,3.5065112215260152e-06,-0.4576387438700357,-0.18931139620606,0.0491575557193144,1.931914959701368,14.03797673835935,34.54412448854905,37.55864999804255
1.11,31.222176522890063,131.01047288445363,21.39505811595857,1.6168395843330532,-0.5373772181829382,25.666157387965647,6.0733198858361686,-11.209503199057565,324.1593910379213,35.100201427425226,15.71376298043006,60.90632555503702,-5.947261141589792,113.44956244336356,753.0720790609314,1.274,1.0224548851875197,0,2.962005758706781,255.00010927308023,0.1031717515953744,3.6028659488038643e-06,-0.4610826520904923,-0.1904986250676456,0.0501773444373247,1.7037804609610383,13.935379101777093,35.01579164892261,28.65815436257538
1.12,31.222175831740497,131.01047434230497,21.699572971082432,1.4236041332684604,-0.4399219550651561,9.10443112539139,6.11463127716112,-11.340913509337444,172.7328179403806,35.31949129566426,15.857745284256373,60.63215702384358,-6.091726984164233,113.28401485666171,762.4888647359461,1.274,1.0223979224661404,0,2.968949456354713,255.00010927308023,0.1038166778488319,3.700144280220924e-06,-0.4641806343770085,-0.1914997216324364,0.0508285870290326,1.4900134990425404,13.92675071747021,35.25038919552249,15.776428651596188
1.13,31.22217514114104,131.0104757987373,22.0028154634482,1.2386170643510828,-0.3454028229256613,30.31806596883295,6.110500091220193,-11.365340490261495,367.5328077894322,35.339803213106435,15.905891960559364,60.35596071973618,-6.234036491507241,113.12049684076882,763.3438838187357,1.274,1.0223460397860296,0,2.975948386830431,255.00010927308023,0.1038767373295093,3.7983756287369263e-06,-0.4669004230203911,-0.1923028604245274,0.0511543209790801,1.2858680945961982,13.995906791853244,35.285547793179525,32.94987556751749
1.14,31.222174450249543,131.01047725581415,22.305241968174805,1.0377559368952107,-0.2465696309131767,16.31663958536049,6.176954233594684,-11.565559592427656,239.6953177322812,35.76151217779077,16.151856016081318,60.07796741304489,-6.374064587442025,112.9591567022194,781.6478008755597,1.274,1.0223022138470996,0,2.9828383606025057,255.00010927308023,0.1051166545030022,3.897572125650465e-06,-0.4692215389112797,-0.1929017121433796,0.0520205726491906,1.0666430139047,13.917359304421485,35.722781230284845,20.93202473838763
1.15,31.2221737429344,131.0104787583096,22.614992629969063,0.8486670585323558,-0.1514234047832347,16.025799895573037,6.1749945957614765,-11.6028480221104,237.4125115347709,35.86774863903128,16.24406489364509,59.79842079354232,-6.511692621986636,112.800137165325,786.2753760267893,1.274,1.0222426194541194,0,2.989633016909908,255.00010927308023,0.1054292922916985,3.9974862986845605e-06,-0.4711557618778414,-0.1932969745478442,0.0523886270980737,0.8620691079483395,13.959762805675425,35.843963133917526,20.72638180616249
1.16,31.22217304024858,131.0104802480878,22.921417369506948,0.6578217867052412,-0.05638773250746,43.56773225356178,6.178369696667823,-11.656885291206192,490.043774385954,36.0401967420084,16.370107725605283,59.51755848914859,-6.64681142777758,112.64357172707965,793.8308336183262,1.274,1.02219674531104,0,2.9965139459258587,255.00010927308023,0.1059365507918229,4.098176073399029e-06,-0.4726794249823784,-0.1934822935103504,0.0528091846748276,0.6602340037692958,13.979985618765344,36.03133937912831,45.52145121279735
