Time,Latitude,Longitude,Altitude,Angle of Attack,Angle of Sideslip,X-Acceleration,Y-Acceleration,Z-Acceleration,Thrust,True Velocity,Ground Velocity,Pitch,Roll,Yaw,Dynamic Pressure,cp,parachute_deploy_gain,Wind Speed,Mach,omega_x,omega_y,omega_z,Cmq,Angle of Attack(total),Angle of Attack(gust),True Velocity(gust),Acceleration
0.0,31.222216000000007,131.010392,3.000000004412624,0.0,0.0,0.0,0.0,0.0,2.2828121974499247,0.0,0.0,71.99999999612658,-1.0292491154817412e-14,119.99999999354436,0.0,15.288,0,0.0,0.0,0.0,0.0,0.0,-0.0,0.0,90.0,0.0,0.0
0.01,31.22221599999862,131.01039200000284,3.0000009727369523,0.0,0.0,0.0,0.0,0.0,34.24218696174923,5.916279387578309e-11,5.734623670548936e-11,71.99999999613168,-5.86671995824671e-13,119.9999999935449,2.1432944861733093e-21,15.288,0,0.0,1.7386402909615473e-13,-3.4220131069073734e-19,7.115076756936125e-19,5.488773498207866e-19,-1.1574302492039043e-31,0.0,89.99999999962336,5.916279387578309e-11,0.0
0.02,31.22221599999738,131.01039200000537,3.0000018317022668,0.0,0.0,0.0,0.0,0.0,25.871876237766408,1.2265415415436536e-10,1.1895038237325684e-10,71.9999999961369,-1.1836364828043265e-12,119.99999999354544,9.211895886571454e-21,15.288,0,0.0,3.6044858651615574e-13,-6.979551485375437e-19,1.4162390878091906e-18,1.0909784360635388e-18,-4.776231873571785e-31,0.0,89.99999999921916,1.2265415415436536e-10,0.0
0.03,31.22221599921969,131.01039200159065,3.0001883335529382,18.80143492628821,-0.0001350810307892,10.931161642028636,-1.75114298675875e-05,3.026590975169265,180.34219359854663,0.0798232026864394,0.0478175828508887,71.99999999765336,-5.341802909786072e-12,119.99999999436793,0.0039016003969354,15.288,0,0.0,0.0002345795854893,3.788270153300133e-17,-7.771883375645477e-10,1.1422790048099072e-11,1.7057759223764537e-13,18.80143492675591,89.51882325913425,0.079801984207741,11.342422482672777
0.04,31.222215995131297,131.01039200995308,3.001692634342189,9.19442604083399,-4.49173898918486e-05,52.29595764159784,6.445392950801871e-06,3.026413589912948,548.6359724538078,0.3504174083926908,0.1601447499964056,72.00000000319055,-3.111420077280171e-11,119.99999999870242,0.0751892535633216,15.288,0,0.0,0.0010297854387864,2.0082066977226968e-15,-1.520937588847922e-08,2.5623342884322286e-11,1.4654248781413086e-11,9.19442604094277,87.798916624545,0.3504103527855857,52.383455068075136
0.05,31.222215983575865,131.01039203366796,3.0074067499493786,5.158590039700252,1.707592688632746e-06,76.26884281015512,5.843947534199429e-05,3.0258124765658088,761.6984298824644,0.9592973585397016,0.3772700771701255,72.0000000004862,-1.3608731808076822e-10,120.0000000109612,0.5634958029902841,15.288,0,0.0,0.0028191251099456,2.086299069701397e-14,-1.0551247853743037e-07,3.973493515691201e-11,2.783064866637575e-10,5.158590039700515,83.94063169874748,0.959297626767734,76.32884071402438
0.06,31.222215961742712,131.0103920785344,3.019291017943491,4.109521257467909,3.140103977270004e-05,57.06876634333886,0.0001151069734147,3.024834864051463,590.4875390737208,1.6257536642597354,0.6118982818704327,71.99999992547217,-3.5903296759057166e-10,120.00000003412836,1.6184272268450337,15.288,0,0.0,0.0047776672697797,1.0694899894620088e-13,-3.741090980393931e-07,5.521401959501359e-11,1.6723176417636091e-09,4.109521257587776,79.78719176344794,1.6257585967235286,57.148873286519276
0.07,31.222215929936205,131.01039214392435,3.0371334573469446,3.649087515174788,5.707077112564807e-05,86.89643797254193,0.0001728541558773,3.0234947746384675,855.2937749779139,2.3057260079826607,0.8506307413593818,71.99999965378231,-6.907496536790437e-10,120.00000006788592,3.255354923652711,15.288,0,0.0,0.0067759305364855,3.495199904512709e-13,-9.036515915819006e-07,7.594816279105379e-11,5.728932851326001e-09,3.6490875156204896,75.6601668283889,2.305734972638426,86.94902215090157
0.08,31.222215886364623,131.01039223353447,3.0621840248716574,3.4254446680114707,8.413075603463509e-05,17.831756866644035,0.0002285946601282,3.021841001032126,241.2171988638848,2.961944911520492,1.0819695676346892,71.99999900671328,-1.141745983122182e-09,120.00000011415082,5.371998197385977,15.288,0,0.0,0.0087043901031071,8.800530155962314e-13,-1.829098470920821e-06,1.0943386634701918e-10,1.4896287129277132e-08,3.4254446690434226,71.81713637501419,2.9619581267487467,18.085991154451033
0.09,31.22221583454733,131.01039234010327,3.0919888289029,3.389560809024919,0.0001118726864415,54.09031716446879,0.0002748660999733,3.020060228038602,563.0937377043176,3.504225426410036,1.2780161667917422,71.99999774508822,-1.634190085504106e-09,120.00000016921716,7.519080503822694,15.288,0,0.0,0.0102980157586766,1.865782139518716e-12,-3.1503298654458527e-06,1.6284478329871028e-10,3.03536411425607e-08,3.389560810868955,68.76526501308032,3.504242999330529,54.17456206384468
0.1,31.22221577423132,131.0103924641528,3.1267248829165366,3.4447939461814814,0.0001419149103147,51.372195336549765,0.0003131602029306,3.0182021883815127,538.7437595981919,3.950569597142709,1.4443465951180965,71.99999562056465,-2.1287748602259068e-09,120.00000023339832,9.55649523509932,15.288,0,0.0,0.0116097108366932,3.485956000178229e-12,-4.949356763187612e-06,2.4573266549165286e-10,5.3761299442583966e-08,3.444793949101151,66.34639928474206,3.9505918890846927,51.460781166288626
0.11,31.222215706113143,131.01039260424562,3.165907002780892,3.4691423802630394,0.0001702373452339,40.591037561894986,0.0003534470100582,3.016051659024047,442.8656393052949,4.421478635995476,1.6182620895289603,71.99999235067894,-2.5564479031457968e-09,120.00000030601664,11.970509656144712,15.288,0,0.0,0.0129935974697161,5.942887149865172e-12,-7.273722517324353e-06,3.67769289312894e-10,8.842679949465076e-08,3.4691423844348632,63.88798785789768,4.421505376815134,40.70293476011277
0.12,31.222215630588888,131.0103927595646,3.2092596514826863,3.4852659299808075,0.0001974376474727,44.30042894095728,0.000394069215595,3.013641598889868,475.58594813540446,4.896982486381051,1.793579340340896,71.99998761802138,-2.8337988279882726e-09,120.00000038673312,14.683611096353944,15.288,0,0.0,0.0143909889875706,9.464337642181618e-12,-1.017558359402848e-05,5.395790443954697e-10,1.3700793350599625e-07,3.4852659355662303,61.5068242157714,4.897013499814194,44.40281567867803
0.13,31.222215548046687,131.0103929293088,3.256512891171917,3.5606043721293616,0.0002276507019012,48.86766833507025,0.0004268800875964,3.0112558910133567,515.9156326236895,5.278566579338586,1.939796541405244,71.99998107389406,-2.8573058577484587e-09,120.00000047523812,17.061052093156064,15.288,0,0.0,0.0155123760833565,1.4300406003001044e-11,-1.3705268062305584e-05,7.724776992181392e-10,1.989112774124932e-07,3.560604379397528,59.67313531776262,5.27860233862722,48.960358155653
0.14,31.222215458587108,131.01039311327068,3.30759734332425,3.6000732663755977,0.0002555702913645,45.540290862247225,0.0004629468001456,3.0085404980032777,486.2390860568404,5.70011779273801,2.098362647205908,71.99997235012626,-2.508533681468686e-09,120.00000057154703,19.894788765881632,15.288,0,0.0,0.0167512184495524,2.071534240530911e-11,-1.7917736259613292e-05,1.0787346240473087e-09,2.8081526258393346e-07,3.6000732754351943,57.72385750323359,5.700157937625502,45.639559681930805
0.15,31.222215362317904,131.01039331122794,3.3624387479639086,3.651605404442164,0.0002842753491325,44.01308509501,0.0004965057129938,3.005703619811542,472.54218587214,6.091938849578711,2.2476968067377374,71.99996103728932,-1.6446954747148112e-09,120.00000067569304,22.723773683610247,15.288,0,0.0,0.0179026934683374,2.9002783512213203e-11,-2.287326399669318e-05,1.47199345427166e-09,3.831202693354572e-07,3.651605415492516,55.98561718911576,6.091983503446133,44.115597174664394
0.16,31.22221525912812,131.01039352340948,3.421115382839859,3.67540086436193,0.0003108411545024,34.83804992586084,0.0005330990866742,3.002517946501868,391.1218908297564,6.521183188362317,2.4085903880902046,71.99994669525161,-1.0153513453738144e-10,120.00000078796704,26.03872642002185,15.288,0,0.0,0.019164148528834,3.9478358970291335e-11,-2.864207894220033e-05,1.9677461746207517e-09,5.135466997084602e-07,3.6754008774883777,54.15946979122355,6.521232015176687,34.96719658394182
0.17,31.2222151493826,131.01039374906244,3.4833737923187487,3.7139589864597298,0.0003384978477213,43.96471427482637,0.0005668629535037,2.999235483723449,471.78125980632376,6.916861975403744,2.559060925010733,71.99992884100092,2.3206494032971838e-09,120.0000009081849,29.29426197817256,15.288,0,0.0,0.0203269651395979,5.248754693205839e-11,-3.5267097947693114e-05,2.580363454062817e-09,6.706952682968329e-07,3.713959001863866,52.549031795895466,6.916915146521327,44.06689817851128
0.18,31.22221503253009,131.01039398932429,3.549599475912623,3.7380363034619775,0.0003650282082698,36.67395661481795,0.0006021794701355,2.9956556354306425,407.10156721191447,7.332140201215607,2.71556808256092,71.99990696207136,5.837017536380516e-09,120.00000103716444,32.917216366714264,15.288,0,0.0,0.0215473823438242,6.839750892601699e-11,-4.285557247677198e-05,3.331016495775474e-09,8.639362741436378e-07,3.738036321259578,50.93050624815799,7.332197539712479,36.796100973258795
0.19,31.22221490871209,131.01039424390297,3.619694897703461,3.747799769666444,0.0003901520189829,41.42208371271829,0.0006393759928961,2.991742733214697,448.9531328318269,7.771071983754382,2.879366399937307,71.99988049019642,1.0709144790974043e-08,120.00000117502664,36.97605053227239,15.288,0,0.0,0.0228373144884866,8.761416506509219e-11,-5.146771415177372e-05,4.238406957677133e-09,1.0996552116864756e-06,3.747799789945131,49.29705748437159,7.771133268690212,41.529983675580546
0.2,31.22221477769685,131.01039451327668,3.693822889232993,3.7700519460961166,0.0004166800650969,37.99697972290605,0.0006740224661302,2.987733789228414,418.51563019916136,8.179966026035371,3.0338260708461373,71.99984881140107,1.723179577184912e-08,120.0000013223286,40.969302182777255,15.288,0,0.0,0.024038975990988,1.1057590044953188e-10,-6.120032215177249e-05,5.3263847350253015e-09,1.376394225587184e-06,3.7700519690893857,47.8457752505109,8.180031477986942,38.11426270718793
0.21,31.222214639876928,131.01039479663547,3.771710975053407,3.7926098867321474,0.0004432924407074,36.46301043881366,0.0007080907240332,2.983530483977461,404.8187610144644,8.582757448615462,3.1863584283669346,71.99981127559042,2.5745201416596626e-08,120.00000147900325,45.103059028532826,15.288,0,0.0,0.0252227064089584,1.3774582723633048e-10,-7.20875523136271e-05,6.61341033873124e-09,1.7010673350603349e-06,3.792609912601061,46.47936953648762,8.582827080829217,36.584868250565684
0.22,31.22221449507626,131.01039509434258,3.8534832466471007,3.782921298925821,0.0004660920499522,44.14577847155813,0.0007479176313898,2.978724032883548,472.5421858721365,9.056569122268344,3.360845972992861,71.99976720416048,3.661811567390422e-08,120.00000164562512,50.21995530074818,15.288,0,0.0,0.0266151520780326,1.6960703048385348e-10,-8.421592474264931e-05,8.124635526119773e-09,2.0969540034515424e-06,3.7829213275976334,44.9464484092354,9.056642335836344,44.24615863872642
0.23,31.22221434283448,131.01039540734791,3.9394622486964206,3.813874679301352,0.0004940771488601,36.66675459308932,0.000779455230549,2.974212905336642,406.3406421461021,9.430647902846331,3.5044030163419806,71.99971583979395,5.0272885112871524e-08,120.00000182313076,54.45382429059888,15.288,0,0.0,0.0277145095638672,2.0669790509245914e-10,-9.77285871729516e-05,9.894576563683824e-09,2.5339062472561444e-06,3.813874711257219,43.79476959007253,9.430725512303388,36.78718303164376
0.24,31.222214184153326,131.01039573358457,4.028950821673608,3.829256049377765,0.0005200487408944,37.802126339316736,0.0008136255607606,2.9692962675112065,416.2328240017114,9.837806876534357,3.658163422426286,71.9996564062533,6.718950080713476e-08,120.0000020109434,59.25679777340223,15.288,0,0.0,0.0289110855155543,2.4956955046738006e-10,-0.0001125744417092,1.1934277804843484e-08,3.0448209172448607e-06,3.829256084638984,42.59361542722471,9.83788856559955,37.91856374864305
0.25,31.22221401888584,131.01039607335582,4.122052964664892,3.851417709838087,0.0005469594058717,38.85163035360012,0.0008459008130282,2.964283881833675,425.36408079150686,10.22297576958679,3.8050691648373967,71.99958811418384,8.786880969336211e-08,120.00000220974424,63.98709205399403,15.288,0,0.0,0.0300430411774988,2.987811646313829e-10,-0.0001288461362054,1.4273117985167728e-08,3.621333387698252e-06,3.8514177486178034,41.50703126619192,10.223061685769354,38.96455005232871
0.26,31.222213847358866,131.0103964259872,4.218542267117083,3.8780574625554745,0.0005745172425185,42.3164797140743,0.0008766626387865,2.959162938653076,455.8015834241788,10.590779679138215,3.946551912391076,71.99951013710364,1.1286401474734325e-07,120.00000241975916,68.67355887153568,15.288,0,0.0,0.0311239685467471,3.5491769188178554e-10,-0.0001465721578858,1.6932703957058654e-08,4.267712643344226e-06,3.8780575050466,40.51245375834074,10.590869924095635,42.41981967733593
0.27,31.22221366913008,131.0103967923915,4.318728802515264,3.886188503202341,0.0005994342651313,38.70936050721014,0.0009111181036949,2.953518013741325,423.84219965987256,11.004860953238978,4.102320296019413,71.99942161756776,1.4276417094868828e-07,120.0000026420792,74.14786134434608,15.288,0,0.0,0.0323408987462391,4.1858405402174807e-10,-0.0001658847815307,1.995072923688136e-08,5.018832267232506e-06,3.886188549362022,39.43841359495857,11.00495511215316,38.8218734782956
0.28,31.22221348431185,131.01039717233687,4.422535913956003,3.90556090261878,0.0006261175699806,44.68030766832924,0.0009425767186621,2.947879457547137,476.3468732012221,11.38358114165448,4.247086834352694,71.999321619057,1.7823531611327881e-07,120.000002877279,79.33831935330025,15.288,0,0.0,0.033453914386159,4.904408325040897e-10,-0.0001868529238516,2.3357766479368094e-08,5.847713054408178e-06,3.9055609527288775,38.49894431917428,11.383679491972384,44.77744842575601
0.29,31.222213292835256,131.0103975659655,4.530013412817602,3.9242599519377537,0.0006528240665589,35.802573724660256,0.0009737210635801,2.942037024315898,397.97031042211177,11.759725774384751,4.391004157029451,71.99920917567837,2.1999186079018322e-07,120.00000312617878,84.66717879828003,15.288,0,0.0,0.0345593650464213,5.711677680739745e-10,-0.0002095620322847,2.7188189988316943e-08,6.77505090435382e-06,3.9242600061534456,37.60352534239979,11.759828319749328,35.92324968749781
0.3,31.222213095024976,131.0103979726075,4.64093665799555,3.936939025755682,0.0006785438093183,33.570228713727204,0.0010059102294455,2.93586442972183,378.1859457108711,12.149968255527943,4.539237002744259,71.99908328532703,2.6880857935396905e-07,120.00000338923812,90.3787563598417,15.288,0,0.0,0.0357062504417728,6.614698865958865e-10,-0.0002340353597042,3.1467140861055e-08,7.817263716758327e-06,3.9369390841381695,36.71173884615234,12.150074840940263,33.698361337808635
0.31,31.22221289105846,131.01039839189684,4.755183729044857,3.9598342215431432,0.0007060286581592,35.396825578217346,0.0010350810412898,2.9297385597941448,394.1656220930212,12.504537499407316,4.6763673222047455,71.99894291513503,3.255120771695107e-07,120.00000366712923,95.72967338626896,15.288,0,0.0,0.0367483036680869,7.620720834468404e-10,-0.0002603234137215,3.622454560346964e-08,8.948994505138873e-06,3.9598342843844345,35.934338386209795,12.504648402129598,35.5178635353378
0.32,31.222212681031937,131.01039882363492,4.872689374180126,3.985461429033668,0.0007340760463279,38.52097867048992,0.0010630242168685,2.9235095146848846,421.55939346242695,12.84534566718622,4.809181081594425,71.99878701464397,3.909756427278764e-07,120.0000039606604,101.01782231644016,15.288,0,0.0,0.0377499198995686,8.737098716736534e-10,-0.0002884807530145,4.1491545539590986e-08,1.0187112828155184e-05,3.98546149652875,35.21473736963424,12.845460975581933,38.631757748577954
0.33,31.22221246496604,131.01039926777932,4.9934410812554,4.010606629086,0.0007621365968788,38.18822026147908,0.0010905599149574,2.917102431053817,418.5156301991682,13.18247167592885,4.940798912752974,71.99861449732019,4.661299779655886e-07,120.000004270781,106.38859400029033,15.288,0,0.0,0.0387407190563976,9.971421990244511e-10,-0.0003185760672934,4.7302669734505256e-08,1.154498667827874e-05,4.010606701382261,34.52805863348922,13.182591392065536,38.299473293007864
0.34,31.222212242662028,131.01039972474007,5.117579377337869,4.019339771238816,0.0007871574969313,29.898022638335373,0.0011220389395318,2.910051232417875,345.46563688075645,13.569536737955724,5.0878303926024735,71.99842423285973,5.519675040347761e-07,120.0000045987411,112.72655675097128,15.288,0,0.0,0.0398782837956187,1.1331556132162459e-09,-0.0003507224668667,5.37022358302301e-08,1.308298593306914e-05,4.019339848191799,33.76700548046532,13.5696603843662,30.039310197084795
0.35,31.22221201433324,131.01040019407705,5.2449575244483055,4.033762873683395,0.000813261106463,32.76415525156106,0.0011515840876071,2.902959820469776,370.5765700527033,13.934300103976534,5.227895396154902,71.99821502296155,6.495674834876441e-07,120.000004945438,118.8669740701126,15.288,0,0.0,0.040950312688979,1.2825853697215452e-09,-0.0003849609961885,6.072234695821837e-08,1.4746020857580124e-05,4.033762955530055,33.07785186209504,13.934427850732408,32.89250745069162
0.36,31.22221177990305,131.01040067594835,5.375631006350063,4.051723629010647,0.0008401329464575,37.01692984301412,0.0011797030485285,2.8957873473716007,407.8625232777193,14.282998147928636,5.362923567977223,71.9979856440668,7.600645476620651e-07,120.00000531213882,124.88900300695136,15.288,0,0.0,0.0419751331662584,1.4462801652534363e-09,-0.0004213876232777,6.84067806399068e-08,1.654507199147348e-05,4.051723715967022,32.44322602189087,14.283130115703262,37.13002398000203
0.37,31.222211539445663,131.01040117020102,5.509550188388412,4.071639898917391,0.0008674922629137,35.12417761390579,0.0012067983861697,2.88849906286036,391.1218908297666,14.620581431527652,5.494447309446232,71.99773482653193,8.846681943540367e-07,120.00000570002652,130.86067091914967,15.288,0,0.0,0.0429672939311924,1.6251202388969355e-09,-0.0004600660652957,7.679415042686734e-08,1.849041957573993e-05,4.071639991174516,31.85023865502424,14.620717696893658,35.24274792557624
0.38,31.222211292895075,131.01040167697127,5.646763233102716,4.08264881385344,0.0008930259828975,36.695642158537446,0.0012360471443664,2.880711738179021,404.8187610144602,14.986392916850402,5.634654729559426,71.99746126698146,1.0246533537040716e-06,120.0000061105033,137.4891296153862,15.288,0,0.0,0.0440424171304414,1.8200057922063743e-09,-0.0005010869196581,8.592980519823866e-08,2.0642694281337543e-05,4.082648911356968,31.228847973200924,14.986533193043764,36.808540518115166
0.39,31.22221104018777,131.0104021963902,5.787316652586672,4.096641430700089,0.0009192713382325,31.335681548387896,0.0012640110027448,2.872831219844713,357.64062493382744,15.337978856701952,5.770390286512262,71.99716358743511,1.1813915463769678e-06,120.00000654506955,144.01394309468844,15.288,0,0.0,0.0450757388736732,2.031886352449547e-09,-0.00054455673306,9.586443829735616e-08,2.295945663566148e-05,4.096641533664766,30.65298398882095,15.338123255506089,31.4670954954126
0.4,31.222210781536543,131.01040272801887,5.931064331106764,4.109028969993624,0.0009451871856381,29.95928076777898,0.0012920492774571,2.8646905607053603,345.465636880754,15.692185018814769,5.906873567965718,71.99684037970908,1.3563276523471372e-06,120.00000700500496,150.74021066990193,15.288,0,0.0,0.0461167659598875,2.2617341782092324e-09,-0.0005905037520737,1.0663253249436129e-07,2.5471259834659164e-05,4.1090290785164525,30.09246700352443,15.692333488470696,30.095929256306363
0.41,31.222210517064383,131.01040327160345,6.077922766619747,4.122888296344507,0.0009714525997821,33.78425365340317,0.0013192264430821,2.85640971467756,378.94687077668647,16.03742529732769,6.0405139809190125,71.99649020751959,1.5509747261474075e-06,120.0000074917568,157.44375780268788,15.288,0,0.0,0.0471314487675864,2.5105374204052982e-09,-0.0006389770219162,1.1827345344180344e-07,2.816813594418537e-05,4.122888410595805,29.56469007160549,16.037577892745222,33.904791300285986
0.42,31.22221024682894,131.0104038270252,6.227854084363214,4.14444025865494,0.0009995884754813,38.04468161607466,0.0013435485656724,2.8482703202464488,416.2328240017114,16.348862540904037,6.163613566771559,71.99611159893284,1.766920641656551e-06,120.00000800692096,163.6157044470786,15.288,0,0.0,0.0480467946810589,2.779304965995011e-09,-0.0006900467934588,1.308321832549104e-07,3.100973487310896e-05,4.144440378988911,29.104646754454564,16.34901955589459,38.15115260238947
0.43,31.222209970843565,131.0104043942566,6.380851271439565,4.1618082623168045,0.0010268052928652,33.45815353250911,0.0013687230309017,2.8397750580998298,375.9031395134336,16.67263197205097,6.290467308135904,71.99570306121484,2.005818691215035e-06,120.00000855220898,170.15779512382937,15.288,0,0.0,0.0489983878509763,3.0690566816849196e-09,-0.0007437862329608,1.443552931671376e-07,3.4086145072160934e-05,4.161808388761201,28.640125213458976,16.672793262249197,33.57845085853367
0.44,31.22220968892116,131.01040497368373,6.537047157143216,4.164954087655709,0.0010505545842624,30.86574023822051,0.0013980747538988,2.830419582421933,353.0750125389216,17.050421620730056,6.433992917638883,71.99526304125902,2.269416145406482e-06,120.00000912964636,177.9537948947602,15.288,0,0.0,0.050108743779844,3.380847125286677e-09,-0.0008003278134917,1.589055036683518e-07,3.750784460406397e-05,4.164954219916419,28.113519280259386,17.050586641458253,30.99524475496968
0.45,31.22220940081287,131.01040556582012,6.696617751072218,4.165241899529329,0.0010735835484822,35.912216710755274,0.0014280646808282,2.820677244966047,397.2093853562869,17.438293672974723,6.580571293039616,71.99478987454265,2.5595995397253085e-06,120.00000974147088,186.13940823302417,15.288,0,0.0,0.0512487363629523,3.7158016249566814e-09,-0.000859850913876,1.745604864109677e-07,4.121350642664912e-05,4.1652420376426775,27.591357195572936,17.43846231108416,36.02281959036367
0.46,31.222209106468902,131.0104061707686,6.859600379555308,4.174585124444534,0.0010989881252456,41.916816790010685,0.0014546917035209,2.811153314474766,449.7140588976434,17.786187321601275,6.714685486378061,71.99428180697711,2.8783880229668832e-06,120.0000103898448,193.6374175079873,15.288,0,0.0,0.0522712438446989,4.0751091178509895e-09,-0.0009224765531151,1.9138630415982226e-07,4.50966024037632e-05,4.1745852688465686,27.13985967570823,17.786359950252297,42.01097612387663
0.47,31.22220880579083,131.01040678873238,7.026066274755745,4.1823089530633855,0.0011240727220223,28.37640408484148,0.0014814747534716,2.801325368441072,331.0078106302534,18.138167428286582,6.849989708801916,71.99373704967608,3.2278903746588286e-06,120.00001107707628,201.37401505997488,15.288,0,0.0,0.0533057667609836,4.459978104761035e-09,-0.0009883252835099,2.094509673354327e-07,4.927107017839778e-05,4.182309103852639,26.69716826759888,18.13834399721685,28.514342615617974
0.48,31.222208499300592,131.0104074186346,7.195654207463586,4.189479568102716,0.0011490100608361,27.95074823096412,0.0015080719422187,2.7912412472910484,327.2031223011574,18.48995085190441,6.98515976370584,71.99315377257649,3.6103201777021456e-06,120.00001180491516,209.25751230436188,15.288,0,0.0,0.0543397174489847,4.8716620260348906e-09,-0.0010573190976925,2.2877013380347535e-07,5.373205427420879e-05,4.189479725385959,26.268461765425428,18.4901313379827,28.089773168283216
0.49,31.222208187201936,131.01040806005494,7.368224738812109,4.202723284133339,0.001175611380853,35.08821363242469,0.0015321405723077,2.781292092003844,389.60000969812296,18.812014261754847,7.111044804193205,71.99253015042137,4.027946338669921e-06,120.0000125755114,216.60722913930897,15.288,0,0.0,0.0552863302793499,5.311396446020465e-09,-0.0011294854492155,2.4938633613154685e-07,5.8398320167141767e-05,4.202723448262914,25.88860807032205,18.81219892635871,35.1982716047702
0.5,31.22220786953184,131.01040871291724,7.5437546994244835,4.220815778795054,0.0012036252596423,36.05491615971072,0.0015540388599792,2.7714444106710974,397.97031042210494,19.10875420627192,7.229005658018125,71.99186435180009,4.483102820610566e-06,120.00001339126192,223.4908652241728,15.288,0,0.0,0.0561585257949344,5.7804122391526605e-09,-0.0012048912160576,2.713531252030471e-07,6.327866493526626e-05,4.220815950099865,25.54902500917784,19.108943271285572,36.161276053538906
0.51,31.222207546379583,131.0104093770373,7.722184419225251,4.232567510615346,0.0012298790840397,27.54004661432325,0.0015777580800203,2.761017323676155,323.3984349720841,19.430597746636646,7.354673636736509,71.99115452520388,4.978202222778502e-06,120.00001425458936,231.07869697977367,15.288,0,0.0,0.0571045034845869,6.2799518101633574e-09,-0.0012835871653678,2.947201005874635e-07,6.854585242460463e-05,4.232567688976395,25.189423168613605,19.430790935591396,27.678103017910345
0.52,31.2222072177338,131.0104100523587,7.903529177063523,8.83943418614755,-4.9506814187025245,33.198939389341845,0.3173809534503352,2.4444446849647914,372.0984511843415,20.57721632424361,7.480978048582427,71.99038759565025,-8.88494873346853e-06,120.0000000254774,259.15122855388006,15.288,0,2.514290789411289,0.0604744198015953,6.814519137568659e-09,-0.0014338738070593,-5.025636026192052e-05,8.108857100082406e-05,10.121758028994083,20.45406207498194,19.80053239432544,33.29032317453015
0.53,31.22220688333575,131.01041073889107,8.087908926000319,8.784440203082719,-4.8826934364059005,34.86369653320694,0.325363204705421,2.4256640887394223,386.5562464348624,20.90564935415327,7.605320002291567,71.98951813641305,-0.0001822785605216,119.9998180520249,267.4851401396571,15.288,0,2.523963991506597,0.061439780044438,7.372539978651428e-09,-0.0016234451104761,-0.0001577003234218,9.32729418564937e-05,10.040911303089308,20.19910014439792,20.13960565425392,34.949492749479525
0.54,31.22220654306211,131.01041143681536,8.275398989948217,8.731399468018047,-4.81698359049411,30.608087991495143,0.333436022211109,2.406561523924239,349.2703242098436,21.23217824363793,7.728925726181607,71.98853844117995,-0.000547154422853,119.99943473440328,275.9012200185304,15.288,0,2.5336155015850546,0.0623995503876783,7.949889020629045e-09,-0.0018193732747137,-0.0002678847309542,0.0001061604980254,9.962965716420673,19.952272711786584,20.476419266881525,30.70436073987618
0.55,31.22220619720972,131.01041214550716,8.465793997273247,8.682527258775998,-4.754676844801348,32.447065289545186,0.3415057440781411,2.387313481105024,365.2500005919907,21.551090858184946,7.850009700965766,71.9874448959489,-0.0011082224201479,119.99884511718597,284.2464791881285,15.288,0,2.5432334083518446,0.0633369432407613,8.547649356545338e-09,-0.0020215221438579,-0.0003806980116765,0.0001197254301197,9.890391213628153,19.71785267034785,20.805084879104413,32.536563090380525
0.56,31.22220584578053,131.01041286495104,8.659094181933748,8.639335376072573,-4.696499682947668,30.27882005657187,0.3494973663276029,2.3680662648973088,346.2265619465787,21.857994274311324,7.967194199384801,71.98623389459792,-0.001870106416803,119.99804433521857,292.39445545827334,15.288,0,2.55281708114152,0.0642390480707155,9.166899568692145e-09,-0.0022300264183977,-0.0004961791973512,0.0001339525236307,9.82485279742437,19.498673177238064,21.121095677673,30.373291396591735
0.57,31.222205488852445,131.01041359497484,8.855246815944739,8.593767786957917,-4.63805285779074,29.939612164159616,0.3577306046499704,2.3482056701185927,343.1828296833023,22.17253852134152,8.08664908379687,71.98490179451134,-0.0028374189401228,119.99702753465334,300.86465699788937,15.288,0,2.5623618973194526,0.0651636148248819,9.80874743741709e-09,-0.0024449316062168,-0.0006143180463723,0.0001489719618281,9.757189780223229,19.27878523233271,21.4447902867866,30.03368804517645
0.58,31.22220512640332,131.01041433561323,9.0542689901921,8.540713175938725,-4.576623685451128,39.45272322530855,0.3664399005893485,2.327269084559163,426.1250058573153,22.508355541540634,8.212650116290153,71.9834448902092,-0.0040148048214042,119.99578982720972,310.0413155515092,15.288,0,2.5718674953628424,0.0661507072152775,1.0474320764131465e-08,-0.002666380486019,-0.0007351571483445,0.0001649225318792,9.681623522054862,19.04813891949378,21.79022539768189,39.52300380140014
0.59,31.222204758007567,131.01041508773267,9.256458939709724,8.499215414130138,-4.522292655974828,31.964379959336387,0.3748110884473668,2.3068380144511407,360.68438819711065,22.816160759599693,8.32972232310865,71.98185925658566,-0.0054071990882291,119.99432601926856,318.5728363876769,15.288,0,2.581348198414738,0.0670554812431886,1.1164768960072976e-08,-0.0028949518863713,-0.0008589719652754,0.0001815054170434,9.619641624462428,18.84390746577488,22.106538024014466,32.04970469695104
0.6,31.22220438389048,131.010415850857,9.46166143034697,8.443870092131935,-4.461624565980557,28.397663324521,0.3839659808210866,2.284715899663191,329.4859594986058,23.16279989871908,8.458843239336057,71.98014088739517,-0.0070195909246621,119.99263085889842,328.31986398472617,15.288,0,2.5907946835980007,0.0680743927984207,1.1881332117251686e-08,-0.0031305495594123,-0.0009856731632929,0.0001992547824916,9.542570719478825,18.616396916640536,22.462677611875563,28.49201008896085
0.61,31.2222040040016,131.01041662507865,9.669913376095264,8.38739449062432,-4.401337446703864,33.29407637256882,0.3933661834313354,2.261944859897857,372.0984511843297,23.51549358816964,8.589726261641331,71.97828566222768,-0.0088570769408024,119.99069898078722,338.3876946970535,15.288,0,2.6002082481597864,0.0691111055323547,1.262526326355128e-08,-0.0033733723870437,-0.00111532966635,0.0002179750647017,9.464752006511612,18.390412579473395,22.82481286875386,33.37314268998247
0.62,31.22220361846251,131.0104174101353,9.881131908722416,8.35457328616439,-4.354190081124186,41.422741148687365,0.4018102386528445,2.2409115530898505,442.86563930529206,23.804573583432106,8.700524086477037,71.97628930632514,-0.0109248490335467,119.98852492102294,346.7515155252071,15.288,0,2.6095885781250026,0.069960866908985,1.3397872464861486e-08,-0.0036234878216217,-0.0012479403677123,0.0002370100895939,9.413992530539137,18.213937343814173,23.1212771476289,41.485257867437866
0.63,31.22220322708052,131.0104182064139,10.095453098386947,8.315496368955971,-4.304591225316102,23.446182798345216,0.4106969584193448,2.218847049150737,286.11251274707894,24.112057111753,8.816958400525554,71.97414774159665,-0.0132279177195144,119.98610339831296,355.7600232145167,15.288,0,2.618929021270183,0.0708647223296267,1.4200428719015009e-08,-0.0038811987815621,-0.0013836257436987,0.0002571407074015,9.356636934559983,18.02876064633651,23.436529414545017,23.55452062837618
0.64,31.222202830471137,131.01041901263343,10.312450023907466,8.266055560749308,-4.2504927606636285,23.016461324387823,0.4202669767981954,2.1952544422279767,282.30782441796754,24.45099688229887,8.943135394738793,71.97185669658339,-0.0157713037626237,119.9834291265102,365.8244333497956,15.288,0,2.6282328968305206,0.0718610336097121,1.5034336348657292e-08,-0.0041459627958402,-0.0015220673045235,0.0002785374566526,9.288099787263477,17.826889807165966,23.7839432807439,23.1247326102368
0.65,31.22220242861487,131.01041982882404,10.5321382032198,8.233949620938674,-4.2059548538612885,40.76120775875005,0.4291004076104747,2.172984216341278,436.7781447787475,24.740614255377263,9.053725303095767,71.96941197466673,-0.0185598992288994,119.98049695203778,374.5340978052999,15.288,0,2.637476263900936,0.0727123939950269,1.5900922759306472e-08,-0.0044179765348416,-0.0016633331149753,0.0003003214526422,9.239371738021726,17.661778762309694,24.08053761053414,40.82134301460775
0.66,31.22220202098078,131.01042065607197,10.754889367193284,8.198409066141219,-4.160380916196703,34.654908469000546,0.4382572166760201,2.149909368772847,383.51251517160017,25.0410265724108,9.167565075423468,71.96680926571618,-0.0215986241853753,119.97730169399776,383.67665474031855,15.288,0,2.6466898993832166,0.073595487444503,1.6801492077724912e-08,-0.0046979586665005,-0.0018077553066798,0.0003232246724643,9.18718390017691,17.493190913775127,24.3880895935318,34.72429784281767
0.67,31.22220160776381,131.01042149396443,10.980569725851517,8.153826266892485,-4.11098500610446,23.823609384117272,0.4480661072880867,2.1253487619820257,289.1562440103425,25.36999019669661,9.290227385774314,71.96404411326452,-0.0248927526125188,119.97383778990844,393.81504516386985,15.288,0,2.65587397657373,0.074562500197523,1.773749760171169e-08,-0.0049858308091008,-0.0019552561023637,0.000347529446026,9.125283392504674,17.310358008173452,24.72479210479776,23.92242117101777
0.68,31.222201189141103,131.0104223421255,11.209057935250136,8.112532220904486,-4.063919384048777,29.77792196768881,0.4578606037874816,2.1006484509706493,340.8999924858462,25.69026799068308,9.410043471052964,71.9611119058979,-0.0284475022229629,119.97009974298444,403.8122089722355,15.288,0,2.664994798874104,0.0755039925127731,1.8710426195490807e-08,-0.0052815579060312,-0.0021057812812849,0.0003727819907154,9.067417978979504,17.136980074504894,25.05244414436326,29.855434965192348
0.69,31.222200765196312,131.01042320037288,11.44029778564774,8.08091888375784,-4.022305965211188,36.69788693963488,0.4672540630605603,2.0766139437277715,401.0140726853634,25.981120622613567,9.520509405768356,71.95800803588922,-0.0322679937190124,119.96608215751276,412.9983254398724,15.288,0,2.674079648762118,0.0763590109408387,1.9721769241376943e-08,-0.0055851784808947,-0.002259314300602,0.0003986663081871,9.020684063735416,16.984997280472857,25.349817128871376,36.759564165873286
0.7,31.22220033578614,131.01042406899336,11.674391118943204,8.049082431852439,-3.9811885007843335,30.75750586134304,0.476802005422947,2.052105786085971,349.27032420985284,26.2730210103656,9.631176884678858,71.95472801310467,-0.0363592926905075,119.96177968691968,422.3211152037733,15.288,0,2.68313091839504,0.077217115698822,2.0772981518345208e-08,-0.005897005416475,-0.0024159750695117,0.0004256438631412,8.974026455229733,16.83540595486348,25.64816048584385,30.82957419621968
0.71,31.222199900966608,131.01042494786208,11.91130101781908,8.011489988214464,-3.937836241289959,25.251474614029178,0.4868447682692128,2.0264052814702644,301.33126406340574,26.58399141085341,9.747702769757913,71.9512670519311,-0.0407265424856719,119.95718691184248,432.3677225423023,15.288,0,2.692120988809964,0.0781312749011522,2.1865616308106063e-08,-0.0062171057383652,-0.0025757598021325,0.0004540497049722,8.921283725906079,16.67776366960285,25.965924388917493,25.337330292991044
0.72,31.22219946073945,131.0104258369664,12.15102842729262,7.967053294583804,-3.891776283532052,30.950677689092448,0.4974887648512873,1.9992799585688723,350.79220534145287,26.918693904118246,9.871547667882377,71.94762040952277,-0.0453750095882335,119.95229827169588,443.31340075293934,15.288,0,2.701073357980456,0.0791151911376856,2.3001235345457263e-08,-0.0065456452907903,-0.0027387135446978,0.0004840513208119,8.861268985311273,16.509950643878142,26.307845081395502,31.01917253631975
0.73,31.222199015100934,131.0104267363047,12.393578138701912,7.939704619826573,-3.854564296398419,39.19299017772197,0.5072087074765423,1.9739282225594608,422.320318528234,27.197050196250046,9.97759708483809,71.94378299971144,-0.0503101039491945,119.94710806398908,452.5185444387568,15.288,0,2.709991852072984,0.0799335109024801,2.418147231085372e-08,-0.0068828221120605,-0.0029048967152508,0.0005142368452556,8.82050577406536,16.37708409049209,26.592033268264444,39.24594415187087
0.74,31.22219856398385,131.01042764600768,12.638999120444428,7.907038211479728,-3.81531466404656,24.48411563766018,0.5174125196806248,1.947395115018588,294.48281347105944,27.49340938277534,10.089168246545372,71.93974994130623,-0.0555370355286462,119.94161078748051,462.4233314615404,15.288,0,2.718863281866041,0.0808047493291677,2.540793979212901e-08,-0.0072288283071797,-0.0030743647290473,0.0005459603657515,8.774128097457968,16.236806857981655,26.894543967543807,24.566887918656615
0.75,31.22219810776788,131.01042856528187,12.887029255928624,7.8710431916653985,-3.7749960208193127,28.610218745885987,0.5279941533057778,1.9198913608288195,330.24688556441487,27.801646012110435,10.204352903151952,71.93551627773465,-0.0610610363476289,119.93580091537542,472.8389180043529,15.288,0,2.727678125395306,0.0817109035870187,2.6682365594617527e-08,-0.0075832998776667,-0.0032469040636115,0.0005791392543548,8.72434129321373,16.092855132552838,27.2090999460606,28.67942428555281
0.76,31.22219764633525,131.0104294943629,13.137752768316036,7.841058940098702,-3.738047223980724,30.80981986778788,0.5383173775664258,1.8927696287463067,349.27032420986166,28.089191447509045,10.312929807727388,71.93107690404646,-0.0668872450630833,119.92967302615163,482.65878558078526,15.288,0,2.736452857570203,0.0825562524476751,2.800640532460148e-08,-0.007946573412284,-0.0034226410835077,0.0006131446516886,8.68146515512289,15.962643375752451,27.50243681494716,30.87259889857074
0.77,31.222197179624384,131.01043043337043,13.391214775640732,7.812604497150071,-3.702300629207704,28.801199687469687,0.5486761312123141,1.865407842698268,331.7687666960708,28.371191273185143,10.419647810785069,71.9264267513523,-0.0730208607143558,119.92322162482468,492.3866982588971,15.288,0,2.7451884193959906,0.0833853096564072,2.9381748472103505e-08,-0.0083188888937852,-0.0036016535357039,0.0006483001634431,8.64052885622271,15.837682532768468,27.79003987064397,28.866761081805947
0.78,31.22219670770284,131.01043138215724,13.647370524667028,7.779159851006804,-3.664676216509589,23.63350986995465,0.5595396339802516,1.8367913929507784,286.8734378128899,28.67109682756917,10.531869870627544,71.92156063775882,-0.0794670680584765,119.91644123246232,502.8391691792918,15.288,0,2.7538717050676937,0.0842670007567086,3.0810153834316086e-08,-0.0087002783666342,-0.0037839191047146,0.0006851726322827,8.594331484493143,15.705804827862073,28.09584324475609,23.711382836023223
0.79,31.22219623066308,131.01043234052463,13.906157977937198,7.742969756676442,-3.626243283552258,33.64325504182005,0.5707693613009169,1.807206608094804,373.6203323159534,28.981381994300644,10.647239725640183,71.9164732798771,-0.0862310919960805,119.90932632609844,513.7689745694971,15.288,0,2.7625017505505234,0.0851792062102743,3.2293420723305096e-08,-0.0090907676258755,-0.0039694131013035,0.0007236547328967,8.545352646329887,15.571184960655165,28.41215322700702,33.69659305029355
0.8,31.222195748270025,131.0104333089519,14.167743070240176,7.716658495003735,-3.59285152354012,34.09116471581405,0.5814077338145549,1.7787304660088648,377.42502064505743,29.25505295006889,10.750998807102564,71.9111591961184,-0.0933182824507345,119.90187125171568,523.5046688372894,15.288,0,2.7710955543250155,0.0859838065303933,3.3833313767278475e-08,-0.0094909118837518,-0.0041583592010982,0.0007626226133784,8.507481170923564,15.457167170890452,28.69105894300974,34.14248714877714
0.81,31.22219526063147,131.01043428720908,14.43205313249726,7.684208727941856,-3.557056240146822,22.15968413251808,0.5926655105212884,1.7487344890239376,273.9374926939919,29.55150959025279,10.86179597221677,71.9056129927841,-0.1007339424926806,119.89407039472604,534.1547572873443,15.288,0,2.779648696606696,0.0868553840919644,3.543171193565552e-08,-0.009900660588013,-0.0043506946133709,0.0008035884183059,8.463081131883307,15.333982373285506,28.99312735173211,22.236477364309234
0.82,31.222194767946373,131.01043527487744,14.698952104942611,7.649318764306842,-3.5205788935370737,28.48891087451456,0.6042835749907498,1.7177699914686415,328.72500443277005,29.857445844521056,10.975463800886354,71.89982910067177,-0.108483323573495,119.8859182000592,545.2578584578422,15.288,0,2.7881573161917967,0.0877548312066104,3.709055394359552e-08,-0.0103198684083588,-0.0045463140213411,0.0008462632988335,8.41622292342633,15.2084707988864,29.30478252848918,28.547047749261704
0.83,31.22219427019617,131.01043627198888,14.96845531872785,7.626167587697424,-3.4898551240802,36.22715005215304,0.6150935584973855,1.6883995366566191,395.68750322465047,30.1176355318436,11.07465881161582,71.893801848747,-0.116571684115598,119.87740910422716,554.7880953811692,15.288,0,2.7966130529708906,0.0885198309559256,3.881174404752087e-08,-0.0107487650923611,-0.0047452866368524,0.0008890924014845,8.38245168017904,15.106734390248011,29.56978926571899,36.27168915259254
0.84,31.22219376726743,131.01043727877283,15.240644038680085,7.600710024793449,-3.4584513792938605,22.35250436403136,0.6262190604953979,1.6581615041723845,275.4593748256452,30.3859317406737,11.176287909905048,71.88752570757852,-0.1250041354264529,119.868537689642,564.7017713949087,15.288,0,2.80502192315242,0.0893086643071351,4.059716393179475e-08,-0.0111876483414564,-0.0049477105698219,0.0009336142370732,8.34634152570234,15.00279920213672,29.843009297700554,22.422669360040256
0.85,31.22219325947312,131.010438294575,15.51530297280622,7.565840521168004,-3.423186180094855,24.379932466027896,0.6382959140291732,1.6256353395741456,292.96093233939376,30.69122557731844,11.289442685232416,71.88099508687934,-0.1337857292325208,119.85929859964128,576.0909346603129,15.288,0,2.813383103755388,0.0902062467511644,4.2448855538312826e-08,-0.0116361358646715,-0.0051533729379125,0.0009807711002531,8.300116942675807,14.88360581393851,30.15383259296769,24.442406161816795
0.86,31.222192746627243,131.01043931977532,15.792563922349563,7.538079241847219,-3.3914967877944617,30.540901030859104,0.6499134081313968,1.593943381268478,346.2265619465587,30.9677329217897,11.393448540806292,71.874204080471,-0.1429216623470627,119.84968632995,586.502462985492,15.288,0,2.8217023508625165,0.0910192292276596,4.436875664624602e-08,-0.0120947567470323,-0.0053624774320367,0.0010285836873335,8.2618661432334,14.779428285946658,30.435308895899876,30.589371989589605
0.87,31.22219222875484,131.01044035431678,16.072411917700723,7.513656214329949,-3.36164746239589,28.43791560801141,0.6613698542032806,1.5624303374503647,327.964078366998,31.2298265492574,11.492819375104888,71.86714686195181,-0.1524170622760771,119.8396954397284,596.4561033014318,15.288,0,2.829979241886756,0.0917898550678798,4.6358895116807294e-08,-0.0125636245905143,-0.0055750365080247,0.0010774718496527,8.22744396690048,14.683271730524869,30.702083104738254,28.488482633720825
0.88,31.22219170589325,131.0104413981172,16.35482341475388,7.484570667391838,-3.330071854155385,24.57433494214101,0.6733885826828878,1.5294741080988865,294.4828134710418,31.510318204852428,11.597874052437213,71.85981749812649,-0.162276970671344,119.82932058014327,607.2019271983096,15.288,0,2.8382117923416623,0.0926145636079054,4.8421347512188834e-08,-0.0130427835265408,-0.005791031107517,0.0011285809245899,8.188101922310672,14.58049656609994,30.987526190706223,24.63109175572949
0.89,31.22219117812868,131.010442450993,16.639740932357636,7.450966494674264,-3.296857595989079,26.956475163824017,0.685985341892039,1.4950242216626397,315.028134248087,31.80931701508084,11.708655825193684,71.85221009965159,-0.1725064576380281,119.81855636071556,618.7630458513524,15.288,0,2.846399319966636,0.0934936761194099,5.055821082749424e-08,-0.0135322694521323,-0.0060104388739856,0.0011820142922978,8.144005001063865,14.47137202327054,31.291733562399404,27.006614496647106
0.9,31.22219064538044,131.0104435131072,16.927223084417438,7.42893176887333,-3.2690480704171487,29.779972141159103,0.6976251363275013,1.462542253160675,339.37814235421445,32.0585619970982,11.803688042402047,71.84431838978769,-0.1831106776417643,119.80739731218064,628.4804388912324,15.288,0,2.8545354238043816,0.0942265605086668,5.2771597319290696e-08,-0.0140324255350557,-0.0062333738870827,0.0012352718373732,8.11268980310265,14.385125550776587,31.545339685599544,29.824024735124677
0.91,31.222190107723105,131.01044458430124,17.217220447285925,7.402294750308719,-3.239535064754508,22.65559841015036,0.7098379334974694,1.428574889883538,277.7421810230789,32.32630374303742,11.904444224562832,71.83613639812465,-0.1940945360120125,119.79583821199314,639.0041696945624,15.288,0,2.862626975499824,0.0950138182349955,5.506366195823473e-08,-0.0145432412023982,-0.0064597915364406,0.0012908949939014,8.0765146224708,14.292296437091627,31.817709847835765,22.711689400611423
0.92,31.22218956537061,131.01044566412662,17.50958682670848,7.371231822198741,-3.208417268133424,26.97662127748806,0.722635276098085,1.3930800867785786,315.02813424806214,32.612478749820454,12.010919687212676,71.82765789037218,-0.205462893175651,119.78387389258071,650.3498091032658,15.288,0,2.870671178366769,0.0958552630915553,5.7436680029165625e-08,-0.0150644480808934,-0.006689535488422,0.0013489582227204,8.035678706452517,14.193200199290336,32.10876509051414,27.022231022242813
0.93,31.222189018226302,131.01044675278092,17.80439189046644,7.350632465914998,-3.1821178091188047,32.092790328393555,0.7345046888904458,1.3595105920735773,359.1625070654728,32.851676917343035,12.102511824984571,71.81887669332552,-0.2172206146970663,119.77149916869293,659.9061694772862,15.288,0,2.878672168122684,0.0965586404175805,5.989277027670944e-08,-0.015596456720019,-0.0069227473651062,0.0014068009624229,8.006375268898172,14.114724167410508,32.35208794502171,32.12996976734017
0.94,31.222188466173083,131.01044785050536,18.1017194179372,7.320634400797615,-3.152068785654363,23.28877714465862,0.7474765519749019,1.3232186337946523,283.0687504837787,33.131288670333724,12.20674387284026,71.80978652514406,-0.2293723698886954,119.75870906682044,671.1681788805413,15.288,0,2.886629846141559,0.0973808104211516,6.243411359466119e-08,-0.0161395654351912,-0.0071595168907003,0.0014681381803456,7.967000068503511,14.02096772413651,32.63641257834256,23.338311199445158
0.95,31.222187909517828,131.01044895665802,18.40135874608537,7.29201117992239,-3.122904652597005,30.16959450403548,0.7604499058714683,1.2867174608097014,342.4218736174873,33.40391509198773,12.308698992442858,71.80038103660246,-0.241923013969275,119.74549840361888,682.2396326052136,15.288,0,2.8945410145812067,0.0981824568690027,6.50631097529381e-08,-0.0166933865550481,-0.0073996374491286,0.0015309679202107,7.92926462211396,13.931343216186296,32.91361322454132,30.206594618083322
0.96,31.22218734794876,131.0104500718861,18.70352891882513,7.2685870118913,-3.096230430685947,29.5598220294926,0.7729959193762396,1.251002405283081,337.09533515678345,33.65163986991399,12.402713797523708,71.79065372378227,-0.2548772623725391,119.7318621483357,692.3760932788288,15.288,0,2.9024118711057194,0.0989109191599098,6.778188543515539e-08,-0.0172587196235335,-0.0076434137052109,0.0015945071522408,7.897310095060906,13.8527042428479,33.165521810196644,29.596378294052677
0.97,31.222186781486567,131.01045119614471,19.00821804520311,7.242656598562851,-3.0687627113051645,18.89586138728089,0.7859450317002951,1.2141518424778088,245.02188719299323,33.909381682652565,12.499799526122024,71.7805979120979,-0.2682398840676943,119.7177952105476,703.0021144625691,15.288,0,2.910241643613235,0.0996688320224961,7.059281263343197e-08,-0.0178356769440627,-0.0078908520348598,0.0016603835604651,7.862770268261378,13.771161243198286,33.42757199953379,18.95113326048813
0.98,31.22218621043633,131.01045232879568,19.315216763817087,7.207918984606451,-3.0378712309759504,27.54537325250043,0.8000363735514145,1.1744279637382151,319.5937466429581,34.207176613934635,12.609456473573267,71.77020706183393,-0.2820155657815404,119.70329257169811,715.3828824937597,15.288,0,2.91802503916307,0.1005444800568398,7.349843716008369e-08,-0.0184237438161473,-0.0081416930761367,0.0017301400808332,7.818824241436493,13.675396394368148,33.730212464645334,27.5820036774086
0.99,31.222185634640496,131.01045347016583,19.62463702069885,7.188221466634634,-3.0135381203453413,30.11094193025744,0.8125261205590428,1.138233079145823,341.6609485517054,34.43294130792105,12.69629655394984,71.75947428053789,-0.2962090222987611,119.68834919179562,724.8354449154047,15.288,0,2.9257679647142294,0.101208419134173,7.650105761455198e-08,-0.0190235218335849,-0.0083961523010199,0.0017982012207704,7.791292232919423,13.608131368457634,33.95979406631268,30.143400557441893
1.0,31.2221850540972,131.0104546202588,19.93648250014712,7.159959092467652,-2.9858824747978248,26.94082776587756,0.8261425975070882,1.0991896721938972,314.2672081822764,34.697713186793465,12.79537782539551,71.7483929588707,-0.3108245890451424,119.6729604200362,736.0034933982314,15.288,0,2.9334680822316006,0.101987019490291,7.960309748065453e-08,-0.0196350628075525,-0.0086542095667886,0.0018702229606976,7.754614292821617,13.527054235002378,34.22890413144558,26.97589535562356
1.01,31.22218446899676,131.01045577867592,20.250623640491263,7.13320942535688,-2.959104462188649,28.183269883030466,0.8397089231997268,1.0600463602248376,324.9203161036979,34.953856200871776,12.891666908461646,71.73695620534329,-0.3258667706771705,119.65712142415472,746.8876132494527,15.288,0,2.9411243057271026,0.1027402650693151,8.280712869006916e-08,-0.0202581669848855,-0.0089157407106435,0.0019437588116671,7.719694355095218,13.450174527627656,34.48924776650962,28.21569617537833
1.02,31.222183879257983,131.01045694558667,20.56711922114114,7.108744934633664,-2.933506217852764,23.509523558286688,0.8531160172775988,1.0210625842994805,284.59063161540416,35.197246657050805,12.983854327523447,71.72515717659704,-0.3413398501637062,119.64082760120615,757.3022512707614,15.288,0,2.9487385100088,0.1034560348677383,8.611556450169934e-08,-0.020893167818576,-0.0091808440911103,0.0020185844141918,7.687360003779736,13.37884573000876,34.736653870334095,23.547145764988773
1.03,31.2221832849525,131.0104581208416,20.885921973083786,7.078501983499406,-2.905778835325552,19.186548145162423,0.867375659950144,0.9798361941058412,247.30469339049705,35.46753107551272,13.08448717801488,71.71298901625092,-0.3572479636474907,119.62407449818429,768.9542155883584,15.288,0,2.956309319190784,0.1042508627864151,8.953095167030704e-08,-0.0215400304817422,-0.009449463827653,0.0020969974609418,7.648903981692253,13.298663365935608,35.01128804229687,19.23112189211512
1.04,31.222182686144663,131.01045930430587,21.20698976408841,7.053870937389707,-2.880573995691574,30.588979433525616,0.8810491959514143,0.9397768893538544,345.46563688072297,35.708382714536434,13.175746478361068,71.70044463427344,-0.3735953678843498,119.60685753040973,779.4092130989281,15.288,0,2.963837814552561,0.1049591860746773,9.305587354272144e-08,-0.0221988263443476,-0.0097215888551546,0.0021757421985599,7.616615379325453,13.2299076579154,35.25609380178863,30.616092028083912
1.05,31.222182082535287,131.01046049660755,21.53053245765708,7.024601227278096,-2.853717112086555,18.399683239942,0.8954521783705333,0.8977506173013232,240.45625879819983,35.970796609249206,13.273765341440244,71.68751696543991,-0.3903861191744614,119.58917231990976,790.882177765312,15.288,0,2.9713281357946104,0.1057308965453468,9.66926856087286e-08,-0.0228703908602226,-0.0099975191133974,0.0022579659414479,7.579437476656451,13.154325845899514,35.52272108496052,18.443322208995212
1.06,31.22218147437247,131.01046169722744,21.856380464567376,6.991433017605203,-2.825526628982413,26.271675747781625,0.9105274889194932,0.8538744242388943,308.17968365593924,36.25177698443088,13.377618857295293,71.6741986476257,-0.4076244591363308,119.5710142879514,803.2610048264629,15.288,0,2.9787771095668494,0.106557189077919,1.0044425044258417e-07,-0.0235542985016752,-0.0102770375628395,0.0023435791517693,7.53817391628978,13.073214850028153,35.80812417357914,26.301313815796817
1.07,31.22218086153453,131.0104629064215,22.18462064702651,6.967443663237004,-2.801247395285721,30.96447120250741,0.9244853805655744,0.8124453516308332,348.5093681440308,36.483877916413846,13.465917157362693,71.66048214094882,-0.4253146625290474,119.55237881611954,813.5539916651773,15.288,0,2.986189009939391,0.1072398155512201,1.0431315653264809e-07,-0.0242511094442354,-0.0105603290449969,0.0024282816883244,7.506899101099858,13.00981123308849,36.04403428189017,30.988920883425045
1.08,31.222180243915705,131.01046412441434,22.515328646206807,6.941540624326274,-2.776409976444214,20.79992011655637,0.9388210283722656,0.7698740591137203,261.00157857466235,36.72374553474653,13.556612579553976,71.64635998877918,-0.4434607203622642,119.53326157957764,824.2605910427304,15.288,0,2.9935643053086425,0.1079452793808194,1.0830206092614048e-07,-0.0249611850971102,-0.010847493932973,0.0025157346664045,7.473665827324186,12.944384622820044,36.28779873210755,20.835324999753098
1.09,31.22217962180352,131.01046535060405,22.84830762505963,6.905932670532102,-2.7479378310205647,19.12318581451042,0.9546720985170672,0.7233886452229153,246.54375332474407,37.01310893528152,13.662981340624636,71.63182462920844,-0.4620665625674756,119.5136583119698,837.2744487346669,15.288,0,3.0008986538269884,0.1087962390390943,1.1241400428808476e-07,-0.0256839269513169,-0.0111382469971806,0.0026088899838686,7.430104985327057,12.863078403154116,36.581629330578735,19.160660887454195
1.1,31.222178995277112,131.0104665848259,23.18350519596916,6.875390751710977,-2.7216958798726587,38.50888112379858,0.9699441484060488,0.6780500249030303,413.1890617385841,37.274265200568045,13.760359845455415,71.616868356054,-0.4811360436928063,119.49356482359823,849.1040374651167,15.288,0,3.008193485154026,0.1095642955432556,1.1665182037847149e-07,-0.0264193892167775,-0.0114325673919069,0.0027024436995155,7.392092490183868,12.792092562814224,36.84690297710142,38.527061513878124
1.11,31.222178363916424,131.01046782796695,23.521214656585148,6.854881852600464,-2.699596802678253,28.16063912640268,0.9838368986103254,0.6358278095496893,324.1593910376397,37.4790821655753,13.839764994171473,71.6014834248654,-0.5006730313209091,119.47297689816428,858.4332484398906,15.288,0,3.01545573654456,0.1101667561323273,1.210179401244271e-07,-0.0271688752117865,-0.0117309281101373,0.0027942889236402,7.364945188165191,12.740245089138975,37.05518737297746,28.184992603404126
1.12,31.22217772778645,131.010469079895,23.861393155425223,6.815706175041457,-2.670398638367933,10.546109635038812,1.0006830889424598,0.5861333818157392,172.73281794065943,37.78343193542475,13.95078602936432,71.58566205157355,-0.5206810837711332,119.4518906463366,872.4032041120756,15.288,0,3.0226822492880685,0.1110617942215019,1.255153604141336e-07,-0.0279322732128108,-0.0120332354496801,0.0028960376059336,7.31786899873034,12.656629142333722,37.364118544597154,10.60968177751023
1.13,31.22217708750365,131.01047033931235,24.203616560775497,6.786692112869233,-2.6453731592906533,33.22184784445244,1.0161137195566174,0.5396366982125163,367.5328077900705,38.03061235345309,14.043599629306952,71.56939593132442,-0.5411642084195198,119.43030169634456,883.8260667771169,15.288,0,3.0298682486566166,0.111788795749094,1.3014767034676952e-07,-0.0287082142393061,-0.0123389067322467,0.0029958615090998,7.281787237849274,12.592293720985452,37.61522572681004,33.241763928183445
1.14,31.222176442376806,131.01047160768195,24.548365382679656,6.764761085224717,-2.6232746334826653,18.34604818155053,1.0305268746104888,0.4953902826801954,239.69531773195544,38.23575375342993,14.122961028496055,71.55267726270328,-0.5621256284739087,119.40820649808674,893.3571132872202,15.288,0,3.037023221019661,0.1123922343460008,1.3491702650594877e-07,-0.0294987534635459,-0.0126487005843384,0.0030948611898006,7.253382107513138,12.541823262337097,37.82383468674061,18.381645221558433
1.15,31.222175792912736,131.01047288393934,24.89529115271885,6.724045367108351,-2.5941316054277337,18.083398189574137,1.048087039099984,0.4431064638804592,237.41251153546767,38.544629431437606,14.235380177590816,71.53549818724034,-0.5835684282411066,119.38560164028118,907.8185749019792,15.288,0,3.0441385235113767,0.1133006037347528,1.3982700318443945e-07,-0.0303025002827945,-0.0129620261452906,0.0032047615444926,7.204955096411719,12.459319046967249,38.13728339674381,18.119164436103425
1.16,31.222175139254706,131.01047416778428,25.244297285751465,6.703763817550595,-2.573015603362404,47.51547325077479,1.0624170269817943,0.3985456360405996,490.0437743845894,38.73533271815724,14.310079883008674,71.5178502998936,-0.6054960979999849,119.36248327755555,916.7931021690972,15.288,0,3.051217170835672,0.1138616178982867,1.4488072129816484e-07,-0.0311194309786664,-0.01327883132241,0.0033073317529501,7.178482890514708,12.414263549124206,38.33130020578315,47.5290202592934
1.17,31.22217448049496,131.01047546114458,25.596013324560733,6.673588512379017,-2.5482925340612934,8.338399189521281,1.0784834756457915,0.3494093973034855,153.70937929486794,38.97980085698397,14.401883230673851,71.49972566248091,-0.6279113899274394,119.33884833720067,928.3704641126913,15.288,0,3.058264224833296,0.114580681153181,1.500801719216428e-07,-0.031952229513414,-0.013600100281765,0.0034171570011226,7.141511156696355,12.352992379678575,38.579647957503504,8.415112273640451
1.18,31.222173817830384,131.01047676149153,25.94961422454053,6.630321075193854,-2.518797216678801,23.060358369635857,1.096940963454352,0.2940130946545416,280.02501822196746,39.29905956822712,14.517620596898912,71.48111592080429,-0.6508173035085129,119.31469347665823,943.6080713962318,15.288,0,3.065262009155965,0.1155195994847419,1.5542997910718422e-07,-0.0327974375270953,-0.01392445664048,0.0035361564367743,7.090638074281878,12.269711029403156,38.90353525350548,23.08830550978497
1.19,31.22217315072188,131.01047806997147,26.30547489946378,6.615656466583227,-2.500280408308271,40.3633206418678,1.1105128875871415,0.2505502474076639,428.4078130529292,39.44768841359372,14.57875140062564,71.46201246919078,-0.6742168909483839,119.29001529265538,950.7265102492904,15.288,0,3.0722288682359995,0.1159569597163487,1.6093245537509174e-07,-0.0336571491744405,-0.014252656541133,0.0036424486613499,7.0703962258189685,12.238379425828432,39.05506992279878,40.37937180712702
1.2,31.222172478705964,131.0104793875778,26.663917162908767,6.577847858701833,-2.4732269290898925,4.08192895838665,1.128275801171936,0.196300204627413,117.1843741360236,39.730515169469605,14.6828016514684,71.4424073225901,-0.6981123010999112,119.2648113274601,964.3749588713335,15.288,0,3.0791656448718405,0.1167888048391759,1.6659024028688456e-07,-0.0345326501595211,-0.0145851334104404,0.0037638621071709,7.02552724872225,12.16727518673786,39.342142227323976,4.23953819126122
1.21,31.22217180298169,131.01048071176902,27.02411542464005,6.5411809233700735,-2.4467927074798808,32.393937173410606,1.1459806414797944,0.1418827972123209,359.92343213200894,40.00516937594957,14.784282209371527,71.42229164863825,-0.7225063785143819,119.23907838049377,977.7205243653268,15.288,0,3.086060757464987,0.1175966355217185,1.7240819076901157e-07,-0.0354204478445638,-0.0149205199567986,0.0038871807316812,6.981962951336374,12.099332423444327,39.62094488494341,32.41451168772506
1.22,31.22217112263631,131.01048204449228,27.38670181426769,6.52406858113654,-2.4277892864589496,23.434787329764063,1.1601332590540687,0.0961476448441013,283.0687504825761,40.15798559091896,14.846647293584851,71.40165700461237,-0.7474013119784965,119.21281393779924,985.1700884122932,15.288,0,3.0929281979424155,0.11804632733756,1.7838807816137673e-07,-0.0363237800076955,-0.015259986762121,0.004001403994816,6.95931985579892,12.067341545214244,39.77674344990777,23.463682804275265
1.23,31.222170438034528,131.01048338498188,27.751426327088247,6.485402133703052,-2.400961272119247,9.054023520398358,1.1784226928577508,0.0396434728853778,159.79687382222795,40.43986166432722,14.95044699184096,71.38049533759035,-0.7727986454962968,119.18601615688148,999.013793830292,15.288,0,3.099760038967593,0.1188754049089833,1.8453373120375818e-07,-0.0372413489100894,-0.0156029941613926,0.004131134105679,6.913784240756662,11.99826310875108,40.06282991699546,9.130476085939396
