Time,Latitude,Longitude,Altitude,Angle of Attack,Angle of Sideslip,X-Acceleration,Y-Acceleration,Z-Acceleration,Thrust,True Velocity,Ground Velocity,Pitch,Roll,Yaw,Dynamic Pressure,cp,cg,parachute_deploy_gain,Wind Speed,Wind Direction,Mach,omega_x,omega_y,omega_z,Cmq,Angle of Attack(total),Angle of Attack(gust),True Velocity(gust),Acceleration
0.0,31.222216000000007,131.010392,3.000000004412624,0.0,0.0,0.0,0.0,0.0,2.2828121974499247,0.0,0.0,69.99999999623412,0.0,119.9999999935444,0.0,1.274,1.0271675151847728,0.0,0.0,0.0,0.0,0.0,0.0,0.0,-0.0,0.0,90.0,0.0,0.0
0.01,31.22221599999084,131.01039200000497,3.000002745347096,0.0,0.0,0.0,0.0,0.0,34.242186961749226,3.465174813755316e-14,2.8705476994166025e-14,69.9999999962611,-2.1713911667908447e-11,119.99999999352175,7.352495975525499e-28,1.274,1.0271659134330349,0.0,0.0,0.0,1.0183245502395064e-16,-3.3305335486039093e-18,7.169286865560398e-18,5.624298769768554e-18,-7.715917190115602e-34,0.0,89.99999999999979,3.465174813755316e-14,0.0
0.02,31.222215999994315,131.0103920000094,3.0000030495639742,0.0,0.0,0.0,0.0,0.0,25.871876237766216,3.8197434737535036e-11,2.4171837235633357e-11,69.99999999628672,-1.1921727947863515e-11,119.99999999353136,8.93414285188691e-22,1.274,1.027164492361118,0.0,0.0,0.0,1.1225230367947217e-13,-6.657678965418802e-18,1.4338573731120796e-17,1.1241821275959074e-17,-1.7010872994127372e-30,0.0,89.99999999975682,3.8197434737535036e-11,0.0
0.03,31.222215999994315,131.0103920000094,3.0000030495639742,0.0,0.0,9.81877837424427,-2.5122800045972096e-05,3.3498614629347925,180.34219359854663,1.2659015405517447e-10,1.1364406173918436e-10,69.99999999631459,-1.6431898037347223e-11,119.99999999352724,9.812605835254651e-21,1.274,1.0271551940870716,0.0,0.0,0.0,3.720154642239108e-13,-9.991600645811728e-18,2.150108433310316e-17,1.6859343782149594e-17,-8.453698244545225e-30,0.0,89.99999999919412,1.2659015405517447e-10,10.374487003414373
0.04,31.222215999994315,131.0103920000094,3.0000030495639742,18.83801224594347,-0.0001111777826462,48.68248476615645,-1.016330065874988e-05,3.3497854396877287,548.635972453808,0.1556173050466994,0.0975908358443652,69.99999999633813,-2.0932768807056278e-11,119.99999999352085,0.0148286043323172,1.274,1.027133720825283,0.0,0.0,0.0,0.0004573186944143,-1.3322134194415637e-17,-1.04744143520903e-11,1.336824254131964e-11,5.0626055458604615e-15,18.83801224625964,89.06236267790787,0.1555998412814392,48.79759610369246
0.05,31.22221599164764,131.01039201704114,3.002326315126219,5.772385609593056,-4.395076213712875e-06,71.20344550265034,4.905512691849684e-05,3.349217396035405,761.6984298824663,0.8326471944351852,0.3620326097059287,70.00000001316391,-1.0866255162484559e-10,120.00000000231074,0.4245281043148827,1.274,1.027093426565204,0.0,0.0,0.0,0.0024469331205246,-5.0245994431125096e-18,-7.32924164976824e-07,2.217344936947165e-11,1.895424184525467e-09,5.772385609594774,84.74112356985832,0.8326465040582279,71.28217104309611
0.06,31.22221596664444,131.01039206837547,3.015081730143309,4.056581213689704,3.169093567502233e-05,53.16249142470188,0.0001203825427859,3.3481235983850643,590.4875390737236,1.657216205300742,0.6755452977614796,69.99999964391398,-3.9285905645317736e-10,120.0000000287861,1.6816755551786196,1.274,1.027050317124926,0.0,0.0,0.0,0.0048701272653724,3.095757869075056e-13,-7.483541766772344e-06,3.074135420506017e-11,3.8518749565858254e-08,4.056581213813337,79.59316473687034,1.657221183301277,53.26781792157489
0.07,31.22221592883117,131.0103921460222,3.034593611434361,4.115662018628709,6.450869598349036e-05,81.18203554989698,0.0001593212642178,3.347059402768047,855.2937749779172,2.099899704220947,0.8579771146174259,69.99999543281565,-8.233801910783518e-10,120.00000006883089,2.700101932075157,1.274,1.027003201295312,0.0,0.0,0.0,0.006171060252819,3.4704292086287e-12,-2.6327204536316785e-05,1.9541142932033486e-10,1.7170712165327165e-07,4.115662019133419,76.90111966094352,2.099909837223217,81.2510043180746
0.08,31.22221588914193,131.01039222747755,3.0542761843835606,3.459696193892355,8.037433511260004e-05,16.298214211652088,0.0002413456836072,3.344878926597744,241.2171988638792,3.051964775152957,1.2149999716613011,69.99998042886442,-1.0128995578004475e-09,120.00000011111383,5.703497661025892,1.274,1.0269597189470347,0.0,0.0,0.0,0.0089689344021769,1.458982438104473e-11,-5.702803872814215e-05,7.043261397829576e-10,5.405702492731987e-07,3.459696194824858,71.30331929508368,3.051977400323993,16.63790856991177
0.09,31.2222158241468,131.01039236098703,3.0886872184095737,4.313676956300389,0.0001337561018991,50.35975918308536,0.0002293282821279,3.344215841840564,563.0937377043203,2.893161298572128,1.191209213966114,69.99994788602814,-7.098432023887522e-10,120.00000018106356,5.125380275808925,1.274,1.026918932011013,0.0,0.0,0.0,0.0085022553945842,3.8672912027154325e-11,-0.0001115933708951,2.016054215232918e-09,1.0027525988343615e-06,4.313676958370176,72.2316578138625,2.893182308931483,50.47067588835877
0.1,31.2222157788302,131.01039245392113,3.109877853389092,4.035124630954496,0.0001457499816535,47.804664812504015,0.0002878217657545,3.341734392237128,538.7437595981891,3.5677148583138303,1.4531247507621967,69.99988403958329,1.9248461973355822e-09,120.0000002323013,7.7939962029572305,1.274,1.0268846934974103,0.0,0.0,0.0,0.0104845969583028,8.579678749070606e-11,-0.0001726817043215,3.984565639703107e-09,1.913455350430327e-06,4.0351246335824245,68.43243098813296,3.567737752667411,47.92132267234452
0.11,31.222215703308,131.01039260899836,3.148841432727305,4.043401107254707,0.0001752764476999,37.67622367577205,0.0003286462930162,3.3392563999062723,442.86563930529127,4.034183355956686,1.6436552022667772,69.99978525353545,7.302513231814865e-09,120.00000031883242,9.96528118825134,1.274,1.026848594915519,0.0,0.0,0.0,0.0118554331868328,1.5870341853361987e-10,-0.0002596204409236,7.232030302688121e-09,3.252930323390323e-06,4.04340111104746,65.92012987243639,4.034210888316708,37.82391391539392
0.12,31.222215627491828,131.01039276462643,3.186995101203875,4.17874459224363,0.0002066711490009,41.15991989399172,0.0003576945202315,3.336766085769504,475.58594813540793,4.361857560629481,1.7865750500940407,69.99963665601238,1.781774420198147e-08,120.00000041104812,11.649831899889556,1.274,1.0268114448194128,0.0,0.0,0.0,0.0128183893919737,2.682972478760441e-10,-0.0003710216542429,1.2215991071490164e-08,5.026311388647148e-06,4.178744597345269,64.21681651392016,4.361890024457652,41.29495143136631
0.13,31.22221554594398,131.01039293200228,3.2277173449026786,4.202734874672792,0.0002327160860324,45.44886120763352,0.0003953741266062,3.333578629398489,515.9156326236897,4.792165672014363,1.9646716520715424,69.99942424225341,3.613383418913551e-08,120.00000051758742,14.061726603124043,1.274,1.026779572895131,0.0,0.0,0.0,0.0140829618979635,4.248908088871395e-10,-0.0005056103199642,1.908859219307828e-08,7.5253154423526356e-06,4.202734881104192,62.048594618540655,4.792202226971676,45.570952718869485
0.14,31.222215454191247,131.01039312033683,3.2737880595608355,4.184830647080848,0.000257138757548,42.32232525579263,0.0004369426767266,3.329727443445437,486.2390860568421,5.269261304374574,2.158791628597544,69.99913473613935,6.515851355725497e-08,120.00000064630268,17.000925061330125,1.274,1.0267449573927567,0.0,0.0,0.0,0.0154850332441425,6.382432869666793e-10,-0.0006690086306358,2.8426433029675884e-08,1.0948547100483978e-05,4.184830654966803,59.74181173116622,5.269301695636157,42.45310707234106
0.15,31.222215353826755,131.0103933263496,3.3242182719560263,4.21963947489699,0.0002846467688673,40.886944113003565,0.0004726792395108,3.325585650885676,472.5421858721398,5.6781946837482895,2.329510773545807,69.99875162806286,1.0876776246115984e-07,120.00000079954532,19.742017654108928,1.274,1.0267115958081523,0.0,0.0,0.0,0.0166867950518804,9.204756288136623e-10,-0.000865746478554,4.08948221429571e-08,1.526771148078443e-05,4.219639484480408,57.84996018384879,5.678239395958187,41.02196629910223
0.16,31.222215247130432,131.01039354534575,3.3775922280208457,4.253495568077899,0.0003118339050386,32.26872905470846,0.0005078415214353,3.32090791922544,391.1218908297597,6.081244877834229,2.4981889727471702,69.99825581174558,1.7187028096464329e-07,120.0000009800088,22.644030778355887,1.274,1.026675762255412,0.0,0.0,0.0,0.0178712695992133,1.2856146928958252e-09,-0.0010961187242953,5.6923362293832417e-08,2.0702404729358337e-05,4.253495579487569,56.06022383757386,6.081293860589489,32.43916312841722
0.17,31.22221513260033,131.01039378041813,3.4348437275053194,4.364838523348639,0.0003448792023946,40.840448242802736,0.0005326487904353,3.3162727284953744,471.78125980632416,6.362544479165355,2.6250789114832647,69.99762801982864,2.5997588617291615e-07,120.00000119506798,24.78723182122683,1.274,1.0266409836796937,0.0,0.0,0.0,0.0186979513961862,1.747791994374917e-09,-0.0013624931601664,7.706724512977917e-08,2.6923621797558364e-05,4.364838536947241,54.85936171416122,6.362598652663785,40.97486885600156
0.18,31.222215014088988,131.01039402363364,3.4935801365785646,4.353948305387995,0.0003681615230806,33.992183768165326,0.0005718025428208,3.310131992647221,407.1015672119096,6.81502088160835,2.810667639293692,69.99684761766231,3.794979223522764e-07,120.00000144728236,28.437950785509614,1.274,1.0266048342046536,0.0,0.0,0.0,0.020027681385988,2.3221419748804155e-09,-0.0016616990447559,1.0147209890543081e-07,3.517105786247627e-05,4.353948320923495,52.99157233768714,6.815078712285162,34.152972512863755
0.19,31.22221488419521,131.01039429023237,3.558399965607869,4.432620772533925,0.0003996774584738,38.45149959021069,0.0005986099513107,3.304145139297767,448.95313283182486,7.1223367465208405,2.946425726785696,69.99589577323147,5.440084577183829e-07,120.00000176148238,31.060341085698347,1.274,1.026566130444714,0.0,0.0,0.0,0.0209308229359413,3.022391489754689e-09,-0.0020041563310821,1.3135864879722746e-07,4.433199397898183e-05,4.432620790516937,51.77883352025967,7.122399527709208,38.59320142454953
0.2,31.222214751373183,131.01039456280608,3.624052454705669,4.443889400961181,0.0004246617145652,35.23432408779927,0.0006337972852267,3.2968110145188256,418.5156301991588,7.530482904611057,3.1167566004785483,69.99474776398331,7.478025600151903e-07,120.00000211715036,34.72195181863731,1.274,1.026529240027363,0.0,0.0,0.0,0.0221302820454282,3.866698391504749e-09,-0.0023849544920781,1.668144671071589e-07,5.57780533277244e-05,4.443889421210987,50.22448880200342,7.530549610317194,35.38822625098952
0.21,31.222214608673173,131.01039485566503,3.6948551453492566,4.493351735844891,0.0004538195602194,33.79371564104691,0.0006629296043866,3.2891790438445727,404.8187610144608,7.868284042829251,3.2629204975089228,69.99338155599101,1.0150082652278477e-06,120.00000255293388,37.906665490338085,1.274,1.0264923657015164,0.0,0.0,0.0,0.0231230169900677,4.871073773182836e-09,-0.0028117605859743,2.089322918608601e-07,6.870935089180403e-05,4.493351758715364,48.992529909481824,7.868355328639073,33.95340801819282
0.22,31.22221446109996,131.01039515850383,3.767700382407304,4.5412639153933885,0.000482649303782,41.008966751568416,0.0006914639179131,3.2808061382386606,472.5421858721387,8.20057841132235,3.4071691679735228,69.9917708347139,1.3454961520984431e-06,120.00000305929996,41.175744234065135,1.274,1.0264494137127138,0.0,0.0,0.0,0.0240995709751246,6.054779813287368e-09,-0.0032829112061357,2.580881224843564e-07,8.3609968899004e-05,4.54126394098788,47.82515604752711,8.2006542256977,41.13999323561041
0.23,31.22221430675399,131.0103954752338,3.843768625625224,4.52371495179584,0.0005047555656171,33.98493478127787,0.0007294889663961,3.2705214710765107,406.340642146096,8.647938096586296,3.5908865300848416,69.98989017772566,1.7539876018835507e-06,120.00000365514876,45.79040229326471,1.274,1.0264133390858623,0.0,0.0,0.0,0.0254142776666487,7.436335125872812e-09,-0.0038001790077148,3.1489825108822685e-07,0.0001020628978177,4.523714979897577,46.31461705147579,8.648017383405135,34.14194053232237
0.24,31.222214142622448,131.0103958120587,3.92493179063287,4.57837522350066,0.0005351929930195,35.051650311058864,0.0007555049947555,3.26053011385611,416.2328240017099,8.954297884844461,3.72617527247482,69.98771316795013,2.25257161141768e-06,120.0000043564586,49.09180568115741,1.274,1.0263750048312463,0.0,0.0,0.0,0.0263146218848643,9.034877387788232e-09,-0.0043732521010013,3.809642748985157e-07,0.00012161410144,4.578375254714954,45.32798984252032,8.954381952763216,35.20297212911011
0.25,31.22221397517227,131.0103961556623,4.0071748888306855,4.6034117733065,0.0005618935542827,36.03738579534623,0.000785606492708,3.249069743648399,425.3640807915084,9.311611941121669,3.8789349536029696,69.98520781816889,2.8559738498748624e-06,120.00000517181904,53.08749562138344,1.274,1.0263373768840591,0.0,0.0,0.0,0.0273647110956883,1.0873791100894836e-08,-0.0049950711786164,4.5609738277273444e-07,0.0001444478241125,4.603411807525074,44.2165428352526,9.311700203154778,36.183554686886296
0.26,31.22221379934012,131.01039651647062,4.09364247475714,4.621386912291471,0.0005881033207375,39.29107511182762,0.0008162761165496,3.236407051295005,455.80158342417656,9.67833954512075,4.034902068846398,69.98234620927953,3.5784678110229355e-06,120.00000612171208,57.350948423913096,1.274,1.0263006300381676,0.0,0.0,0.0,0.0284424679130479,1.2973286442992724e-08,-0.0056712051373577,5.414206381221602e-07,0.0001704578711045,4.621386949630312,43.12063533194282,9.678431924174348,39.42414126789902
0.27,31.222213616776543,131.01039689108487,4.183310605341074,4.617158109135719,0.0006115457810536,35.90419462403674,0.0008503454714941,3.221982799915672,423.8421996598744,10.088790784535757,4.205862468567124,69.97909721779352,4.436165972465058e-06,120.000007221354,62.31798301949865,1.274,1.026260090595354,0.0,0.0,0.0,0.0296487219805601,1.5355910600537293e-08,-0.0064045199323113,6.379142666348734e-07,0.0002006609239367,4.617158149547818,41.94410287616451,10.08888684592241,36.048472443180565
0.28,31.22221342607797,131.0103972823952,4.277051150896916,4.642105655370123,0.0006389739579882,41.51133203546672,0.0008785747638736,3.2071101123224945,476.3468732012228,10.432377224420517,4.35383399240675,69.97542808435722,5.446665372087172e-06,120.00000849080963,66.63429581008447,1.274,1.0262212716723291,0.0,0.0,0.0,0.0306584788590473,1.8045308789081613e-08,-0.0072006835403936,7.469524967369969e-07,0.0002332868227611,4.642105699250441,41.0023231023774,10.432477594215127,41.63503624837164
0.29,31.22221323001776,131.01039768469093,4.373143569786686,4.62134615173668,0.0006600657405645,33.17552944492765,0.0009148746278066,3.1894209319791806,397.9703104221098,10.876662296046485,4.536381530986506,69.9713027936179,6.629751536885327e-06,120.00000994797426,72.43000748232016,1.274,1.026183007522519,0.0,0.0,0.0,0.0319641703260467,2.1067646517035105e-08,-0.0080566154554079,8.688043379161898e-07,0.000272130659453,4.621346198772975,39.83162628795024,10.876765978930557,33.32848872465723
0.3,31.22221302403368,131.01039810736614,4.4744193758467325,4.664362353358112,0.0006905183788532,31.08096762732793,0.0009381960428197,3.172549142946348,378.1859457108735,11.168362145070317,4.66647911311536,69.96668711012893,8.005507138509574e-06,120.00001161892672,76.36634300732833,1.274,1.0261430389738484,0.0,0.0,0.0,0.0328214509167604,2.4447409007156216e-08,-0.0089829108229115,1.0056222251461646e-06,0.0003115527202986,4.664362404357781,39.09908960432563,11.168470611443622,31.242464973103964
0.31,31.22221281503337,131.01039853619727,4.576593712520673,4.700143580504286,0.0007196683316923,32.79732593144512,0.0009620705970519,3.154230688182399,394.1656220930229,11.470279728974068,4.800072153432283,69.96154070456518,9.597499105113692e-06,120.00001352112182,80.55022837857167,1.274,1.0261054058068628,0.0,0.0,0.0,0.0337087616009043,2.8214060606649844e-08,-0.0099686353219717,1.1565909895184251e-06,0.0003550834484269,4.700143635477137,38.36463422765983,11.47039277421126,32.94865339301887
0.32,31.222212598991007,131.01039897947376,4.68216432480395,4.718667719113184,0.0007464384342556,35.7316568886908,0.0009885845337584,3.133859770838664,421.5593934624264,11.808280530415894,4.946054328851105,69.95582953472353,1.14278227255889e-05,120.00001568218067,85.36654007972253,1.274,1.026068246703101,0.0,0.0,0.0,0.0347021168382987,3.2392058795580455e-08,-0.0110163301561155,1.3226102501723267e-06,0.0004039614423012,4.718667778018562,37.5686120062341,11.808397780690962,35.8688218659563
0.33,31.222212376029034,131.0103994369436,4.791055524254013,4.72141404831576,0.0007708346814671,35.42013590291081,0.0010176135371143,3.1111955852784385,418.5156301991632,12.181577273013426,5.104163223586657,69.94951809396906,1.351997394754887e-05,120.00001812674968,90.84831229869296,1.274,1.0260310883392356,0.0,0.0,0.0,0.0357992034445943,3.700677535501642e-08,-0.0121310534481307,1.5051409581878843e-06,0.0004588955105349,4.721414111097893,36.7208578211118,12.181698355442045,35.55651229220977
0.34,31.222212145785647,131.0103999093516,4.903491659547144,4.73024573449122,0.0007962944975467,27.63851074646407,0.0010446307681611,3.0871492806781062,345.4656368807584,12.53557620048282,5.2556261014174765,69.94256797855994,1.5899658158227497e-05,120.000020882338,96.20413272674828,1.274,1.0259901535019136,0.0,0.0,0.0,0.0368395817555172,4.208561016221623e-08,-0.0133180771902383,1.7057647550599631e-06,0.0005184333231541,4.730245801363397,35.94841996438923,12.535701282129995,27.810389570354005
0.35,31.222211909310875,131.01040039453565,5.018822212845608,4.780248518778662,0.0008286678570753,30.332092807652543,0.0010618579815451,3.063967690608957,370.5765700527057,12.774786382148209,5.367579971644358,69.93493776125636,1.8594985713558667e-05,120.00002397748868,99.9096898192772,1.274,1.025950003202184,0.0,0.0,0.0,0.0375426220587071,4.7658312175989686e-08,-0.0145774693288123,1.9252724355785177e-06,0.0005782798420984,4.780248590437683,35.44790728185619,12.774916548990808,30.486451961956565
0.36,31.22221166933814,131.0104008868675,5.135354490370708,4.798132156899578,0.0008554457330409,34.32674769697476,0.0010851169437774,3.0374319611165923,407.8625232777224,13.09301701329486,5.506730645516068,69.92658597246795,2.163521613217148e-05,120.0000274401514,104.94818266210537,1.274,1.0259105142325406,0.0,0.0,0.0,0.0384778908056978,5.3755109608570216e-08,-0.0158991451700967,2.162609490834569e-06,0.0006464142451675,4.798132232978766,34.796094028187134,13.09315138639638,34.46087058603792
0.37,31.222211421355144,131.01040139563804,5.255882891363927,4.797392186816851,0.0008791822061288,32.551601855236584,0.00111162791192,3.0078619428913056,391.1218908297639,13.457513730739372,5.661815946371007,69.91747693543164,2.5047738471809164e-05,120.0000313040604,110.87154396328836,1.274,1.025872170958032,0.0,0.0,0.0,0.0395491312153729,6.040098808671168e-08,-0.0172926678053148,2.420031948898497e-06,0.0007226353721561,4.797392267189059,34.07332166419882,13.457651832357364,32.69027405888565
0.38,31.22221116634284,131.01040191882743,5.379799334000849,4.811698494594017,0.0009057112478668,34.02947987649063,0.0011338447913587,2.9774881690446744,404.81876101445977,13.77554886562956,5.800899861213392,69.90756948297444,2.886339581486796e-05,120.00003560072224,116.17243393848278,1.274,1.02583050512925,0.0,0.0,0.0,0.0404838339452728,6.762496638941508e-08,-0.0187646375218858,2.69955777313946e-06,0.0008026686661094,4.8116985796350695,33.46655348088405,13.775691134419684,34.15949264475229
0.39,31.222210906095896,131.01040245274032,5.505993307722699,4.813508003664984,0.000929862892873,29.00025983045028,0.0011579891265804,2.9442136901860865,357.6406249338268,14.124492165837273,5.950648592462506,69.8968186645841,3.311602501056718e-05,120.00004036395212,122.13093644173792,1.274,1.02579027384009,0.0,0.0,0.0,0.0415093739609825,7.545934774906889e-08,-0.020311592409804,3.0013532510753577e-06,0.0008908380763632,4.813508093268025,32.821616487639595,14.124638228358922,29.149330452482886
0.4,31.222210638473225,131.0104030017851,5.635788650457906,4.841647069358873,0.0009592124397379,27.71178845184976,0.0011749448424961,2.91135549588368,345.4656368807565,14.390874239274588,6.07193451174791,69.8851815212744,3.783947407715338e-05,120.00004563180136,126.77947425345651,1.274,1.0257493418632293,0.0,0.0,0.0,0.0422922854866381,8.39343718693383e-08,-0.021938519432511,3.3271332720311508e-06,0.0009803271643914,4.841647164150728,32.348088166612904,14.391024912012275,27.864299944624147
0.41,31.22221036681104,131.01040355909262,5.767123077463226,4.86553909860892,0.0009876699832274,31.306062598221665,0.0011918093836199,2.876450850006428,378.9468707766882,14.663028799871563,6.195223154320929,69.87261222561014,4.307011032901644e-05,120.0000514391194,131.6183642808765,1.274,1.025708445186429,0.0,0.0,0.0,0.0430921644173401,9.308325447883581e-08,-0.0236371933433427,3.6760977501392174e-06,0.0010761942383903,4.865539198612839,31.87689439156756,14.663183942709727,31.437931330109585
0.42,31.22221008906472,131.01040412887247,5.901259531771367,4.867510642114694,0.0010118258958528,35.308283402190774,0.0012128114559048,2.8374461227958245,416.23282400171047,14.9952917972178,6.33928625560071,69.85906967380902,4.884273094936628e-05,120.00005782486392,137.64909586091787,1.274,1.0256701057426505,0.0,0.0,0.0,0.0440686959134695,1.0293499639582845e-07,-0.0254093547296826,4.049238334851429e-06,0.0011830797791891,4.867510747027452,31.315270489291198,14.995450734457847,35.422111438762386
0.43,31.222209804115888,131.01040471342728,6.038886819939341,4.854590670645608,0.0010330089741511,31.00586934514032,0.0012363751872706,2.794478603999558,375.90313951343126,15.369430568701889,6.497852263156962,69.8445117629242,5.519340856908871e-05,120.00006482835984,144.60167924299955,1.274,1.0256308158337524,0.0,0.0,0.0,0.0451682983415116,1.135186446762958e-07,-0.0272634397889413,4.449073329427772e-06,0.0013010625065656,4.854590780289497,30.70250814963406,15.369592833372094,31.13154422839874
0.44,31.22220951192321,131.01040531284193,6.180028459770617,4.866912332640401,0.0010595850174406,28.57707721036899,0.0012525768202179,2.752165534925872,353.07501253892326,15.659290812546615,6.627318538707029,69.82889155423543,6.216182865383864e-05,120.00007249162944,150.1053167542629,1.274,1.025586171750536,0.0,0.0,0.0,0.0460202245100907,1.2486676023179565e-07,-0.0292060158163984,4.8779154055816594e-06,0.001420032405556,4.866912447705031,30.24619499837236,15.659457251771938,28.709297424144207
0.45,31.222209215425703,131.01040592106523,6.322872201489905,4.881836476567178,0.0010866574689855,33.31904824532484,0.0012669045761511,2.7082028218433374,397.2093853562887,15.934249290371609,6.751662050993672,69.81215834018458,6.97909417564726e-05,120.00008085697964,155.42080512416243,1.274,1.0255397023523487,0.0,0.0,0.0,0.0468283602442113,1.3701614206272197e-07,-0.0312276295846745,5.334643585560923e-06,0.0015449645531859,4.8818365972149325,29.82567893138932,15.934419982127675,33.428929688274074
0.46,31.22220891307435,131.0104065412864,6.468371919199588,4.869610441729251,0.0011078049156487,38.95909776354321,0.0012868374716666,2.6582856015412624,449.7140588976424,16.292139278621757,6.904766425053949,69.79426683863348,7.812149592850748e-05,120.00008996920153,162.4785746623087,1.274,1.02549635315424,0.0,0.0,0.0,0.0478802236363867,1.499987870203256e-07,-0.0333272350234362,5.819761874615242e-06,0.0016858511402973,4.869610567434908,29.29014635640275,16.292313292210977,39.04968351401366
0.47,31.22220860266524,131.01040717804253,6.6178810515614845,4.838450928223533,0.0011247917292402,26.253747818137555,0.0013104398935566,2.6026193242279367,331.0078106302504,16.710658191447514,7.078951441335346,69.77517236812905,8.719457259907165e-05,120.0000998741591,170.9309671061642,1.274,1.025453319323251,0.0,0.0,0.0,0.0491102725711187,1.6384464803343264e-07,-0.0355167087264168,6.3368207228363735e-06,0.0018427306558807,4.838451058652396,28.68386015667837,16.710834873319172,26.382435512333956
0.48,31.222208284201663,131.0104078313267,6.771393590864176,4.869339340099417,0.0011561785713505,25.860860976019296,0.0013165328518772,2.5543454292827983,327.20312230115803,16.911139899671,7.177575416403102,69.75482343794755,9.70562828082882e-05,120.00011062072316,175.0543877818846,1.274,1.0254092882449153,0.0,0.0,0.0,0.0496995461609974,1.7858865391586845e-07,-0.0378054080201581,6.88909442277235e-06,0.0019849793891693,4.869339477030596,28.40887970825325,16.911321511776286,25.986704537635287
0.49,31.22220796480208,131.01040848648364,6.924537656029012,4.881367714530694,0.0011829003785372,32.565703383222065,0.0013261973190012,2.5011623511055703,389.6000096981238,17.169005224738054,7.296160258358563,69.73316318155707,0.0001077573203115,120.000122255028,180.4309832312717,1.274,1.025367445590036,0.0,0.0,0.0,0.05045746454003,1.942747077649401e-07,-0.0401641298712614,7.47069711110948e-06,0.002140948887153,4.881367857509675,28.058569663954906,17.169191034294997,32.66161128464712
0.5,31.222207637929923,131.01040915697027,7.081324512896956,4.862566137860805,0.001202418260511,33.47759680712428,0.0013425340759632,2.4399894027711366,397.970310422106,17.52898693231981,7.450304424940405,69.71015149227495,0.0001193385310595,120.0001348274002,188.0736471953394,1.274,1.0253278572281015,0.0,0.0,0.0,0.0515154948878309,2.109295159784217e-07,-0.0426011733481599,8.084173008518589e-06,0.0023184335011768,4.862566286171007,27.57768313050809,17.529175807738486,33.56639745442473
0.51,31.22220730314019,131.01040984370235,7.24202048914867,4.8479762258125,0.001223054804074,25.49162310288008,0.0013562860883156,2.3767006597692686,323.39843497208153,17.86914397471067,7.597652147346554,69.68574349602717,0.0001318441288964,120.00014838524436,195.4407439266201,1.274,1.025286455263166,0.0,0.0,0.0,0.0525152689856776,2.2858192086249162e-07,-0.0451315948093539,8.734206149830708e-06,0.002503767471626,4.847976379721193,27.13799345359824,17.86933609171003,25.602178740977283
0.52,31.222206962738102,131.01041054193402,7.405210501673173,4.865306299521403,0.0012516517170965,30.733671928447727,0.0013599291289974,2.317711624364424,372.098451184342,18.08534843773428,7.701914987606457,69.65988568649581,0.0001453248538387,120.00016298000436,200.19561780583155,1.274,1.0252426840672306,0.0,0.0,0.0,0.0531507657929359,2.4726951523704535e-07,-0.0477531686556663,9.421346966092632e-06,0.0026812161964639,4.865306460134566,26.8699055233151,18.085545046726228,30.820940596104087
0.53,31.222206619320115,131.01041124632013,7.569307468221277,4.848802699234936,0.0012715119568563,32.301199055744725,0.0013711327835325,2.2490252325653923,386.55624643486095,18.41963113311156,7.8474319110539055,69.6325258319474,0.0001598315062727,120.0001786629144,207.6614205945027,1.274,1.0251993415311351,0.0,0.0,0.0,0.0541332845214831,2.67031759303889e-07,-0.0504479325599339,1.0141887756417996e-05,0.0028848299490111,4.848802865552398,26.45837260670532,18.419830861742675,32.37940050117613
0.54,31.22220626697288,131.01041196903336,7.737918664599091,4.831496690588052,0.0012913635058467,28.31291960103712,0.0013809098107221,2.177242866245296,349.2703242098436,18.75116898748492,7.992112829440902,69.60362200959217,0.0001754082864028,120.00019548734956,215.20067397992847,1.274,1.0251561018460285,0.0,0.0,0.0,0.0551077428911958,2.878941684235108e-07,-0.0532336286085667,1.090122304443916e-05,0.003098869611663,4.831496862756785,26.061835558272342,18.751371834390056,28.396510432451375
0.55,31.222205908994248,131.01041270328463,7.909026079894722,12.755903477510111,14.794421726616704,30.4011232242592,-0.9138835564803836,1.6094188870041668,365.2500005919912,21.25288039252061,8.113323699629928,69.57312211246325,0.0001921068626005,120.00021350480982,276.4492350024227,1.274,1.025112921033824,0.0,6.26600891486463,0.0,0.0624601340772573,3.0989272306468813e-07,-0.0561100530405476,1.1700476995263424e-05,0.0037020324998483,19.440775871503323,39.111542026911415,23.551045040360247,30.457408057896902
0.56,31.222205546564343,131.01041344664463,8.081909946161325,-8.200475098552825,13.91846897788536,28.227503326000942,-0.8621858101692182,2.5358109690107327,346.22656194657776,18.43188971743362,8.245531141149062,69.54097415464405,0.0002099796112633,120.00023276987916,207.9276826260012,1.274,1.0250709539098009,0.0,6.288869463612746,75.00003213914121,0.0541696244025019,3.329899590246196e-07,-0.0650818414309746,0.0110861030447479,0.0037239533842187,16.11340271356368,40.08177338337579,20.59675813319439,28.354287958987904
0.57,31.22220517944269,131.01041420523154,8.25837496244494,-8.02919527539232,13.754245051793944,27.90442671748984,-1.0284845126644615,2.614642092954598,343.1828296833045,18.685013723852823,8.380827295437626,69.50368479041882,0.0172040712215395,120.01837335924364,213.674191974658,1.274,1.0250279191823897,0.0,6.311551412028188,75.00003213914121,0.0549136418346562,3.65922371544378e-07,-0.0606031780396854,0.0189495345073456,0.0035152482589997,15.88717948368868,39.60869166379397,20.82483445066481,28.04551950131788
0.58,31.222204805710152,131.01041497553655,8.43657565368574,-7.874779313902157,13.580670928103858,36.82593789695832,-1.2008684450958,2.6966425142097195,426.12500585731766,18.94478725755234,8.513350205241935,69.46895648840834,0.046170976306146,120.049301624771,219.65306215961053,1.274,1.024981594484354,0.0,6.3342758069878045,75.00003213914121,0.0556772057447979,4.011265938909573e-07,-0.0560891690311474,0.0269390531796809,0.0032985911449131,15.661405673646508,39.12913056361858,21.058115083700866,36.9440613341644
0.59,31.22220442715796,131.01041575815975,8.617499257045758,-7.666659928509017,13.3140475177589,29.790442144268148,-1.3887586726385304,2.777225680888636,360.68438819710633,19.335491718104905,8.693633691137132,69.43680258383095,0.0872507292662327,120.0931724058947,228.8024623375341,1.274,1.0249386802161349,0.0,6.356824639252415,75.00003213914121,0.05682557070555,4.386478286073632e-07,-0.0515302712822355,0.0350530008019123,0.0030929283202619,15.329008564673394,38.41900888630327,21.408086686543424,29.951829264410613
0.6,31.22220403907548,131.0104165616012,8.803277356996677,-7.522946475110714,13.150927625154123,26.436639191463065,-1.5742784214503711,2.8665477973141527,329.4859594986072,19.58188141574084,8.821557832766679,69.40723883021813,0.140589288221237,120.15014632898172,234.66663026743845,1.274,1.024891335813742,0.0,6.3793210247931125,75.00003213914121,0.0575498122956706,4.785206861208925e-07,-0.0468951148033499,0.0433464379388642,0.0028505356553178,15.117642915402188,37.98014587580381,21.62953388422633,26.638155727492318
0.61,31.222203648835485,131.01041737086135,8.989555188956531,-7.3865963758425695,12.996867286123235,31.02361084526536,-1.764200573388764,2.9588338357768635,372.0984511843332,19.81398852584303,8.944344990543359,69.38029561827028,0.206425333933359,120.22048249796816,240.25838349924507,1.274,1.0248423929069768,0.0,6.402017256252451,75.00003213914121,0.0582320816126168,5.208091159238296e-07,-0.0422231366259568,0.0517522810738353,0.0025969231004375,14.91778386071928,37.5708951840554,21.838068538487448,31.214284089329194
0.62,31.22220325288687,131.01041819319997,9.178464980498926,-7.218801449863683,12.786559131211773,38.64018481069573,-1.9675469052352044,3.051931732645509,442.86563930529206,20.12917912634697,9.097451367902494,69.35597743601328,0.284903976371038,120.30433949983868,247.958492680569,1.274,1.0247996097896497,0.0,6.4243788718317205,75.00003213914121,0.0591585332848404,5.655525203766415e-07,-0.0375198680428583,0.0602613628852628,0.0023443161465875,14.653951180575424,37.0244976782481,22.121056730183035,38.81042914384934
0.63,31.222202849300828,131.01041903253216,9.37114475894557,-7.021596152923522,12.521735445653816,21.75979416391256,-2.187921124164992,3.1473882534253343,286.11251274707456,20.533299755037056,9.282995381289842,69.33428213224255,0.3761655972949913,120.4018702506848,258.009868680849,1.274,1.024756158874558,0.0,6.446654393011078,75.00003213914121,0.0603463524159505,6.127823946304371e-07,-0.0327672414052386,0.0689063390063177,0.0020884275065099,14.328588367999767,36.34307075215438,22.48458940598058,22.09483409576117
0.64,31.22220243718449,131.0104198906261,9.568105196844716,-6.927878143214223,12.432205268093112,21.34718994379103,-2.3853332546379047,3.2501223685606333,282.3078244179702,20.65563743878196,9.366029926343623,69.3152141364806,0.480409765759067,120.5132902892316,261.0885422366073,1.274,1.024708534665538,0.0,6.468987520258773,75.00003213914121,0.0607060317042716,6.625389223447504e-07,-0.0279459068436471,0.077722498365807,0.001791716824892,14.205593452552852,36.12450706660314,22.593195859325007,21.724539779765013
0.65,31.22220202668916,131.0104207468721,9.763316827492734,-6.8067227615832335,12.292938335259608,37.98405265814071,-2.5944521488877204,3.353159595125648,436.7781447787504,20.854053226906814,9.476729747657537,69.29878482026851,0.5978994299630319,120.63888225254904,266.1236209565164,1.274,1.0246641738210605,0.0,6.491426978891995,75.00003213914121,0.0612893021617303,7.148988383566128e-07,-0.0231287163245949,0.0865812967262772,0.0014970848973873,14.026190931912732,35.78347213516862,22.77024290717078,38.21993089422923
0.66,31.22220160870201,131.01042161969323,9.962174004074136,-6.6036136201015285,12.007502218148929,32.23735318526008,-2.84061449755948,3.4580685551484307,383.5125151715984,21.297134668156023,9.676489165717904,69.2849604989241,0.7287112765963794,120.7787290424165,277.54699514059456,1.274,1.0246195561629028,0.0,6.513290642972342,75.00003213914121,0.0625916427810641,7.69877726291387e-07,-0.0182990898258228,0.0955124444894056,0.0012096139734928,13.680167043909002,35.0676458623162,23.16949256327758,32.54649396243856
0.67,31.222201179074272,131.0104225173068,10.167076853822252,-6.4575063469021705,11.818676284351364,22.05904606638107,-3.0740973468291646,3.5672851115062576,289.15624401033847,21.57626532449885,9.816597528470618,69.27371291540113,0.8729769490504726,120.93297162749752,284.864400330581,1.274,1.024572383541697,0.0,6.535192534191485,75.00003213914121,0.0634121460273304,8.274852142268676e-07,-0.0134009408070782,0.1046181282808153,0.0008974270316557,13.445701504691884,34.61224642681284,23.419601361155244,22.556088112154523
0.68,31.22220074778376,131.01042341965487,10.372155499513964,-6.349650209213041,11.69504574453538,27.62974991097228,-3.295488112098416,3.6779734666831705,340.89999248584934,21.735229699683256,9.91296029485688,69.26504078312725,1.030993883061459,121.10192754188064,289.07168003589567,1.274,1.0245245285832842,0.0,6.557378905012683,75.00003213914121,0.06387948644949,8.877951660602553e-07,-0.0084776243607353,0.1138210637464407,0.0005718964951909,13.286466868932076,34.33617205148377,23.55955330751256,28.067611420665635
0.69,31.222200313356524,131.0104243297081,10.578283222689548,-6.201163050506689,11.496734970388587,34.10219062096841,-3.5408909460991898,3.791524383378873,401.0140726853658,22.02544231398937,10.056962961141425,69.25891400949065,1.2029515755841336,121.28579824312212,296.8368123264075,1.274,1.024479631064582,0.0,6.579204753779241,75.00003213914121,0.0647325671323614,9.508574446087124e-07,-0.0035606254416774,0.1230641277200725,0.0002434004431477,13.042678144156802,33.87007774036373,23.819251147188744,34.49453537867686
0.7,31.22219987007188,131.01042525869707,10.788757009434947,-6.034287193281413,11.262265173558225,28.506328562008584,-3.804291718135652,3.909183587368195,349.270324209851,22.383664000377365,10.225583855104103,69.25528063655925,1.3889618746051595,121.4847014861246,306.5646397501599,1.274,1.0244351749185203,0.0,6.600800973085651,75.00003213914121,0.0657855334945981,1.0166812968564908e-06,0.0013776245699638,0.1323986000597629,-9.570259536181344e-05,12.758554799509932,33.314500293793614,24.14136644798445,29.023527006234282
0.71,31.222199419449304,131.0104262034683,11.002659406413615,-5.900799631193596,11.08535023691869,23.31836281430373,-4.055495765453316,4.0276693285206,301.3312640634036,22.629008454601085,10.353137266437628,69.25409930815421,1.5892245760733137,121.69884838832556,313.31546590895493,1.274,1.0243880468141104,0.0,6.62251087355102,75.00003213914121,0.0665067607345244,1.08529679333671e-06,0.0063489401949828,0.1418473911798285,-0.0004458815457279,12.54067655681522,32.92023730737602,24.359447966253413,24.00864865966051
0.72,31.22219896568935,131.0104271557675,11.21756827969636,-5.780104217601597,10.929695381401684,28.641981396807424,-4.3023682899331,4.1465698830278885,350.7922053414578,22.826142937230607,10.463097032176105,69.25533009644259,1.8039842949612364,121.9284973139557,318.79161223073095,1.274,1.024337302174265,0.0,6.644174807744284,75.00003213914121,0.0670863025455876,1.1567617900774035e-06,0.0113233673422788,0.1513556408491623,-0.0008021431951191,12.347523558652703,32.59133500568728,24.53258208066468,29.258631427873013
0.73,31.222198507335683,131.0104281183966,11.434312470285247,-5.63189808501158,10.721104080895069,36.346589061818335,-4.5732066436074765,4.2701081430906696,422.3203185282354,23.12711226988019,10.610530710326536,69.25891171739408,2.033410889232856,122.17382602848114,327.2469437698084,1.274,1.024292465384646,0.0,6.665604020704638,75.00003213914121,0.0679710211599613,1.231112024027108e-06,0.0162863285182259,0.1608966424476933,-0.0011689053191798,12.095001319590674,32.126505600659094,24.80136907724915,36.88119546581316
0.74,31.22219804068832,131.0104290983149,11.65495875693186,-5.463285093468112,10.4714626333882,22.51699676053324,-4.868454855508132,4.399601267538656,294.4828134710563,23.515709264676097,10.789468924899198,69.26477012662183,2.277641858903196,122.43497706888368,338.32940449504105,1.274,1.0242470321640116,0.0,6.68688621812264,75.00003213914121,0.069113287133145,1.3083563336339404e-06,0.0212570652072949,0.1705073482830897,-0.0015512683090793,11.796853455894812,31.555964929757323,25.151421213992016,23.45364549717832
0.75,31.22219756551763,131.01043009574235,11.879590593140811,-5.353383637820989,10.329399955433647,26.35866432616793,-5.119706224093391,4.522036233785369,330.24688556441737,23.664151295587555,10.8814601879238,69.27283643995577,2.5368800663981514,122.71216225053344,342.60687877636167,1.274,1.0241984712898409,0.0,6.708222076523885,75.00003213914121,0.0695497384177347,1.3885155993904372e-06,0.0262503412873778,0.1802167778382081,-0.0019277115641509,11.620838197442763,31.28939177261249,25.27791473272572,27.229384652986305
0.76,31.22219709093689,131.01043109347745,12.103104859761844,-5.213788336112836,10.129105827207626,28.38840837865802,-5.400661566839825,4.650568902883193,349.2703242098581,23.9372521474542,11.018246330122505,69.28304393467887,2.811381777461341,123.0056498707292,350.5528313608723,1.274,1.0241522053390697,0.0,6.729560490996815,75.00003213914121,0.0703525684336589,1.4716681371374503e-06,0.0312089745617717,0.1899167666478319,-0.0023182519689384,11.379737842358278,30.86901906380242,25.52005356067244,29.269381044932704
0.77,31.222196606697228,131.0104321106026,12.331191035217149,-5.071350978745064,9.921483017908717,26.46783606501969,-5.689015860946781,4.781334549345701,331.76876669606884,24.22199772097756,11.158994611730346,69.29529056798975,3.1012434016894184,123.31553677362568,358.9345758946174,1.274,1.0241065975906936,0.0,6.750474027289515,75.00003213914121,0.0711896305730788,1.557806015212224e-06,0.0361560563662334,0.1996518783979676,-0.0027176175900627,11.130890233758278,30.436511287253765,25.77268380996433,27.49131512866614
0.78,31.22219611693189,131.0104331392191,12.561514364715476,-4.937496632228973,9.727796725012391,21.58251644679096,-5.97289308849602,4.911566682532214,286.8734378128874,24.46913716196157,11.28597073590292,69.30948107311684,3.4066370051854222,123.64200018608727,366.2883305222175,1.274,1.0240588105546735,0.0,6.771496225049,75.00003213914121,0.0719161722972391,1.6469520317620228e-06,0.0410887512652756,0.2094179297166809,-0.0031198184610004,10.89835249948752,30.050269060331885,25.9898452758444,22.926054071722994
0.79,31.22219562223496,131.01043417815364,12.793733960277574,-4.815896256840177,9.556031963763386,30.93288115392512,-6.244334663202411,5.038812794701136,373.6203323159581,24.6543456905848,11.390475332767856,69.32551317339917,3.727734356074876,123.98521655395672,371.8459446586618,1.274,1.0240083170932772,0.0,6.792407749571213,75.00003213914121,0.0724607004354105,1.7391368345934554e-06,0.0459946590428363,0.2191914015149969,-0.0035186731378229,10.690886364186897,29.73459625026768,26.148454204915453,31.95660317131611
0.8,31.22219512370196,131.01043522535633,13.02724158554026,-4.661579993409177,9.318230486271815,31.30782878280553,-6.560289807290315,5.177003907831537,377.42502064505805,25.002021775288057,11.552912803548748,69.34327281357027,4.064675813160131,124.34532834229957,382.39887568241016,1.274,1.0239625010683884,0.0,6.813167796350462,75.00003213914121,0.0734827362952006,1.8343896677604269e-06,0.0508564461066254,0.2289390866135622,-0.0039453854540668,10.40998257937398,29.237211779611016,26.459282089163327,32.403995354135056
0.81,31.222194614576605,131.01043629263503,13.26563688314491,-4.515692834307097,9.094545225186485,20.06936658164406,-6.8710863147985455,5.314340346596864,273.9374926939922,25.310037037324303,11.70079787738665,69.36263206520208,4.417553660511226,124.72242631987498,391.86995531071256,1.274,1.0239149950770308,0.0,6.8337061989712575,75.00003213914121,0.0743882153313906,1.932686434081015e-06,0.0557017986515565,0.2387163327470918,-0.0043744187985114,10.145472895737957,28.78773537483382,26.732613586419703,21.86855083112026
0.82,31.22219410043961,131.01043736990246,13.505884310191,-4.400428661030039,8.929498416942534,25.959690131495663,-7.138713094022147,5.44008147601736,328.725004432774,25.45096704338444,11.7887620948805,69.38347108742222,4.786550401459182,125.11669738853304,396.2369420756412,1.274,1.0238644186635044,0.0,6.854367348223102,75.00003213914121,0.074802622602019,2.0340593712833323e-06,0.0605168100561761,0.2484968866769166,-0.0047789078446582,9.94699066326802,28.5173062809341,26.847938146666124,27.467457523908976
0.83,31.22219358488597,131.01043845095643,13.746086395510396,-4.258961124374814,8.710266136143206,33.16525423848108,-7.44749481332833,5.576228239490001,395.6875032246518,25.7349238921607,11.927356169016248,69.40565747574054,5.171809844019545,125.5282868746477,405.11856404951845,1.274,1.0238188483711983,0.0,6.874885316056372,75.00003213914121,0.0756374016457294,2.1385622179950924e-06,0.0652642568688099,0.2582068535658368,-0.0052111863919999,9.68852333797236,28.09530478940564,27.0978652986503,34.44551624052869
0.84,31.22219305917829,131.01043955057807,13.990807440430777,-4.104653982929678,8.462855522685754,20.09481621133767,-7.782882045257824,5.719618534200071,275.45937482564227,26.097224245767848,12.093342507447373,69.42903603829895,5.573359463678577,125.95721572995537,416.5957128859119,1.274,1.0237739661568126,0.0,6.895102903411676,75.00003213914121,0.0767024487997851,2.2461575315238924e-06,0.0699662566584706,0.2678913956145584,-0.0056651455373435,9.399221445469491,27.596323350046344,27.4217381144294,22.29549119608269
0.85,31.22219252518897,131.01044066519472,14.23899532060794,-3.9874739202953777,8.288919442273974,21.94164071242024,-8.051942458574022,5.843809921283324,292.9609323393965,26.23139109050416,12.178113697449128,69.45345696644226,5.991297413609529,126.403580404052,420.88016159652045,1.274,1.0237227741398531,0.0,6.915405346505847,75.00003213914121,0.0770969949559745,2.3568343418070343e-06,0.0746308478024628,0.2775682914744424,-0.006073757686597,9.192117228570028,27.326575297867127,27.52887457596836,24.091896747770065
0.86,31.22219199178048,131.0104417800838,14.486073527981302,-3.854946878640148,8.081773893536113,27.660188895924925,-8.34867586611331,5.9748465196723695,346.2265619465616,26.458118031401906,12.295287715361086,69.47876859791597,6.425748700627542,126.86750606507354,428.1770687308272,1.274,1.023674789281455,0.0,6.93569999491443,75.00003213914121,0.077763587595032,2.470664369708633e-06,0.079211261548903,0.2871427154191102,-0.0065020954212012,8.948573514888324,26.963870240322063,27.72339466638884,29.503986669758927
0.87,31.222191449406097,131.0104429108037,14.736921406359627,-3.710529995874341,7.848357812293126,25.62317986646851,-8.670749628366691,6.112497650738794,327.9640783669946,26.76130800930565,12.438968775658584,69.50479355775346,6.876683078510531,127.3489522816954,438.0359113171175,1.274,1.0236288969245204,0.0,6.955590184414649,75.00003213914121,0.0786549219750754,2.587608999751135e-06,0.0837190368303528,0.2966388484225706,-0.0069507001979108,8.676318887165978,26.528039413420824,27.99027347301487,27.732505712926585
0.88,31.22219089927038,131.0104440549922,14.990852243721347,-3.57462857703234,7.630521893159619,21.933433354939893,-8.975220009396294,6.244113354498028,294.4828134710421,27.006920236289066,12.56194230102572,69.531355402791,7.344103121931521,127.8479139889086,446.1024167969372,1.274,1.0235805388426191,0.0,6.97549801643214,75.00003213914121,0.0793770352768304,2.707639186343204e-06,0.0881608596286805,0.3060721581708871,-0.0073864758789467,8.421827600819283,26.14783386748145,28.20197983132281,24.507529955841694
0.89,31.22219034459689,131.01044520737867,15.246218082710854,-3.4443179501977728,7.42267841518227,24.099641391098668,-9.264361046818594,6.36995372669479,315.02813424808807,27.208722641285966,12.669145643401132,69.5582760770031,7.8280293147201245,128.36440563725955,452.7829961391236,1.274,1.0235293752791452,0.0,6.995368265419064,75.00003213914121,0.0799703905793337,2.830768283910952e-06,0.0925210871538393,0.3154108776616934,-0.0078095252970695,8.178815457799441,25.807308759440087,28.371415566755854,26.593183548902125
0.9,31.22218978489136,131.01044636864984,15.503252067917556,-3.306865165603756,7.197876381364588,26.67473804344222,-9.569964604645412,6.499550414308835,339.3781423542166,27.46182783757332,12.793833169385463,69.58536687491102,8.328422137460345,128.89837814310675,461.2346879349417,1.274,1.0234837388140003,0.0,7.015072937980192,75.00003213914121,0.0807145376156455,2.956996688672041e-06,0.0967870044896394,0.3246289989905334,-0.0082453961061264,7.917523653463034,25.42005818522932,28.589495991998277,29.07524768266939
0.91,31.222189217520143,131.01044754258243,15.763209381054542,-3.165929148477341,6.963568615750724,19.917227140496188,-9.8850757509603,6.630874413795751,277.7421810230785,27.74341381631565,12.927923514602988,69.61243054539975,8.845188905217823,129.4497263425432,470.7301749997037,1.274,1.023436404813438,0.0,7.0346327569616784,75.00003213914121,0.0815424013031127,3.0862870020107942e-06,0.1009606552869169,0.3337320084984758,-0.0086889290890479,7.646239934783189,25.008719571339125,28.834557712769374,23.202998837647524
0.92,31.222188643001903,131.01044872808967,16.02578410994378,-3.0379240645698173,6.755736564021923,23.89316966575011,-10.157841557223003,6.747533451288457,315.0281342480675,27.91274894401449,13.0225689003772,69.63926758431225,9.378232992349256,130.0183416405326,476.4820079086224,1.274,1.0233859136578225,0.0,7.054143784387069,75.00003213914121,0.0820403478116178,3.2186091049511748e-06,0.105039977580256,0.3427168395261337,-0.0090949532410905,7.40446771196884,24.69343889121174,28.971480367205647,26.82525879566169
0.93,31.222188065849394,131.0104499184359,16.288783167858522,-2.8991308271220846,6.5222761545667165,28.60898326712074,-10.462227770231074,6.872553889176529,359.16250706547066,28.17566061361424,13.149128503112363,69.66567483027968,9.927438298641636,130.6040955411832,485.48803696944105,1.274,1.0233407575091376,0.0,7.073582294306889,75.00003213914121,0.0828133359595531,3.353980270930604e-06,0.109002590020508,0.3515358904953757,-0.0095267155068101,7.135033504987138,24.29880239774857,29.197966097698096,31.227618072056412
0.94,31.222187479243964,131.01045112325224,16.555429222390675,-2.755147274204522,6.275199514994131,20.2675350893784,-10.78448713175228,7.001771709604564,283.06875048378083,28.490080626560648,13.292847394317384,69.69143901985653,10.492594009660376,131.20675955022017,496.3711744999287,1.274,1.0232914783978162,0.0,7.092788542761099,75.00003213914121,0.0837377248793274,3.492330017189235e-06,0.112855896284257,0.3602064867591778,-0.0099733045795388,6.851173996075446,23.863567556882945,29.473817208917534,24.002144661832492
0.95,31.22218688449288,131.010452340259,16.82503077035346,-2.6258680244548374,6.059473940268587,26.63495996023231,-11.047401643887936,7.110297709898425,342.421873617488,28.657926135354813,13.38566008932048,69.71634810069975,11.07349913681188,131.82611678826157,502.22400782393805,1.274,1.0232418269359267,0.0,7.11199983521112,75.00003213914121,0.0842313107390237,3.633605451964372e-06,0.1165999514045649,0.3687306506229364,-0.0103646116293129,6.602020726146117,23.54613472254132,29.607972763718816,29.698863760890635
0.96,31.22218628785184,131.01045356072217,17.094652601157637,-2.483694032951853,5.812090471334278,25.97190885357571,-11.360213723003,7.23306638998267,337.09533515678265,28.963081695077303,13.52496448573086,69.74018870664838,11.66993598579034,132.46193378368403,512.9632405358868,1.274,1.0231951201821403,0.0,7.131164118509744,75.00003213914121,0.0851284822361904,3.777831297718916e-06,0.1202094249896478,0.3770526103548916,-0.0107989603891177,6.318857140094382,23.121348054581738,29.874477793868465,29.25596955721425
0.97,31.222185679434943,131.01045479780737,17.368828012653804,-2.34536888365688,5.571753076482265,15.879145632068692,-11.653640804024173,7.347725836428621,245.0218871929888,29.22784148667444,13.649845667415404,69.76273931931259,12.2815725622152,133.11385657228396,522.3706367403262,1.274,1.0231476260761452,0.0,7.150074951219048,75.00003213914121,0.0859069317353209,3.9249004661094274e-06,0.1236953316295495,0.3851987736085657,-0.0112133990075141,6.043826193112561,22.729025075695446,30.10167163769038,21.02245668234291
0.98,31.222185065734248,131.01045604249248,17.644517912076115,-2.2190211790958925,5.357993742137728,23.89866863063793,-11.881866649397235,7.439060781076174,319.593746642963,29.34643322764732,13.724559383257084,69.78378225169173,12.908096875731088,133.78155395760933,526.6043229288373,1.274,1.0230935628253934,0.0,7.169052436112158,75.00003213914121,0.0862557667615443,4.074785338956882e-06,0.1270456318906489,0.393143581545821,-0.0115635394530729,5.798084901742894,22.444987550903395,30.186838776531733,27.706763482868965
0.99,31.22218445029885,131.01045729022317,17.9201272821839,-2.07917431203546,5.1100573189717045,26.20561749459766,-12.17451257371994,7.549275588160562,341.66094855170127,29.63595298285676,13.856631013790684,69.80309740009447,13.549129353139728,134.4646242450084,537.0318820808848,1.274,1.0230490803133316,0.0,7.187884079938209,75.00003213914121,0.087107001315083,4.227497379511589e-06,0.1302385228981299,0.4008368786586287,-0.0119707838117211,5.515812031402561,22.03552844372917,30.4375751879662,29.865443351586542
1.0,31.22218382235153,131.010458554348,18.200425383698263,-1.9401328794574488,4.862065894970361,23.132924823518103,-12.46036826827132,7.655114391979259,314.2672081822764,29.921186165925896,13.986559731548624,69.82046166799236,14.204180159120815,135.16254988405112,547.4042894967297,1.274,1.022999484445133,0.0,7.206465386400774,75.00003213914121,0.0879456465387352,4.382889201427005e-06,0.1332863705172294,0.4083098179982516,-0.0123685014804819,5.23400039353832,21.631154487570004,30.68400140801639,27.36775044876306
1.01,31.222183188044497,131.0104598267534,18.48260794166401,-1.8055073641435369,4.62267926777989,24.196793736054904,-12.716040126350636,7.748749572957346,324.92031610370094,30.15018779312584,14.096972905032244,69.83565821401493,14.872783525193704,135.87484064980958,555.8004021488682,1.274,1.0229507481225095,0.0,7.225120404177602,75.00003213914121,0.0886190202047721,4.540899827527076e-06,0.1361816247195017,0.4155468698693109,-0.0127335441908041,4.962050348097227,21.267288648402022,30.875529031412363,28.41171630761774
1.02,31.22218254801013,131.01046110657944,18.7663842148184,-1.6692216028532196,4.376962151546813,19.71049809462094,-12.978623537000988,7.842265020693424,284.59063161543185,30.41154339671253,14.217609944651205,69.84847214418355,15.55441925245679,136.6009500484102,565.4626180492638,1.274,1.0229039803623294,0.0,7.243659819189398,75.00003213914121,0.0893874965817254,4.701488440825591e-06,0.1389127578160681,0.4225213064590367,-0.0131011531993762,4.683874029293216,20.88241558449416,31.098406482794736,24.868645413613574
1.03,31.222181899209087,131.0104623971596,19.053027090188404,-1.5372497143725414,4.140626871334496,15.553843610990391,-13.20193135085788,7.920296033709678,247.3046933904342,30.60170881278342,14.313923252418917,69.85869128103364,16.248493435801812,137.34025482299387,572.5407168483857,1.274,1.022853416101322,0.0,7.262066750715672,75.00003213914121,0.0899467335010368,4.864560233454242e-06,0.1414762784553083,0.4292266933300419,-0.0134259887721601,4.416312039951079,20.545120513401944,31.251550971467445,21.884792247803222
1.04,31.222181246031088,131.01046369320807,19.34062257301567,-1.4073222833886727,3.9080866065562327,26.140723614126216,-13.398516533922256,7.986874897834541,345.4656368807608,30.75321990844624,14.396901218834795,69.8661087855221,16.95437194821158,138.09209063130675,578.2081544245333,1.274,1.0228049544826707,0.0,7.2804252993063105,75.00003213914121,0.0903923590969613,5.030070542099928e-06,0.143860425674205,0.4356350385674462,-0.0137194566851266,4.153387095867317,20.23231548124967,31.36662481799548,30.440891035145203
1.05,31.222180587678928,131.0104649955258,19.629493564981896,-1.2693374827110115,3.6510208234244894,14.603014678417088,-13.66733350407587,8.074676408991241,240.4562587980608,31.08499851401145,14.538836339009013,69.87052330667623,17.671344537672308,138.85571379995443,590.7349651346128,1.274,1.022755494436122,0.0,7.298614132939512,75.00003213914121,0.0913678475115651,5.19794900654373e-06,0.1460574230428224,0.441727488036769,-0.0140788575117905,3.865098864692373,19.80701988576549,31.658111482410995,21.56952576946511
1.06,31.222179915687025,131.0104663128976,19.92309737490765,-1.1414763509383916,3.420928413961336,21.87957082386352,-13.824234211967344,8.122681848243198,308.1796836557233,31.192529021341063,14.606300166243376,69.87174123956682,18.39864066551423,139.6303181600364,594.8122499223578,1.274,1.0227013895379469,0.0,7.316657607907173,75.00003213914121,0.0916842146813191,5.367993210010154e-06,0.1480736643108014,0.4475250954554221,-0.0143221788749345,3.606129609919766,19.52086760004673,31.72956798898365,27.125689509975
1.07,31.222179245639943,131.01046762854935,20.214972747032657,-1.007748672507114,3.170813341132488,26.16979271535064,-14.047473657694567,8.189803465428488,348.5093681440431,31.467678014108923,14.728195869858064,69.86957826643444,19.135496607563027,140.41510642708738,605.3352282715484,1.274,1.0226540159946436,0.0,7.334771918865717,75.00003213914121,0.0924932648667825,5.54023789236648e-06,0.1498897409004902,0.4529757618838881,-0.0146253111243092,3.326947194587498,19.13453483912708,31.965494012926605,30.81010301395285
1.08,31.222178561455703,131.01046895903852,20.511663682903503,-0.8739888081912647,2.9178740751418446,16.52945283867889,-14.274159498692596,8.255080672945853,261.0015785751465,31.77197402999724,14.858861392879678,69.86385961929497,19.88103552435256,141.2091624064022,617.0815696781614,1.274,1.0226061614050743,0.0,7.352559649010279,75.00003213914121,0.0933879978796761,5.714469296301489e-06,0.1515103210911958,0.4580960758188669,-0.0149259694609589,3.045847185021381,18.73410434105841,32.230114526042435,23.34782211378761
1.09,31.222177868978804,131.01047029785232,20.81071073550656,-0.7460716504415333,2.681010689744989,14.85218796750902,-14.412151195166064,8.288107984157996,246.54375332456465,31.91163362254977,14.935371792811514,69.85442175032648,20.63438290723508,142.01157380096384,622.5006052526626,1.274,1.0225512795791307,0.0,7.370423782668969,75.00003213914121,0.0937988186306515,5.890557101371094e-06,0.1529300673118471,0.4628757874743913,-0.01513162514351,2.7828106140792723,18.42938498669122,32.33261213314553,22.293279782293357
1.1,31.222177174933364,131.01047163840587,21.10943801853916,-0.6179545950517858,2.4411556244784767,32.92082103206234,-14.54868506939534,8.317639934798729,413.1890617384087,32.07543729398717,15.019232722152903,69.84111259331301,21.394623837164232,142.82138655846367,628.8896026407172,1.274,1.0224981043155532,0.0,7.388213815443928,75.00003213914121,0.09428060946737,6.068489652554584e-06,0.1541374499680033,0.4672801824514644,-0.0153289339150874,2.5181099197436376,18.1114560374001,32.458777119493874,36.94086935574857
1.11,31.222176472657047,131.0104729869714,21.41045816084864,-0.4853303957117771,2.1795499932227567,23.105782663435047,-14.806747026949989,8.383762030406086,324.1593910379213,32.519532415579654,15.192775993224467,69.82379457911165,22.160766373499648,143.63756570311492,646.4058393054967,1.274,1.0224548851875197,0.0,7.40577418550357,75.00003213914121,0.0955862806188807,6.248122894418351e-06,0.1551295868033668,0.471302880289926,-0.015640749760419,2.2329062089042475,17.645212706398148,32.86181276359484,28.695024234045643
1.12,31.22217575130238,131.01047435285406,21.717870054342384,-0.3584893516940773,1.9368169274651228,6.487915459863884,-14.939257530034222,8.405389518116019,172.7328179403806,32.72743848737816,15.289628151631735,69.80234477809718,22.93179077583816,144.45904755228733,654.6782205367721,1.274,1.0223979224661404,0.0,7.423262615962595,75.00003213914121,0.0961977229891377,6.429131957210884e-06,0.1559078650731485,0.4749615308673296,-0.0158192487817589,1.969701873573289,17.308258134520326,33.0316150408097,18.32825784176662
1.13,31.22217503068856,131.0104757179356,22.02400139755518,-0.234879502921805,1.7064990232796908,27.646876056077488,-14.961206571886793,8.387880195024492,367.5328077894322,32.736353229550865,15.322422303017916,69.77665229536417,23.706689642709737,145.2847822577326,655.0156689455373,1.274,1.0223460397860296,0.0,7.440913705128842,75.00003213914121,0.0962242590321856,6.611547755800907e-06,0.1564612860811672,0.4782173955209211,-0.0158792592832277,1.7225826491899996,17.073771992676708,33.004369839463564,32.53527304192887
1.14,31.22217430975804,131.01047708355543,22.329326847685035,-0.1086318449762332,1.4535638525640893,13.593274609707048,-15.162964291887691,8.425304275456112,239.6953177322812,33.14661772354195,15.482617124294068,69.74662501361394,24.484382866423367,146.1136429754853,671.5166659306924,1.274,1.0223022138470996,0.0,7.458287875660739,75.00003213914121,0.0974305139234481,6.795370910196469e-06,0.1567852100271416,0.4810458173627853,-0.0161110787886807,1.4576166229130538,16.640013415141198,33.374918508285056,22.0381113724835
1.15,31.22217356483325,131.01047846910484,22.642634332972783,0.0144971985400606,1.217764899429148,13.251798253167898,-15.196759722336108,8.40492793513597,237.4125115347709,33.24150900336952,15.541939871216105,69.71219131563821,25.26374632633357,146.94445613639004,675.3466464245989,1.274,1.0222426194541194,0.0,7.475420336956626,75.00003213914121,0.0977097809339847,6.980150221041292e-06,0.1568779940877591,0.4834665557888008,-0.0161662763424832,1.2178511762113378,16.36390385808376,33.432780665088515,21.84478144994611
1.16,31.22217282663416,131.01047984893972,22.95244482358862,0.1364401919971339,0.979805521552561,40.74539076004963,-15.247139834651456,8.38659831675789,490.043774385954,33.40250611237968,15.621785121198748,69.67329154373483,26.04368059286616,147.7760743709668,681.883948515598,1.274,1.02219674531104,0.0,7.492800642952938,75.00003213914121,0.098183357589445,7.165971107128332e-06,0.1567354485297417,0.4854490134514444,-0.0162293303204247,0.9892587989753716,16.057979412441853,33.55640610250034,44.30572392652217
