Time,Latitude,Longitude,Altitude,Angle of Attack,Angle of Sideslip,X-Acceleration,Y-Acceleration,Z-Acceleration,Thrust,True Velocity,Ground Velocity,Pitch,Roll,Yaw,Dynamic Pressure,cp,parachute_deploy_gain,Wind Speed,Mach,omega_x,omega_y,omega_z,Cmq
0,31.2221860000000042,131.010383999999988,3.00000000364323682,0,0,0,0,0,2.2828121974499247,0,0,69.9999999962342088,0,113.699999993883324,0,15.2880000000000003,0,0,0,0,0,0,-0
0.01,31.2221859999997946,131.010384000000556,3.00000016469923247,0,0,0,0,0,34.2421869617492334,9.11367326775851009e-12,8.66229497295429822e-12,69.9999999962370651,-4.92863947922479589e-13,113.699999993882884,5.08594204168408172e-23,15.2880000000000003,0,0,2.67827100510624443e-14,-3.65918233213857746e-19,7.58941520739853104e-19,4.81114714040442593e-19,-1.83541113936281872e-32
0.02,31.2221859999996028,131.010384000001039,3.00000030885429547,0,0,0,0,0,25.8718762377664078,1.96992978605390895e-11,1.88456988716431921e-11,69.9999999962400494,-1.04152381447771591e-12,113.699999993882386,2.37621641206600858e-22,15.2880000000000003,0,0,5.78911013494094702e-14,-7.28448334638698292e-19,1.51788304147970621e-18,9.75781955236953991e-19,-7.93451985123442364e-32
0.03,31.222185999409362,131.010384001586402,3.00018176030779937,18.6493779029494604,-0.000129237623237530007,10.7928899806483045,-1.97644583900689674e-05,3.34983967390763571,180.342193598546658,0.0785672533977095078,0.0490694047558625918,69.9999999976775626,-4.2497891361524094e-12,113.699999994705607,0.00377978965327356543,15.2880000000000003,0,0,0.000230888677896110966,2.88330015245363835e-17,-7.25223402354589416e-10,1.08188208080271277e-11,1.51197624781400831e-13
0.04,31.2221859959356287,131.010384010943454,3.00162780953569674,9.74253989061216075,-4.88763086122285772e-05,51.6475445943311158,1.54548216767323456e-06,3.34965665682309899,548.635972453807767,0.346420694310776434,0.171860503977579737,70.0000000036447574,-2.28205307288861013e-11,113.699999999565534,0.0734838809649275282,15.2880000000000003,0,0,0.00101804013696402693,1.80009747884589399e-15,-1.58734069119923437e-08,2.61929145365345784e-11,1.45916869803439425e-11
0.05,31.222185985910329,131.010384038045004,3.00715844163023283,5.5769968489095687,-4.21135943534799539e-06,75.3242160169835273,4.73080294831520123e-05,3.34902689347595528,761.698429882464552,0.947854334293939504,0.409211128642743283,70.0000000010935537,-1.04766136577077691e-10,113.700000013612069,0.55013262299765131,15.2880000000000003,0,0,0.00278549703395658196,1.95473045844392346e-14,-1.13584749331540247e-07,4.14067569904437612e-11,2.85688606727574374e-10
0.06,31.222185966868647,131.010384089593572,3.01868664272593046,4.48500474963244322,2.31139019787050305e-05,56.3605563030587007,9.71465785775115924e-05,3.34799244711343214,590.487539073720654,1.60618980149218604,0.665693519146445256,69.9999999197690244,-2.82941102348924619e-10,113.700000040305838,1.57971028663545732,15.2880000000000003,0,0,0.00472017413217633904,1.01936766184118274e-13,-4.07864410983111553e-07,5.76522069423461223e-11,1.73837509686130208e-09
0.07,31.2221859390775336,131.010384164863126,3.03600551209402658,4.00448286551149391,4.63712119495135773e-05,85.8192455386477917,0.000147926970097503541,3.34656708333141317,855.293774977913927,2.27788210706903049,0.926660947343454056,69.9999996219982279,-5.49831570978999292e-10,113.700000079276109,3.1772067926123353,15.2880000000000003,0,0,0.00669410445039518576,3.35900025920073467e-13,-9.92070622953462368e-07,7.83315922772719921e-11,5.99658406989250883e-09
0.08,31.2221859009658012,131.01038426812616,3.06033476575187802,3.77263127792190334,7.06371256062416025e-05,17.6076228145981588,0.000196957592070898702,3.34480227118667583,241.217198863884818,2.92612482887636283,1.17954495655796454,69.9999989088305909,-9.15694670892462832e-10,113.700000132739973,5.24285298735243899,15.2880000000000003,0,0,0.00859912396431777512,8.49635706706491564e-13,-2.01744800413265681e-06,1.10032289818440005e-10,1.56647792516492608e-08
0.09,31.2221858556197738,131.010384390989856,3.0892797608365723,3.74258231141200604,9.5325675231994802e-05,53.4176180048964397,0.000237730218002333866,3.34289666486112669,563.093737704317618,3.46187703891102627,1.39384941462988121,69.9999975134546446,-1.31671842773002699e-09,113.70000019638816,7.33844512707370811,15.2880000000000003,0,0,0.0101735644468633635,1.80613395740032365e-12,-3.4856561047658452e-06,1.59232278560273843e-10,3.20202005890100843e-08
0.1,31.2221858028175774,131.010384534057465,3.12301320909491364,3.81071421019783685,0.000121971080758598364,50.732831688561788,0.000271545837515448313,3.34090447591365036,538.7437595981919,3.9029133825176725,1.57567038389986336,69.999995157830341,-1.72222432289554893e-09,113.700000270567642,9.32732681847184431,15.2880000000000003,0,0,0.0114696609641860067,3.37914451533694905e-12,-5.48904943388414521e-06,2.34452541412924053e-10,5.68476506314615152e-08
0.11,31.2221857431700727,131.010384695667796,3.16106164078641116,3.84323765504598036,0.000147145408783231387,40.0848474374385688,0.000307099758177995722,3.33859717034531034,442.865639305294906,4.36819921201157246,1.76578242121538631,69.9999915253729768,-2.07703942468805025e-09,113.700000354470319,11.6837607126815346,15.2880000000000003,0,0,0.0128370221364947634,5.76365694334259916e-12,-8.08162139954488366e-06,3.4437809457680147e-10,9.36754562129998513e-08
0.12,31.2221856770245907,131.01038487487628,3.20315617196047642,3.86558564807459826,0.000171348089099210797,43.7480799143332604,0.000342946594964391399,3.33600966231316054,475.585948135404465,4.83801864946757032,1.95742650583495204,69.9999862600106582,-2.3147200577597177e-09,113.700000447673773,14.3321420062794882,15.2880000000000003,0,0,0.0142177082532951912,9.17772063248746377e-12,-1.13223702306849879e-05,4.98555567062495836e-10,1.45354343598177095e-07
0.13,31.2221856047215205,131.010385070757366,3.24903338361815308,3.95285669440916232,0.000198169826234992146,48.2585391180499741,0.000371981107240517913,3.33344523512332414,515.915632623689476,5.21512035057569623,2.1172615234944101,69.9999789703044399,-2.35265113573284059e-09,113.700000549782459,16.6533950244453948,15.2880000000000003,0,0,0.0153259223232261182,1.38588880633063252e-11,-1.52681962163171846e-05,7.07166414280215559e-10,2.11287244421402401e-07
0.14,31.2221855263490333,131.010385283071088,3.29862557546706325,3.99981420118284792,0.000223008237377726162,44.9721767850953427,0.000403855591455553264,3.33052592490198407,486.239086056840392,5.63167615200940475,2.29059513099545553,69.9999692426645623,-2.0964169591742506e-09,113.700000660771011,19.4199179783547713,15.2880000000000003,0,0,0.0165500839355928395,2.00553635588333716e-11,-1.99811439493909854e-05,9.81252131659242702e-10,2.9859131057555361e-07
0.15,31.2221854420015994,131.010385511560628,3.35186028506811029,4.05975476911301225,0.000248539990764711958,43.4637160193537753,0.000433543226731567866,3.32747422849243879,472.54218587214001,6.01888316560526437,2.45383766868271946,69.99995661705006,-1.43188768134039915e-09,113.700000780625842,22.182048585914238,15.2880000000000003,0,0,0.0176879988684610287,2.80404916713566325e-11,-2.55291719775422389e-05,1.33309260321839681e-09,4.07727088477750495e-07
0.16,31.2221853515819241,131.010385756490507,3.40881389436676407,4.08854462484130732,0.000272210944932510383,34.4023069357135967,0.000465877824565354701,3.32404684464906053,391.12189082975641,6.44303061809316624,2.62971580822363071,69.9999405987561403,-2.27841984783363582e-10,113.700000909623355,25.4183784408083007,15.2880000000000003,0,0,0.0189344747787753703,3.81042963600432359e-11,-3.19913711614788564e-05,1.77662362644707755e-09,5.46937370926295155e-07
0.17,31.2221852554099399,131.010386016990765,3.46923909377793649,4.13347468842419552,0.00029684158695823977,43.4155809381403728,0.000495744973995866601,3.3205135250562221,471.78125980632376,6.83404379119085981,2.79420112365087148,69.9999206448319882,1.67575894446247236e-09,113.700001047478835,28.5969980778046526,15.2880000000000003,0,0,0.0200835795555658371,5.05622819343119236e-11,-3.94162603380559734e-05,2.32482468580976756e-09,7.14768170397066036e-07
0.18,31.2221851530022434,131.010386294375877,3.53351204963262022,4.16207877285686756,0.000320492787063832857,36.2151660219171347,0.000526966735016640565,3.31665933612355879,407.101567211914528,7.2444022294323478,2.96528531587496236,69.9998961790314524,4.45070668055043651e-09,113.700001195059045,32.1341903991183955,15.2880000000000003,0,0,0.0212895378539265934,6.5741708189353534e-11,-4.79243856484647045e-05,2.99669991322666987e-09,9.21230820748327094e-07
0.19,31.2221850444828668,131.010386588308563,3.60153760019172342,4.17456309251139679,0.000342914278589344943,40.9041800427263027,0.00055982867240863632,3.31244583927210501,448.953132831826849,7.67810673790947895,3.14433961722118216,69.9998665624008964,8.30674092292676784e-09,113.700001352409558,36.0967170721845179,15.2880000000000003,0,0,0.0225641073333706747,8.40032927522686365e-11,-5.75836346763551867e-05,3.80911503044151526e-09,1.17316671380156179e-06
0.2,31.2221849296486234,131.01038689934137,3.67347464118590317,4.20078915399145636,0.000366573034254704516,37.5214898208491761,0.000590466919182690893,3.30812712915434881,418.515630199161365,8.08216006412957277,3.31318683933006453,69.9998311045104487,1.34800080829191884e-08,113.700001520067786,39.9955165273270055,15.2880000000000003,0,0,0.0237515420632470921,1.05728805481567758e-10,-6.85028882131185225e-05,4.78351733027568889e-09,1.4690610466811608e-06
0.21,31.2221848088436893,131.01038722653837,3.74905730552401684,4.22722562033261262,0.000390310433246848657,36.0064697775761644,0.000620601272787201603,3.30359776763142721,404.818761014464428,8.48018829437500621,3.47992805775657654,69.9997890742529592,2.02433263776548733e-08,113.700001697833756,44.0315784885794201,15.2880000000000003,0,0,0.0249212734096428447,1.31320595517854955e-10,-8.07208291683553139e-05,5.93661589182972911e-09,1.81631626331753899e-06
0.22,31.2221846819136672,131.010387570319409,3.82840670130281646,4.2176244726165093,0.000410696285369717819,43.5935627685881499,0.000655758920494764063,3.29841875767922987,472.542185872136486,8.94831461811120121,3.67066782999472752,69.9997397083127737,2.88926538075102191e-08,113.700001886238866,49.0266756129506618,15.2880000000000003,0,0,0.0262970098082033268,1.61186003536399267e-10,-9.43348117723774896e-05,7.29106197993283208e-09,2.23980539128825791e-06
0.23,31.2221845484548304,131.01038793178239,3.91183756115468473,4.25320537954326383,0.0004356497720089569,36.207459360748949,0.000683686922722525747,3.29355466128287455,406.340642146102141,9.31799902525197865,3.82760028360492655,69.9996821549030983,3.9766623706965518e-08,113.70000208621326,53.1608354775167555,15.2880000000000003,0,0,0.0273834518362109196,1.95767624418301473e-10,-0.000109505708778552874,8.87784718088286285e-09,2.70740355927931971e-06
0.24,31.2221844093456014,131.010388308538637,3.99866964940866776,4.27135264557773553,0.00045883378920767232,37.3286080087975947,0.000713911697673520317,3.2882529474867046,416.232824001711379,9.7203332459195213,3.9956861712714935,69.9996155408946805,5.32509871046438109e-08,113.700002296918697,57.8502398901668755,15.2880000000000003,0,0,0.0285658473732890855,2.35534745143307651e-10,-0.00012617657385590063,1.07071802425012536e-08,3.25424194465518317e-06
0.25,31.2221842644570167,131.010388700938847,4.08900446593793809,4.29698686981540234,0.000482848983334858658,38.3649566400252979,0.000742483922667206905,3.28284626589867479,425.364080791506922,10.1009615935159527,4.1562806652626314,69.9995389781877293,6.97479781374676735e-08,113.700002518962805,62.4689963611702623,15.2880000000000003,0,0,0.0296844577155840929,2.80933085873043406e-10,-0.000144451636124542286,1.28055329635332884e-08,3.87142965072796435e-06
0.26,31.2221841140756986,131.010389108203611,4.18262110402873155,4.32755423691547136,0.000507438991606541483,41.7865661614553829,0.000769736419800412888,3.27732087646770287,455.80158342417883,10.4644497354123782,4.31094871887776954,69.9994515368878751,8.97024502886333285e-08,113.700002752408935,67.0452443356678742,15.2880000000000003,0,0,0.0307527002093570291,3.32431765373287754e-10,-0.00016436315770221847,1.51925047864838523e-08,4.56355359993810651e-06
0.27,31.2221839578137299,131.010389531387915,4.27982215321117465,4.33742811840656994,0.000529702335486379188,38.2242911032538473,0.000800211178185602123,3.27123004841987974,423.842199659872563,10.8736118498261902,4.48123226393084195,69.9993522521519935,1.13587393208351198e-07,113.700002998306658,72.3900346549699947,15.2880000000000003,0,0,0.0319551720828357214,3.90484337603431509e-10,-0.000186059811616844751,1.79019946498730075e-08,5.36790267753501075e-06
0.28,31.2221837957695953,131.010389970223883,4.38053283172365671,4.35979025650862262,0.000553527510562852902,44.1207307275094038,0.000828072271385077072,3.26514386100193477,476.346873201222195,11.2478718916014184,4.63949182586423614,69.9992400702920463,1.41938296327408329e-07,113.700003257081931,77.4582454645660761,15.2880000000000003,0,0,0.0330550782151640757,4.55595825375374429e-10,-0.000209619220926101062,2.09616181379585756e-08,6.25569396794615011e-06
0.29,31.2221836278828384,131.010390424876022,4.48480177698289584,4.38135974025744623,0.00057737648726709299,35.3536197607625553,0.000855659611391794222,3.2588361863853601,397.970310422111766,11.6195889013503368,4.79682445966682813,69.9991139044831527,1.7532937395312496e-07,113.700003529427192,82.6616578528940948,15.2880000000000003,0,0,0.0341475147840558241,5.28268525040872464e-10,-0.000235137545717689308,2.44023887909330158e-08,7.24907222782668121e-06
0.3,31.2221834544381096,131.010390894570321,4.59240982688131272,4.39617507281761988,0.000600356665334356751,33.1490797613948018,0.000884158719714270942,3.25217107922164672,378.185945710871067,12.0052186882677852,4.95887519756831807,69.998972627127344,2.14383684192303281e-07,113.700003815596887,88.2385269149682756,15.2880000000000003,0,0,0.0352808420099011907,6.09029939588318471e-10,-0.000262641159892275291,2.82471356422800846e-08,8.36561857411674722e-06
0.31,31.2221832755909574,131.01039137888381,4.7032380575360353,4.42235615181669761,0.000624899913490765827,34.9528590290802086,0.000910025197609511073,3.24555398289468222,394.16562209302117,12.3556398803864607,5.10879227158949156,69.9988150759387651,2.59766173767152649e-07,113.700004116072961,93.4639131761651498,15.2880000000000003,0,0,0.0363107024397255479,6.98403788157463991e-10,-0.000292187019282257228,3.25229566712151178e-08,9.57826248689966157e-06
0.32,31.2221830914257232,131.010391877587324,4.81722282885169673,4.45155794779377789,0.000649944303128982049,38.0379859115142835,0.000934821026682707218,3.23882361682650144,421.559393462426954,12.6924793110791878,5.25399282922068878,69.9986400687318024,3.12179641788393281e-07,113.700004431478234,98.6283237403037703,15.2880000000000003,0,0,0.0373006526995305274,7.96905013945712519e-10,-0.000323836613651358495,3.72580440687311147e-08,1.09050644159405278e-05
0.33,31.22218290196043,131.01039239063175,4.9343519698327194,4.48019701204722054,0.000675004219851668761,37.7093551175013246,0.000959261610436717115,3.23189933669563656,418.515630199168186,13.0256844327599097,5.39788776638052958,69.9984463826819052,3.72372687880250348e-07,113.700004762578004,103.87354288045799,15.2880000000000003,0,0,0.0382799263433428877,9.05047894999210997e-10,-0.000357667290238851605,4.24836225249657193e-08,1.23603484615852587e-05
0.34,31.222182707020778,131.010392918491164,5.05476263450916541,4.49049305198152204,0.000697378143373914754,29.5227085089536203,0.000987142430045659337,3.22427911658814059,345.465636880756449,13.4081741031825317,5.55863100914667463,69.9982327456812641,4.41143957445642244e-07,113.700005110463266,110.062177258613033,15.2880000000000003,0,0,0.0394040418267209702,1.02333461745717641e-09,-0.000393806243978271305,4.82396483202145133e-08,1.40087103268591529e-05
0.35,31.2221825067937928,131.010393460657156,5.17831168393457641,4.50711781535187139,0.000720712543856854714,32.3530371383660977,0.00101333646443235357,3.21661305844837253,370.576570052703289,13.7686530554979374,5.71176159517965232,69.9979978091806316,5.19362042776584697e-07,113.700005475786654,116.058400304168075,15.2880000000000003,0,0,0.0404634764462946869,1.15232390415689195e-09,-0.000432299813734132244,5.45552399130644805e-08,1.57912776608867467e-05
0.36,31.2221823012122108,131.010394017312592,5.30505329869157727,4.52767240178778962,0.000744729708600240731,36.5526511043957356,0.00103828652712813154,3.20885713174522058,407.862523277719447,14.1132764952183631,5.85938873702120233,69.9977401961163537,6.07939829707116331e-07,113.700005859608282,121.939407863977465,15.2880000000000003,0,0,0.0414763190843316643,1.29254043868676357e-09,-0.000473255972436325862,6.14699225552327593e-08,1.77198251922661022e-05
0.37,31.222182090341061,131.010394588280832,5.43493909097431604,4.55039311415752579,0.00076918150115683735,34.6835787828593496,0.00106234372950533948,3.20097384516078431,391.121890829766642,14.446930470491731,6.00318739776240751,69.9974584775585669,7.0785096329375243e-07,113.700006262864989,127.771540530283914,15.2880000000000003,0,0,0.042456928843506235,1.4445318520011827e-09,-0.000516746496826029863,6.90186481791334769e-08,1.98053803654614999e-05
0.38,31.2221818741223878,131.010395173719473,5.56801609611825477,4.56315131642791805,0.000792019287104061913,36.2353933787001239,0.00108827974821363053,3.19255015153205646,404.818761014460279,14.8084413239345949,6.1564787166299757,69.9971511865591651,8.20121521966083772e-07,113.700006686723384,134.244380272309172,15.2880000000000003,0,0,0.0435194095147296359,1.60882660749176723e-09,-0.000562873331420229127,7.72423853301427293e-08,2.21128406351508731e-05
0.39,31.2221816525004634,131.010395773780147,5.704329739781131,4.57922628245169783,0.000815489716137310881,30.9425419640016202,0.00111309493143926189,3.18402316666385765,357.640624933827439,15.1559126959619999,6.30488433186772657,69.9968167722787769,9.45855271408966431e-07,113.700007132429306,140.616382889747683,15.2880000000000003,0,0,0.0445406353688629561,1.78596578656278109e-09,-0.000611756345505213715,8.61868943159197994e-08,2.45968452142520012e-05
0.4,31.2221814256617982,131.010396387955836,5.84373750626454935,4.59349479979191955,0.000838670682925170751,29.5834243852937959,0.00113797512888990423,3.17521289611434332,345.465636880754005,15.505969085398343,6.45410901523083158,69.9964536498379317,1.08621525395706341e-06,113.700007600947828,147.185065961143067,15.2880000000000003,0,0,0.045569462889951777,1.97653506559195414e-09,-0.000663427505461186432,9.58835144134294998e-08,2.72901174189528038e-05
0.41,31.2221811937141673,131.010397015953487,5.98615797249314241,4.60939449845229365,0.000862163931524819621,33.360545626359837,0.00116210409424792778,3.16624854525325983,378.946870776686467,15.8471768437686258,6.60022848408685459,69.9960602026584695,1.24241947051318175e-06,113.700008093413757,153.73182724817184,15.2880000000000003,0,0,0.0465722905345462151,2.18109996727848554e-09,-0.000717942131686907965,1.06367950505874699e-07,3.01820283711074823e-05
0.42,31.2221809567080335,131.010397657635991,6.13155423418529733,4.63387609959193458,0.000887317919769279608,37.5676427387571721,0.001183742077125155,3.15743374731593907,416.232824001711379,16.155026338188506,6.73482947265292431,69.9956347739890248,1.41574639558456e-06,113.700008611107208,159.760443802515937,15.2880000000000003,0,0,0.0474770882933877245,2.400206535531791e-09,-0.00077537935552726017,1.17680930846389008e-07,3.32294321368729263e-05
0.43,31.222180714655078,131.010398312971745,6.27991949833728835,4.65367427313455995,0.000911660169575580258,33.0386483003103493,0.00120612360190941372,3.14823214930187856,375.903139513433644,16.4750454055619109,6.87353555569934649,69.9951756835756242,1.60752723178871754e-06,113.700009155418982,166.15023929888028,15.2880000000000003,0,0,0.0484176551665520677,2.63438237315801404e-09,-0.000835821567166909188,1.29864614855892046e-07,3.65287677570896608e-05
0.44,31.2221804673911407,131.010398982407111,6.43138341412837455,4.65757387742934892,0.000932929976641759203,30.4788052564327749,0.00123214974254881528,3.13809943757763454,353.075012538921555,16.8483715860516412,7.03046484016701978,69.9946811832270441,1.81916859536649675e-06,113.700009728069276,173.762989227436179,15.2880000000000003,0,0,0.0495148886868988364,2.88411342836306464e-09,-0.000899417740154189794,1.42975581697416844e-07,4.01983191819108926e-05
0.45,31.2221802146980103,131.010399666535704,6.58611776122768511,4.65827001030579346,0.000953562143933252499,35.4620561517945134,0.00125873275223327787,3.12754579585638304,397.209385356286873,17.2316459864824161,7.19073264961644831,69.9941493995125938,2.05218870761162579e-06,113.700010330973456,181.755888424112015,15.2880000000000003,0,0,0.0506413642318551335,3.14987863732273609e-09,-0.000966369542842942814,1.57083782729145849e-07,4.41725079750487196e-05
0.46,31.2221799565319174,131.010400365476642,6.74415901717088939,4.66907507286434065,0.00097630283571516251,41.3913707355688842,0.0012823814722795761,3.11722412848720953,449.71405889764344,17.5754687869478978,7.33738035579407555,69.9935783582983362,2.30821229426708146e-06,113.700010965912341,189.078525726536213,15.2880000000000003,0,0,0.0516519027755614896,3.43223060675433133e-09,-0.00103681314204437207,1.7224885851047691e-07,4.83373548649469587e-05
0.47,31.2221796928065203,131.010401079464799,6.90557672428163105,4.67806301106434042,0.000998761260684927557,28.0209900204918974,0.00130616618884544979,3.10657060381263461,331.007810630253402,17.9233234115620377,7.48533101007974988,69.9929660462147325,2.5889364060732201e-06,113.700011634803886,196.634049649816575,15.2880000000000003,0,0,0.0526742959306323727,3.73170463860384924e-09,-0.0011108841623615434,1.88532207060213475e-07,5.28148505664365441e-05
0.48,31.2221794239793269,131.010401807256216,7.07001851744381948,4.68642527483421745,0.00102109091231145262,27.6007969606275125,0.00132978852885184593,3.09563681785184297,327.203122301157407,18.2709832353803314,7.63313726727991071,69.9923104035261474,2.89614261094227829e-06,113.700012338884164,204.33305198470137,15.2880000000000003,0,0,0.0536961221459722679,4.04904859899578719e-09,-0.00118849531779471017,2.05948560519311644e-07,5.75998398329450787e-05
0.49,31.2221791502289392,131.010402548365278,7.23734841566291642,4.70156796398202914,0.00104489945272251677,34.6487244505178253,0.00135120419031512233,3.08484494341801163,389.60000969812296,18.589315545984995,7.7707981814672209,69.9916093757078812,3.23165731652504743e-06,113.700013079832303,211.511801733856089,15.2880000000000003,0,0,0.0546317638991248022,4.38486615800834454e-09,-0.00126967773493266863,2.2453662401782158e-07,6.26054017926546362e-05
0.5,31.2221788715876762,131.010403302704333,7.40754387012007864,4.72212438923579736,0.00106996435823571525,35.6033845714535389,0.00137072557486675028,3.0741588573465477,397.970310422105001,18.8826594549893159,7.8998011517407587,69.9908609011483378,3.5973597360057951e-06,113.700013859590555,218.236320199079358,15.2880000000000003,0,0,0.0554939729313439212,4.73968531279909998e-09,-0.00135450679800636423,2.44344941868023912e-07,6.78409867869358833e-05
0.51,31.2221785881337617,131.010404070060673,7.5805467220577798,4.73558879650721298,0.00109346949398930206,27.1956639286467201,0.00139183542187690463,3.06284319292573448,323.39843497208409,19.200774511812984,8.03722958125224807,69.9900628955037689,3.99519228958782199e-06,113.700014680103109,225.647740475438098,15.2880000000000003,0,0,0.0564289867670437692,5.11403675587933804e-09,-0.00144303978709531136,2.65418546512062939e-07,7.34915902759761199e-05
0.52,31.2221782998621009,131.010404850463146,7.75636774499504789,1.31958843565854544,0.00056316277913886863,32.689852744063927,0.001314623870712614,3.24844320614527282,372.098451184341457,19.0363953645238659,8.1776173818550344,69.9892130391633316,5.492918540906312e-06,113.700016677738333,221.796962584099532,15.2880000000000003,0,1.25322153529023828,0.0559460053052507969,5.50908307029972103e-09,-0.00153132563770457843,7.05998604643552036e-06,7.73188756365679545e-05
0.53,31.2221780066033432,131.01040564438685,7.93510707462571574,1.38059759206293786,0.000593142583160047982,34.3321970244144765,0.00133529695831472806,3.24170655819962228,386.55624643486243,19.3566326574820771,8.31834074996477568,69.9883297877428419,1.66068341294232001e-05,113.700028916239262,229.318094944014348,15.2880000000000003,0,1.25798705417412804,0.0568872644297875873,5.918775293608982e-09,-0.00155736238016571799,7.07190763841591009e-06,7.99549386820377661e-05
0.54,31.2221777082341596,131.01040645213817,8.11683436145873038,1.43959042853636765,0.000622846463628004728,30.1286588930265893,0.00135570419961731129,3.23477513569929176,349.270324209843579,19.6749617354648052,8.45835227829728353,69.9874310465235681,2.77393915160240888e-05,113.700041181606196,236.918472121249465,15.2880000000000003,0,1.26274219083924066,0.0578229212294950265,6.32413359179950394e-09,-0.00158568331703156816,7.08490372325769853e-06,8.27462996955037486e-05
0.55,31.2221774050133796,131.010407273008809,8.3013487873081413,1.49712705284419734,0.000652417778308126686,31.9430143250796235,0.00137548071388024647,3.22768228626920406,365.250000591990727,19.9856670779403274,8.5956944061659204,69.986515494669419,3.8892272840901659e-05,113.700053475264113,244.456018014056525,15.2880000000000003,0,1.26747910455705126,0.0587361782020198453,6.72592003139811287e-09,-0.00161632981465706978,7.09901107845673274e-06,8.56759969060361782e-05
0.56,31.2221770969432164,131.010408106992742,8.48865023743776881,1.55366960126547693,0.000682039583826200119,29.8005825868330376,0.00139434569590953265,3.22046042772423036,346.226561946578727,20.2843543345776745,8.7288612177051057,69.9855817777927882,5.00672282013429068e-05,113.700065799075631,251.812915797471419,15.2880000000000003,0,1.27219795787868373,0.0596141206438673202,7.12472199752582007e-09,-0.00164938353550743845,7.11428406833898431e-06,8.87330820408335373e-05
0.57,31.2221767840925928,131.010408953902669,8.67868692756081295,1.60781706892573872,0.00071106772127171522,29.4641705487473438,0.00141355543928581621,3.21298254895897939,343.182829683302316,20.5907129529828765,8.86459312239677999,69.9846285011901585,6.12660838807860985e-05,113.700078154889709,259.471981791490123,15.2880000000000003,0,1.27689853286014254,0.0605146142393505337,7.52121173003430067e-09,-0.00168491230232760999,7.13077175381965505e-06,9.20117909059760573e-05
0.58,31.222176466442594,131.010409813790062,8.87147519923523475,1.65852725640585352,0.000739013088101964587,38.8559432208015494,0.00143396999165252008,3.20514174190726164,426.12500585731533,20.9183870505675991,9.00756190642203691,69.9836542255610397,7.24907459590559651e-05,113.700090544764493,267.791044678910623,15.2880000000000003,0,1.2815804674545821,0.0614777583884204559,7.91600345499739329e-09,-0.00172300060137544047,7.14853132407930765e-06,9.55873412769053273e-05
0.59,31.222176143620672,131.010410687668013,9.06730566864901277,1.70974617977450127,0.000767669673536151669,31.4604680199199613,0.00145244294493117516,3.19728146562566362,360.68438819711065,21.2180211926929836,9.14086508664030184,69.9826574384173199,8.37432345053346262e-05,113.700102971380772,275.512464588867999,15.2880000000000003,0,1.28625071724969553,0.0623585011103637427,8.30937280112386536e-09,-0.00176381466296246254,7.16765830009417221e-06,9.92513492843751747e-05
0.6,31.2221758158248761,131.010411574998102,9.26602654465188635,1.75619129492721981,0.000794616465145517098,27.9372610053988666,0.00147321847756748045,3.18890908400666584,329.48595949860578,21.5565376911751301,9.28741975710187617,69.9816365758311036,9.50256696160358706e-05,113.700115436716445,284.368326719410277,15.2880000000000003,0,1.29090450433024651,0.0633535229728688504,8.70217925826117437e-09,-0.00180740165704394501,7.18819676633654437e-06,0.000103324660938077585
0.61,31.2221754830115366,131.010412475899074,9.4676735137546153,1.80052409851629847,0.000821019000322919406,32.7704633603078292,0.00149420254361508505,3.18024772883618834,372.09845118432969,21.9011111952049475,9.43598494213219752,69.980590016221953,0.000106340272253157981,113.700127943199234,293.526352648848388,15.2880000000000003,0,1.2955423473665908,0.0643663526802651376,9.09504519338118949e-09,-0.00185386289061353232,7.2102160912797276e-06,0.000107672713250777703
0.62,31.2221751452877854,131.010413390079663,9.67216539506974016,1.84859467219200857,0.000849523543164682642,40.7950432738703199,0.00151100083823327096,3.1718627397944763,442.86563930529212,22.1820482282290783,9.56268844274155683,69.9795160784728267,0.000117689372373188332,113.700140493158784,301.099171330860884,15.2880000000000003,0,1.30016397978808662,0.0651921640183587975,9.48871906828263416e-09,-0.00190327470400734758,7.23377567474353881e-06,0.000111958349795486834
0.63,31.2221748024851742,131.010414317998055,9.8796346204988339,1.89372080413865329,0.000877096797722579785,23.0438597871814217,0.00152879251185446784,3.16310740388623923,286.112512747078938,22.4814186759977837,9.69563726287068484,69.9784130611718496,0.000129075357552667168,113.700153089376514,309.275163448945534,15.2880000000000003,0,1.30477011645342622,0.0660721565894425017,9.883742980294313e-09,-0.00195576492898394882,7.25895880581040962e-06,0.000116596384427721975
0.64,31.2221744551438753,131.01041525818539,10.0896643845120497,1.93483632695790031,0.000903120888059302188,22.6181337132201179,0.00154838755552154264,3.1538450435150347,282.307824417967538,22.8122638206460984,9.83930169244562869,69.9772792113702167,0.000140500721712335456,113.700165733741798,318.438544277813321,15.2880000000000003,0,1.3093476876897463,0.0670446585414437579,1.02814491819685897e-08,-0.00201128074375787327,7.28576634778186624e-06,0.000121668187397599962
0.65,31.2221741032472551,131.010416210687055,10.3022695263262314,1.97881142593495318,0.000930797193926369672,40.1372781113984658,0.0015647187567106955,3.14478131105967806,436.778144778747503,23.0938121248362442,9.96601139057644581,69.9761127490418602,0.000151968021950146418,113.700178429000559,326.340706433216326,15.2880000000000003,0,1.31390856133314848,0.0678722845807574054,1.06824648882128089e-08,-0.00206992266446019485,7.31426943830528327e-06,0.000126758426288074808
0.66,31.2221737463302738,131.010417176767646,10.5178124163172786,2.0206070296048444,0.000957825962100854428,34.1065982671191605,0.00158154763806121344,3.13538995224113037,383.512515171600171,23.3861750424290236,10.0963545455571122,69.9749118442556011,0.000163479908913926285,113.700191178633887,334.648895271627794,15.2880000000000003,0,1.31844884807021101,0.0687317008925196898,1.10869377623789211e-08,-0.00213191436834251269,7.34459874621026519e-06,0.000132204748476451496
0.67,31.222173384564325,131.01041815596119,10.7361622253560327,2.05870134884468126,0.000983434232666672648,23.4107159041913349,0.00159996905333177099,3.1254852806487845,289.156244010342505,23.707090903297825,10.2364109008305579,69.9736745709049046,0.00017503919988579863,113.700203985397664,343.889113553167647,15.2880000000000003,0,1.32296861410145317,0.0696750405683406182,1.14958174700484242e-08,-0.00219730285647075189,7.37680462122521671e-06,0.000138126555216629046
0.68,31.2221730181051775,131.010419147844175,10.957200289991059,2.09633920465544321,0.00100912602387349731,29.2883042332077359,0.00161765838915503644,3.11540958330650541,340.899992485846269,24.0193463787997707,10.3734306893680142,69.972398958167318,0.000186648808731314561,113.70021685217236,353.000279863840547,15.2880000000000003,0,1.32747178247011655,0.0705929341341356292,1.19100028754325982e-08,-0.0022661422797802741,7.41094113916943359e-06,0.00014432718336133919
0.69,31.2221726470266177,131.010420152216057,11.1808714923428436,2.1354142503803466,0.00103579398018481951,36.1192614465452664,0.00163333666039200518,3.10538126744235488,401.014072685363431,24.3022206562739918,10.5003101948875166,69.9710829641680476,0.00019831939841926993,113.700229792997035,361.356000776322503,15.2880000000000003,0,1.33194930518844878,0.0714244827517453856,1.23303194493165126e-08,-0.00233850326620076631,7.44707047726176429e-06,0.000150686515442142365
0.7,31.2221722712034406,131.010421169417441,11.4072749168979186,2.17330554401049625,0.00106219309908568227,30.2525252654096697,0.00164889032157664256,3.0950996967674631,349.270324209852845,24.5861651192761279,10.6274830083304774,69.9697246203096626,0.000210038718044855193,113.70024278941986,369.841377089002037,15.2880000000000003,0,1.3364043426865706,0.0722591830882814562,1.27572974247807812e-08,-0.00241452593157572438,7.48528902279416573e-06,0.000157399618538710338
0.71,31.2221718906851535,131.010422199313751,11.636374291847849,2.20843408038897682,0.00108753217603372514,24.8147100336061293,0.00166542074910156932,3.08436188481066198,301.331264063405797,24.8891857352712016,10.7611218375223263,69.9683217805480098,0.0002218176468593508,113.700255855744032,379.005691962512628,15.2880000000000003,0,1.34084158167369383,0.0731499552153849347,1.31917475544507856e-08,-0.00249429072312225752,7.52566593561257888e-06,0.000164599765870696561
0.72,31.2221715054736748,131.010423241899844,11.8681702752271754,2.2404059141579209,0.0011115843407177022,30.440342667333006,0.00168319611707546768,3.07309165874393964,350.79220534145287,25.2159200560976906,10.9028173479771819,69.9668722688642788,0.000233659526210095456,113.700268995522265,389.013189128916054,15.2880000000000003,0,1.34525888879333411,0.0741104295691328574,1.36343841870252634e-08,-0.00257790335161022389,7.56828398153119495e-06,0.00017234680473763366
0.73,31.2221711155661623,131.010424297183647,12.1026672819250933,2.27638457609941147,0.00113788545822990079,38.5767890294846723,0.00169731600571687612,3.06218978757617011,422.320318528233997,25.4864114702391795,11.0251564982863144,69.9653738258259352,0.000245567852417483254,113.700282212478953,397.394899875845567,15.2880000000000003,0,1.34964933202473869,0.0749056110196604785,1.40858797724268368e-08,-0.00266547909155668943,7.61323237109299238e-06,0.000180109233060386331
0.74,31.2221707209039998,131.010425365324522,12.3399128540999623,2.30977674497979857,0.00116317814045574681,24.0527521816963699,0.00171232745460805631,3.05082339780132594,294.482813471059444,25.7749031540708309,11.1535911236916281,69.9638241783000296,0.000257546183192678248,113.700295510482491,406.433126715945548,15.2880000000000003,0,1.35402248028267524,0.0757537026997547186,1.4546916794130622e-08,-0.00275713525948070425,7.6606020005438981e-06,0.000188407083293945174
0.75,31.22217032182051,131.010426445416186,12.5796510171989766,2.34115942255481579,0.00118768278915497077,28.1251493360593798,0.00172784694088951268,3.03904280150534767,330.246885564414924,26.0752761835413907,11.2860264918693343,69.9622209953326717,0.000269598202382869648,113.700308892979606,415.951648437428844,15.2880000000000003,0,1.35837370842556471,0.0766367210257327541,1.50187704105144879e-08,-0.0028528354417059012,7.71040743748796603e-06,0.000197214004605834973
0.76,31.222169918212785,131.010427537738735,12.8219637161743076,2.37347882307290581,0.00121289368512506328,30.2954207266664035,0.00174189615838506433,3.02724262981625358,349.270324209861712,26.3550198655353007,11.4113122709486738,69.9605619051891381,0.000281727689093900005,113.700322364136809,424.914553033690936,15.2880000000000003,0,1.36270192891623743,0.0774591153882930178,1.55019246818359968e-08,-0.0029527348180480484,7.76275976589503862e-06,0.000206305022446943038
0.77,31.2221695100271184,131.010428642438114,13.0668947561581952,2.40541374108312889,0.00123814504240255929,28.3108169340753548,0.00175539282660638939,3.01524162932177919,331.76876669607077,26.6292562475377714,11.534631461809564,69.9588444747323166,0.000293938551160404199,113.700335928187798,433.793228468925406,15.2880000000000003,0,1.36700329412660615,0.0782653302032814968,1.59969827181083869e-08,-0.00305696534851866014,7.81776013167484156e-06,0.000215804921886521056
0.78,31.2221690973231105,131.010429759352576,13.3144002570938689,2.43485874849639705,0.00126234205241839543,23.2072544092316271,0.00176974149949180471,3.00273133437403672,286.873437812889904,26.9213850232548175,11.664011213379391,69.9570662161735015,0.000306234819072371026,113.700349589335957,443.3525092459098,15.2880000000000003,0,1.37128420135447682,0.0791241389708346732,1.6504778807251982e-08,-0.00316560071905221422,7.87548110715141688e-06,0.000225920169608749576
0.79,31.2221686801821043,131.010430888260885,13.5644194921142667,2.46251355066027466,0.00128581368649870274,33.0886125980628023,0.00178447615246536532,2.98978920154887584,373.620332315953419,27.2238911447992891,11.7968755228907138,69.9552245400801382,0.000318628364783124117,113.700363362912299,453.361194619583216,15.2880000000000003,0,1.37554377058236676,0.080013454752653021,1.70261585686481845e-08,-0.00327871155891928511,7.93599452851298387e-06,0.000236616188441956821
0.8,31.222168258398252,131.010432029722921,13.8171141544486851,2.49263461256354857,0.00131080424037655291,33.5293935557535434,0.001796787943026132,2.9770561081434006,377.42502064505743,27.4898954938063085,11.9171386841118707,69.9533168820771323,0.000331108107225886253,113.70037723178784,462.252835163983718,15.2880000000000003,0,1.37978531287694439,0.0807954957091931991,1.75613314163701266e-08,-0.00339652814479452208,7.99945708113330083e-06,0.000247507754648702469
0.81,31.222167832066372,131.010433183481041,14.0724131500595409,2.51989028801582204,0.00133450201727575634,21.747984185469349,0.00181021635640702143,2.96371610787746986,273.937492693991885,27.7786505230879328,12.0451284317986147,69.9513405222678983,0.000343686199612985811,113.700391211573759,472.003312240427476,15.2880000000000003,0,1.38400164530121672,0.0816444101931207283,1.81112527534481251e-08,-0.00351910220037486565,8.06593393942115888e-06,0.000259127126929027348
0.82,31.2221674013611903,131.010434349060091,14.3301835440423808,2.54550493499734998,0.00135750955559378367,27.9954825271157333,0.00182395590882357796,2.94993186986937772,328.725004432770049,28.0768798308558871,12.1762925932026089,69.9492927230130164,0.000356367215309143844,113.700405306887831,482.180556416480727,15.2880000000000003,0,1.38819260898597863,0.0825211778620858066,1.86769547803743868e-08,-0.00364645370741680571,8.13547363143549609e-06,0.000271380509196997115
0.83,31.2221669662666983,131.010435526503869,14.5904401161651425,2.57448636481383275,0.00138250366919582092,35.6340123797305637,0.00183475136389433385,2.9365201645488801,395.68750322465047,28.329523700779724,12.2917341252321037,69.9471706830732955,0.000369155866880966396,113.700419522766609,490.884928733776462,15.2880000000000003,0,1.39236294846881359,0.0832639717346287667,1.92589979636848322e-08,-0.00377871812523470968,8.20818656236411553e-06,0.000283747484700163407
0.84,31.2221665266836084,131.01043671608241,14.8532620012287495,2.60197577750616693,0.00140690822782867987,21.9342745732991347,0.00184578033407113598,2.92269950409811674,275.459374825645227,28.5902792372729557,12.4098786515090431,69.9449715768903815,0.000382056950498329162,113.700433864453444,499.950474912102266,15.2880000000000003,0,1.3965129600233479,0.0840306136629107581,1.98578666592481336e-08,-0.00391605631794846119,8.28419801878337803e-06,0.000296759489324108314
0.85,31.2221660828866483,131.010437917048847,15.118438972601103,2.6253763327263,0.00142926287162985438,23.9346240663616392,0.00185871646775502422,2.90799759194513063,292.960932339393764,28.8879388268324959,12.5406145817192236,69.9426924919427506,0.000395083161984986634,113.700448347909855,510.401853336249758,15.2880000000000003,0,1.4006392642976,0.084905728611335482,2.04748674649978446e-08,-0.00405841047705501109,8.36351631385496948e-06,0.000310741140507984003
0.86,31.2221656347128835,131.010439129846333,15.386099487692956,2.65066098497819258,0.00145281611953855766,30.015923477451107,0.00186970876231096921,2.89342892418403119,346.226561946558718,29.1569276016895316,12.6614289238497673,69.9403305241385738,0.00040822406773257595,113.700462956579571,519.937910515675526,15.2880000000000003,0,1.40474475230329698,0.0856965833760765239,2.11101493923388514e-08,-0.00420601663716723556,8.44630978620872634e-06,0.000325033264899464035
0.87,31.2221651821844333,131.010440354414811,15.6562287979550003,2.67654377270349819,0.00147687640732673507,27.9383378516088037,0.00187960411820812991,2.87878383632348545,327.964078366998024,29.4115784863358662,12.7772394830152489,69.9378826134770719,0.000421492679438341183,113.700477707118679,529.045917541316612,15.2880000000000003,0,1.40882759609731822,0.0864453039891198288,2.17643984063600033e-08,-0.00435897920194838317,8.53267715623886011e-06,0.000339787133000634409
0.88,31.2221647253342098,131.010441590664897,15.9288038060064068,2.70006832794962781,0.00149980356976978004,24.1226082944661648,0.00189029409282780278,2.86351826667662968,294.482813471041823,29.6845896173095412,12.8992745633971193,69.9353456879497344,0.000434894356972975878,113.700492605183712,538.899065949510373,15.2880000000000003,0,1.41288442817540738,0.0872479954211562714,2.24383833856473165e-08,-0.00451737975634191029,8.62270546540780768e-06,0.00035539399132672087
0.89,31.2221642642379997,131.010442838390702,16.2037682935811134,2.72123492288140234,0.00152157062879893336,26.4731760205381832,0.00190176547674185577,2.84760481116507869,315.028134248086985,29.9760609436435388,13.0275723415622799,69.9327165702353568,0.000448442368979811616,113.70050766762364,549.519350360968019,15.2880000000000003,0,1.41691932862500325,0.0881049519486588328,2.31328759612474746e-08,-0.00468129651072404524,8.71648072082881141e-06,0.000371896143528295238
0.9,31.222163798825143,131.010444097784472,16.481179339066319,2.74623271165098526,0.0015456416370929712,29.2594309369194363,0.00191010867149258418,2.83221902803967751,339.378142354214447,30.2179933988865983,13.1387729435393883,69.9299920926311671,0.00046212692057450111,113.700522878442158,558.410450391750828,15.2880000000000003,0,1.42093386200429928,0.0888163122786915088,2.38482046134013965e-08,-0.00485091383179251604,8.81414979585051883e-06,0.000388470973114146093
0.91,31.2221633291611766,131.010445368668059,16.7609886176788265,2.76889462115367069,0.00156856188468144984,22.2245175150559895,0.00191922820934737281,2.81618561403972167,277.742181023078899,30.4783779559474013,13.2562317957677998,69.9271689791119258,0.000475961535794516616,113.700538254774983,568.060149006455276,15.2880000000000003,0,1.42492682625237399,0.089581913821465381,2.45851957707495016e-08,-0.00502629654207896893,8.91579352411044638e-06,0.000405973493216911605
0.92,31.2221628554339006,131.010446650531037,17.0430533602177157,2.78924795363155464,0.00159030227799333108,26.4892969807801819,0.00192910216240553154,2.7994781998415732,315.028134248062145,30.7571452404226164,13.3799303062573873,69.9242439218559895,0.000489952139558456358,113.700553802661574,578.483405002629183,15.2880000000000003,0,1.42889631256935767,0.0904015531016963136,2.53449878595218381e-08,-0.00520741598068602627,9.02144010428596206e-06,0.000424437991646023599
0.93,31.2221623775585755,131.010447943603879,17.3274414693142909,2.81321216257935847,0.00161424354276046332,31.5390304125156327,0.00193603695131455505,2.78329973772232941,359.162507065472823,30.9891541902732364,13.4874798546895978,69.9212135097695437,0.000504112456907047706,113.700569539628773,587.227576272580109,15.2880000000000003,0,1.4328443994324076,0.0910837672224409645,2.61277512548968084e-08,-0.00539448402931979112,9.13125473681951312e-06,0.000442989802172204499
0.94,31.2221618954325066,131.010449248165997,17.6142346440826003,2.83289100886029743,0.00163588073049308392,22.8460371794752497,0.0019449432900214877,2.76602090984831239,283.068750483778672,31.2614316907839722,13.6087894734282226,69.9180744134167327,0.000518433361484156086,113.700585450512023,597.575469454748031,15.2880000000000003,0,1.43677104524661003,0.0918843464982338348,2.69338555331379936e-08,-0.00558767704757965125,9.24538450753058932e-06,0.000462873473458543731
0.95,31.2221614093250324,131.010450563485136,17.903227206272156,2.85259173089663953,0.00165764249442769949,29.6379783702531583,0.001953152076062269,2.74851763829730622,342.421873617487279,31.5267760464953071,13.7276397939869597,69.9148230367560757,0.000532936838676351153,113.700601564029427,607.745992036824532,15.2880000000000003,0,1.44067465634275882,0.092664555125219511,2.77645954945617566e-08,-0.00578692080086355438,9.36383376976592449e-06,0.00048343398580442357
0.96,31.2221609189625759,131.010451890305319,18.194632890719511,2.87392106498273492,0.00168049846441760365,29.0348082549654052,0.00195966710754942337,2.73114864593089646,337.095335156783449,31.7673533751107016,13.837892936608835,69.9114558877352295,0.000547613572626088436,113.700617864854408,617.039396315152544,15.2880000000000003,0,1.44455834312094678,0.0933719750715959196,2.86195634543433416e-08,-0.0059925782073643177,9.48686048088640427e-06,0.000504420429920695288
0.97,31.2221604243632775,131.010453228577319,18.4884400474448753,2.89373843147807852,0.00170261987893071949,18.5057550091923879,0.00196642276617416687,2.71322483908216094,245.021887192993233,32.017927452574078,13.9515020500020714,69.9079692644281181,0.000562478228543515863,113.700634371472816,626.794248710721149,15.2880000000000003,0,1.44842172607350328,0.0941087851930910574,2.94993934585176894e-08,-0.00620476304272652313,9.61458140082294217e-06,0.000526385703222979505
0.98,31.2221599257949087,131.010454577573228,18.7844442849068045,2.90937017799037534,0.0017223828871622169,27.043798931999774,0.00197504820151853328,2.69409986919337507,319.593746642958081,32.3083882305194763,14.0787560417565629,69.9043594169546481,0.000577545324318376897,113.700651101759817,638.20001414241915,15.2880000000000003,0,1.45226216153800913,0.0949628400427311448,3.04056155503921565e-08,-0.00642335116721229078,9.74697368078583423e-06,0.000549857660943281609
0.99,31.2221594231191695,131.010455937669121,19.0827548277085803,2.93088073900241142,0.00174574862201908694,29.5754288313066311,0.00197941225434682296,2.67611016375494692,341.660948551705417,32.5271833790334952,14.1812761583344056,69.9006226007921896,0.000592806664085999057,113.700668041592593,646.854638824042809,15.2880000000000003,0,1.45608261385687077,0.0956062582723563037,3.13380039740632427e-08,-0.00664864162691435317,9.88426436304892374e-06,0.000572981052992182333
1,31.2221589163343864,131.010457308869746,19.383375255178759,2.94830909223498638,0.00176681750076590504,26.4446469926467564,0.00198556808093021614,2.656921908396781,314.26720818227642,32.7848205735194114,14.2970810881013985,69.896754957890721,0.000608285007516884001,113.700685220942162,657.123295787419011,15.2880000000000003,0,1.45988191865803385,0.0963638510912885465,3.22972616652942017e-08,-0.00688072694131481536,1.00265598985436375e-05,0.000597661766203974164
1.01,31.2221584056075692,131.010458690721123,19.6861790737983,2.96594243300786786,0.00178811375588320502,27.6701111359359615,0.00199092053022027369,2.63753999406901096,324.920316103697928,33.0338929338182865,14.4098624052453896,69.8927526043844267,0.000623979413106417113,113.700702635529424,667.126395891419975,15.2880000000000003,0,1.46365953798180315,0.0970962768900991979,3.32843805053888229e-08,-0.00711959979318333141,1.0173908201933762e-05,0.000623090381802332235
1.02,31.2221578908673827,131.010460083417371,19.9912236557510816,2.98414769696772542,0.00180987091105299486,23.0549827761126913,0.00199524964566910514,2.61806246893586803,284.590631615404163,33.2702999369407024,14.5182057078807336,69.8886116322534576,0.000639889896460598393,113.700720282748932,676.689314956338876,15.2880000000000003,0,1.46741641654017374,0.0977914828499786143,3.42995317241377067e-08,-0.00736546166136773425,1.03264827454314817e-05,0.000649201738387986788
1.03,31.2221573721766106,131.010461486787904,20.2984628587240223,2.99939472503339033,0.00182993907261570321,18.7862283191379404,0.00200066210789367474,2.59758239352249598,247.30469339049705,33.5334827362688372,14.6356924784041933,69.8843279787572271,0.000656039904592829975,113.700738193292722,687.417197386737485,15.2880000000000003,0,1.47115187104563594,0.0985653984791366317,3.53434852908783006e-08,-0.00761837055652839646,1.04843718697153526e-05,0.000676785308803206048
1.04,31.2221568495916557,131.010462900679443,20.6078555578927265,3.01671269614696591,0.00185136746694782917,30.0419051995138844,0.00200415793974003482,2.57738287057629201,345.465636880722968,33.767408177230628,14.7430287632446912,69.8798975649369112,0.00067242888783899436,113.700756363424574,697.020611087309362,15.2880000000000003,0,1.47486644816893686,0.0992533250584072685,3.64167884033313606e-08,-0.00787842571668710863,1.0647690167908753e-05,0.000704748946662607403
1.05,31.2221563228496564,131.010464325806822,20.9196066765989777,3.03155443916824519,0.00187140149630500682,18.0074816731919363,0.00200842240141003037,2.55627222887483097,240.456258798199826,34.0228001496883081,14.8576803976175196,69.8753162788054709,0.000689057197157385984,113.700774791111201,707.582803238834458,15.2880000000000003,0,1.47856222667811599,0.100004356397226365,3.75188382292765735e-08,-0.00814603903393150072,1.08167457699162529e-05,0.000734177042516300621
1.06,31.2221557921683726,131.010465761578104,21.2335506659758728,3.0442152766528161,0.00189017878776965849,25.7779977654078039,0.00201327353356573618,2.53428722405957307,308.179683655939243,34.2966732679213209,14.9786278803831099,69.8705797361299972,0.000705948955098991728,113.700793507548354,718.998621540596787,15.2880000000000003,0,1.48223762200960563,0.100809717957892842,3.86510758001342423e-08,-0.00842111139245920251,1.0991536112947598e-05,0.000765054848431667841
1.07,31.2221552574407752,131.01046720828441,21.5497723706769584,3.06065295953683147,0.00191140629134017252,30.4099218748035511,0.00201520141666858841,2.5130779114569024,348.509368144030759,34.5219582730619976,15.0827550137046646,69.8656835533244163,0.000723104704726170561,113.700812510554485,728.453310577594834,15.2880000000000003,0,1.485894779732152,0.101472270153444316,3.98132829870175605e-08,-0.00870394642404844106,1.11723084474105581e-05,0.000795920343302372623
1.08,31.222154718573762,131.010468666179008,21.8683457234981411,3.07585434607560027,0.00193198833030010426,20.3746537086930815,0.0020171487913438705,2.49126151709534405,261.001578574662346,34.7549882853788432,15.1894718444391295,69.8606233023247825,0.000740532915074815961,113.700831809248839,738.298317567991944,15.2880000000000003,0,1.489533939231658,0.102157595191844905,4.10056243444368185e-08,-0.00899477339256574311,1.1359266875755301e-05,0.00082804141113856553
1.09,31.2221541758196466,131.010470134575968,22.189078586802971,3.08617707255482854,0.00194959110187628419,18.7187241210398767,0.0020212281760845119,2.46774139508457457,246.543753324744074,35.0372451124910214,15.3130920793586647,69.8553944697032421,0.000758242250276892861,113.700851412468069,750.315830482151227,15.2880000000000003,0,1.49315292994880111,0.102987623763901207,4.22298716705204232e-08,-0.00929341972037540584,1.15523649174652068e-05,0.000862455721791753572
1.1,31.2221536292478028,131.01047161328691,22.5119198796042319,3.09846322053577872,0.00196850126854987775,37.8555391447097662,0.00202345410778368524,2.4444904338702278,413.189061738584087,35.2914741058087316,15.4269796776712909,69.8499924522648712,0.000776242414848073766,113.700871330727253,761.220258048147343,15.2880000000000003,0,1.49675247211762974,0.103735276184408365,4.34865619966320351e-08,-0.00959998307778128258,1.17517248211392418e-05,0.000897342224442275395
1.11,31.222153078488887,131.010473103315974,22.8371561065275586,3.11512884336989648,0.00199031833021724204,27.639122700400268,0.00202243434105089503,2.4223007809051631,324.159391037639693,35.489721298314528,15.521474514924094,69.8444125457804006,0.000794541752306359523,113.700891573130079,769.772425644334703,15.2880000000000003,0,1.50033604526198983,0.104318384134215444,4.47741704064632477e-08,-0.00991509790617407794,1.19578128160428497e-05,0.000931974149006396216
1.12,31.2221525235997142,131.010474604508943,23.1647455607243593,3.12258577867839815,0.00200636363510797678,10.2497500369456702,0.0020259653006595049,2.39696055002840014,172.73281794065943,35.786913977855427,15.6500390272187584,69.8386499905080882,0.000813158182958437161,113.700912161867251,782.694001818558263,15.2880000000000003,0,1.50390207100479478,0.105192340304892773,4.60937854096845083e-08,-0.0102388020805143521,1.21707205389504285e-05,0.000970429527030741939
1.13,31.2221519651217285,131.010476115393772,23.4942740793890508,3.13452080495494823,0.00202532599987393942,32.6343968552636952,0.00202621742847973376,2.37270956051756654,367.532807790070478,36.0273018714741085,15.758937059893082,69.8326998603047286,0.000832085351870501906,113.700933083473444,793.21923576671395,15.2880000000000003,0,1.50744816019486971,0.105899332197927021,4.74484250626952303e-08,-0.0105705809453419987,1.23901845129416229e-05,0.00100857326802853732
1.14,31.2221514024471922,131.010477637622955,23.8262111249994071,3.14955494010962056,0.00204641493382752213,17.9487451872860433,0.00202397249686765267,2.34918737550967993,239.695317731955441,36.2259347761552419,15.8533382668604759,69.826557285922803,0.000851341185072179512,113.700954360984611,801.964446439402764,15.2880000000000003,0,1.51097906972329876,0.106483596384496518,4.88350985230956902e-08,-0.010911412528945048,1.26169008452824803e-05,0.00104679969571801548
1.15,31.2221508360211004,131.010479169986638,24.1602164802920463,3.15513046654325846,0.00206142925919401091,17.6891419235532616,0.00202634851797665969,2.3222248905944638,237.412511535467729,36.5276568734500131,15.9832811065730791,69.8202173357017983,0.000870942580382195303,113.700976014412916,815.352879215016628,15.2880000000000003,0,1.51449047212473542,0.107370892047600128,5.02571430487037995e-08,-0.0112607705563219015,1.28505973519584462e-05,0.00108927867673609788
1.16,31.2221502659691801,131.010480712143305,24.4961959015573107,3.17037346567085798,0.00208281170148389002,46.7432925455398021,0.00202255191001469515,2.29821463444468899,490.043774384589426,36.7119846487119759,16.0726037896183982,69.8136748987473368,0.000890884727507636372,113.700998032921902,823.576015254785375,15.2880000000000003,0,1.5179838806990591,0.107913121821722968,5.17150452538863879e-08,-0.0116187216964418367,1.30913844363305652e-05,0.00112953911393719381
1.17,31.2221496914929588,131.010482266263637,24.8347645828514594,3.18045335672443086,0.00210095249860527957,8.06848358275456512,0.00202088631131390386,2.27215016621099153,153.709379294867944,36.9497471028225135,16.1803092259416026,69.8069248847964445,0.000911192320536899228,113.701020449351788,834.251086069539951,15.2880000000000003,0,1.52146391581449758,0.108612428159413396,5.32047834839944798e-08,-0.0119865538117448107,1.33401777976703999e-05,0.00117280753580386058
1.18,31.2221491136442992,131.010483829488237,25.1751166742129975,3.18369017271774979,0.00211458374999202612,22.6014115660510662,0.0020222938856337162,2.24330250867195602,280.025018221967457,37.2618155748583746,16.313656225826815,69.7999621110580932,0.00093186141197384748,113.701043252703627,848.374616073908555,15.2880000000000003,0,1.52491724884239011,0.109530162699344846,5.47334607455045264e-08,-0.0123627971611351643,1.35960822058717043e-05,0.00121979681599694708
1.19,31.2221485319489069,131.0104854031066,25.51761860461799,3.20094027551740856,0.00213759666189561196,39.6819636399312188,0.00201518425740103207,2.21919660559676046,428.407813052929214,37.4044206226708127,16.3883306328941956,69.7927810859557951,0.000952919512482206183,113.7010664791176,854.852562011045393,15.2880000000000003,0,1.52835547377822722,0.109949771603610205,5.62975426188096326e-08,-0.0127484802944171395,1.38598483923264338e-05,0.00126262330322067084
1.2,31.2221479459986213,131.01048698822845,25.8625850588102537,3.20625594147519921,0.00215277510253161428,3.8663340057277833,0.00201387013673602015,2.19041444550137054,117.184374136023607,37.6803268917105498,16.5090422763675164,69.7853766865742102,0.000974365953667361592,113.701090124383768,867.481627990534548,15.2880000000000003,0,1.53177901598688515,0.11076122542502348,5.78956499763677861e-08,-0.0131442858001216498,1.41320078747201186e-05,0.0013113835015211813
1.21,31.2221473568475965,131.01048858198817,26.2092095178016677,3.21181797405168412,0.00216811474912477747,31.8147505666435606,0.00201167122533825373,2.16134824245729273,359.923432132008998,37.948123709338681,16.6269089682263882,69.7777432885667963,0.000996214939676713868,113.701114203238973,879.826659046542886,15.2880000000000003,0,1.53518207168532372,0.111548849848757362,5.95349689530075949e-08,-0.0135486912419666653,1.44116161739896338e-05,0.00136129187765361356
1.22,31.2221467636925176,131.010490186569541,26.5581098799005559,3.22711828594045169,0.00219012610369018939,22.9705997141719998,0.00200340867714918864,2.13573414436537057,283.068750482576149,38.0949554840610887,16.7028249400778712,69.7698754122373828,0.00101847764021949531,113.701138728779242,886.618700181723625,15.2880000000000003,0,1.53857165689833941,0.111980904093445979,6.12096521475660683e-08,-0.0139632823829079194,1.46998133461171711e-05,0.00140832871871137593
1.23,31.2221461668536264,131.010491801102148,26.9090421150782433,3.23106265270609194,0.00220451121984349425,8.7747979852782958,0.00200051433726048918,2.10537081547438021,159.796873822227951,38.3699479944841428,16.8230655668657185,69.7617676845957249,0.00104117087137205861,113.701163720679673,899.434882996322813,15.2880000000000003,0,1.54194379958541572,0.112789696927020885,6.29231545261334463e-08,-0.0143875476210931323,1.49963309053453816e-05,0.00146154566256554287
1.24,31.222145566776252,131.010493424375483,27.2616671064681988,3.23853967487356798,0.00222131348109418656,38.5866320420685938,0.00199496533104143864,2.07606649665230769,418.515630199805003,38.5976049369786125,16.9268665096193018,69.7534144820360353,0.00106429084794334777,113.701189168643609,910.108787826880416,15.2880000000000003,0,1.54529730457163739,0.113459353359982418,6.46785509096353543e-08,-0.0148209078996729676,1.53008478169388047e-05,0.00151444971455536471
1.25,31.2221449627151202,131.010495058415614,27.6165571982721687,3.2515753128291518,0.00224202752005726175,18.5124686814822894,0.00198568622726143533,2.04875309015400608,244.260946125734876,38.7529209495200462,17.0055198853813607,69.7448101293411042,0.00108786696625318363,113.701215111725432,917.41676817589962,15.2880000000000003,0,1.54863254389312277,0.113916367852632247,6.64701438846174153e-08,-0.0152649130022081293,1.56145005986043614e-05,0.00156604292840830826
1.26,31.2221443551643745,131.010496701879362,27.9733354871197761,3.25260188358705049,0.00225451186061949522,10.7962033158511694,0.00198196784482798302,2.01609964270750197,177.298446336408631,39.0456919418989159,17.1317869105319112,69.7359491466420707,0.00111189367520590299,113.701241537088947,931.299031284232683,15.2880000000000003,0,1.55194696954030964,0.114777446635267621,6.83029021809105556e-08,-0.0157186910155054267,1.59367698700884334e-05,0.00162472365178563329
1.27,31.2221437442874006,131.010498354322607,28.3318790091604917,3.2629093110393379,0.00227344804349177872,37.1205997940317758,0.00197260710327179858,1.98705834389534708,405.579686079964688,39.2216321937928001,17.217483726812052,69.7268254097478177,0.00113640143279647291,113.701268483713847,939.678458782598796,15.2880000000000003,0,1.55524502950041565,0.115295101421733603,7.01774180475496913e-08,-0.0161822342842780666,1.62677270644277966e-05,0.00168011570329672645
1.28,31.2221431294894067,131.01050001736229,28.6926438301457765,3.27074763348956532,0.00229076645749166918,11.8540174509544993,0.00196373644531505631,1.95666216226602541,186.429688124688823,39.4208785587975683,17.3112007602032634,69.7174333365913839,0.00116138802685355558,113.701295945022139,949.21696713977633,15.2880000000000003,0,1.55852970994493023,0.115881273751440972,7.20895340394997496e-08,-0.0166567666044193166,1.66083031269678025e-05,0.00173810893434045845
