Time,Latitude,Longitude,Altitude,Angle of Attack,Angle of Sideslip,X-Acceleration,Y-Acceleration,Z-Acceleration,Thrust,True Velocity,Ground Velocity,Pitch,Roll,Yaw,Dynamic Pressure,cp,parachute_deploy_gain,Wind Speed,Mach,omega_x,omega_y,omega_z,Cmq,Angle of Attack(total),Angle of Attack(gust),True Velocity(gust),Acceleration
0.0,31.222216000000007,131.010392,3.000000004412624,0.0,0.0,0.0,0.0,0.0,2.2828121974499247,0.0,0.0,71.99999999612658,-1.0292491154817412e-14,119.99999999354436,0.0,15.288,0,0.0,0.0,0.0,0.0,0.0,-0.0,0.0,90.0,0.0,0.0
0.01,31.22221599999862,131.01039200000284,3.0000009727369523,0.0,0.0,0.0,0.0,0.0,34.24218696174923,5.916279387578309e-11,5.734623670548936e-11,71.99999999613168,-5.86671995824671e-13,119.9999999935449,2.1432944861733093e-21,15.288,0,0.0,1.7386402909615473e-13,-3.4220131069073734e-19,7.115076756936125e-19,5.488773498207866e-19,-1.1574302492039043e-31,0.0,89.99999999962336,5.916279387578309e-11,0.0
0.02,31.22221599999738,131.01039200000537,3.0000018317022668,0.0,0.0,0.0,0.0,0.0,25.871876237766408,1.2265415415436536e-10,1.1895038237325684e-10,71.9999999961369,-1.1836364828043265e-12,119.99999999354544,9.211895886571454e-21,15.288,0,0.0,3.6044858651615574e-13,-6.979551485375437e-19,1.4162390878091906e-18,1.0909784360635388e-18,-4.776231873571785e-31,0.0,89.99999999921916,1.2265415415436536e-10,0.0
0.03,31.22221599921969,131.01039200159065,3.0001883335529382,18.80143492628821,-0.0001350810307892,10.931161642028636,-1.75114298675875e-05,3.026590975169265,180.34219359854663,0.0798232026864394,0.0478175828508887,71.99999999765336,-5.341802909786072e-12,119.99999999436793,0.0039016003969354,15.288,0,0.0,0.0002345795854893,3.788270153300133e-17,-7.771883375645477e-10,1.1422790048099072e-11,1.7057759223764537e-13,18.80143492675591,89.51882325913425,0.079801984207741,11.342422482672777
0.04,31.222215995131297,131.01039200995308,3.001692634342189,9.19442604083399,-4.49173898918486e-05,52.29595764159784,6.445392950801871e-06,3.026413589912948,548.6359724538078,0.3504174083926908,0.1601447499964056,72.00000000319055,-3.111420077280171e-11,119.99999999870242,0.0751892535633216,15.288,0,0.0,0.0010297854387864,2.0082066977226968e-15,-1.520937588847922e-08,2.5623342884322286e-11,1.4654248781413086e-11,9.19442604094277,87.798916624545,0.3504103527855857,52.383455068075136
0.05,31.222215983575865,131.01039203366796,3.0074067499493786,5.158590039700252,1.707592688632746e-06,76.26884281015512,5.843947534199429e-05,3.0258124765658088,761.6984298824644,0.9592973585397016,0.3772700771701255,72.0000000004862,-1.3608731808076822e-10,120.0000000109612,0.5634958029902841,15.288,0,0.0,0.0028191251099456,2.086299069701397e-14,-1.0551247853743037e-07,3.973493515691201e-11,2.783064866637575e-10,5.158590039700515,83.94063169874748,0.959297626767734,76.32884071402438
0.06,31.222215961742712,131.0103920785344,3.019291017943491,4.109521257467909,3.140103977270004e-05,57.06876634333886,0.0001151069734147,3.024834864051463,590.4875390737208,1.6257536642597354,0.6118982818704327,71.99999992547217,-3.5903296759057166e-10,120.00000003412836,1.6184272268450337,15.288,0,0.0,0.0047776672697797,1.0694899894620088e-13,-3.741090980393931e-07,5.521401959501359e-11,1.6723176417636091e-09,4.109521257587776,79.78719176344794,1.6257585967235286,57.148873286519276
0.07,31.222215929936205,131.01039214392435,3.0371334573469446,3.649087515174788,5.707077112564807e-05,86.89643797254193,0.0001728541558773,3.0234947746384675,855.2937749779139,2.3057260079826607,0.8506307413593818,71.99999965378231,-6.907496536790437e-10,120.00000006788592,3.255354923652711,15.288,0,0.0,0.0067759305364855,3.495199904512709e-13,-9.036515915819006e-07,7.594816279105379e-11,5.728932851326001e-09,3.6490875156204896,75.6601668283889,2.305734972638426,86.94902215090157
0.08,31.222215886364623,131.01039223353447,3.0621840248716574,3.4254446680114707,8.413075603463509e-05,17.831756866644035,0.0002285946601282,3.021841001032126,241.2171988638848,2.961944911520492,1.0819695676346892,71.99999900671328,-1.141745983122182e-09,120.00000011415082,5.371998197385977,15.288,0,0.0,0.0087043901031071,8.800530155962314e-13,-1.829098470920821e-06,1.0943386634701918e-10,1.4896287129277132e-08,3.4254446690434226,71.81713637501419,2.9619581267487467,18.085991154451033
0.09,31.22221583454733,131.01039234010327,3.0919888289029,3.389560809024919,0.0001118726864415,54.09031716446879,0.0002748660999733,3.020060228038602,563.0937377043176,3.504225426410036,1.2780161667917422,71.99999774508822,-1.634190085504106e-09,120.00000016921716,7.519080503822694,15.288,0,0.0,0.0102980157586766,1.865782139518716e-12,-3.1503298654458527e-06,1.6284478329871028e-10,3.03536411425607e-08,3.389560810868955,68.76526501308032,3.504242999330529,54.17456206384468
0.1,31.22221577423132,131.0103924641528,3.1267248829165366,3.4447939461814814,0.0001419149103147,51.372195336549765,0.0003131602029306,3.0182021883815127,538.7437595981919,3.950569597142709,1.4443465951180965,71.99999562056465,-2.1287748602259068e-09,120.00000023339832,9.55649523509932,15.288,0,0.0,0.0116097108366932,3.485956000178229e-12,-4.949356763187612e-06,2.4573266549165286e-10,5.3761299442583966e-08,3.444793949101151,66.34639928474206,3.9505918890846927,51.460781166288626
0.11,31.222215706113143,131.01039260424562,3.165907002780892,3.4691423802630394,0.0001702373452339,40.591037561894986,0.0003534470100582,3.016051659024047,442.8656393052949,4.421478635995476,1.6182620895289603,71.99999235067894,-2.5564479031457968e-09,120.00000030601664,11.970509656144712,15.288,0,0.0,0.0129935974697161,5.942887149865172e-12,-7.273722517324353e-06,3.67769289312894e-10,8.842679949465076e-08,3.4691423844348632,63.88798785789768,4.421505376815134,40.70293476011277
0.12,31.222215630588888,131.0103927595646,3.2092596514826863,3.4852659299808075,0.0001974376474727,44.30042894095728,0.000394069215595,3.013641598889868,475.58594813540446,4.896982486381051,1.793579340340896,71.99998761802138,-2.8337988279882726e-09,120.00000038673312,14.683611096353944,15.288,0,0.0,0.0143909889875706,9.464337642181618e-12,-1.017558359402848e-05,5.395790443954697e-10,1.3700793350599625e-07,3.4852659355662303,61.5068242157714,4.897013499814194,44.40281567867803
0.13,31.222215548046687,131.0103929293088,3.256512891171917,3.5606043721293616,0.0002276507019012,48.86766833507025,0.0004268800875964,3.0112558910133567,515.9156326236895,5.278566579338586,1.939796541405244,71.99998107389406,-2.8573058577484587e-09,120.00000047523812,17.061052093156064,15.288,0,0.0,0.0155123760833565,1.4300406003001044e-11,-1.3705268062305584e-05,7.724776992181392e-10,1.989112774124932e-07,3.560604379397528,59.67313531776262,5.27860233862722,48.960358155653
0.14,31.222215458587108,131.01039311327068,3.30759734332425,3.6000732663755977,0.0002555702913645,45.540290862247225,0.0004629468001456,3.0085404980032777,486.2390860568404,5.70011779273801,2.098362647205908,71.99997235012626,-2.508533681468686e-09,120.00000057154703,19.894788765881632,15.288,0,0.0,0.0167512184495524,2.071534240530911e-11,-1.7917736259613292e-05,1.0787346240473087e-09,2.8081526258393346e-07,3.6000732754351943,57.72385750323359,5.700157937625502,45.639559681930805
0.15,31.222215362317904,131.01039331122794,3.3624387479639086,3.651605404442164,0.0002842753491325,44.01308509501,0.0004965057129938,3.005703619811542,472.54218587214,6.091938849578711,2.2476968067377374,71.99996103728932,-1.6446954747148112e-09,120.00000067569304,22.723773683610247,15.288,0,0.0,0.0179026934683374,2.9002783512213203e-11,-2.287326399669318e-05,1.47199345427166e-09,3.831202693354572e-07,3.651605415492516,55.98561718911576,6.091983503446133,44.115597174664394
0.16,31.22221525912812,131.01039352340948,3.421115382839859,3.67540086436193,0.0003108411545024,34.83804992586084,0.0005330990866742,3.002517946501868,391.1218908297564,6.521183188362317,2.4085903880902046,71.99994669525161,-1.0153513453738144e-10,120.00000078796704,26.03872642002185,15.288,0,0.0,0.019164148528834,3.9478358970291335e-11,-2.864207894220033e-05,1.9677461746207517e-09,5.135466997084602e-07,3.6754008774883777,54.15946979122355,6.521232015176687,34.96719658394182
0.17,31.2222151493826,131.01039374906244,3.4833737923187487,3.7139589864597298,0.0003384978477213,43.96471427482637,0.0005668629535037,2.999235483723449,471.78125980632376,6.916861975403744,2.559060925010733,71.99992884100092,2.3206494032971838e-09,120.0000009081849,29.29426197817256,15.288,0,0.0,0.0203269651395979,5.248754693205839e-11,-3.5267097947693114e-05,2.580363454062817e-09,6.706952682968329e-07,3.713959001863866,52.549031795895466,6.916915146521327,44.06689817851128
0.18,31.22221503253009,131.01039398932429,3.549599475912623,3.7380363034619775,0.0003650282082698,36.67395661481795,0.0006021794701355,2.9956556354306425,407.10156721191447,7.332140201215607,2.71556808256092,71.99990696207136,5.837017536380516e-09,120.00000103716444,32.917216366714264,15.288,0,0.0,0.0215473823438242,6.839750892601699e-11,-4.285557247677198e-05,3.331016495775474e-09,8.639362741436378e-07,3.738036321259578,50.93050624815799,7.332197539712479,36.796100973258795
0.19,31.22221490871209,131.01039424390297,3.619694897703461,3.747799769666444,0.0003901520189829,41.42208371271829,0.0006393759928961,2.991742733214697,448.9531328318269,7.771071983754382,2.879366399937307,71.99988049019642,1.0709144790974043e-08,120.00000117502664,36.97605053227239,15.288,0,0.0,0.0228373144884866,8.761416506509219e-11,-5.146771415177372e-05,4.238406957677133e-09,1.0996552116864756e-06,3.747799789945131,49.29705748437159,7.771133268690212,41.529983675580546
0.2,31.22221477769685,131.01039451327668,3.693822889232993,3.7700519460961166,0.0004166800650969,37.99697972290605,0.0006740224661302,2.987733789228414,418.51563019916136,8.179966026035371,3.0338260708461373,71.99984881140107,1.723179577184912e-08,120.0000013223286,40.969302182777255,15.288,0,0.0,0.024038975990988,1.1057590044953188e-10,-6.120032215177249e-05,5.3263847350253015e-09,1.376394225587184e-06,3.7700519690893857,47.8457752505109,8.180031477986942,38.11426270718793
0.21,31.222214639876928,131.01039479663547,3.771710975053407,3.7926098867321474,0.0004432924407074,36.46301043881366,0.0007080907240332,2.983530483977461,404.8187610144644,8.582757448615462,3.1863584283669346,71.99981127559042,2.5745201416596626e-08,120.00000147900325,45.103059028532826,15.288,0,0.0,0.0252227064089584,1.3774582723633048e-10,-7.20875523136271e-05,6.61341033873124e-09,1.7010673350603349e-06,3.792609912601061,46.47936953648762,8.582827080829217,36.584868250565684
0.22,31.22221449507626,131.01039509434258,3.8534832466471007,3.782921298925821,0.0004660920499522,44.14577847155813,0.0007479176313898,2.978724032883548,472.5421858721365,9.056569122268344,3.360845972992861,71.99976720416048,3.661811567390422e-08,120.00000164562512,50.21995530074818,15.288,0,0.0,0.0266151520780326,1.6960703048385348e-10,-8.421592474264931e-05,8.124635526119773e-09,2.0969540034515424e-06,3.7829213275976334,44.9464484092354,9.056642335836344,44.24615863872642
0.23,31.22221434283448,131.01039540734791,3.9394622486964206,3.813874679301352,0.0004940771488601,36.66675459308932,0.000779455230549,2.974212905336642,406.3406421461021,9.430647902846331,3.5044030163419806,71.99971583979395,5.0272885112871524e-08,120.00000182313076,54.45382429059888,15.288,0,0.0,0.0277145095638672,2.0669790509245914e-10,-9.77285871729516e-05,9.894576563683824e-09,2.5339062472561444e-06,3.813874711257219,43.79476959007253,9.430725512303388,36.78718303164376
0.24,31.222214184153326,131.01039573358457,4.028950821673608,3.829256049377765,0.0005200487408944,37.802126339316736,0.0008136255607606,2.9692962675112065,416.2328240017114,9.837806876534357,3.658163422426286,71.9996564062533,6.718950080713476e-08,120.0000020109434,59.25679777340223,15.288,0,0.0,0.0289110855155543,2.4956955046738006e-10,-0.0001125744417092,1.1934277804843484e-08,3.0448209172448607e-06,3.829256084638984,42.59361542722471,9.83788856559955,37.91856374864305
0.25,31.22221401888584,131.01039607335582,4.122052964664892,3.851417709838087,0.0005469594058717,38.85163035360012,0.0008459008130282,2.964283881833675,425.36408079150686,10.22297576958679,3.8050691648373967,71.99958811418384,8.786880969336211e-08,120.00000220974424,63.98709205399403,15.288,0,0.0,0.0300430411774988,2.987811646313829e-10,-0.0001288461362054,1.4273117985167728e-08,3.621333387698252e-06,3.8514177486178034,41.50703126619192,10.223061685769354,38.96455005232871
0.26,31.222213847358866,131.0103964259872,4.218542267117083,3.8780574625554745,0.0005745172425185,42.3164797140743,0.0008766626387865,2.959162938653076,455.8015834241788,10.590779679138215,3.946551912391076,71.99951013710364,1.1286401474734325e-07,120.00000241975916,68.67355887153568,15.288,0,0.0,0.0311239685467471,3.5491769188178554e-10,-0.0001465721578858,1.6932703957058654e-08,4.267712643344226e-06,3.8780575050466,40.51245375834074,10.590869924095635,42.41981967733593
0.27,31.22221366913008,131.0103967923915,4.318728802515264,3.886188503202341,0.0005994342651313,38.70936050721014,0.0009111181036949,2.953518013741325,423.84219965987256,11.004860953238978,4.102320296019413,71.99942161756776,1.4276417094868828e-07,120.0000026420792,74.14786134434608,15.288,0,0.0,0.0323408987462391,4.1858405402174807e-10,-0.0001658847815307,1.995072923688136e-08,5.018832267232506e-06,3.886188549362022,39.43841359495857,11.00495511215316,38.8218734782956
0.28,31.22221348431185,131.01039717233687,4.422535913956003,3.90556090261878,0.0006261175699806,44.68030766832924,0.0009425767186621,2.947879457547137,476.3468732012221,11.38358114165448,4.247086834352694,71.999321619057,1.7823531611327881e-07,120.000002877279,79.33831935330025,15.288,0,0.0,0.033453914386159,4.904408325040897e-10,-0.0001868529238516,2.3357766479368094e-08,5.847713054408178e-06,3.9055609527288775,38.49894431917428,11.383679491972384,44.77744842575601
0.29,31.222213292835256,131.0103975659655,4.530013412817602,3.9242599519377537,0.0006528240665589,35.802573724660256,0.0009737210635801,2.942037024315898,397.97031042211177,11.759725774384751,4.391004157029451,71.99920917567837,2.1999186079018322e-07,120.00000312617878,84.66717879828003,15.288,0,0.0,0.0345593650464213,5.711677680739745e-10,-0.0002095620322847,2.7188189988316943e-08,6.77505090435382e-06,3.9242600061534456,37.60352534239979,11.759828319749328,35.92324968749781
0.3,31.222213095024976,131.0103979726075,4.64093665799555,3.936939025755682,0.0006785438093183,33.570228713727204,0.0010059102294455,2.93586442972183,378.1859457108711,12.149968255527943,4.539237002744259,71.99908328532703,2.6880857935396905e-07,120.00000338923812,90.3787563598417,15.288,0,0.0,0.0357062504417728,6.614698865958865e-10,-0.0002340353597042,3.1467140861055e-08,7.817263716758327e-06,3.9369390841381695,36.71173884615234,12.150074840940263,33.698361337808635
0.31,31.22221289105846,131.01039839189684,4.755183729044857,3.9598342215431432,0.0007060286581592,35.396825578217346,0.0010350810412898,2.9297385597941448,394.1656220930212,12.504537499407316,4.6763673222047455,71.99894291513503,3.255120771695107e-07,120.00000366712923,95.72967338626896,15.288,0,0.0,0.0367483036680869,7.620720834468404e-10,-0.0002603234137215,3.622454560346964e-08,8.948994505138873e-06,3.9598342843844345,35.934338386209795,12.504648402129598,35.5178635353378
0.32,31.222212681031937,131.01039882363492,4.872689374180126,3.985461429033668,0.0007340760463279,38.52097867048992,0.0010630242168685,2.9235095146848846,421.55939346242695,12.84534566718622,4.809181081594425,71.99878701464397,3.909756427278764e-07,120.0000039606604,101.01782231644016,15.288,0,0.0,0.0377499198995686,8.737098716736534e-10,-0.0002884807530145,4.1491545539590986e-08,1.0187112828155184e-05,3.98546149652875,35.21473736963424,12.845460975581933,38.631757748577954
0.33,31.22221246496604,131.01039926777932,4.9934410812554,4.010606629086,0.0007621365968788,38.18822026147908,0.0010905599149574,2.917102431053817,418.5156301991682,13.18247167592885,4.940798912752974,71.99861449732019,4.661299779655886e-07,120.000004270781,106.38859400029033,15.288,0,0.0,0.0387407190563976,9.971421990244511e-10,-0.0003185760672934,4.7302669734505256e-08,1.154498667827874e-05,4.010606701382261,34.52805863348922,13.182591392065536,38.299473293007864
0.34,31.222212242662028,131.01039972474007,5.117579377337869,4.019339771238816,0.0007871574969313,29.898022638335373,0.0011220389395318,2.910051232417875,345.46563688075645,13.569536737955724,5.0878303926024735,71.99842423285973,5.519675040347761e-07,120.0000045987411,112.72655675097128,15.288,0,0.0,0.0398782837956187,1.1331556132162459e-09,-0.0003507224668667,5.37022358302301e-08,1.308298593306914e-05,4.019339848191799,33.76700548046532,13.5696603843662,30.039310197084795
0.35,31.22221201433324,131.01040019407705,5.2449575244483055,4.033762873683395,0.000813261106463,32.76415525156106,0.0011515840876071,2.902959820469776,370.5765700527033,13.934300103976534,5.227895396154902,71.99821502296155,6.495674834876441e-07,120.000004945438,118.8669740701126,15.288,0,0.0,0.040950312688979,1.2825853697215452e-09,-0.0003849609961885,6.072234695821837e-08,1.4746020857580124e-05,4.033762955530055,33.07785186209504,13.934427850732408,32.89250745069162
0.36,31.22221177990305,131.01040067594835,5.375631006350063,4.051723629010647,0.0008401329464575,37.01692984301412,0.0011797030485285,2.8957873473716007,407.8625232777193,14.282998147928636,5.362923567977223,71.9979856440668,7.600645476620651e-07,120.00000531213882,124.88900300695136,15.288,0,0.0,0.0419751331662584,1.4462801652534363e-09,-0.0004213876232777,6.84067806399068e-08,1.654507199147348e-05,4.051723715967022,32.44322602189087,14.283130115703262,37.13002398000203
0.37,31.222211539445663,131.01040117020102,5.509550188388412,4.071639898917391,0.0008674922629137,35.12417761390579,0.0012067983861697,2.88849906286036,391.1218908297666,14.620581431527652,5.494447309446232,71.99773482653193,8.846681943540367e-07,120.00000570002652,130.86067091914967,15.288,0,0.0,0.0429672939311924,1.6251202388969355e-09,-0.0004600660652957,7.679415042686734e-08,1.849041957573993e-05,4.071639991174516,31.85023865502424,14.620717696893658,35.24274792557624
0.38,31.222211292895075,131.01040167697127,5.646763233102716,4.08264881385344,0.0008930259828975,36.695642158537446,0.0012360471443664,2.880711738179021,404.8187610144602,14.986392916850402,5.634654729559426,71.99746126698146,1.0246533537040716e-06,120.0000061105033,137.4891296153862,15.288,0,0.0,0.0440424171304414,1.8200057922063743e-09,-0.0005010869196581,8.592980519823866e-08,2.0642694281337543e-05,4.082648911356968,31.228847973200924,14.986533193043764,36.808540518115166
0.39,31.22221104018777,131.0104021963902,5.787316652586672,4.096641430700089,0.0009192713382325,31.335681548387896,0.0012640110027448,2.872831219844713,357.64062493382744,15.337978856701952,5.770390286512262,71.99716358743511,1.1813915463769678e-06,120.00000654506955,144.01394309468844,15.288,0,0.0,0.0450757388736732,2.031886352449547e-09,-0.00054455673306,9.586443829735616e-08,2.295945663566148e-05,4.096641533664766,30.65298398882095,15.338123255506089,31.4670954954126
0.4,31.222210781536543,131.01040272801887,5.931064331106764,4.109028969993624,0.0009451871856381,29.95928076777898,0.0012920492774571,2.8646905607053603,345.465636880754,15.692185018814769,5.906873567965718,71.99684037970908,1.3563276523471372e-06,120.00000700500496,150.74021066990193,15.288,0,0.0,0.0461167659598875,2.2617341782092324e-09,-0.0005905037520737,1.0663253249436129e-07,2.5471259834659164e-05,4.1090290785164525,30.09246700352443,15.692333488470696,30.095929256306363
0.41,31.222210517064383,131.01040327160345,6.077922766619747,4.122888296344507,0.0009714525997821,33.78425365340317,0.0013192264430821,2.85640971467756,378.94687077668647,16.03742529732769,6.0405139809190125,71.99649020751959,1.5509747261474075e-06,120.0000074917568,157.44375780268788,15.288,0,0.0,0.0471314487675864,2.5105374204052982e-09,-0.0006389770219162,1.1827345344180344e-07,2.816813594418537e-05,4.122888410595805,29.56469007160549,16.037577892745222,33.904791300285986
0.42,31.22221024682894,131.0104038270252,6.227854084363214,4.14444025865494,0.0009995884754813,38.04468161607466,0.0013435485656724,2.8482703202464488,416.2328240017114,16.348862540904037,6.163613566771559,71.99611159893284,1.766920641656551e-06,120.00000800692096,163.6157044470786,15.288,0,0.0,0.0480467946810589,2.779304965995011e-09,-0.0006900467934588,1.308321832549104e-07,3.100973487310896e-05,4.144440378988911,29.104646754454564,16.34901955589459,38.15115260238947
0.43,31.222209970843565,131.0104043942566,6.380851271439565,4.1618082623168045,0.0010268052928652,33.45815353250911,0.0013687230309017,2.8397750580998298,375.9031395134336,16.67263197205097,6.290467308135904,71.99570306121484,2.005818691215035e-06,120.00000855220898,170.15779512382937,15.288,0,0.0,0.0489983878509763,3.0690566816849196e-09,-0.0007437862329608,1.443552931671376e-07,3.4086145072160934e-05,4.161808388761201,28.640125213458976,16.672793262249197,33.57845085853367
0.44,31.22220968892116,131.01040497368373,6.537047157143216,4.164954087655709,0.0010505545842624,30.86574023822051,0.0013980747538988,2.830419582421933,353.0750125389216,17.050421620730056,6.433992917638883,71.99526304125902,2.269416145406482e-06,120.00000912964636,177.9537948947602,15.288,0,0.0,0.050108743779844,3.380847125286677e-09,-0.0008003278134917,1.589055036683518e-07,3.750784460406397e-05,4.164954219916419,28.113519280259386,17.050586641458253,30.99524475496968
0.45,31.22220940081287,131.01040556582012,6.696617751072218,4.165241899529329,0.0010735835484822,35.912216710755274,0.0014280646808282,2.820677244966047,397.2093853562869,17.438293672974723,6.580571293039616,71.99478987454265,2.5595995397253085e-06,120.00000974147088,186.13940823302417,15.288,0,0.0,0.0512487363629523,3.7158016249566814e-09,-0.000859850913876,1.745604864109677e-07,4.121350642664912e-05,4.1652420376426775,27.591357195572936,17.43846231108416,36.02281959036367
0.46,31.222209106468902,131.0104061707686,6.859600379555308,4.174585124444534,0.0010989881252456,41.916816790010685,0.0014546917035209,2.811153314474766,449.7140588976434,17.786187321601275,6.714685486378061,71.99428180697711,2.8783880229668832e-06,120.0000103898448,193.6374175079873,15.288,0,0.0,0.0522712438446989,4.0751091178509895e-09,-0.0009224765531151,1.9138630415982226e-07,4.50966024037632e-05,4.1745852688465686,27.13985967570823,17.786359950252297,42.01097612387663
0.47,31.22220880579083,131.01040678873238,7.026066274755745,4.1823089530633855,0.0011240727220223,28.37640408484148,0.0014814747534716,2.801325368441072,331.0078106302534,18.138167428286582,6.849989708801916,71.99373704967608,3.2278903746588286e-06,120.00001107707628,201.37401505997488,15.288,0,0.0,0.0533057667609836,4.459978104761035e-09,-0.0009883252835099,2.094509673354327e-07,4.927107017839778e-05,4.182309103852639,26.69716826759888,18.13834399721685,28.514342615617974
0.48,31.222208499300592,131.0104074186346,7.195654207463586,4.189479568102716,0.0011490100608361,27.95074823096412,0.0015080719422187,2.7912412472910484,327.2031223011574,18.48995085190441,6.98515976370584,71.99315377257649,3.6103201777021456e-06,120.00001180491516,209.25751230436188,15.288,0,0.0,0.0543397174489847,4.8716620260348906e-09,-0.0010573190976925,2.2877013380347535e-07,5.373205427420879e-05,4.189479725385959,26.268461765425428,18.4901313379827,28.089773168283216
0.49,31.222208187201936,131.01040806005494,7.368224738812109,4.202723284133339,0.001175611380853,35.08821363242469,0.0015321405723077,2.781292092003844,389.60000969812296,18.812014261754847,7.111044804193205,71.99253015042137,4.027946338669921e-06,120.0000125755114,216.60722913930897,15.288,0,0.0,0.0552863302793499,5.311396446020465e-09,-0.0011294854492155,2.4938633613154685e-07,5.8398320167141767e-05,4.202723448262914,25.88860807032205,18.81219892635871,35.1982716047702
0.5,31.22220786953184,131.01040871291724,7.5437546994244835,4.220815778795054,0.0012036252596423,36.05491615971072,0.0015540388599792,2.7714444106710974,397.97031042210494,19.10875420627192,7.229005658018125,71.99186435180009,4.483102820610566e-06,120.00001339126192,223.4908652241728,15.288,0,0.0,0.0561585257949344,5.7804122391526605e-09,-0.0012048912160576,2.713531252030471e-07,6.327866493526626e-05,4.220815950099865,25.54902500917784,19.108943271285572,36.161276053538906
0.51,31.222207546379583,131.0104093770373,7.722184419225251,4.232567510615346,0.0012298790840397,27.54004661432325,0.0015777580800203,2.761017323676155,323.3984349720841,19.430597746636646,7.354673636736509,71.99115452520388,4.978202222778502e-06,120.00001425458936,231.07869697977367,15.288,0,0.0,0.0571045034845869,6.2799518101633574e-09,-0.0012835871653678,2.947201005874635e-07,6.854585242460463e-05,4.232567688976395,25.189423168613605,19.430790935591396,27.678103017910345
0.52,31.22220721769964,131.01041005275655,7.903534912384757,-25.991600519430264,-0.0039216984846272,33.690530530697,0.0007654422298169,4.208953351356913,372.0984511843415,18.46999756229907,7.492373948788144,71.99043004990449,6.541846080948838e-05,120.00007815703869,208.79192651587263,15.288,0,10.057164253424748,0.0542815106177993,6.8073111786752814e-09,-0.0011040848697037,5.693519464852568e-05,5.6044292187517766e-05,25.99160079471086,36.09283605840725,18.469381543342102,33.95242460178105
0.53,31.22220688276027,131.01041074142074,8.087916294727584,-25.549270580614344,-0.0038328760577548,35.35241209997247,0.0007845224696806,4.238002580337636,386.5562464348624,18.7550740293634,7.635116319614216,71.98990368308635,0.0001657004581617,120.000183960566,215.2830818103552,15.288,0,10.095857550213855,0.0551194370314127,7.203345313713338e-09,-0.0006929524370696,5.686648732540228e-05,3.57171347607236e-05,25.54927084880297,35.56683952374288,18.75447196260059,35.605529174170464
0.54,31.222206541359487,131.0104114433362,8.27539915299287,-25.12163574020405,-0.0037462464440245,31.093822009159663,0.0008035389382345,4.267300799880345,349.2703242098436,19.03935407431576,7.777460033216769,71.98961549630181,0.0002658580057869,120.0002896402206,221.85485598754707,15.288,0,10.134462276142337,0.0559550282725834,7.426560021806781e-09,-0.0002716731715967,5.67965129827551e-05,1.4214956932650036e-05,25.121636001398933,35.0561334622607,19.038765615300825,31.385277183731166
0.55,31.22220619378381,131.0104121579114,8.465776828119415,-24.715040711850385,-0.0036627344995961,32.92969880683036,0.0008222822003868,4.296442644719966,365.2500005919907,19.31751729738572,7.917597457356931,71.9895711790489,0.0003658929125434,120.00039519754613,228.38059420746427,15.288,0,10.172930635171534,0.0567726480497528,7.473225682915335e-09,0.0001592238732283,5.6725373097654696e-05,-8.452752246549358e-06,24.715040966210324,34.56888485818165,19.316941956396317,33.20880129700681
0.56,31.22220584002508,131.01041288516262,8.659048314360577,-24.33353204364965,-0.0035828903027573,30.758218955095582,0.0008405897841244,4.325108969001983,346.2265619465787,19.585402829051016,8.054150190792273,71.98977628511217,0.0004658071922034,120.00050063461708,234.75428927864104,15.288,0,10.211259972419391,0.0575600678351044,7.339721250000402e-09,0.0005998582034366,5.665307204810112e-05,-3.2285810769212245e-05,24.333532291370556,34.110527823451505,19.58484002995869,31.060821006372866
0.57,31.222205480151416,131.0104136249488,8.855159654964666,-23.95204523955246,-0.0035032525462706,30.415663883962665,0.0008591746418192,4.354676597861862,343.1828296833023,19.861109315322544,8.193279590658625,71.99023633858282,0.0005656030197419,120.00060595359412,241.4056022881192,15.288,0,10.249431677989136,0.0583704781886065,7.022479630954854e-09,0.0010501365579448,5.657964651012164e-05,-5.731544745290409e-05,23.952045480646312,33.65041179917486,19.860559025699736,30.72581680789524
0.58,31.22220511413095,131.01041437733537,9.0541267229892,-23.555277413958475,-0.0034217459494581,39.92533696077975,0.0008785332124989,4.386141283072745,426.1250058573153,20.157343002532752,8.339258298905035,71.99095689548537,0.0006652827031454,120.00071115688392,248.65581244448035,15.288,0,10.287444194823754,0.0592412222473358,6.5179322413282594e-09,0.0015101917271375,5.6505100372686415e-05,-8.365260760501363e-05,23.555277648325344,33.16940024196061,20.15680551593621,40.1655420423863
0.59,31.222204741527847,131.0104151432209,9.25624649587619,-23.20028723351741,-0.0033461535009152,32.43338214801981,0.0008968705787564,4.416017062985488,360.68438819711065,20.428277732393887,8.47664580003909,71.99194390111067,0.00076484853498,120.0008162473102,255.38014082489,15.288,0,10.325354707050264,0.0600376200652362,5.822236907338933e-09,0.001981148454377,5.642929420938815e-05,-0.0001112127180871,23.20028746148881,32.73881443617569,20.42775211983137,32.73263639037415
0.6,31.222204362557285,131.01041592216114,9.461362469955768,-22.81117188697268,-0.0032661489277267,28.86298532840988,0.0009166188846883,4.449090157242016,329.4859594986058,20.736165131476216,8.626390408474892,71.99320336361595,0.0008643029529505,120.00092122714688,263.1309576373736,15.288,0,10.363125817598828,0.0609426257492402,4.931573453555457e-09,0.0024625702238826,5.635231863082863e-05,-0.0001403182611942,22.81117210831254,32.26364010797994,20.73565208600265,29.203875190382902
0.61,31.22220397715862,131.0104167142806,9.669510300638992,-22.425943264719525,-0.0031869485611037,33.75559767792669,0.0009365849457235,4.483050703391469,372.0984511843297,21.05053730051064,8.778208850376407,71.99474142751937,0.0009636485019065,120.0010260990758,271.1644493650143,15.288,0,10.400762618004135,0.0618666962195876,3.8420382293783166e-09,0.0029546989374099,5.627416629941808e-05,-0.0001709089746883,22.425943479484243,31.791442654219303,21.050036695801552,34.05199141137592
0.62,31.22220358544313,131.0104175193493,9.880605833279724,-22.116042864193453,-0.0031181436248951,41.88020858404625,0.0009542283764794,4.512810369745617,442.86563930529206,21.30596826426185,8.91026546688089,71.99656436827577,0.0010628878486998,120.0011308657201,277.77945972677526,15.288,0,10.438263757490708,0.0626175468353757,2.549668750756369e-09,0.0034574819637418,5.6194873642555005e-05,-0.0002024141379116,22.11604307298018,31.41342904303486,21.30547846740685,42.12264627711626
0.63,31.22220318720871,131.01041833778376,10.094783956012428,-21.79384432144134,-0.0030479013573258,23.899473132179004,0.0009725332044861,4.544309434336507,286.11251274707894,21.579231104469287,9.048273133112469,71.99867817061305,0.0011620239404576,120.00123553033328,284.9446962291351,15.288,0,10.47560281158856,0.0634208106622265,1.0507439859569596e-09,0.0039713693550627,5.611440591652127e-05,-0.0002354761674027,21.79384452418886,31.01870886908734,21.57875234124386,24.327670771706995
0.64,31.222202783061032,131.01041916833387,10.311616497036956,-21.44803787866536,-0.0029748050665736,23.46549274230472,0.0009919733029368,4.578543743384552,282.30782441796754,21.882734481431186,9.196277200243134,72.00108885888194,0.0012610598881359,120.00134009546991,293.010230677887,15.288,0,10.512792017552457,0.0643129566792393,-6.58449049431353e-10,0.0044949690063723,5.603299011619764e-05,-0.0002702650963381,21.44803807523798,30.59242086946604,21.882267200144245,23.90799894247221
0.65,31.222202372971505,131.01042001105833,10.53111780718304,-21.15692460743272,-0.0029092429481842,41.2057284669372,0.0010096064308588,4.609534665454387,436.7781447787475,22.140309997803826,9.328985500712877,72.00380222385296,0.0013600069346159,120.00144457548188,299.94238712074315,15.288,0,10.549738257787013,0.065070127547465,-2.5814637476556277e-09,0.0050285242248981,5.595062088827785e-05,-0.0003058980860289,21.15692479827976,30.23552457663511,22.139853014990347,41.46275279503629
0.66,31.22220195640089,131.01042086706917,10.753658534721303,-20.861428307245507,-0.0028433113948156,35.094778786708936,0.0010276198164426,4.6417480963251565,383.51251517160017,22.408572484394497,9.465246000353066,72.00682422200663,0.001458852770425,120.00154895280592,307.2483436123538,15.288,0,10.586560694585216,0.0658587133900281,-4.72185052921559e-09,0.0055733699279762,5.5867142707276686e-05,-0.0003431431201497,20.861428492371207,29.872084676945622,22.40812585808519,35.40041418590715
0.67,31.222201533534594,131.01042173598356,10.979103664914266,-20.546203470861247,-0.0027750665329952,24.25872964735461,0.0010466581367843,4.676546535419822,289.1562440103425,22.70440481489804,9.610595896607824,72.0101611360421,0.0015576088067191,120.00165324173642,315.40749499132266,15.288,0,10.62326173587979,0.0667283332539908,-7.083441260057612e-09,0.0061291255033829,5.578264178772418e-05,-0.0003823336023476,20.5462036501652,29.4819937650458,22.703968908466543,24.705385095093778
0.68,31.22220110454036,131.0104226174549,11.20733065888456,-20.245290598331007,-0.0027090013327,30.20810505700504,0.001065365796505,4.711135410707454,340.8999924858462,22.99256802437748,9.753373182348376,72.01381920082926,0.0016562867136538,120.0017574568736,323.45748701893365,15.288,0,10.65971001659895,0.0675754200291801,-9.670006702712857e-09,0.0066955153412574,5.56971893996406e-05,-0.0004229565981659,20.245290771968747,29.109670456452932,22.99214249544337,30.573262978100317
0.69,31.222200669492928,131.01042351132867,11.438282140791408,-19.975771362194727,-0.0026472269211159,37.1229038241035,0.0010829831824217,4.743913707629454,401.0140726853634,23.25326063948515,9.887086730340608,72.01780460141563,0.0017548823335388,120.0018615910604,330.8265343767792,15.288,0,10.69600820238728,0.0683417766690954,-1.2485200813794509e-08,0.0072724213451966,5.56108350427103e-05,-0.0004645982563696,19.97577153043716,28.77761260770188,23.252844814052903,37.424787331018
0.7,31.22220022824093,131.01042441791677,11.672058877900596,-19.710255459228566,-0.0025861930526215,31.177186600684564,0.0011006184626071,4.777198185476819,349.27032420985284,23.5153757040878,10.021272993609962,72.02212341456253,0.0018533921488158,120.0019656381956,338.3192508839942,15.288,0,10.732168823068772,0.0691123201230075,-1.553254489106807e-08,0.0078602865950232,5.552355362929465e-05,-0.0005078029700892,19.710255622150104,28.450152349137312,23.514969465833197,31.54106193596831
0.71,31.22219978083192,131.0104253371207,11.908622832533188,-19.43376435026499,-0.0025240653461251,25.665679479824504,0.0011189273872672,4.812390210647119,301.33126406340574,23.79611681211536,10.161557376429164,72.02678174923022,0.0019518361469078,120.00206962425686,346.4377308206748,15.288,0,10.768086509027452,0.0699376124268495,-1.8815635533324767e-08,0.0084590411338566,5.543539058380338e-05,-0.0005529963907138,19.433764507843765,28.10766739360006,23.79572033285806,26.112950885578126
0.72,31.222199327259226,131.0104262689539,12.147973833325072,-19.14384291859377,-0.0024605651685542,31.359287743520795,0.0011380775042859,4.8499119158054285,350.79220534145287,24.100008325545936,10.309382043192551,72.03178595995438,0.0020502112092082,120.00217354343688,355.3345230512492,15.288,0,10.80384561576564,0.0708309513893721,-2.2338133750089104e-08,0.0090688172815701,5.534636507406616e-05,-0.0006004169307222,19.14384307079377,27.74657034945145,24.099621820873192,31.73210636984607
0.73,31.222198867510496,131.0104272134414,12.390115540324327,-18.90343510366916,-0.0024034595006723,39.595694258518826,0.0011551534280978,4.883486733515486,422.320318528234,24.350464152801187,10.439742392459047,72.0371426063872,0.0021485213513512,120.00227739970784,362.74998906470097,15.288,0,10.839465958569525,0.0715672472476375,-2.6103824768758583e-08,0.0096898159789771,5.525648906838982e-05,-0.0006481831847654,18.903435250877383,27.450634930875136,24.35008661826577,39.895707135290905
0.74,31.222198401510965,131.01042817073727,12.635095888069127,-18.653141823344583,-0.0023453879825178,24.880762510120928,0.0011728560949518,4.918914662345427,294.48281347105944,24.618530459979866,10.575855989220482,72.04285795095014,0.0022467718235009,120.00238119871253,370.7720206581244,15.288,0,10.874901896826271,0.0723553076802387,-3.0116240943402824e-08,0.010322205341055,5.516578048762602e-05,-0.0006980706675823,18.65314196554893,27.141092077859472,24.618162047297183,25.362335576915374
0.75,31.222197929631264,131.01042914007633,12.882651557103546,-18.398234916067256,-0.0022870642902921,29.00064919054862,0.0011909622714724,4.955742693948294,330.24688556441487,24.89839489298636,10.715780728866829,72.04893829780438,0.002344967424026,120.0024849449274,379.240822738079,15.288,0,10.91010184958306,0.0731780500767476,-3.4379005561862376e-08,0.0109650587894922,5.507439771429719e-05,-0.0007499576866349,18.398235053298738,26.82491707086209,24.898035641767823,29.421030582565958
0.76,31.222197451746528,131.01043012171598,13.13286577650283,-18.16272771100272,-0.0022313419970036,31.193792846678125,0.0012082852549103,4.991373863162649,349.27032420986166,25.15878048957113,10.849362195483092,72.05538982127248,0.0024431228514168,120.00258865690267,387.205141288779,15.288,0,10.945138127759112,0.0739435495228057,-3.889552636321095e-08,0.0116188435753647,5.498232068221631e-05,-0.0008029647882587,18.16272784344386,26.53433213946713,25.158429991189944,31.590608203440528
0.77,31.222196967788136,131.01043111579745,13.385782678171337,-17.934821464450792,-0.0021767681639052,29.17850638917792,0.0012253742695414,5.027013175196752,331.7687666960708,25.414178388581448,10.981327320853124,72.06221885812161,0.0025412330613659,120.00269232591457,395.0968282058996,15.288,0,10.980014512762862,0.0746943963090435,-4.3669239648862825e-08,0.0122838221366783,5.488955793227489e-05,-0.0008575176257897,17.934821592206223,26.25362945197653,25.413836462637917,29.608378849042722
0.78,31.222196477816293,131.01043212219625,13.641356478009389,-17.697957665257963,-0.0021214160788805,24.003994639050767,0.0012430776880741,5.064563946670536,286.8734378128899,25.687161998845337,11.11897391635231,72.06943173190184,0.0026392975337396,120.00279594925712,403.6202856552866,15.288,0,11.014688900079785,0.0754969356680148,-4.870359202312777e-08,0.0129598485970603,5.4796170279779055e-05,-0.0009144055545908,17.69795778833309,25.96046486819086,25.68682876758698,24.532459480181256
0.79,31.22219598191593,131.01043314073684,13.899524091791996,-17.457888099576262,-0.0020660027662397,34.00674312055095,0.0012611206455331,5.103447603187084,373.6203323159534,25.97052663409535,11.2599415531841,72.07703473081858,0.0027373367754856,120.00289955303806,412.56414490352176,15.288,0,11.04913775686162,0.0763299927663682,-5.4002038573784163e-08,0.013646770860913,5.470221919251581e-05,-0.0009734702676271,17.45788821801699,25.66256747341635,25.970202107139784,34.38755235104762
0.8,31.222195479846167,131.0104341719159,14.16045058450618,-17.245863410540693,-0.0020140607667655,34.4473553573758,0.0012777981050527,5.13980137418035,377.42502064505743,26.218906506276056,11.389616938578992,72.08503443910266,0.0028353512394859,120.0030031360866,420.48280068732686,15.288,0,11.083438550377137,0.0770602330761842,-5.956799329359058e-08,0.0143454427142236,5.460764616113285e-05,-0.0010330698423165,17.245863524573558,25.402554696211563,26.218590138350685,34.828692925749046
0.81,31.22219497170761,131.0104352155256,14.424062269143592,-17.02209733272318,-0.0019610421920403,22.508426210985142,0.0012952577183502,5.178512761026624,273.9374926939919,26.489604797061936,11.526472979161047,72.09343730901689,0.0029333537327628,120.00310671376182,429.19934448124616,15.288,0,11.117573617608084,0.0778560765106155,-6.540494173827674e-08,0.0150555507441892,5.451253589836514e-05,-0.0010953736381674,17.022097442341586,25.12619150765371,26.4892967572748,23.096455281907893
0.82,31.22219445769144,131.01043627117124,14.690221999414614,-16.79580574940273,-0.0019080376647208,28.83002525011157,0.0013130166703096,5.218522853703192,328.72500443277005,26.76981216910684,11.666347753939888,72.10224989788605,0.0030313339480793,120.00321026948647,438.3163178099032,15.288,0,11.151527532671228,0.0786798753374862,-7.151637799484748e-08,0.0157766184247744,5.441699140082193e-05,-0.001159947421053,16.79580585465888,24.84600330869093,26.76951245525138,29.29852109613566
0.83,31.222193937772712,131.01043733890398,14.95894417205775,-16.60102103254986,-0.0018587757541126,36.56029928343764,0.0013290766953321,5.255155347730445,395.68750322465047,27.00605379450524,11.79208723462043,72.11147861266748,0.0031293187421985,120.00331383790494,446.0751602609761,15.288,0,11.185282018406836,0.0793744601103924,-7.790563491491294e-08,0.0165088754250899,5.4321032920220495e-05,-0.0012244652626907,16.60102113368272,24.60903900137531,27.005761818692605,36.93605478647869
0.84,31.222193411833192,131.01043841896757,15.23030926661413,-16.40355361631251,-0.0018094499222494,22.677483391882863,0.0013453801734589,5.2929153658713615,275.4593748256452,27.25040919246004,11.92042889084776,72.12112985759478,0.0032272981925541,120.00341740314168,454.1721727612084,15.288,0,11.218832062005587,0.0800928990360376,-8.457586523201675e-08,0.0172526559385782,5.422467142928602e-05,-0.0012911762280887,16.403553713369575,24.36830893820652,27.250124964730947,23.286975069112092
0.85,31.222192880177808,131.01043951073262,15.504100861827029,-16.186746729198973,-0.0017583306179931,24.696629017788315,0.0013629663448484,5.334323889365898,292.96093233939376,27.5309376976642,12.06030347874076,72.13120982415678,0.0033252960877757,120.00352099508832,463.5590383136495,15.288,0,11.252188435491767,0.080917662903439,-9.153040261797477e-08,0.0180070538532326,5.412805904318774e-05,-0.0013614722061012,16.18674682214639,24.100530754569032,27.530661499736635,25.266153210502797
0.86,31.222192342616303,131.01044061459146,15.780450036293091,-15.989725662862543,-0.001709579469184,30.84901454185418,0.0013794610822361,5.373758772010088,346.2265619465587,27.78382697235965,12.191309132058423,72.14172512968268,0.0034233020322871,120.00362459715724,472.101794553344,15.288,0,11.285374241576328,0.0816611980206116,-9.877236771872696e-08,0.0187728331961459,5.40311601215132e-05,-0.0014323708485088,15.989725751869427,23.860057266340096,27.78355843224464,31.313559098994144
0.87,31.22219179916821,131.01044173050357,16.05934095658785,-15.803262897697904,-0.0016621657836735,28.73717931547469,0.0013953809568412,5.412417470473275,327.964078366998,28.022970478303844,12.317908961869144,72.15268217461384,0.003521332442471,120.0037282292664,480.2509430196865,15.288,0,11.318387842445372,0.0823643389555653,-1.0630493183966837e-07,0.0195499881127117,5.393402805113076e-05,-0.0015044668456513,15.803262982882094,23.63422641581124,28.022709385913128,29.2424304706623
0.88,31.22219124986562,131.0104428584026,16.340749237658983,-15.60870386808226,-0.0016141676247162,24.86457190228029,0.0014119027927016,5.4531623834044085,294.4828134710418,28.28025670259229,12.45025824555684,72.16408730685171,0.0036194033070286,120.00383191063644,489.096826694109,15.288,0,11.351221345346753,0.0831208114206314,-1.141312273702883e-07,0.0203383857778917,5.383673081482208e-05,-0.0015794651409244,15.608703949471478,23.39695078093084,28.28000314973475,25.45552823763264
0.89,31.22219069478893,131.01044399812238,16.624616498756456,-15.406576424809543,-0.0015656905299532,27.237508450168416,0.0014290250871224,5.496040744444674,315.028134248087,28.555834114729475,12.588368799150098,72.17594701322932,0.0037175119480569,120.00393563473132,498.661697977596,15.288,0,11.383872075719475,0.0839310523132724,-1.2225439713776836e-07,0.0211378838596672,5.373933766035448e-05,-0.0016575045730053,15.406576502439291,23.148845677773856,28.55558817663617,27.786477511187066
0.9,31.222190133853378,131.01044514983766,16.911000632145928,-15.233438838139572,-0.0015203408957373,30.05142634544948,0.0014443003777469,5.535011467842697,339.37814235421445,28.78321270140435,12.71113683444206,72.18826790901265,0.0038156706325045,120.00403941562476,506.62066407289154,15.288,0,11.41633781176064,0.0845996347888827,-1.3067749754075544e-07,0.0219488840515941,5.364186209356388e-05,-0.0017347549839996,15.23343891221062,22.941570940344292,28.78297388681493,30.55690722948134
0.91,31.222189567128645,131.01044631340454,17.19985140406159,-15.052285024966409,-0.0014744414153002,22.917284455256,0.0014601700451679,5.576092710395603,277.7421810230789,29.02884467972427,12.839659523247702,72.20105630207657,0.0039138882649426,120.00414326250448,515.2901267843935,15.288,0,11.448600819742262,0.0853218745130524,-1.394035250521449e-07,0.0227711503203999,5.354438618042289e-05,-0.0018150521455888,15.052285095511564,22.72297618805454,29.028613075008373,23.58590127279731
0.92,31.222188994821785,131.0104474883956,17.491021589429995,-14.863729618327662,-0.001428105481082,27.22835734107697,0.001476625775376,5.619317851915773,315.02813424806214,29.292708475288045,12.973884680040246,72.21431853505294,0.0040121740216937,120.00424718469232,524.6857051038097,15.288,0,11.480671948334567,0.0860977085158329,-1.4843561938974513e-07,0.023604016113418,5.344703402380999e-05,-0.0018984871936859,14.863729685387796,22.493774535400505,29.292484149003677,27.80216140508977
0.93,31.222188416833426,131.0104486750158,17.7845802656302,-14.7008056086546,-0.0013844157309628,32.3342009394182,0.0014913323801807,5.658773706273792,359.1625070654728,29.510943093040584,13.093638053606917,72.22806097046026,0.0041105373529277,120.00435119212304,532.5177717733313,15.288,0,11.512567841829044,0.0867394353318313,-1.577764690151616e-07,0.0244479892298762,5.334981274165639e-05,-0.0019809623883338,14.700805672404943,22.301086671946216,29.51072562952611,32.82563438036744
0.94,31.22218783304504,131.01044987350951,18.08061076479792,-14.519463613775388,-0.0013392583973538,23.519731658415367,0.0015074008550262,5.70239072508298,283.0687504837787,29.76886989166988,13.225871513810986,72.24228980545318,0.0042089880073202,120.00445529506167,541.8514964799361,15.288,0,11.544288179330945,0.0874978336568475,-1.6742869603804977e-07,0.0253033575075464,5.325275544837648e-05,-0.0020681314912599,14.51946367421335,22.08206715100613,29.76865952145278,24.201137153812336
0.95,31.2221872437552,131.0104510832606,18.378901228058385,-14.3434971789992,-0.0012948608291062,30.3898315325991,0.0015231388599142,5.745863092432244,342.4218736174873,30.02020904260947,13.355943882700672,72.25701149431232,0.0043075360116177,120.0045595036117,551.0240614259005,15.288,0,11.575820206926991,0.088236876561408,-1.7739548978561994e-07,0.0261692669554352,5.315600436099176e-05,-0.0021569023108019,14.343497236219957,21.87069229250305,30.02000564634608,30.928252546444998
0.96,31.22218664865405,131.01045230490828,18.67967060203444,-14.181044656453572,-0.0012518865989043,29.76901732459451,0.0015379106674169,5.787534424282104,337.09533515678345,30.24739956916593,13.478367611824188,72.2722324028211,0.0044061916920565,120.004663828841,559.3796730199408,15.288,0,11.607188850782387,0.0889049478638839,-1.8767912179342493e-07,0.0270468490451987,5.305951649904617e-05,-0.002246039456383,14.181044710578156,21.6787918497553,30.24720292327883,30.326390315192935
0.97,31.22218604775924,131.01045353841607,18.982906363626807,-14.015337632337454,-0.001208848837179,19.09378881440323,0.0015529514902844,5.830627355542902,245.02188719299323,30.48459255767516,13.603881850468664,72.28795903239782,0.0045049656818571,120.00476828178256,568.1705709913839,15.288,0,11.63839109058979,0.0896024261237673,-1.9828239574264466e-07,0.0279360678627539,5.2963362332192645e-05,-0.0023380063385011,14.01533768342622,21.48224506725853,30.484402672143865,19.964192672379554
0.98,31.22218544136771,131.01045478317116,19.288397977474368,-13.83308940964828,-0.0011646920363139,27.731832875601928,0.0015693150769448,5.877993036175326,319.5937466429581,30.76124773849335,13.741667934141004,72.30419776202086,0.0046038771205827,120.00487288470286,578.5129668548652,15.288,0,11.669405768481983,0.0904159018652402,-2.0920850453758045e-07,0.0288358654632192,5.2867702320079765e-05,-0.0024351415322186,13.83308945772314,21.261655630582958,30.761064789096118,28.347933950049892
0.99,31.222184829322,131.0104560394984,19.59625707460579,-13.684797806593778,-0.0011235790974026,30.285443520456955,0.0015830426488943,5.919042505614283,341.6609485517054,30.967510765829896,13.857339096852648,72.32095524487832,0.0047029214619522,120.00497762782598,586.2798338986704,15.288,0,11.70025665299508,0.0910224827276011,-2.2045980230243526e-07,0.0297470366802409,5.2772533122374286e-05,-0.0025288579480491,13.684797851838589,21.09050328741285,30.967334274438,30.858437353827245
1.0,31.22218421161887,131.01045730740432,19.906486867240417,-13.520484454831545,-0.0010813886016377,27.10320941971245,0.0015980472437506,5.9642874602796265,314.2672081822764,31.212209734914858,13.984955923791029,72.33823757926129,0.0048021179906171,120.00508253372192,595.5640223276305,15.288,0,11.73093444647209,0.0917420450163124,-2.3203878901158122e-07,0.0306694389709137,5.267793756101018e-05,-0.0026277971438367,13.520484497271374,20.8960598245586,31.212039870790537,27.751697034801193
1.01,31.222183588442608,131.0104585865087,20.2189568235602,-13.361344027421955,-0.0010398532508193,28.333246832970715,0.0016126455911101,6.009190064944341,324.9203161036979,31.448641613617724,14.10989277189652,72.35605119929738,0.0049014786620753,120.00518761460978,604.6028222513294,15.288,0,11.761434864112893,0.0924373151375454,-2.439482962436687e-07,0.0316025458435911,5.258402918073987e-05,-0.0027281761978197,13.361344067149336,20.70923475390435,31.44847827385105,28.963481212300717
1.02,31.222182959712395,131.0104598769782,20.533725426867,-13.20885029185772,-0.0009990519100493,23.646795211470604,0.0016266916074895,6.053337248666168,284.59063161540416,31.672736355775527,14.230897476351666,72.37440233241574,0.0050010157748791,120.00529288334764,613.2314628945152,15.288,0,11.791765509947536,0.0930963297776065,-2.561905291124276e-07,0.0325466806875076,5.249085289368859e-05,-0.0028296167210442,13.208850328967664,20.53227707671415,31.67257942506848,24.40929778312854
1.03,31.22218232549732,131.01046117867034,20.850744791923915,-13.046447857616036,-0.00095775737335,19.310917015604257,0.0016415672410052,6.100592254162136,247.30469339049705,31.923441712544523,14.360072641463429,72.39329709956787,0.0051007419789701,120.00539835299436,622.9589761760242,15.288,0,11.821920941414644,0.0938335688918022,-2.687679204070811e-07,0.0335015717170935,5.239850351719741e-05,-0.0029356007497826,13.046447892161492,20.34075446004741,31.92329126836813,20.25163560134934
1.04,31.222181685858803,131.01046249145824,21.16997214940279,-12.897349959982508,-0.0009176659868927,30.700102792152336,0.0016553027960596,6.145459313371257,345.46563688072297,32.14540354913836,14.480209013582485,72.41274185946028,0.005200670294541,120.00550403699816,631.6325203332126,15.288,0,11.851905574330354,0.0944863286075159,-2.816828895626394e-07,0.0344671287273897,5.230706128515506e-05,-0.0030411145063432,12.8973499920759,20.169014274588864,32.14525940250222,31.30915176687239
1.05,31.22218104050511,131.010463815944,21.49161780237775,-12.740764367564294,-0.0008772741826803,18.497335849395245,0.0016696699603104,6.192953609941483,240.45625879819983,32.38874597840724,14.606879813684898,72.43274280139839,0.0053008141043861,120.0056099495606,641.2118908285988,15.288,0,11.881736116382072,0.0952019407214869,-2.949370046302013e-07,0.0354444303067029,5.221652456032891e-05,-0.0031509209027013,12.740764397267514,19.98623488349568,32.388608176500874,19.50651457149656
1.06,31.222180389677245,131.01046515163037,21.815511066229224,-12.578322760294787,-0.0008367566634939,26.35563419720209,0.0016845562201035,6.242837219533927,308.17968365593924,32.65055513838367,14.739127188810969,72.4533064428747,0.0054011872046309,120.0057161047354,651.5997803568154,15.288,0,11.911399898631478,0.0959718408931761,-3.0853320989213424e-07,0.0364325964769176,5.212703744742808e-05,-0.0032648448660806,12.578322787678294,19.79471865072991,32.650423700954335,27.08491228200778
1.07,31.22217973325617,131.01046649876287,22.14173875063686,-12.435933751804075,-0.0007977897192052,31.03432696163764,0.0016976237762264,6.288333354621381,348.5093681440308,32.86441852351052,14.85644702688296,72.47443943641508,0.0055018038046489,120.00582251738872,660.1430976087855,15.288,0,11.940914165445433,0.0966008186764687,-3.224734718519872e-07,0.0374322768763908,5.203863576584557e-05,-0.003376295465205,12.435933776990884,19.633335549000535,32.86429320699448,31.665005751185316
1.08,31.222179071139927,131.01046785755207,22.47037654564881,-12.291468244621017,-0.0007588899421054,20.855406628334112,0.0017108310533834,6.335110516361647,261.00157857466235,33.08608468757159,14.976079601764956,72.4961481713514,0.0056026785098594,120.00592920277543,669.0571658931833,15.288,0,11.970280883301749,0.0972527391072314,-3.36759776484655e-07,0.0384437851111772,5.195138581721421e-05,-0.0034908087616462,12.291468267687891,19.46900795902752,33.08596548141825,21.79636698660172
1.09,31.22217840360784,131.01046922742148,22.80122640947015,-12.12985915392852,-0.0007192106174664,19.16415027784495,0.0017256008490902,6.3874389344326765,246.54375332474407,33.35671008503163,15.110631572226918,72.51843906125134,0.0057038263578121,120.00603617618388,680.0253330789677,15.288,0,11.99948268140108,0.0980485773892625,-3.5139512022073574e-07,0.0394659856637925,5.18654483857984e-05,-0.0036128248053887,12.129859174930935,19.27883421792424,33.35659711169202,20.200594916750084
1.1,31.22217773073669,131.01047060821267,23.13423535518016,-11.979910719902865,-0.0006804965984663,38.53497108593192,0.0017392571802974,6.437417466947976,413.1890617385841,33.599715260388166,15.236523040893,72.5413185371114,0.0058052628248309,120.00614345357091,689.9473860164427,15.288,0,12.028525378953628,0.0987632369503651,-3.663816873318088e-07,0.0404987540756115,5.17809156776689e-05,-0.0037342561591251,11.979910738947572,19.106345974923407,33.59960836823244,39.06896905809509
1.11,31.222177052121392,131.01047200076192,23.46969790141388,-11.85085921528009,-0.0006431444156603,28.1714098073272,0.0017508449929468,6.4820692979722265,324.1593910376397,33.78728867692992,15.345312259013536,72.56479312290583,0.0059070038475273,120.00625105188476,697.6497942024454,15.288,0,12.057436945864,0.099314967523898,-3.817202809515772e-07,0.0415438049460869,5.1697776353407285e-05,-0.00385187748609,11.850859232482172,18.965886073348557,33.78718765204135,28.907534588434615
1.12,31.2221763678274,131.01047340493412,23.80757090159456,-11.687920126085316,-0.0006042144758755,10.541542291198178,0.0017656710214754,6.53761921336002,172.73281794065943,34.07324714723609,15.484085802804987,72.58886909255858,0.0060090657980507,120.00635898801325,709.4858491064073,15.288,0,12.086204768381556,0.1001559009020652,-3.9741322789887937e-07,0.0426007079179373,5.161615545659052e-05,-0.0039831723382187,11.687920141485682,18.773723713776032,34.07315223744816,12.404216298243432
1.13,31.222175678448856,131.01047481950295,24.14742753103505,-11.545953918390332,-0.0005666516310878,33.201582747160685,0.0017783920151707,6.5876855179389455,367.5328077900705,34.30294887924762,15.605456626579215,72.6135533947464,0.0061114656454482,120.00646727888896,719.0604889288267,15.288,0,12.11480970377538,0.1008314796163212,-4.1346452805828313e-07,0.0436672492615311,5.153626562499934e-05,-0.0041102843893697,11.545953932106634,18.61376628727505,34.30285986981755,33.84882125809551
1.14,31.22217498332313,131.01047624583643,24.48975095730876,-11.418794321412788,-0.0005299881031252,18.309656716285776,0.0017895338998743,6.633809151815405,239.69531773195544,34.49125880214869,15.71409417914927,72.63885209569939,0.0062142206994553,120.00657594314396,726.9529823005563,15.288,0,12.14329000094963,0.1013853971068386,-4.298735447287995e-07,0.0447461823027013,5.145806003376796e-05,-0.0042348236742704,11.418794333548878,18.47689193796812,34.49117555181213,19.47436664267596
1.15,31.22217428294057,131.01047768292253,24.834190624460177,-11.25828309279775,-0.0004920566466947,18.030900551662217,0.0018040006298242,6.69146568262158,237.41251153546767,34.782235997211714,15.853794805494584,72.6647712098419,0.0063173487687886,120.00668499867976,739.245788474206,15.288,0,12.171609351139264,0.1022411079969986,-4.466439106705574e-07,0.0458352423304124,5.1381754746935456e-05,-0.0043743442725055,11.258283103411957,18.288465748142684,34.78215870513439,19.2325009018602
1.16,31.22217357743929,131.01047913047614,25.180649073672743,-11.136998208121728,-0.0004560731703568,47.44623058467093,0.001814326146338,6.736951477495664,490.0437743845894,34.95655403915217,15.957853311981598,72.69131738753,0.0064208683071316,120.0067944644396,746.6492598611422,15.288,0,12.199743003098586,0.1027539112438906,-4.637776078942765e-07,0.0469342079604468,5.130745354796739e-05,-0.0045015241564848,11.13699821734219,18.161243227595232,34.95648239934609,47.92213804908618
1.17,31.22217286595492,131.0104805902819,25.529760044192663,-10.99903248128012,-0.0004195766261651,8.252247241571153,0.0018262765246862,6.788723597523147,153.70937929486794,35.184159602955354,16.077974677591133,72.71849647153422,0.0065247981264174,120.00690436080905,756.3785617935075,15.288,0,12.227764555175536,0.1034233595406996,-4.812729116191097e-07,0.0480466217627548,5.123511119387084e-05,-0.0046380663045252,10.999032489184318,18.008271837755764,35.18409369601304,10.685801605629418
1.18,31.222172149634936,131.0104820599711,25.880692961162485,-10.838936227569809,-0.0003825687930727,22.957245439461545,0.0018405217720399,6.849144006838012,280.02501822196746,35.48594208121283,16.22027010368549,72.74631475469121,0.0066291577091026,120.0070147066954,769.3835305121418,15.288,0,12.25561238712912,0.1043108581510509,-4.991362029954424e-07,0.0491673639155849,5.116504897014387e-05,-0.004786802811051,10.838936234240602,17.82054342756773,35.48588198744734,23.957167929068813
1.19,31.222171427966515,131.0104835406025,26.23382515430963,-10.731845587968344,-0.0003476269454455,40.24243715881592,0.001848920534054,6.891379142711238,428.4078130529292,35.61898404753477,16.311428128057532,72.77477872520214,0.0067339671500565,120.00712552342056,775.1371125535379,15.288,0,12.283336394031426,0.1047023520183759,-5.173663112734203e-07,0.0502991789985067,5.109725954863994e-05,-0.0049151861022169,10.731845593532528,17.716619227945532,35.618929442421866,40.828236043066454
1.2,31.2221707005152,131.0104850330735,26.589481111632963,-10.58472809575973,-0.0003115737341159,3.9433531257490606,0.0018615587460541,6.948882943461988,117.1843741360236,35.88500420067412,16.442539030776945,72.80389386967437,0.006839246872178,120.00723683255129,786.7316829132349,15.288,0,12.310940066719732,0.1054847442508787,-5.359630202938135e-07,0.0514435504264342,5.103181435474856e-05,-0.0050643841377209,10.584728100293225,17.549612312952494,35.88495525878641,7.989806724927255
1.21,31.222169968423703,131.0104865350249,26.946829004833976,-10.441205523021786,-0.0002759522891682,32.23737171063347,0.0018737131489503,7.005973555661789,359.92343213200894,36.14310401813959,16.570961673475864,72.83366669880833,0.0069450181954272,120.0073486548784,798.0619859616135,15.288,0,12.338376785826336,0.1062438627033655,-5.549328356119154e-07,0.0525954526823185,5.096898833038805e-05,-0.0052148454402947,10.441205526627916,17.38831395095208,36.14306067165537,32.98987426140003
1.22,31.22216923083004,131.0104880482368,27.306505922487226,-10.333412904291436,-0.0002414439591646,23.259550615767623,0.0018816792209682,7.049884176217458,283.0687504825761,36.28060091669252,16.663031975189472,72.86410303298543,0.0070513028571004,120.00746101377256,804.1177843465774,15.288,0,12.36570302491764,0.1066484723414683,-5.742723239776568e-07,0.0537590991643583,5.090876563794512e-05,-0.0053503136852015,10.333412907081502,17.284500488794496,36.2805629907641,24.304476239702307
