Time,Latitude,Longitude,Altitude,Angle of Attack,Angle of Sideslip,X-Acceleration,Y-Acceleration,Z-Acceleration,Thrust,True Velocity,Ground Velocity,Pitch,Roll,Yaw,Dynamic Pressure,cp,parachute_deploy_gain,Wind Speed,Mach,omega_x,omega_y,omega_z,Cmq,Angle of Attack(total),Angle of Attack(gust),True Velocity(gust),Acceleration
0.0,31.222186000000004,131.010384,3.000000003643237,0.0,0.0,0.0,0.0,0.0,2.2828121974499247,0.0,0.0,69.99999999623421,0.0,113.69999999388332,0.0,15.288,0,0.0,0.0,0.0,0.0,0.0,-0.0,0.0,90.0,0.0,0.0
0.01,31.22218600000153,131.01038399999584,2.99999882256592,0.0,0.0,0.0,0.0,0.0,34.24218696174923,7.502283530665459e-11,7.190531319924593e-11,69.99999999623329,-4.83564628150269e-13,113.69999999388072,3.446445726795683e-21,15.288,0,0.0,2.204725565824978e-13,-3.659182332138578e-19,7.589415207398531e-19,4.811147140404426e-19,-1.5108918610345807e-31,0.0,89.9999999995224,7.502283530665459e-11,0.0
0.02,31.22218600000288,131.01038399999217,2.999997775701936,0.0,0.0,0.0,0.0,0.0,25.871876237766408,1.5320717031631675e-10,1.4674636035870463e-10,69.99999999623222,-9.67129256300373e-13,113.69999999387804,1.4372842949972735e-20,15.288,0,0.0,4.5023593667086093e-13,-7.284483346386986e-19,1.5178830414797062e-18,9.757819552369542e-19,-6.170906918166791e-31,0.0,89.99999999902465,1.5320717031631675e-10,0.0
0.03,31.22218599928065,131.01038400193067,3.000201659671132,18.81500467334555,-0.00012974450181,11.96616230539064,-1.8916256735984712e-05,3.349833086198469,180.34219359854663,0.0882870268161719,0.0553390044312322,69.99999999799445,-4.212591857125379e-12,113.69999999488518,0.0047728553458352,15.288,0,0.0,0.0002594525584132,3.2187251995663407e-17,-7.20264389268894e-10,1.2365134327422308e-11,1.6874092354518158e-13,18.815004673776716,89.46786891739345,0.0882666465974854,12.426199017587786
0.04,31.22218599548236,131.0103840121632,3.001799604587872,9.46752327608497,-4.6177622759613696e-05,55.21900012092241,3.931876292165237e-06,3.349616504302861,548.6359724538078,0.3767519978512604,0.1853356633749705,70.00000000507204,-2.4624598767003407e-11,113.70000000019972,0.086915163246288,15.288,0,0.0,0.0011071759353184,1.6174128009138757e-15,-1.3693172015529268e-08,2.7753303060112748e-11,1.3689612277852356e-11,9.467523276196548,87.63554493451223,0.3767447442872393,55.32050167054111
0.05,31.222185984749512,131.01038404118162,3.00777936418888,5.376730308971262,-2.257790939128127e-06,80.28807156553681,5.266841443842784e-05,3.348887800834877,761.6984298824644,1.018787885905993,0.4366201147110198,70.00000000894464,-1.1355399380652658e-10,113.70000001523856,0.635552918586145,15.288,0,0.0,0.0029939522895272,1.6418815498809788e-14,-9.32122351075408e-08,4.303264669380585e-11,2.5199270302492604e-10,5.3767303089717045,83.57022052969386,1.0187875312530217,80.35788377762394
0.06,31.22218596447235,131.01038409608267,3.0201664202003013,4.296730121134882,2.4863835723705905e-05,60.21296515808257,0.0001057204249726,3.347700952379021,590.4875390737208,1.721098934225416,0.7081674028809783,69.99999995523842,-3.0560354507026086e-10,113.70000004366592,1.8138247671743823,15.288,0,0.0,0.0050578622752421,8.328976953118383e-14,-3.2824985336199985e-07,5.923438275930214e-11,1.4991363363716091e-09,4.296730121206683,79.20467073327266,1.7211028398275985,60.305955550063224
0.07,31.22218593493329,131.01038417609837,3.038741944736831,3.8204913578752526,4.8016684030909405e-05,91.4060317508128,0.0001597686613101,3.346072557365335,855.2937749779139,2.4375792548422868,0.9844712334613328,69.99999973536046,-5.939103491363046e-10,113.7000000850886,3.6383156301599167,15.288,0,0.0,0.007163413150771,2.709313825263564e-13,-7.906546256197275e-07,7.920022733617308e-11,5.114174483651565e-09,3.820491358176508,74.87999294483174,2.437586797285377,91.46725557277466
0.08,31.222185894468456,131.01038428575305,3.0647976109320942,3.588632851766762,7.220043782492885e-05,19.18449428359557,0.0002119618497595,3.3440615022685813,241.2171988638848,3.1292508166901074,1.2522236515868983,69.99999919480445,-9.914748373602156e-10,113.7000001418522,5.996012698481753,15.288,0,0.0,0.0091960591623389,6.80386533246681e-13,-1.5973238302190878e-06,1.0839624626357699e-10,1.3263625118823921e-08,3.58863285249208,70.86684630658345,3.1292621579083604,19.473766155861934
0.09,31.22218584634549,131.01038441616095,3.0957981580345013,3.551302481506045,9.685468678862004e-05,57.102946699906326,0.0002554087225869,3.341892818148368,563.0937377043176,3.701810007254615,1.479132491047967,69.99999812344194,-1.4359264356978275e-09,113.7000002093888,8.390904013834115,15.288,0,0.0,0.010878666406854,1.440096519545733e-12,-2.748643691533636e-06,1.5214952332699618e-10,2.6999776649034504e-08,3.5513024828250237,67.68737872952666,3.701825221153239,57.20065357568538
0.1,31.222185790329306,131.01038456796124,3.1319266121977414,3.608446747536112,0.0001234669721807,54.26147302645416,0.0002914860332524,3.3396271157106168,538.7437595981919,4.174070299823608,1.6716491241860567,69.9999963052332,-1.902380107712657e-09,113.70000028805804,10.668380938744466,15.288,0,0.0,0.0122665227999911,2.687800116751415e-12,-4.315796035622946e-06,2.1749089204950437e-10,4.7802076800548326e-08,3.608446749645647,65.17160335282355,4.174089693970246,54.36414778470795
0.11,31.222185727066616,131.0103847393952,3.172681775073216,3.633547373470009,0.0001485939126744,42.987553988990406,0.0003293995000288,3.337005588796181,442.8656393052949,4.672024955140527,1.8729475711242067,69.99999349387662,-2.3433348587116544e-09,113.70000037699285,13.365573690709628,15.288,0,0.0,0.0137298902182575,4.5789425819531184e-12,-6.340230783164189e-06,3.1157625832417107e-10,7.860218435507205e-08,3.6335473765043056,62.62546922225161,4.672048296217748,43.116880735560244
0.12,31.22218565692512,131.0103849294629,3.2177790417108385,3.650108937861461,0.0001727442530266,46.86777100765684,0.000367618259785,3.334068179146888,475.58594813540446,5.17479364099247,2.0758708919414386,69.99998941286465,-2.702771525550512e-09,113.70000047573096,16.396890189902592,15.288,0,0.0,0.0152074069417046,7.288473386564583e-12,-8.86736416607888e-06,4.42271554299792e-10,1.217615295152289e-07,3.6501089419435786,60.16906436414164,5.174820775596283,46.986210423745625
0.13,31.222185580265183,131.0103851371844,3.2669395832841857,3.7280113734654137,0.0001995014041665,51.64515456841877,0.0003986198234033,3.3311573548369657,515.9156326236895,5.579364582999854,2.2451120211463422,69.99998375846928,-2.9114380666036422e-09,113.70000058383452,19.060875702782603,15.288,0,0.0,0.0163963474924215,1.100846422415094e-11,-1.1941028436408576e-05,6.179653149059831e-10,1.7678562106638216e-07,3.728011378795934,58.279338776943774,5.579395920607139,51.75247433579817
0.14,31.22218549718016,131.01038536230575,3.320091807147376,3.768719651034081,0.0002242721760019,48.1660778383537,0.0004326225136175,3.32784677779744,486.2390860568404,6.025734265159953,2.428648685938864,69.99997621008868,-2.890941335368725e-09,113.70000070125378,22.232643351545065,15.288,0,0.0,0.0177081261985351,1.5941871344608664e-11,-1.560901486259027e-05,8.477542742712431e-10,2.495765160917323e-07,3.7687196576976176,56.27980129251342,6.025769493750979,48.280903250602165
0.15,31.22218540777004,131.01038560455507,3.377159065217065,3.821894709649632,0.000249725644238,46.56959330999435,0.0004643042952466,3.324387732286376,472.54218587214,6.441023336496372,2.6014999612196745,69.99996641132823,-2.546763407193136e-09,113.70000082794672,25.402620271850456,15.288,0,0.0,0.0189285691155931,2.2314099732464315e-11,-1.992367942778425e-05,1.1417519574710292e-09,3.4051816697623295e-07,3.821894717796148,54.501255563441134,6.441062563308839,46.68809885900716
0.16,31.22218531193176,131.01038586421257,3.4382223512025254,3.8463320955387794,0.0002733212404609,36.974247749122085,0.0004987816203583,3.3205066466509234,391.1218908297564,6.895451966878468,2.7877331692857847,69.99995397923414,-1.77088415515292e-09,113.70000096417354,29.113317717489338,15.288,0,0.0,0.0202640360420561,3.0367358387834494e-11,-2.4945905791363795e-05,1.5114297685186711e-09,4.5643121540033697e-07,3.846332105235269,52.641145594326446,6.895494900078523,37.12304892183151
0.17,31.222185210004127,131.010386140357,3.503019838429153,3.8860314262554336,0.000297865039677,46.520531453299206,0.0005306403365217,3.31650761597812,471.78125980632376,7.314788342774694,2.9619016331667103,69.99993849340957,-4.3039914767238207e-10,113.70000110959404,32.761746921137856,15.288,0,0.0,0.0214963781445172,4.0366633128431416e-11,-3.0713078585132897e-05,1.96747427715988e-09,5.961228045584824e-07,3.886031437653654,51.00464968745696,7.314835131305714,46.63860064094784
0.18,31.22218510147516,131.01038643438045,3.571950002194137,3.9107265153396016,0.0003214293682635,38.895647526122765,0.0005639254295027,3.312149448254175,407.10156721191447,7.754626295791602,3.1430587898572058,69.9999195084231,1.6149322372810674e-09,113.70000126508234,36.81988229018681,15.288,0,0.0,0.0227889722876034,5.2593391349219385e-11,-3.731786027786564e-05,2.525509173087448e-09,7.6786585232224e-07,3.9107265285284982,49.36615848311875,7.754676785798701,39.036415444581515
0.19,31.222184986476247,131.0103867459258,3.644912152926752,3.920599115663931,0.0003437679584038,43.86258669386953,0.0005989384366483,3.307389681300437,448.9531328318269,8.219206165926856,3.332657190859447,69.99989653019398,4.538529095696477e-09,113.70000143063515,41.36350714675367,15.288,0,0.0,0.02415428010977,6.735860419174937e-11,-4.481243905342629e-05,3.199401151670645e-09,9.773118416308382e-07,3.92059913071168,47.71893898797248,8.21926016487149,43.987104227715655
0.2,31.222184864792144,131.01038707557822,3.722074668489528,3.943376465171875,0.000367328732016,40.28070981710589,0.0006315894240138,3.30251450988504,418.51563019916136,8.65238089736321,3.511445117640573,69.99986902534273,8.534090245934178e-09,113.7000016067622,45.83799876721736,15.288,0,0.0,0.025427299120469,8.499785987217288e-11,-5.328041996372527e-05,4.006766070954748e-09,1.2232205148646746e-06,3.9433764822533854,46.2587826635041,8.652438597225508,40.41586552155969
0.21,31.22218473678744,131.01038742234647,3.803156063113743,3.9664546506877016,0.000390962054969,38.67679184347145,0.0006636984664108,3.297405915846789,404.8187610144644,9.079179692250786,3.688002035198235,69.99983642883521,1.3827831253856693e-08,113.70000179318536,50.47126980736161,15.288,0,0.0,0.0266815841422463,1.0586558589671407e-10,-6.275155280099118e-05,4.961340042512481e-09,1.5117124669161171e-06,3.9664546699249135,44.88773728276958,9.079241104426773,38.817098210937615
0.22,31.2221846022986,131.01038778667507,3.8882846911135607,3.956175711337521,0.0004112685792646,46.713636108302936,0.0007011135033803,3.291572407481395,472.5421858721365,9.580256326712124,3.889976788904857,69.99979815126248,2.0662823443484168e-08,113.70000199039316,56.195522894218605,15.288,0,0.0,0.0281541581291438,1.3033127211465288e-10,-7.330053770532661e-05,6.0817207473359025e-09,1.8632831045819008e-06,3.956175732680424,43.35679625546934,9.580320928629488,46.8294591882524
0.23,31.222184460898035,131.01038816972698,3.977794004014759,3.9879066397329104,0.0004360962274406,38.89105719050748,0.0007308686121188,3.286096544282012,406.3406421461021,9.977039034039262,4.056142701351626,69.99975353557706,2.9316661139418326e-08,113.70000219928508,60.9462612310605,15.288,0,0.0,0.0293202403623685,1.5880617816859538e-10,-8.505067486192354e-05,7.393319440773217e-09,2.2514912291167663e-06,3.987906663538912,42.20670487756048,9.97710753587448,39.0296395118868
0.24,31.222184313516166,131.01038856897196,4.070963590490852,4.003523997322975,0.000459165577055,40.0792299321398,0.0007630441688766,3.280134925833028,416.2328240017114,10.408422364424831,4.234121060914368,69.99970190737699,4.010976417051318e-08,113.70000241888,66.32994780718496,15.288,0,0.0,0.030588009649109,1.91711512587616e-10,-9.795845222523724e-05,8.904557280909524e-09,2.7052895870113487e-06,4.003524023611085,41.011349410369874,10.408494489985014,40.21323112692186
0.25,31.22218416001652,131.01038898478134,4.167901030441617,4.0261356185860135,0.0004830526730531,41.17760020658354,0.0007934613160587,3.2740610008587527,425.36408079150686,10.816813039390448,4.4041629376391525,69.99964258149416,5.3372865854010094e-08,113.70000264972064,71.63651430352668,15.288,0,0.0,0.0317882126436337,2.2947426169209347e-10,-0.0001121037688082,1.0637152702866709e-08,3.217380562698304e-06,4.026135647516394,39.93186687113378,10.816888917126896,41.30755663120434
0.26,31.222184000702686,131.0103894163294,4.26837241014618,4.053359329950934,0.000507503069958,44.80261175215926,0.0008224724146494,3.2678597736729302,455.8015834241788,11.207047269494833,4.567925492611352,69.99957484039399,6.947299261165984e-08,113.70000289176392,76.89781807056055,15.288,0,0.0,0.0329350617559806,2.7254099134167665e-10,-0.0001275114371842,1.260720913253598e-08,3.7915697709142366e-06,4.053359361668992,38.945390435244384,11.207126987890645,44.921630958721536
0.27,31.22218383516388,131.01038986473338,4.372698316214008,4.0614460923241,0.0005296455772492,41.029837477288126,0.0008548809954683,3.2610328932384265,423.84219965987256,11.645685385842508,4.748226940060522,69.99949794024376,8.879821051920497e-08,113.70000314600205,83.0342688744587,15.288,0,0.0,0.0342241635563461,3.2137296827284217e-10,-0.0001442952656441,1.4842505534226832e-08,4.458527942364847e-06,4.061446126801262,37.8838346421185,11.645768582375233,41.15922617924542
0.28,31.222183663504484,131.01039032970942,4.48079961904222,4.081133040992532,0.0005533279247169,47.27661484082626,0.0008845140695959,3.254218495915602,476.3468732012221,12.047344998676092,4.915789434712848,69.99941106884992,1.1178948978424788e-07,113.70000341275257,88.85982357848233,15.288,0,0.0,0.0354045979054623,3.764736350660473e-10,-0.0001625146963723,1.7365685655384934e-08,5.194620655212288e-06,4.081133078439725,36.956255322213885,12.047431915223257,47.38848224631549
0.29,31.22218348566054,131.0103908114315,4.592727908358551,4.1001100265020245,0.0005770279952742,37.989969791857405,0.0009138463939581,3.247164755122801,397.97031042211177,12.446314684600782,5.082367374004485,69.99931338876085,1.3891902435864665e-07,113.70000369260468,94.8417675268915,15.288,0,0.0,0.0365771315767517,4.3836067907166327e-10,-0.0001822432988888,2.0202163500922312e-08,6.018074062137429e-06,4.100110067036654,36.07377590258778,12.446405323946324,38.12849176886316
0.3,31.222183301933686,131.01039130907952,4.708251093558373,4.112858061667493,0.0005998635114143,35.655053282557844,0.000944131403186,3.2397207148238625,378.1859457108711,12.860033399289696,5.253940723820665,69.99920403105713,1.707002607527005e-07,113.7000039856728,101.2505662360602,15.288,0,0.0,0.03779301412572,5.075709863465428e-10,-0.0002035013069687,2.3370674033523645e-08,6.94335970778e-06,4.112858105337573,35.19685285507256,12.860127625629724,35.80193592228613
0.31,31.222183112488807,131.0103918222051,4.827243246502713,4.136140889545823,0.0006242383343011,37.56633644061071,0.0009716215464757,3.232339252743767,394.1656220930212,13.2364445751808,5.4126574282679245,69.99908210036875,2.0768081583188525e-07,113.7000042923011,107.26326115439352,15.288,0,0.0,0.0388992619788015,5.846561731689753e-10,-0.0002263323252403,2.6893437641668458e-08,7.948283231812338e-06,4.1361409365698805,34.43286455705216,13.236542630309057,37.70514091683033
0.32,31.22218291741533,131.01039235056504,4.949637017503345,4.1622282001352975,0.0006491019906456,40.83513712643371,0.0009979686925508,3.224840963348891,421.55939346242695,13.59846554462374,5.566374262777002,69.99894668612772,2.504388718903276e-07,113.70000461297312,113.2095365840355,15.288,0,0.0,0.0399632243410653,6.701756367872645e-10,-0.00025078340164,3.0793566854276295e-08,9.047716714467492e-06,4.16222825066026,33.72644865222576,13.598567505326,40.96227562489027
0.33,31.222182716732533,131.01039289410716,5.075419569102976,4.187801887681037,0.0006739743721461,40.48743503284469,0.0010239291638211,3.217136801802925,418.5156301991682,13.956637761217308,5.718704299733134,69.99879684673242,2.995902922462564e-07,113.70000494831164,119.25032483364384,15.288,0,0.0,0.0410158804634189,7.647061680070125e-10,-0.0002769136723495,3.509664608790402e-08,1.0253455741189656e-05,4.187801941818244,33.053267359159875,13.956743628864118,40.61505097607
0.34,31.222182510255863,131.01039345333336,5.204736257784645,4.19642921746386,0.0006961879027693,31.814592723444047,0.0010535137542081,3.208669900766693,345.46563688075645,14.367047160772364,5.88887983533068,69.99863160305904,3.557915789971256e-07,113.70000529927128,126.36523219087664,15.288,0,0.0,0.042222056531773,8.688448410811866e-10,-0.0003048202762282,3.9835373705550826e-08,1.1618525957862828e-05,4.196429275109305,32.30947868183619,14.367156517712404,31.97598901989736
0.35,31.222182298183583,131.0103940277045,5.337435501771672,4.210915783240843,0.0007193441544952,34.813487415034444,0.0010813034848195,3.200164272309822,370.5765700527033,14.754132934586384,6.050986755458457,69.99844991734221,4.1975736284587617e-07,113.70000566632532,133.26448209504355,15.288,0,0.0,0.0433596939127697,9.832256819293898e-10,-0.0003345386312107,4.503361101379695e-08,1.309465610343774e-05,4.210915844572415,31.63649055965014,14.75424592890194,34.96026256388454
0.36,31.222182080444604,131.0103946174141,5.4735747500461605,4.22903876037745,0.0007431682866607,39.2632255716727,0.0011077666085529,3.1915717453569297,407.8625232777193,15.124417129017054,6.2072589919251575,69.99825073022951,4.922382611919288e-07,113.70000605036684,140.03566173682628,15.288,0,0.0,0.0444479595865755,1.1084921261805627e-09,-0.0003661511460057,5.0723697896912267e-08,1.4691545926915382e-05,4.229038825557203,31.017264542603208,15.124533865618538,39.39272792946638
0.37,31.22218185710795,131.01039522227452,5.613102797925907,4.249164960780052,0.0007674149135003,37.28328237034959,0.001133274451316,3.1828514669894137,391.1218908297666,15.483077353331511,6.359470679857624,69.99803294268581,5.740349991123437e-07,113.70000645214331,146.75405277514704,15.288,0,0.0,0.0455020695186381,1.245311285088233e-09,-0.0003997125883071,5.6934243389647934e-08,1.641828325195534e-05,4.2491650299519,30.439178816713017,15.483197898584232,37.418894813348615
0.38,31.2221816281124,131.0103958424523,5.756069531572451,4.260095806433531,0.0007900626414612,38.9278000801764,0.0011607546399008,3.1735466295306622,404.8187610144602,15.87126705947922,6.521735074464384,69.99779542676283,6.659911329739736e-07,113.70000687263192,154.20298254405043,15.288,0,0.0,0.0466429667223463,1.3943646956867835e-09,-0.0004353006984059,6.369875435270817e-08,1.8328108041903096e-05,4.260095879559656,29.83470194713067,15.87139116222873,39.05694584372078
0.39,31.22218139339905,131.0103964781077,5.9025231349944285,4.274091258047817,0.0008133283308351,33.320076729592266,0.0011870382950339,3.164143363712209,357.64062493382744,16.24457853509073,6.678818328235205,69.9975369905506,7.690136753559805e-07,113.70000731287368,161.54010621938565,15.288,0,0.0,0.0477401448128051,1.5563705124515804e-09,-0.0004730068442167,7.105463478762673e-08,2.0383860516746246e-05,4.274091335289374,29.274934656826048,16.244706292406182,33.46997636540994
0.4,31.22218115316572,131.01039712870306,6.0523126585892895,4.286421841403391,0.0008363022448449,31.88018820767003,0.0012133780841982,3.1544430614236454,345.465636880754,16.62063299903514,6.836764518435374,69.99725641601981,8.840594270905819e-07,113.70000777359816,169.10340080049767,15.288,0,0.0,0.0488453895716005,1.7320643186450851e-09,-0.0005128553637434,7.9027539265021e-08,2.2612406375611563e-05,4.286421922834417,28.730746964325096,16.620764365084565,32.03586915718869
0.41,31.22218090752676,131.01039779392735,6.205351877049411,4.30025870409831,0.0008595777771371,35.882550741685804,0.0012389121673015,3.1445895889870297,378.94687077668647,16.987310563534386,6.99141560549392,69.9969524610574,1.0121301778427253e-06,113.70000825570062,176.64448930727934,15.288,0,0.0,0.0499230826371405,1.922193031274436e-09,-0.0005548883906878,8.764667734700782e-08,2.5005077415911235e-05,4.300258789847355,28.21875643368965,16.987445585695873,36.020076248499606
0.42,31.222180656535848,131.0103984736348,6.36160173428776,4.322008670726048,0.0008844838439129,40.34064925656127,0.001261804338223,3.134918999355981,416.2328240017114,17.318628721060172,7.133856886815013,69.99662385300175,1.154276942054023e-06,113.70000876021427,183.59942989625057,15.288,0,0.0,0.0508968652507098,2.1275184665783874e-09,-0.0005991661829955,9.694534598491077e-08,2.752657757470936e-05,4.322008761057615,27.772396468009568,17.318767655457478,40.462275036947325
0.43,31.222180400205527,131.0103991677914,6.521055075967404,4.339436441324956,0.0009085827200945,35.541853595187746,0.0012854696362701,3.124839917627212,375.9031395134336,17.662848429084132,7.280642039343927,69.99626930133451,1.3115939750280808e-06,113.70000928827632,190.96736675963504,15.288,0,0.0,0.0519085689713619,2.3488101247838237e-09,-0.0006457514522491,1.0695800287133593e-07,3.0255957891170616e-05,4.339436536261635,27.322335771349252,17.662991148924057,35.67895714766603
0.44,31.22218013836212,131.0103998768696,6.683849332059896,4.342209064313268,0.0009296474314902,32.82948243168077,0.0013129688908547,3.113754688841357,353.0750125389216,18.063580761318697,7.446730341918701,69.99588746395321,1.4852372182848018e-06,113.7000098413532,199.7278270846888,15.288,0,0.0,0.0530863610987301,2.586862292117705e-09,-0.0006947575786514,1.1773083546077225e-07,3.329010177793299e-05,4.342209163639375,26.81344244367223,18.06372678999575,32.9768158972058
0.45,31.22217987077456,131.0104006014978,6.850166573233225,4.3420317510315165,0.0009500780330031,38.11022602597878,0.001341042003417,3.1022288449712887,397.2093853562869,18.47486275310604,7.616350301328129,69.99547690348253,1.6764536248320808e-06,113.70001042108892,208.92306716049887,15.288,0,0.0,0.0542951637545535,2.842521175226318e-09,-0.0007463379956615,1.2932090054593452e-07,3.657529369088674e-05,4.342031854775571,26.30944884471334,18.47501199101448,38.23628058998621
0.46,31.22217959739673,131.01040134180155,7.020045503401754,4.351169003849846,0.0009725797783515,44.3937050866137,0.0013660055515545,3.09098240974522,449.7140588976434,18.844323061800488,7.771531995684422,69.99503610583268,1.8865779683531e-06,113.70001102895836,217.3591612614144,15.288,0,0.0,0.0553810645782081,3.1166808800591503e-09,-0.000800596194505,1.417768495237597e-07,4.001824400409673e-05,4.351169112337076,25.873596578896564,18.844475834274814,44.50118229261506
0.47,31.22217931813738,131.01040209802923,7.193559875579052,4.358630093683735,0.0009947969928181,30.22514089990685,0.0013910994973101,3.079396422776949,331.0078106302534,19.2180591098146,7.9280875671397615,69.99456352718363,2.1170044481277104e-06,113.70001166656292,226.0625808853568,15.288,0,0.0,0.0564795377574197,3.4102493884459798e-09,-0.0008576351980594,1.551487523304888e-07,4.3718862242359527e-05,4.35863020698899,25.44665981168229,19.218215372160817,30.381603425148434
0.48,31.22217903348153,131.01040286886197,7.370336324605091,4.365514409145237,0.001016880998596,29.779838936311712,0.001416009414045,3.067527859335786,327.2031223011574,19.5915905767454,8.084483592791102,69.99405758812365,2.369198154608765e-06,113.70001233476164,234.93171707892955,15.288,0,0.0,0.057577416115756,3.7241711041759195e-09,-0.0009173883913609,1.6944871263079066e-07,4.767297940601472e-05,4.365514527349481,25.03354780044292,19.59175030803913,29.937410312943754
0.49,31.22217874361868,131.01040365378466,7.5502307795521535,4.3786401372577615,0.0010404145545081,37.2489281064929,0.0014385799934191,3.0558405437943126,389.60000969812296,19.93403005898306,8.23012235628909,69.99351671352461,2.644660619562788e-06,113.700013034871,243.21198709852868,15.288,0,0.0,0.0585839249886784,4.059374595909599e-09,-0.0009798792959512,1.8470833984680338e-07,5.180951737438081e-05,4.378640260624215,24.667474291142685,19.934193486919103,37.37406598941686
0.5,31.22217844858332,131.0104044527036,7.733219389747018,4.395550197017005,-10.514195347916086,38.38131397095733,0.692566115198517,3.044102903554211,397.97031042210494,20.59598005491089,8.366269437912349,69.99293932307316,2.9449363413826395e-06,113.70001376847225,259.6283138275007,15.288,0,3.7577354668479273,0.0605294482731988,4.41672905964163e-09,-0.0010516197388721,1.555754818850547e-05,5.744806662597381e-05,11.386470744987344,13.409236409917964,18.953667914012883,38.50807022493535
0.51,31.222178148204925,131.01040526526225,7.919249311742883,4.407260832060225,-10.362152608959684,29.471376198622945,0.7091392604785604,3.0318476423912264,323.3984349720841,20.93502031778453,8.512186715744717,69.99232011579466,-8.88346452254257e-05,113.69991651505008,268.2416077290938,15.288,0,3.772647861005469,0.0615259815427822,4.766083124971493e-09,-0.0011197653148703,-0.0001493871774707,6.217658507610987e-05,11.251037075517557,13.248198895278254,19.316195750344995,29.63540102070806
0.52,31.222177842123635,131.0104060913609,8.108334268200595,4.416019739648503,-10.21196654510654,35.308865167953805,0.7263499044051728,3.01920024870562,372.0984511843415,21.282922380162344,8.660902533808223,69.99166112970823,-0.0004430373454782,113.699539989265,277.2260309321792,15.288,0,3.787508232495081,0.0625485651694246,5.044656379255771e-09,-0.0011908367269599,-0.0003184651559724,6.7220550440862e-05,11.11658553001244,13.085038200810091,19.68730975907402,35.44515642191687
0.53,31.222177530196564,131.01040693137625,8.300586091493118,4.424917414860258,-10.067751353336652,37.05058781993876,0.743638228354198,3.00633230260938,386.5562464348624,21.627275709225994,8.808254085181577,69.99096064430776,-0.001066330215193,113.69887709360007,286.26424111480827,15.288,0,3.802318936075512,0.0635607260041777,5.251282399077736e-09,-0.0012649674371585,-0.0004918683742608,7.25590734760647e-05,10.988061706715394,12.92774247451998,20.05396252892772,37.17979410286422
0.54,31.22217721231712,131.0104077855626,8.496081983141972,4.433596740476816,-9.928416908531206,32.59653870834234,0.7610675993544083,2.9932156355877084,349.2703242098436,21.96972147344962,8.954813595293427,69.99021687858222,-0.0019655528164798,113.6979205465598,295.39586886464446,15.288,0,3.817090735126364,0.0645672874093196,5.384783663482971e-09,-0.0013422755637478,-0.0006697403205301,7.821114575932011e-05,10.864300404431532,12.77533661570113,20.41796251163728,32.742524329934824
0.55,31.222176888752426,131.0104086531585,8.694609459055535,4.443296839535616,-9.796313897142555,34.520543703251306,0.7784205635220846,2.979953353838299,365.2500005919907,22.304295699793784,9.098509100491402,69.98942801091886,-0.0031475806410337,113.69666302752957,304.45566860188336,15.288,0,3.831806356627368,0.0655507216131626,5.444026689444393e-09,-0.0014227358920323,-0.0008518976116565,8.416023435579805e-05,10.747921463915157,12.630377562348029,20.772980773154902,34.65766867711747
0.56,31.222176559495804,131.01040953414824,8.896168657431126,4.454903856611063,-9.672952576861988,32.250806615874254,0.7955226076144437,2.9666345708767152,346.2265619465787,22.626405644349507,9.237744611273346,69.98859220524614,-0.0046191698900111,113.69509734286004,313.30676223410194,15.288,0,3.846465559283744,0.066497530786478,5.4279257541214326e-09,-0.0015064310398845,-0.0010384033386043,9.03962788914307e-05,10.640638811153757,12.494594353640776,21.11418925613227,32.39673292588105
0.57,31.22217622461145,131.01041042832415,9.100704943187743,4.464234211745992,-9.549121993056536,31.89518508353111,0.813117801988919,2.95289645479088,343.1828296833023,22.95655856393541,9.379663830649283,69.98770759291531,-0.0063870674931953,113.69321630826536,322.51035816870643,15.288,0,3.861061935870048,0.0674679843646952,5.335434737278839e-09,-0.0015934078207668,-0.001229239871335,9.700875408052768e-05,10.532339549654855,12.358711193473663,21.4635204145999,32.04190365045955
0.58,31.222175884070623,131.01041133573156,9.308235881089889,4.4685587106593205,-9.419156836731783,41.85078407694429,0.8317459695029052,2.938460371741488,426.1250058573153,23.308990407731137,9.529217688513826,69.98677226205713,-0.0084580753690458,113.69101268063709,332.4821796476939,15.288,0,3.875595482500551,0.068503921343709,5.165519724558266e-09,-0.0016837527795598,-0.0014244760415702,0.0001040807309282,10.416729378579744,12.216779986197205,21.836088087261366,41.962059989579785
0.59,31.222175537469408,131.01041225743458,9.519069762576766,4.478087847209945,-9.304111434923154,34.01297207319207,0.8495134628710268,2.924274516846196,360.68438819711065,23.632234397822906,9.668490069178931,69.98578419285495,-0.0108394273682178,113.68847875724182,341.76078260296583,15.288,0,3.890083774472952,0.0694540839633649,4.917047444050512e-09,-0.0017777338283084,-0.0016245616185424,0.00011141182147,10.317127132420442,12.090696026748454,22.177162677826846,34.14901644008534
0.6,31.222175185008595,131.010413192853,9.733045947983396,4.479197056899709,-9.175923768111534,30.27932283930588,0.8690156447678345,2.909018735870616,329.4859594986058,23.99609836382361,9.821769793894514,69.98474131232669,-0.013538445965255,113.68560673966444,352.35869917142526,15.288,0,3.904514820345984,0.0705236341866383,4.588933282944907e-09,-0.0018753414557739,-0.0018293493571011,0.0001193360933892,10.202396400743709,11.951114511371532,22.560901038014244,30.431151305913623
0.61,31.222174826632887,131.01041414210323,9.950202510109236,4.478719668051055,-9.048637659783926,35.40327774598793,0.8890018171041534,2.8933156044534343,372.0984511843297,24.366354159912166,9.977143998204784,69.98364148110875,-0.0165626202454627,113.6823886519906,363.3086846495781,15.288,0,3.91889274911145,0.0716119775378876,4.1800689652440285e-09,-0.0019766884523359,-0.0020389512303586,0.0001277234233482,10.088095048925991,11.812642275516597,22.95089855790213,35.53243130686883
0.62,31.2221744624466,131.01041510486678,10.170453637702709,4.490289267208259,-8.948866225102314,43.91036272655224,0.9067099135095888,2.878616556760172,442.86563930529206,24.67021299743751,10.109313559210117,69.98248249209162,-0.0199196004981017,113.67881634593,372.41853550747857,15.288,0,3.933222732331276,0.0725051896232527,3.689346123091422e-09,-0.0020818328643368,-0.0022533647836644,0.0001361919213989,10.004030076126858,11.703937073922877,23.270236558114654,44.013958137453386
0.63,31.22217409226289,131.01041608162026,10.393939957685358,4.497645499526107,-8.84404202742747,25.09444499154024,0.92535595898898,2.8632456158603663,286.11251274707894,24.99334803091968,10.24806459296583,69.98126215156569,-0.0236167492875887,113.67488197920926,382.2302399931475,15.288,0,3.9474800540185337,0.0734550612669793,3.115757197013409e-09,-0.0021909338635226,-0.0024727860767897,0.0001452034623938,9.91387480965398,11.590422265801331,23.60963924361866,25.27420876191813
0.64,31.2221737166454,131.01041707079773,10.620219863104888,4.498468993171825,-8.729930058254794,24.643723603566887,0.9454913599898764,2.84689137922848,282.30782441796754,25.349407526667207,10.398140985017717,69.9799781777505,-0.0276614845545021,113.67057765171144,393.1899055718797,15.288,0,3.961677855724604,0.0745017047755807,2.4583410909526516e-09,-0.0023037890616153,-0.0026966943210828,0.0001548546875091,9.812797650242976,11.467165767772816,23.983413022708277,24.825629045120703
0.65,31.22217333556844,131.01041807243857,10.84930929803953,4.508185627480691,-8.63584019347498,43.21594821208526,0.9638678859053462,2.831299356645225,436.7781447787475,25.65397857854529,10.530216114707168,69.97862839576348,-0.0320610610537681,113.66589562869925,402.6860960449804,15.288,0,3.975792517202585,0.0753970315095939,1.7161720642713003e-09,-0.0024205101589596,-0.0029252005357005,0.0001646515845174,9.733821136614685,11.366327750673369,24.302594285715266,43.3193199071506
0.66,31.222172948531814,131.01041908787488,11.081592627466044,4.515283299167045,-8.539645121021646,36.82374923060805,0.982900758932612,2.8151727375232065,383.51251517160017,25.96987326820212,10.666105613682744,69.97721047028618,-0.0368227765773115,113.6608281380108,412.6550387553135,15.288,0,3.9898481033552127,0.0763256458746082,8.883559195470854e-10,-0.002541437579591,-0.0031588462791453,0.0001750023447525,9.652049955961264,11.26374429681228,24.6334298489984,36.944279649801146
0.67,31.22217255570869,131.01042011660363,11.316931387592236,4.516584813302068,-8.435583351110031,25.485598963238136,1.00333721163165,2.798086435439613,289.1562440103425,26.31565863150273,10.812255700982483,69.97572196712044,-0.0419544347292418,113.65536686457835,423.70751356874325,15.288,0,4.003857119638552,0.0773421169099553,-2.6078704923630444e-11,-0.0026665676480614,-0.0033975038494308,0.0001860594038253,9.560906605593807,11.152817076587985,24.995382170056605,25.65836564895435
0.68,31.22217215725588,131.0104211581671,11.555199990139243,4.519061674189112,-8.336462327050011,31.717106512328805,1.0236592503593571,2.780867145536881,340.8999924858462,26.65241679024724,10.955154760401795,69.97416041627454,-0.0474638073957738,113.64950352627234,434.6112187176445,15.288,0,4.017772545446468,0.0783320647720087,-1.0280659626928858e-09,-0.0027959144648651,-0.0036410845914549,0.0001975765125878,9.474922129583792,11.047933398087364,25.347543746690818,31.855234198736994
0.69,31.22217175324366,131.01042221234405,11.79634020789896,4.526391170953556,-8.24874180992047,38.95955577779356,1.0429901010452511,2.7640217338842192,401.0140726853634,26.958452418740627,11.087273858644764,69.97252329339618,-0.0533585351004579,113.6432299828096,444.63904690436925,15.288,0,4.031625875515261,0.0792317260592795,-2.118473233811521e-09,-0.0029295240397334,-0.0038895613499668,0.0002093904186781,9.401497368135372,10.956339662429874,25.667214411908027,39.07140426065168
0.7,31.222171343532228,131.01042327948744,12.040457294251825,4.5329931716497285,-8.16212650980036,32.740489328964806,1.0625905541396432,2.7468451234503646,349.27032420985284,27.26562151520236,11.219670537633972,69.9708081615803,-0.0596461840834734,113.63653816393816,454.8186936327808,15.288,0,4.0454265714508,0.0801347262400207,-3.298122566932916e-09,-0.0030675645083848,-0.0041431294409698,0.0002217500400656,9.328938389931146,10.86649985289072,25.987849723020325,32.87269228885928
0.71,31.222170928166555,131.01042435944635,12.287512990411829,4.535715900233147,-8.070942215035302,26.975883048632184,1.0832262157380892,2.7288833223671825,301.33126406340574,27.59277538902336,11.358888674494407,69.96901239558399,-0.0663344776238364,113.62941983940112,465.78765149915,15.288,0,4.059130848157555,0.0810964702866587,-4.567831173064727e-09,-0.0032100956782012,-0.0044017824014895,0.0002348322071323,9.250757613541516,10.772087706989932,26.329183314783585,27.135188399475638
0.72,31.22217050714129,131.01042545220716,12.537508192294773,4.533879583179772,-7.974220753673364,32.94057410665048,1.105130151345186,2.7099888717970084,350.79220534145287,27.94479092521888,11.506615146277612,69.96713329492641,-0.0734312924084446,113.62186661471831,477.7365870235393,15.288,0,4.072776485306515,0.0821312922227813,-5.9284165971963175e-09,-0.0033572216389719,-0.0046655935672324,0.0002487223140266,9.16576835906486,10.671684137332212,26.696243129340967,33.07033073333873
0.73,31.22217008044583,131.01042655776968,12.790447774351549,4.541374110873162,-7.895932705862026,41.56755399476452,1.1248706775511383,2.6921750318986226,422.320318528234,28.237911154940463,11.63379112479661,69.9651681682584,-0.0809448065154332,113.613869764979,487.7995093601429,15.288,0,4.08636906652188,0.082993025689604,-7.380739969979604e-09,-0.0035090614660402,-0.0049346619176011,0.0002626920110022,9.101596044312297,10.592973882630815,27.001543069391385,41.6698294399108
0.74,31.22216964801141,131.01042767629522,13.04638232500504,4.54526294176391,-7.813474453391253,26.169044437611223,1.14561116146592,2.6735841539212464,294.48281347105944,28.549896250202007,11.767395886840848,69.96311419227352,-0.0888828635794391,113.60542093155992,498.62565405057694,15.288,0,4.099881012765858,0.0839102121144254,-8.925532102669611e-09,-0.0036657330831022,-0.0052090774720864,0.0002774457149193,9.032248769120535,10.51002780860922,27.326359152671227,26.330198706789986
0.75,31.222169210183395,131.01042880681453,13.305040637979276,4.546695202134777,-7.728886614565395,30.487111378470047,1.167116553469968,2.6543427198499487,330.24688556441487,28.874345763956565,11.90521312758626,69.96096863564388,-0.0972533942493957,113.59651164990083,510.010442187419,15.288,0,4.1133114955099535,0.0848640403787405,-1.0563562336711808e-08,-0.0038271007694854,-0.0054884922335695,0.0002929435302554,8.960051998571679,10.425085583731097,27.66397366355475,30.624690309079728
0.76,31.22216876684644,131.01042994961708,13.56650976433458,4.551158538745648,-7.651354009760107,32.78852541856766,1.1879599134368768,2.6353108944033323,349.27032420986166,29.17718318691383,12.035421160263317,69.95872858553007,-0.1060642229953395,113.58713357940152,520.7515627055798,15.288,0,4.126679521970271,0.0857543570599481,-1.229548581872458e-08,-0.0039933477222651,-0.0057731128394592,0.0003088669545777,8.895669550340969,10.348879437431602,27.978880346124864,32.91570311249862
0.77,31.22216831793745,131.01043110485045,13.830836318857047,4.556058049670552,-7.576380752315565,30.684558685803484,1.20879880470329,2.616097195260489,331.7687666960708,29.47424953365507,12.163513897113145,69.95639121784718,-0.1153232848160063,113.5772782486784,531.3960790186234,15.288,0,4.13998651957778,0.0866277200270696,-1.4121966450058949e-08,-0.0041646145388718,-0.0060630663691991,0.0003253849775749,8.833913742097542,10.276183999707015,28.28761963387736,30.819592807625153
0.78,31.22216786351312,131.01043227233555,14.097973944390043,4.557547782604494,-7.4975621892617506,25.273348796100265,1.2306717014850113,2.596053551454272,286.8734378128899,29.79008240853,12.298002592612804,69.9539535026905,-0.1250385031678893,113.56693720874486,542.8315748924314,15.288,0,4.153198130751834,0.087556247818554,-1.6043633735504675e-08,-0.0043409465593603,-0.0063583167345235,0.0003427874663623,8.767322037126283,10.199492619975034,28.615726334005263,25.436120109957752
0.79,31.222167403653128,131.01043345183044,14.36785841203472,4.55694599121116,-7.417168216951526,35.75101305488202,1.2532740701696448,2.5753590325067863,373.6203323159534,30.116813118754656,12.436157821712625,69.95141245600637,-0.1352179142267077,113.55610188031848,554.7897953416691,15.288,0,4.166340392338048,0.0885168139548289,-1.806112502301748e-08,-0.0045223858279265,-0.0066588243281856,0.0003610224087953,8.698503472474581,10.12131139253335,28.95497848544136,35.86555596239404
0.8,31.22216693813417,131.01043464392197,14.640661326627589,4.561811769264807,-7.347272311305263,36.218650210052296,1.274477825264304,2.555346783850428,377.42502064505743,30.4052573657038,12.560922282872268,69.94876495773272,-0.145869769368059,113.54476345665452,565.4528871447725,15.288,0,4.179426091901131,0.089364860176387,-2.017502373110713e-08,-0.0047092222314965,-0.0069649547892905,0.0003795281780358,8.641660522601764,10.056196335211228,29.254310949017544,36.33104339199394
0.81,31.222166467050435,131.0104358483297,14.916307458814828,4.562578750438246,-7.2724746679753824,23.726083353802768,1.2969633549895787,2.534334975796793,273.9374926939919,30.71757566082521,12.693850065854956,69.94600784761393,-0.1570022503179577,113.53291320328144,577.1137676298447,15.288,0,4.192448551129275,0.0902830835495978,-2.2385932637397578e-08,-0.0049014639255297,-0.007276606302135,0.0003990684616535,8.578697523866015,9.985585430712332,29.578282938508703,23.896275840082897
0.82,31.222165990580447,131.01043706454234,15.194655997535092,4.561455637128871,-7.196316490835277,30.350805106171475,1.320152542012894,2.512671887316232,328.72500443277005,31.039844335947222,12.830117287539228,69.94313791713815,-0.1686235315654155,113.5205423913456,589.2709362650112,15.288,0,4.205389987385862,0.0912305610119056,-2.4694438307298785e-08,-0.0050990733170188,-0.0075936083215847,0.000419501812362,8.513769801316068,9.913741351664312,29.91241927799827,30.48323626750114
0.83,31.222165508701696,131.01043829259936,15.475722755679897,4.567059834368492,-7.132116960476857,38.45085889114971,1.341477773631958,2.4920066013825326,395.68750322465047,31.314260867297552,12.949685731899123,69.94015188897612,-0.1807418364792774,113.50764223871036,599.7200381877011,15.288,0,4.218251177800151,0.0920374024833249,-2.7101051775957376e-08,-0.0053021896101777,-0.0079160748501123,0.0004400568109238,8.462696917740102,9.857049695867651,30.19684151607058,38.55487270093871
0.84,31.222165021304647,131.01043953278128,15.759591780186035,4.570913357459959,-7.066593419887584,23.92334342088974,1.3634132444142015,2.4707601793353526,275.4593748256452,31.59718854299993,13.072092159137124,69.93704648793428,-0.1933651820298095,113.49420418056556,610.5894177453162,15.288,0,4.231048781650322,0.0928692676437312,-2.9606194566592124e-08,-0.0055109861180737,-0.0082441669055516,0.0004615058883571,8.409750241248148,9.79920596598407,30.48998269635284,24.089207375350934
0.85,31.222164528673616,131.01044078428865,16.04604028303705,4.568658965608384,-6.993164533386559,26.04437356111837,1.387348533546458,2.4480096747157583,292.96093233939376,31.91887226343184,13.207826814942369,69.9338183905654,-0.2065015410487415,113.4802196967848,623.0681047269871,15.288,0,4.24377256493296,0.0938150515373856,-3.2210363593019514e-08,-0.0057253116107912,-0.0085775389913501,0.0004843220124339,8.347047418523756,9.731949155971623,30.82311388988248,26.1959325375547
0.86,31.222164030632136,131.01044204758583,16.335204598216627,4.570393853660786,-6.927185126013089,32.49320063335609,1.410190083500462,2.4257737135226134,346.2265619465587,32.210446993835966,13.33301397888474,69.93046414573334,-0.2201591688433692,113.46567996544968,634.4857682951682,15.288,0,4.256431243454191,0.0946723486639167,-3.4913920896582646e-08,-0.0059454503590175,-0.0089165248889944,0.0005075244729013,8.29291705324378,9.674357030253478,31.124976264392014,32.614124265114846
0.87,31.22216352719888,131.01044332260312,16.627069209927853,4.57385173795752,-6.865067707762834,30.28983799688468,1.4325945474141035,2.4036317886303773,327.964078366998,32.48695500187384,13.452868511188084,69.92698023708277,-0.2343462253792997,113.4505762658574,645.4078184832,15.288,0,4.269024186641686,0.0954853703192214,-3.7717244229659376e-08,-0.006171489236903,-0.0092611466081551,0.0005313274936656,8.243119779397286,9.622043952933694,31.41117106304918,30.418810936493127
0.88,31.222163018404142,131.01044460923964,16.921609737597556,4.5741108946418105,-6.799435598966723,26.24301042241592,1.4561340879398514,2.3805319738306494,294.4828134710418,32.782746745313695,13.579299554720032,69.923363208138,-0.2490708299340888,113.43489991040845,657.1955296766821,15.288,0,4.2815375101934645,0.0963550790104462,-4.06206993000935e-08,-0.006403481788336,-0.0096113748344776,0.0005563044559994,8.188801048841253,9.565750328212074,31.71719906286462,26.390961615513767
0.89,31.222162504323315,131.01044590727088,17.218766679627905,4.571239061127658,-6.730479254962658,28.73544272676041,1.4808377619352049,2.356438225171193,315.028134248087,33.09793949505223,13.712349544704788,69.91960939340295,-0.2643411195729868,113.41864220066424,669.874497652275,15.288,0,4.293973453994734,0.0972818200001626,-4.3624612390407455e-08,-0.0066414773809128,-0.00996717512591,0.0005825112033925,8.130149619628796,9.505603269276628,32.04314803645844,28.869903884307426
0.9,31.222161984877896,131.0104472168954,17.518600664553976,4.575257821685527,-6.672757624584982,31.690075023640656,1.5033843140172307,2.333601478512674,339.37814235421445,33.361062517620475,13.827240626766724,69.91571510535016,-0.2801654794218194,113.40179416445535,680.5480140456297,15.288,0,4.306345608769311,0.0980555257516637,-4.672925944960029e-08,-0.0068856755886467,-0.0103287359115002,0.0006087129657408,8.084795141746303,9.460193014220318,32.31527600027227,31.81142428845529
0.91,31.222161460133155,131.01044853791876,17.821060545517398,4.576122560266072,-6.611591618204328,24.228810310034515,1.5270862105008416,2.3097780252366062,277.7421810230789,33.64357430896872,13.948746009582056,69.9116767042922,-0.2965519267019554,113.38434721715512,692.102894692635,15.288,0,4.318650326799608,0.0988862277327164,-4.9934903463519526e-08,-0.0071361045108247,-0.0106959868336685,0.000636175348271,8.034984205395377,9.410772638508805,32.60733123550096,24.38651914193173
0.92,31.22216093028239,131.01044986979284,18.125995016166925,4.573924177013878,-6.547185052461336,28.751360511343908,1.5519646117917976,2.284935081153157,315.02813424806214,33.945411251368625,14.076849476976976,69.90749036392056,-0.3135084881181179,113.3662927699598,704.5565185566547,15.288,0,4.330881825196584,0.0997737394425943,-5.324183588436085e-08,-0.0073926643713486,-0.0110686759545497,0.0006649405990797,7.980929643777962,9.357507828149888,32.91921850725973,28.883736838134435
0.93,31.222160395233352,131.01045121275772,18.43347616649632,4.578027953624336,-6.492768212236848,34.10669127458323,1.5747525895553227,2.261333691945039,359.1625070654728,34.1980739169646,14.187799898559089,69.90315228801455,-0.3310432280295229,113.34762218400616,715.0627525097273,15.288,0,4.343046372109388,0.1005167246088996,-5.66501488893734e-08,-0.0076555894214201,-0.0114470365329045,0.0006936944841537,7.938800417685021,9.317621597957691,33.18037366557441,34.21782964310228
0.94,31.22215985487579,131.01045256710634,18.743590723957062,4.575942790422462,-6.430693784133816,24.88645192993764,1.599818229337573,2.2359391180941226,283.0687504837787,34.49307975240023,14.313325506489944,69.89865860264084,-0.3491639977915806,113.3283270492367,727.431113843008,15.288,0,4.355143829991111,0.1013841755826351,-6.015989497351896e-08,-0.007925058877556,-0.0118312141545378,0.0007242850077652,7.887017125336439,9.268097598170163,33.48506818554583,25.037857970837706
0.95,31.22215930948836,131.01045393205465,19.056120658815846,4.574458196822223,-6.370507112222294,32.08958918733283,1.6248023951969637,2.210384323123491,342.4218736174873,34.78079205122611,14.436223546320685,69.89400542052852,-0.3678789551590596,113.30839861597184,739.594763048568,15.288,0,4.367169371184335,0.1022301977294487,-6.377135702415176e-08,-0.0082009128858183,-0.0122208758095108,0.0007557247682902,7.837262943634541,9.221374063131195,33.78217565449384,32.20663776135497
0.96,31.22215875878237,131.01045530839028,19.371292710865625,4.576022621419215,-6.315510143281852,31.449380633857903,1.6487867947097157,2.1853261012776164,337.09533515678345,35.042442759258186,14.549978300236823,69.88918863240565,-0.3871961084972987,113.28782830525373,750.7416154619871,15.288,0,4.379132386291432,0.1029996265488479,-6.748438088900712e-08,-0.0084835838496413,-0.0126165210036614,0.0007876305857443,7.793634621208168,9.181888022278669,34.05241238113586,31.568301986591088
0.97,31.22215820277441,131.0104566960567,19.68909460796833,4.575752730703081,-6.258944305004724,20.28109424345429,1.6735459816401208,2.1595074276257,245.02188719299323,35.3146030886952,14.667272250446226,69.88420419506288,-0.4071236446964303,113.26660733086293,762.4250345270177,15.288,0,4.391031719270668,0.1037999547749229,-7.129904516735878e-08,-0.0087731634296786,-0.0130181636281372,0.0008208166100688,7.747806872912219,9.140685704226682,34.33340460948261,20.464286261546214
0.98,31.222157641741703,131.01045809427467,20.0093096637988,4.569603385458176,-6.1954002006068105,29.3363440305253,1.7006594143200169,2.131775960026249,319.5937466429581,35.62873647968406,14.799027521120465,69.87904785394448,-0.4276696079629843,113.24472706751862,776.0254678942182,15.288,0,4.402859372005618,0.1047236631494131,-7.52155686656081e-08,-0.0090694278210812,-0.0134253861421489,0.0008560567186469,7.6930344223391955,9.090403194846765,34.65746059012841,29.462820507626194
0.99,31.222157075537545,131.01045950344047,20.33205377349333,4.572864008682955,-6.145411663033692,32.02099147783355,1.7242863285293697,2.1063407296564725,341.6609485517054,35.867438416044095,14.904517434014773,69.87371539111517,-0.4488422350527863,113.2221786700882,786.4342015183904,15.288,0,4.414624018898239,0.105425664483547,-7.92337894293039e-08,-0.0093727166596558,-0.0138385469709877,0.0008905834443038,7.654860266386615,9.058745002118313,34.903969216649,32.13648595966354
1.0,31.222156504158896,131.01046092355605,20.657330794877023,4.570402728521242,-6.088647045990252,28.699412931331416,1.7502205818765828,2.079015196934466,314.2672081822764,36.14701543081012,15.024085915334544,69.86820257989395,-0.4706492285203014,113.19895386420907,798.7171148801608,15.288,0,4.426318195302987,0.1062478190974016,-8.335363066184154e-08,-0.0096830926171027,-0.0142576178738963,0.0009272177351061,7.607988049416157,9.018265727449757,35.19241202814746,28.827796982728003
1.01,31.22215592777791,131.0104623541339,20.98500663478153,4.568698742753702,-6.033754184183298,29.998474239678448,1.7759660677113842,2.051603382607709,324.9203161036979,36.41757059991078,15.140429070546071,69.86250502561704,-0.4930986117489931,113.17504402991447,810.6929099821181,15.288,0,4.437945723471125,0.1070434644134621,-8.757511511579645e-08,-0.0100004893589757,-0.0146824016674316,0.0009647477048978,7.563196924604036,8.980646379512288,35.471541544635826,30.120949331351444
1.02,31.22215534631912,131.01046379537772,21.315142182636567,4.568268593948072,-5.981353389191604,25.102158942232418,1.8012932861472035,2.0242782922897304,284.59063161540416,36.67478216296793,15.252044664006192,69.85661829477935,-0.5161981421910964,113.15044082934456,822.1588726029257,15.288,0,4.449509418303236,0.1077998971246542,-9.189799106120656e-08,-0.0103251125538008,-0.0151130637878337,0.0010030673576662,7.521287621988225,8.946783473743796,35.73693900072021,25.24798494273262
1.03,31.22215475984697,131.01046524710287,21.6476885506203,4.563880018488513,-5.924642774686071,20.57299096674649,1.828336213252828,1.9954548659809896,247.30469339049705,36.9601838195084,15.373349053877057,69.85053804975385,-0.5399554588006303,113.12513603624684,834.9780047613771,15.288,0,4.4610072374939405,0.1086391991935022,-9.632212161969217e-08,-0.0106569806460395,-0.0155495184577568,0.0010433311833175,7.473691892352032,8.907249260641219,36.031200700862,20.750243631068326
1.04,31.222154168418903,131.0104667091427,21.98260215868208,4.5629478603546,-5.873183842692272,32.51167030345472,1.8540662254466225,1.9673796801833487,345.46563688072297,37.21476621045923,15.483864184680336,69.8442596696057,-0.5643784227809403,113.09912119336596,846.49307536694,15.288,0,4.472440810045795,0.109387921300871,-1.0084730610218545e-07,-0.0109961661566945,-0.0159917536615505,0.0010839181943952,7.432481113289815,8.875322311748437,36.29382343951117,32.623869333585795
1.05,31.222153571761968,131.0104681822577,22.32010036924964,4.558789988721055,-5.818396932849188,19.744576407930005,1.8812419650369168,1.9379908929112817,240.45625879819983,37.49195214286987,15.602126738795416,69.83777850377653,-0.5894746702880268,113.07238807999032,859.1220173703357,15.288,0,4.483816336739084,0.1102030926780445,-1.0547297325715093e-07,-0.0113431377612837,-0.0164402640580606,0.0011264115623036,7.386798366194122,8.839030173913876,36.57957052534496,19.92845145917287
1.06,31.22215297010141,131.01046966581345,22.66000764007804,4.551873566643364,-5.7609376191724175,27.986197511996007,1.9097432972498285,1.9073573565602528,308.17968365593924,37.788605514125365,15.727058687896168,69.83108985321202,-0.6152522182843572,113.04492805362436,872.7428380319773,15.288,0,4.495129088507212,0.1110754957030536,-1.1019912378515265e-07,-0.011697713794375,-0.0168947023867681,0.0011707752074115,7.337442026999436,8.799189622279256,36.88520354332882,28.1160520473175
1.07,31.222152363325808,131.010471160118,23.002413968255755,4.5508040181199165,-5.711581914074968,32.89861778098082,1.9358234077835843,1.8783239656978044,348.5093681440308,38.034059788777775,15.834117228189111,69.8241887721747,-0.6417191863019585,113.01673236730107,884.0883104107886,15.288,0,4.506385466966961,0.1117974138221801,-1.150252860431955e-07,-0.0120602233861286,-0.017355377096345,0.0012148577079714,7.298171765201623,8.771139222546854,37.13837177186794,33.00900733262521
1.08,31.222151751339386,131.01047266544006,23.347397770953016,4.54830390262001,-5.6611430378619305,22.251465156796986,1.9626100510840927,1.8485194640733065,261.00157857466235,38.28766272031563,15.943907598645872,69.81707035825451,-0.6688833614250675,112.98779262051777,895.8877505515446,15.288,0,4.517583740138918,0.112543293071009,-1.1995101288454833e-07,-0.0124308956510533,-0.017822458884456,0.0012605040976781,7.257287187059565,8.741877935858163,37.39985863605011,22.414204515124432
1.09,31.22215113440329,131.01047418104494,23.694755284917832,4.53920083211327,-5.603300047293253,20.493094783723848,1.9924696140629925,1.8161018127411264,246.54375332474407,38.59313991535729,16.071632907051622,69.80972961842907,-0.6967525228862953,112.9581004153884,910.2100472460986,15.288,0,4.528716216026051,0.1134416616994668,-1.2497627485482968e-07,-0.0128094580562066,-0.0182954900586613,0.0013092101543897,7.206632996786214,8.702183968890969,37.71437792273903,20.669666053710095
1.1,31.22215051258925,131.01047570672907,24.04443232579566,4.533272037372557,-5.550104530193735,40.793323412481165,2.0210428837703875,1.7844191517036945,413.1890617385841,38.86907521851191,16.189012292349553,69.80216146915367,-0.725334434426447,112.927647365395,923.2413044168812,15.288,0,4.539787547374031,0.1142532038309568,-1.301006720544741e-07,-0.0131959779846379,-0.0187744449356467,0.0013583125029785,7.1616947061797385,8.669419607328116,37.99862960922886,40.88231892985389
1.11,31.222149885517403,131.0104772435645,24.39673274884168,4.533864418469312,-5.505485018181504,29.95344193632736,2.046671181949709,1.7547892022220195,324.1593910376397,39.08598547410492,16.28578052036533,69.7943607077115,-0.7546369312297224,112.8964250029454,933.5428262184196,15.288,0,4.550808251880789,0.114891254667917,-1.3532318490726676e-07,-0.0135911828046475,-0.0192601035733681,0.0014067519684829,7.127619641818636,8.649515897362665,38.22251608730053,30.074521307980827
1.12,31.22214925324836,131.01047879138582,24.75161229646338,4.521833291356181,-5.446351704256005,11.503000529243202,2.0783309723570764,1.72018501139284,172.73281794065943,39.40720291554499,16.418715717433162,69.78632213519015,-0.7846675112158112,112.86442521336718,948.9176602587656,15.288,0,4.561773560600142,0.115835920807018,-1.4064345972242357e-07,-0.0139950585638898,-0.0197523214742899,0.0014604097956935,7.074466458394378,8.608506493358215,38.55297977787836,11.815139325452268
1.13,31.22214861633903,131.0104803486158,25.108631716658127,4.516430913907743,-5.3958547938376205,35.24958002074136,2.106987579653232,1.6876733882550117,367.5328077900705,39.66852669643795,16.530756333890217,69.7780402147774,-0.8154344230791972,112.83163907518876,961.5116642022996,15.288,0,4.572676255059476,0.1166045415691496,-1.4606177068536338e-07,-0.0144069211703079,-0.0202501578710101,0.0015133060349425,7.032285027678832,8.58045226610592,38.822200116522005,35.35280087581302
1.14,31.22214797416729,131.0104819170226,25.468288866530287,4.515644317951296,-5.351436837611516,19.66725629849933,2.1334643760300502,1.6566424586265347,239.69531773195544,39.88580511829817,16.627382344711275,69.76950964246998,-0.8469448378054614,112.79805881089176,972.040001084056,15.288,0,4.583530715571751,0.1172437013755014,-1.5157648102700688e-07,-0.0148279058287709,-0.020754860628192,0.0015660033668613,6.997825832689563,8.561808649338614,39.04642503087382,19.8518791249185
1.15,31.222147327192445,131.0104834953109,25.830222895065784,4.502058319333195,-5.292617259354544,19.38959424832255,2.166343482543477,1.6202450453537056,237.41251153546767,40.21180109296885,16.761752537507636,69.760725044615,-0.8792058125353354,112.76367675636446,987.9600048637363,15.288,0,4.594323865919304,0.1182024442556024,-1.571877683059412e-07,-0.0152573168866267,-0.0212654749496722,0.0016244677816007,6.9442508873880735,8.521717926762157,39.38162053306248,19.57740031786485
1.16,31.22214667554397,131.01048508311302,26.19433381896108,4.502124527273291,-5.250350920073709,50.21354424539087,2.192514215562176,1.5889521716929709,490.0437743845894,40.413968137860046,16.852963652240263,69.75168071217391,-0.9122251088364588,112.72848449062973,997.8841207240624,15.288,0,4.605060284422025,0.118797201709107,-1.628950174547176e-07,-0.0156951829697135,-0.0217819272848821,0.0016794307391877,6.912200857894671,8.506923594234078,39.59039867875104,50.28649831985915
1.17,31.22214601840893,131.01048668275627,26.561274034077226,4.495369887086048,-5.200753961395678,9.177933399336675,2.222162294146391,1.5546084464300287,153.70937929486794,40.67248625093773,16.963685655757292,69.74237115030586,-0.946009480083561,112.6924746618526,1010.6557616621174,15.288,0,4.615754057806294,0.1195576129929658,-1.6869610853654162e-07,-0.0161429918887546,-0.0223058356543267,0.001738335749675,6.870272077336348,8.481303316703029,39.85667508466806,9.570228532584641
1.18,31.222145356864807,131.01048829117528,26.930188840418143,4.479572471871361,-5.141433982763627,24.594890968020145,2.256638087836753,1.5160588336355507,280.02501822196746,41.00939914945641,17.10164893301619,69.73279059535399,-0.9805661511080672,112.65563940589578,1027.4323503500998,15.288,0,4.626382290313065,0.1205484773076559,-1.7459229483880425e-07,-0.0165989297858831,-0.0228349632086001,0.0018021752275298,6.815203663529811,8.440826004436612,40.202868019094666,24.74468653216926
1.19,31.2221446904292,131.01048990975187,27.301466805757823,4.483127954888626,-5.104735718729982,42.715843209075125,2.2810603729113974,1.4854287180554075,428.4078130529292,41.16749677129384,17.17725939547004,69.72293310464316,-1.0159025288089845,112.61797065957428,1035.3325174432869,15.288,0,4.636963497990798,0.1210137175284422,-1.8058158650531905e-07,-0.0170641699340225,-0.0233705585438494,0.0018597632420417,6.789958314418697,8.435667371602223,40.366707162262855,42.80248819827627
1.2,31.222144018691854,131.01049153967907,27.675441600327886,4.470765703067472,-5.050570393985832,4.711562088736052,2.313950073075884,1.447600800349345,117.1843741360236,41.46624357696352,17.301774791347615,69.7127930342967,-1.0520247633948028,112.57946169182809,1050.3758333668454,15.288,0,4.647498957111102,0.1218924117257028,-1.8666249406089653e-07,-0.0175394609687671,-0.0239133421998467,0.0019253663040571,6.741230558630351,8.403586166982121,40.67392884759772,5.44506476856564
1.21,31.22214334272765,131.0104931778809,28.05125780271528,4.459041438874224,-4.9977239571953405,34.3637436984757,2.3466528086014145,1.4096159375060848,359.92343213200894,41.75643509734365,17.42326792600405,69.7023642294634,-1.0889401592964911,112.540104531243,1065.0904281703536,15.288,0,4.657956776408333,0.1227459670331948,-1.9283622454190985e-07,-0.0180229527831033,-0.0244610927094669,0.001992214562905,6.694013938597463,8.373704752475566,40.97238957272984,34.472607639543554
1.22,31.22214266172415,131.01049482670282,28.429570648947102,4.460643256293225,-4.960211221179224,24.97721887107511,2.3720638158942258,1.3773989452427355,283.0687504825761,41.918936367942486,17.500163883781813,69.69164070736753,-1.1266551383220715,112.4998921422956,1073.3574601214616,15.288,0,4.668367110810324,0.1232241770264591,-1.9909985986152226e-07,-0.0185164563061005,-0.0250157392141688,0.0020546558889363,6.667179344210848,8.36848869795931,41.14076109545287,25.127383014047066
1.23,31.22214197601213,131.01049648521268,28.81012124797576,4.447297945917512,-4.906685745169457,9.911339917331246,2.405801591822995,1.3379699016446165,159.79687382222795,42.216709779484326,17.624164019716567,69.6806166575389,-1.1651752529093893,112.45881840673232,1088.621128756596,15.288,0,4.678722391589704,0.124100039572765,-2.0545325214649373e-07,-0.0190193155396295,-0.025576412714429,0.0021253690786657,6.618582197082403,8.33797589469712,41.44691112023817,10.286530207694366
