Time,Latitude,Longitude,Altitude,Angle of Attack,Angle of Sideslip,X-Acceleration,Y-Acceleration,Z-Acceleration,Thrust,True Velocity,Ground Velocity,Pitch,Roll,Yaw,Dynamic Pressure,cp,parachute_deploy_gain,Wind Speed,Mach,omega_x,omega_y,omega_z,Cmq,Angle of Attack(total),Angle of Attack(gust),True Velocity(gust),Acceleration
0.0,31.222216000000007,131.010392,3.000000004412624,0.0,0.0,0.0,0.0,0.0,2.2828121974499247,0.0,0.0,71.99999999612658,-1.0292491154817412e-14,119.99999999354436,0.0,15.288,0,0.0,0.0,0.0,0.0,0.0,-0.0,0.0,90.0,0.0,0.0
0.01,31.22221599999862,131.01039200000284,3.0000009727369523,0.0,0.0,0.0,0.0,0.0,34.24218696174923,5.916279387578309e-11,5.734623670548936e-11,71.99999999613168,-5.86671995824671e-13,119.9999999935449,2.1432944861733093e-21,15.288,0,0.0,1.7386402909615473e-13,-3.4220131069073734e-19,7.115076756936125e-19,5.488773498207866e-19,-1.1574302492039043e-31,0.0,89.99999999962336,5.916279387578309e-11,0.0
0.02,31.22221599999738,131.01039200000537,3.0000018317022668,0.0,0.0,0.0,0.0,0.0,25.871876237766408,1.2265415415436536e-10,1.1895038237325684e-10,71.9999999961369,-1.1836364828043265e-12,119.99999999354544,9.211895886571454e-21,15.288,0,0.0,3.6044858651615574e-13,-6.979551485375437e-19,1.4162390878091906e-18,1.0909784360635388e-18,-4.776231873571785e-31,0.0,89.99999999921916,1.2265415415436536e-10,0.0
0.03,31.22221599921969,131.01039200159065,3.0001883335529382,18.80143492628821,-0.0001350810307892,10.931161642028636,-1.75114298675875e-05,3.026590975169265,180.34219359854663,0.0798232026864394,0.0478175828508887,71.99999999765336,-5.341802909786072e-12,119.99999999436793,0.0039016003969354,15.288,0,0.0,0.0002345795854893,3.788270153300133e-17,-7.771883375645477e-10,1.1422790048099072e-11,1.7057759223764537e-13,18.80143492675591,89.51882325913425,0.079801984207741,11.342422482672777
0.04,31.222215995131297,131.01039200995308,3.001692634342189,9.19442604083399,-4.49173898918486e-05,52.29595764159784,6.445392950801871e-06,3.026413589912948,548.6359724538078,0.3504174083926908,0.1601447499964056,72.00000000319055,-3.111420077280171e-11,119.99999999870242,0.0751892535633216,15.288,0,0.0,0.0010297854387864,2.0082066977226968e-15,-1.520937588847922e-08,2.5623342884322286e-11,1.4654248781413086e-11,9.19442604094277,87.798916624545,0.3504103527855857,52.383455068075136
0.05,31.222215983575865,131.01039203366796,3.0074067499493786,5.158590039700252,1.707592688632746e-06,76.26884281015512,5.843947534199429e-05,3.0258124765658088,761.6984298824644,0.9592973585397016,0.3772700771701255,72.0000000004862,-1.3608731808076822e-10,120.0000000109612,0.5634958029902841,15.288,0,0.0,0.0028191251099456,2.086299069701397e-14,-1.0551247853743037e-07,3.973493515691201e-11,2.783064866637575e-10,5.158590039700515,83.94063169874748,0.959297626767734,76.32884071402438
0.06,31.222215961742712,131.0103920785344,3.019291017943491,4.109521257467909,3.140103977270004e-05,57.06876634333886,0.0001151069734147,3.024834864051463,590.4875390737208,1.6257536642597354,0.6118982818704327,71.99999992547217,-3.5903296759057166e-10,120.00000003412836,1.6184272268450337,15.288,0,0.0,0.0047776672697797,1.0694899894620088e-13,-3.741090980393931e-07,5.521401959501359e-11,1.6723176417636091e-09,4.109521257587776,79.78719176344794,1.6257585967235286,57.148873286519276
0.07,31.222215929936205,131.01039214392435,3.0371334573469446,3.649087515174788,5.707077112564807e-05,86.89643797254193,0.0001728541558773,3.0234947746384675,855.2937749779139,2.3057260079826607,0.8506307413593818,71.99999965378231,-6.907496536790437e-10,120.00000006788592,3.255354923652711,15.288,0,0.0,0.0067759305364855,3.495199904512709e-13,-9.036515915819006e-07,7.594816279105379e-11,5.728932851326001e-09,3.6490875156204896,75.6601668283889,2.305734972638426,86.94902215090157
0.08,31.222215886364623,131.01039223353447,3.0621840248716574,3.4254446680114707,8.413075603463509e-05,17.831756866644035,0.0002285946601282,3.021841001032126,241.2171988638848,2.961944911520492,1.0819695676346892,71.99999900671328,-1.141745983122182e-09,120.00000011415082,5.371998197385977,15.288,0,0.0,0.0087043901031071,8.800530155962314e-13,-1.829098470920821e-06,1.0943386634701918e-10,1.4896287129277132e-08,3.4254446690434226,71.81713637501419,2.9619581267487467,18.085991154451033
0.09,31.22221583454733,131.01039234010327,3.0919888289029,3.389560809024919,0.0001118726864415,54.09031716446879,0.0002748660999733,3.020060228038602,563.0937377043176,3.504225426410036,1.2780161667917422,71.99999774508822,-1.634190085504106e-09,120.00000016921716,7.519080503822694,15.288,0,0.0,0.0102980157586766,1.865782139518716e-12,-3.1503298654458527e-06,1.6284478329871028e-10,3.03536411425607e-08,3.389560810868955,68.76526501308032,3.504242999330529,54.17456206384468
0.1,31.22221577423132,131.0103924641528,3.1267248829165366,3.4447939461814814,0.0001419149103147,51.372195336549765,0.0003131602029306,3.0182021883815127,538.7437595981919,3.950569597142709,1.4443465951180965,71.99999562056465,-2.1287748602259068e-09,120.00000023339832,9.55649523509932,15.288,0,0.0,0.0116097108366932,3.485956000178229e-12,-4.949356763187612e-06,2.4573266549165286e-10,5.3761299442583966e-08,3.444793949101151,66.34639928474206,3.9505918890846927,51.460781166288626
0.11,31.222215706113143,131.01039260424562,3.165907002780892,3.4691423802630394,0.0001702373452339,40.591037561894986,0.0003534470100582,3.016051659024047,442.8656393052949,4.421478635995476,1.6182620895289603,71.99999235067894,-2.5564479031457968e-09,120.00000030601664,11.970509656144712,15.288,0,0.0,0.0129935974697161,5.942887149865172e-12,-7.273722517324353e-06,3.67769289312894e-10,8.842679949465076e-08,3.4691423844348632,63.88798785789768,4.421505376815134,40.70293476011277
0.12,31.222215630588888,131.0103927595646,3.2092596514826863,3.4852659299808075,0.0001974376474727,44.30042894095728,0.000394069215595,3.013641598889868,475.58594813540446,4.896982486381051,1.793579340340896,71.99998761802138,-2.8337988279882726e-09,120.00000038673312,14.683611096353944,15.288,0,0.0,0.0143909889875706,9.464337642181618e-12,-1.017558359402848e-05,5.395790443954697e-10,1.3700793350599625e-07,3.4852659355662303,61.5068242157714,4.897013499814194,44.40281567867803
0.13,31.222215548046687,131.0103929293088,3.256512891171917,3.5606043721293616,0.0002276507019012,48.86766833507025,0.0004268800875964,3.0112558910133567,515.9156326236895,5.278566579338586,1.939796541405244,71.99998107389406,-2.8573058577484587e-09,120.00000047523812,17.061052093156064,15.288,0,0.0,0.0155123760833565,1.4300406003001044e-11,-1.3705268062305584e-05,7.724776992181392e-10,1.989112774124932e-07,3.560604379397528,59.67313531776262,5.27860233862722,48.960358155653
0.14,31.222215458587108,131.01039311327068,3.30759734332425,3.6000732663755977,0.0002555702913645,45.540290862247225,0.0004629468001456,3.0085404980032777,486.2390860568404,5.70011779273801,2.098362647205908,71.99997235012626,-2.508533681468686e-09,120.00000057154703,19.894788765881632,15.288,0,0.0,0.0167512184495524,2.071534240530911e-11,-1.7917736259613292e-05,1.0787346240473087e-09,2.8081526258393346e-07,3.6000732754351943,57.72385750323359,5.700157937625502,45.639559681930805
0.15,31.222215362317904,131.01039331122794,3.3624387479639086,3.651605404442164,0.0002842753491325,44.01308509501,0.0004965057129938,3.005703619811542,472.54218587214,6.091938849578711,2.2476968067377374,71.99996103728932,-1.6446954747148112e-09,120.00000067569304,22.723773683610247,15.288,0,0.0,0.0179026934683374,2.9002783512213203e-11,-2.287326399669318e-05,1.47199345427166e-09,3.831202693354572e-07,3.651605415492516,55.98561718911576,6.091983503446133,44.115597174664394
0.16,31.22221525912812,131.01039352340948,3.421115382839859,3.67540086436193,0.0003108411545024,34.83804992586084,0.0005330990866742,3.002517946501868,391.1218908297564,6.521183188362317,2.4085903880902046,71.99994669525161,-1.0153513453738144e-10,120.00000078796704,26.03872642002185,15.288,0,0.0,0.019164148528834,3.9478358970291335e-11,-2.864207894220033e-05,1.9677461746207517e-09,5.135466997084602e-07,3.6754008774883777,54.15946979122355,6.521232015176687,34.96719658394182
0.17,31.2222151493826,131.01039374906244,3.4833737923187487,3.7139589864597298,0.0003384978477213,43.96471427482637,0.0005668629535037,2.999235483723449,471.78125980632376,6.916861975403744,2.559060925010733,71.99992884100092,2.3206494032971838e-09,120.0000009081849,29.29426197817256,15.288,0,0.0,0.0203269651395979,5.248754693205839e-11,-3.5267097947693114e-05,2.580363454062817e-09,6.706952682968329e-07,3.713959001863866,52.549031795895466,6.916915146521327,44.06689817851128
0.18,31.22221503253009,131.01039398932429,3.549599475912623,3.7380363034619775,0.0003650282082698,36.67395661481795,0.0006021794701355,2.9956556354306425,407.10156721191447,7.332140201215607,2.71556808256092,71.99990696207136,5.837017536380516e-09,120.00000103716444,32.917216366714264,15.288,0,0.0,0.0215473823438242,6.839750892601699e-11,-4.285557247677198e-05,3.331016495775474e-09,8.639362741436378e-07,3.738036321259578,50.93050624815799,7.332197539712479,36.796100973258795
0.19,31.22221490871209,131.01039424390297,3.619694897703461,3.747799769666444,0.0003901520189829,41.42208371271829,0.0006393759928961,2.991742733214697,448.9531328318269,7.771071983754382,2.879366399937307,71.99988049019642,1.0709144790974043e-08,120.00000117502664,36.97605053227239,15.288,0,0.0,0.0228373144884866,8.761416506509219e-11,-5.146771415177372e-05,4.238406957677133e-09,1.0996552116864756e-06,3.747799789945131,49.29705748437159,7.771133268690212,41.529983675580546
0.2,31.22221477769685,131.01039451327668,3.693822889232993,3.7700519460961166,0.0004166800650969,37.99697972290605,0.0006740224661302,2.987733789228414,418.51563019916136,8.179966026035371,3.0338260708461373,71.99984881140107,1.723179577184912e-08,120.0000013223286,40.969302182777255,15.288,0,0.0,0.024038975990988,1.1057590044953188e-10,-6.120032215177249e-05,5.3263847350253015e-09,1.376394225587184e-06,3.7700519690893857,47.8457752505109,8.180031477986942,38.11426270718793
0.21,31.222214639876928,131.01039479663547,3.771710975053407,3.7926098867321474,0.0004432924407074,36.46301043881366,0.0007080907240332,2.983530483977461,404.8187610144644,8.582757448615462,3.1863584283669346,71.99981127559042,2.5745201416596626e-08,120.00000147900325,45.103059028532826,15.288,0,0.0,0.0252227064089584,1.3774582723633048e-10,-7.20875523136271e-05,6.61341033873124e-09,1.7010673350603349e-06,3.792609912601061,46.47936953648762,8.582827080829217,36.584868250565684
0.22,31.22221449507626,131.01039509434258,3.8534832466471007,3.782921298925821,0.0004660920499522,44.14577847155813,0.0007479176313898,2.978724032883548,472.5421858721365,9.056569122268344,3.360845972992861,71.99976720416048,3.661811567390422e-08,120.00000164562512,50.21995530074818,15.288,0,0.0,0.0266151520780326,1.6960703048385348e-10,-8.421592474264931e-05,8.124635526119773e-09,2.0969540034515424e-06,3.7829213275976334,44.9464484092354,9.056642335836344,44.24615863872642
0.23,31.22221434283448,131.01039540734791,3.9394622486964206,3.813874679301352,0.0004940771488601,36.66675459308932,0.000779455230549,2.974212905336642,406.3406421461021,9.430647902846331,3.5044030163419806,71.99971583979395,5.0272885112871524e-08,120.00000182313076,54.45382429059888,15.288,0,0.0,0.0277145095638672,2.0669790509245914e-10,-9.77285871729516e-05,9.894576563683824e-09,2.5339062472561444e-06,3.813874711257219,43.79476959007253,9.430725512303388,36.78718303164376
0.24,31.222214184153326,131.01039573358457,4.028950821673608,3.829256049377765,0.0005200487408944,37.802126339316736,0.0008136255607606,2.9692962675112065,416.2328240017114,9.837806876534357,3.658163422426286,71.9996564062533,6.718950080713476e-08,120.0000020109434,59.25679777340223,15.288,0,0.0,0.0289110855155543,2.4956955046738006e-10,-0.0001125744417092,1.1934277804843484e-08,3.0448209172448607e-06,3.829256084638984,42.59361542722471,9.83788856559955,37.91856374864305
0.25,31.22221401888584,131.01039607335582,4.122052964664892,3.851417709838087,0.0005469594058717,38.85163035360012,0.0008459008130282,2.964283881833675,425.36408079150686,10.22297576958679,3.8050691648373967,71.99958811418384,8.786880969336211e-08,120.00000220974424,63.98709205399403,15.288,0,0.0,0.0300430411774988,2.987811646313829e-10,-0.0001288461362054,1.4273117985167728e-08,3.621333387698252e-06,3.8514177486178034,41.50703126619192,10.223061685769354,38.96455005232871
0.26,31.222213847358866,131.0103964259872,4.218542267117083,3.8780574625554745,0.0005745172425185,42.3164797140743,0.0008766626387865,2.959162938653076,455.8015834241788,10.590779679138215,3.946551912391076,71.99951013710364,1.1286401474734325e-07,120.00000241975916,68.67355887153568,15.288,0,0.0,0.0311239685467471,3.5491769188178554e-10,-0.0001465721578858,1.6932703957058654e-08,4.267712643344226e-06,3.8780575050466,40.51245375834074,10.590869924095635,42.41981967733593
0.27,31.22221366913008,131.0103967923915,4.318728802515264,3.886188503202341,0.0005994342651313,38.70936050721014,0.0009111181036949,2.953518013741325,423.84219965987256,11.004860953238978,4.102320296019413,71.99942161756776,1.4276417094868828e-07,120.0000026420792,74.14786134434608,15.288,0,0.0,0.0323408987462391,4.1858405402174807e-10,-0.0001658847815307,1.995072923688136e-08,5.018832267232506e-06,3.886188549362022,39.43841359495857,11.00495511215316,38.8218734782956
0.28,31.22221348431185,131.01039717233687,4.422535913956003,3.90556090261878,0.0006261175699806,44.68030766832924,0.0009425767186621,2.947879457547137,476.3468732012221,11.38358114165448,4.247086834352694,71.999321619057,1.7823531611327881e-07,120.000002877279,79.33831935330025,15.288,0,0.0,0.033453914386159,4.904408325040897e-10,-0.0001868529238516,2.3357766479368094e-08,5.847713054408178e-06,3.9055609527288775,38.49894431917428,11.383679491972384,44.77744842575601
0.29,31.222213292835256,131.0103975659655,4.530013412817602,3.9242599519377537,0.0006528240665589,35.802573724660256,0.0009737210635801,2.942037024315898,397.97031042211177,11.759725774384751,4.391004157029451,71.99920917567837,2.1999186079018322e-07,120.00000312617878,84.66717879828003,15.288,0,0.0,0.0345593650464213,5.711677680739745e-10,-0.0002095620322847,2.7188189988316943e-08,6.77505090435382e-06,3.9242600061534456,37.60352534239979,11.759828319749328,35.92324968749781
0.3,31.222213095024976,131.0103979726075,4.64093665799555,3.936939025755682,0.0006785438093183,33.570228713727204,0.0010059102294455,2.93586442972183,378.1859457108711,12.149968255527943,4.539237002744259,71.99908328532703,2.6880857935396905e-07,120.00000338923812,90.3787563598417,15.288,0,0.0,0.0357062504417728,6.614698865958865e-10,-0.0002340353597042,3.1467140861055e-08,7.817263716758327e-06,3.9369390841381695,36.71173884615234,12.150074840940263,33.698361337808635
0.31,31.22221289105846,131.01039839189684,4.755183729044857,3.9598342215431432,0.0007060286581592,35.396825578217346,0.0010350810412898,2.9297385597941448,394.1656220930212,12.504537499407316,4.6763673222047455,71.99894291513503,3.255120771695107e-07,120.00000366712923,95.72967338626896,15.288,0,0.0,0.0367483036680869,7.620720834468404e-10,-0.0002603234137215,3.622454560346964e-08,8.948994505138873e-06,3.9598342843844345,35.934338386209795,12.504648402129598,35.5178635353378
0.32,31.222212681031937,131.01039882363492,4.872689374180126,3.985461429033668,0.0007340760463279,38.52097867048992,0.0010630242168685,2.9235095146848846,421.55939346242695,12.84534566718622,4.809181081594425,71.99878701464397,3.909756427278764e-07,120.0000039606604,101.01782231644016,15.288,0,0.0,0.0377499198995686,8.737098716736534e-10,-0.0002884807530145,4.1491545539590986e-08,1.0187112828155184e-05,3.98546149652875,35.21473736963424,12.845460975581933,38.631757748577954
0.33,31.22221246496604,131.01039926777932,4.9934410812554,4.010606629086,0.0007621365968788,38.18822026147908,0.0010905599149574,2.917102431053817,418.5156301991682,13.18247167592885,4.940798912752974,71.99861449732019,4.661299779655886e-07,120.000004270781,106.38859400029033,15.288,0,0.0,0.0387407190563976,9.971421990244511e-10,-0.0003185760672934,4.7302669734505256e-08,1.154498667827874e-05,4.010606701382261,34.52805863348922,13.182591392065536,38.299473293007864
0.34,31.222212242662028,131.01039972474007,5.117579377337869,4.019339771238816,0.0007871574969313,29.898022638335373,0.0011220389395318,2.910051232417875,345.46563688075645,13.569536737955724,5.0878303926024735,71.99842423285973,5.519675040347761e-07,120.0000045987411,112.72655675097128,15.288,0,0.0,0.0398782837956187,1.1331556132162459e-09,-0.0003507224668667,5.37022358302301e-08,1.308298593306914e-05,4.019339848191799,33.76700548046532,13.5696603843662,30.039310197084795
0.35,31.22221201433324,131.01040019407705,5.2449575244483055,4.033762873683395,0.000813261106463,32.76415525156106,0.0011515840876071,2.902959820469776,370.5765700527033,13.934300103976534,5.227895396154902,71.99821502296155,6.495674834876441e-07,120.000004945438,118.8669740701126,15.288,0,0.0,0.040950312688979,1.2825853697215452e-09,-0.0003849609961885,6.072234695821837e-08,1.4746020857580124e-05,4.033762955530055,33.07785186209504,13.934427850732408,32.89250745069162
0.36,31.22221177990305,131.01040067594835,5.375631006350063,4.051723629010647,0.0008401329464575,37.01692984301412,0.0011797030485285,2.8957873473716007,407.8625232777193,14.282998147928636,5.362923567977223,71.9979856440668,7.600645476620651e-07,120.00000531213882,124.88900300695136,15.288,0,0.0,0.0419751331662584,1.4462801652534363e-09,-0.0004213876232777,6.84067806399068e-08,1.654507199147348e-05,4.051723715967022,32.44322602189087,14.283130115703262,37.13002398000203
0.37,31.222211539445663,131.01040117020102,5.509550188388412,4.071639898917391,0.0008674922629137,35.12417761390579,0.0012067983861697,2.88849906286036,391.1218908297666,14.620581431527652,5.494447309446232,71.99773482653193,8.846681943540367e-07,120.00000570002652,130.86067091914967,15.288,0,0.0,0.0429672939311924,1.6251202388969355e-09,-0.0004600660652957,7.679415042686734e-08,1.849041957573993e-05,4.071639991174516,31.85023865502424,14.620717696893658,35.24274792557624
0.38,31.222211292895075,131.01040167697127,5.646763233102716,4.08264881385344,0.0008930259828975,36.695642158537446,0.0012360471443664,2.880711738179021,404.8187610144602,14.986392916850402,5.634654729559426,71.99746126698146,1.0246533537040716e-06,120.0000061105033,137.4891296153862,15.288,0,0.0,0.0440424171304414,1.8200057922063743e-09,-0.0005010869196581,8.592980519823866e-08,2.0642694281337543e-05,4.082648911356968,31.228847973200924,14.986533193043764,36.808540518115166
0.39,31.22221104018777,131.0104021963902,5.787316652586672,4.096641430700089,0.0009192713382325,31.335681548387896,0.0012640110027448,2.872831219844713,357.64062493382744,15.337978856701952,5.770390286512262,71.99716358743511,1.1813915463769678e-06,120.00000654506955,144.01394309468844,15.288,0,0.0,0.0450757388736732,2.031886352449547e-09,-0.00054455673306,9.586443829735616e-08,2.295945663566148e-05,4.096641533664766,30.65298398882095,15.338123255506089,31.4670954954126
0.4,31.222210781536543,131.01040272801887,5.931064331106764,4.109028969993624,0.0009451871856381,29.95928076777898,0.0012920492774571,2.8646905607053603,345.465636880754,15.692185018814769,5.906873567965718,71.99684037970908,1.3563276523471372e-06,120.00000700500496,150.74021066990193,15.288,0,0.0,0.0461167659598875,2.2617341782092324e-09,-0.0005905037520737,1.0663253249436129e-07,2.5471259834659164e-05,4.1090290785164525,30.09246700352443,15.692333488470696,30.095929256306363
0.41,31.222210517064383,131.01040327160345,6.077922766619747,4.122888296344507,0.0009714525997821,33.78425365340317,0.0013192264430821,2.85640971467756,378.94687077668647,16.03742529732769,6.0405139809190125,71.99649020751959,1.5509747261474075e-06,120.0000074917568,157.44375780268788,15.288,0,0.0,0.0471314487675864,2.5105374204052982e-09,-0.0006389770219162,1.1827345344180344e-07,2.816813594418537e-05,4.122888410595805,29.56469007160549,16.037577892745222,33.904791300285986
0.42,31.22221024682894,131.0104038270252,6.227854084363214,4.14444025865494,0.0009995884754813,38.04468161607466,0.0013435485656724,2.8482703202464488,416.2328240017114,16.348862540904037,6.163613566771559,71.99611159893284,1.766920641656551e-06,120.00000800692096,163.6157044470786,15.288,0,0.0,0.0480467946810589,2.779304965995011e-09,-0.0006900467934588,1.308321832549104e-07,3.100973487310896e-05,4.144440378988911,29.104646754454564,16.34901955589459,38.15115260238947
0.43,31.222209970843565,131.0104043942566,6.380851271439565,4.1618082623168045,0.0010268052928652,33.45815353250911,0.0013687230309017,2.8397750580998298,375.9031395134336,16.67263197205097,6.290467308135904,71.99570306121484,2.005818691215035e-06,120.00000855220898,170.15779512382937,15.288,0,0.0,0.0489983878509763,3.0690566816849196e-09,-0.0007437862329608,1.443552931671376e-07,3.4086145072160934e-05,4.161808388761201,28.640125213458976,16.672793262249197,33.57845085853367
0.44,31.22220968892116,131.01040497368373,6.537047157143216,4.164954087655709,0.0010505545842624,30.86574023822051,0.0013980747538988,2.830419582421933,353.0750125389216,17.050421620730056,6.433992917638883,71.99526304125902,2.269416145406482e-06,120.00000912964636,177.9537948947602,15.288,0,0.0,0.050108743779844,3.380847125286677e-09,-0.0008003278134917,1.589055036683518e-07,3.750784460406397e-05,4.164954219916419,28.113519280259386,17.050586641458253,30.99524475496968
0.45,31.22220940081287,131.01040556582012,6.696617751072218,4.165241899529329,0.0010735835484822,35.912216710755274,0.0014280646808282,2.820677244966047,397.2093853562869,17.438293672974723,6.580571293039616,71.99478987454265,2.5595995397253085e-06,120.00000974147088,186.13940823302417,15.288,0,0.0,0.0512487363629523,3.7158016249566814e-09,-0.000859850913876,1.745604864109677e-07,4.121350642664912e-05,4.1652420376426775,27.591357195572936,17.43846231108416,36.02281959036367
0.46,31.222209106468902,131.0104061707686,6.859600379555308,4.174585124444534,0.0010989881252456,41.916816790010685,0.0014546917035209,2.811153314474766,449.7140588976434,17.786187321601275,6.714685486378061,71.99428180697711,2.8783880229668832e-06,120.0000103898448,193.6374175079873,15.288,0,0.0,0.0522712438446989,4.0751091178509895e-09,-0.0009224765531151,1.9138630415982226e-07,4.50966024037632e-05,4.1745852688465686,27.13985967570823,17.786359950252297,42.01097612387663
0.47,31.22220880579083,131.01040678873238,7.026066274755745,4.1823089530633855,0.0011240727220223,28.37640408484148,0.0014814747534716,2.801325368441072,331.0078106302534,18.138167428286582,6.849989708801916,71.99373704967608,3.2278903746588286e-06,120.00001107707628,201.37401505997488,15.288,0,0.0,0.0533057667609836,4.459978104761035e-09,-0.0009883252835099,2.094509673354327e-07,4.927107017839778e-05,4.182309103852639,26.69716826759888,18.13834399721685,28.514342615617974
0.48,31.222208499300592,131.0104074186346,7.195654207463586,4.189479568102716,0.0011490100608361,27.95074823096412,0.0015080719422187,2.7912412472910484,327.2031223011574,18.48995085190441,6.98515976370584,71.99315377257649,3.6103201777021456e-06,120.00001180491516,209.25751230436188,15.288,0,0.0,0.0543397174489847,4.8716620260348906e-09,-0.0010573190976925,2.2877013380347535e-07,5.373205427420879e-05,4.189479725385959,26.268461765425428,18.4901313379827,28.089773168283216
0.49,31.222208187201936,131.01040806005494,7.368224738812109,4.202723284133339,0.001175611380853,35.08821363242469,0.0015321405723077,2.781292092003844,389.60000969812296,18.812014261754847,7.111044804193205,71.99253015042137,4.027946338669921e-06,120.0000125755114,216.60722913930897,15.288,0,0.0,0.0552863302793499,5.311396446020465e-09,-0.0011294854492155,2.4938633613154685e-07,5.8398320167141767e-05,4.202723448262914,25.88860807032205,18.81219892635871,35.1982716047702
0.5,31.22220786953184,131.01040871291724,7.5437546994244835,4.220815778795054,0.0012036252596423,36.05491615971072,0.0015540388599792,2.7714444106710974,397.97031042210494,19.10875420627192,7.229005658018125,71.99186435180009,4.483102820610566e-06,120.00001339126192,223.4908652241728,15.288,0,0.0,0.0561585257949344,5.7804122391526605e-09,-0.0012048912160576,2.713531252030471e-07,6.327866493526626e-05,4.220815950099865,25.54902500917784,19.108943271285572,36.161276053538906
0.51,31.222207546379583,131.0104093770373,7.722184419225251,4.232567510615346,0.0012298790840397,27.54004661432325,0.0015777580800203,2.761017323676155,323.3984349720841,19.430597746636646,7.354673636736509,71.99115452520388,4.978202222778502e-06,120.00001425458936,231.07869697977367,15.288,0,0.0,0.0571045034845869,6.2799518101633574e-09,-0.0012835871653678,2.947201005874635e-07,6.854585242460463e-05,4.232567688976395,25.189423168613605,19.430790935591396,27.678103017910345
0.52,31.22220721772911,131.0104100522796,7.903536433452747,13.090853415047162,-9.439607916607187,33.38076169531069,0.6620632840445799,2.118886842901583,372.0984511843415,21.656428280609568,7.479196605887974,71.99037575646015,-2.492591209542053e-05,119.99998315806384,287.0474467677341,15.288,0,5.028582153719321,0.0636461178574929,6.8175934548688245e-09,-0.0015063714696098,-0.0001057804406375,8.965633985567798e-05,16.090926431251876,17.968036701198127,20.18035691775677,33.454495372135305
0.53,31.22220688319303,131.01041073834776,8.087949910316755,12.979582087838002,-9.3158321143888,35.046884017885766,0.6782575058993789,2.092062186900976,386.5562464348624,21.984709919623032,7.600997825802915,71.98943635808158,-0.0003887456996825,119.99960094693492,295.810655769661,15.288,0,5.047931782311728,0.0646110397981302,7.366953244779821e-09,-0.0018065798448752,-0.0003304593628161,0.0001091521519008,15.92990950092694,17.781632818813602,20.527821371091846,35.11582032078001
0.54,31.222206542625635,131.01041143539004,8.275501300081787,12.87199811469779,-9.195961905718558,30.79263120683368,0.6946405822179264,2.064821041070328,349.2703242098436,22.311225179329444,7.722015185301254,71.98832262103423,-0.0011528383569294,119.99879784077194,304.65713426339806,15.288,0,5.067240717324423,0.0655707768378583,7.917987785171257e-09,-0.0021159102502758,-0.0005607034548639,0.000129738013076,15.77415906583827,17.60072059839154,20.872920636545054,30.869599092151784
0.55,31.2222061963216,131.01041214277436,8.46598551640275,12.7711670006989,-9.082029318184544,32.632957465746905,0.7110280888991016,2.037428688357501,365.2500005919907,22.63037824223889,7.84046667588682,71.98702936789327,-0.0023267512593297,119.99756379369876,313.4297352501172,15.288,0,5.086485006350433,0.0665088832289005,8.471453793011407e-09,-0.002434119402131,-0.0007962904885847,0.0001513813339905,15.62731949793547,17.42889952898077,21.209743006355907,32.70422892478268
0.56,31.222205844280698,131.01041286047797,8.659403081507818,12.679154703824864,-8.97536387570699,30.46605527006436,0.7272717608395481,2.010102733013445,346.2265619465787,22.937857731838573,7.95497478594036,71.98555145034834,-0.0039198507395267,119.9958889489764,321.99877091631646,15.288,0,5.105663269247298,0.0674126881047475,9.028113494340344e-09,-0.0027613808434456,-0.001037298867339,0.0001740643103377,15.491826703225916,17.268616933292464,21.53376986579318,30.540955468517993
0.57,31.222205486578822,131.0104135883216,8.855701539773726,12.58459179287639,-8.868103244670163,30.128170946860745,0.7440003196385162,1.9819256672456225,343.1828296833023,23.252869129300887,8.071710802888976,71.98388368100206,-0.0059414697971884,119.99376348317196,330.8974444505636,15.288,0,5.124766151206525,0.0683386349212821,9.588762047364786e-09,-0.0030977312958265,-0.0012837087133782,0.0001979441521445,15.353971986274344,17.10674551473461,21.86542587367214,30.20245437757291
0.58,31.222205123191767,131.01041432633275,9.054898255440673,12.48031215779756,-8.755369081788826,39.64257786285704,0.7616764215210277,1.9522118585842527,426.1250058573153,23.58876417739776,8.194951097977821,71.98202079279028,-0.0084009946234526,119.99117751524656,340.5198150120874,15.288,0,5.143792828039639,0.0693259639011208,1.0154215454945592e-08,-0.0034433559358559,-0.0015356056109664,0.0002232035946284,15.205150054602012,16.934906622009322,22.21882014989817,39.6979251564182
0.59,31.222204753691848,131.01041507537064,9.257291749818952,12.392977077645003,-8.655278957581155,32.15553183123527,0.7786962656426005,1.9233156395506816,360.68438819711065,23.897305647340644,8.309215530576957,71.9799572002999,-0.0113083797901392,119.98812056499555,349.47929238174095,15.288,0,5.162771853789285,0.0702329091444038,1.0725293907234028e-08,-0.0037991014478506,-0.001793540265931,0.00024947984582,15.077334960219469,16.784081981270702,22.54290261627075,32.22241049755667
0.6,31.22220437830224,131.01041583495163,9.46272705216726,12.287018118290591,-8.543673038633665,28.59007165443633,0.7972712254271095,1.8919748474433584,329.4859594986058,24.24394539020773,8.435486290108704,71.9776871722096,-0.0146736663081238,119.98458206112431,359.6843966054855,15.288,0,5.181684497123385,0.071251830026301,1.1302910283157157e-08,-0.004164786436363,-0.0020573351295475,0.0002774553505363,14.927863447757538,16.612820654244246,22.906876285052743,28.66369493690679
0.61,31.222203996970418,131.01041660516108,9.671241352808758,12.180227716010467,-8.432625799111687,33.48772098436386,0.8163411687633547,1.859742376717232,372.0984511843297,24.59660054573611,8.563476379700694,71.97520494188217,-0.0185071198469271,119.98055118649576,370.2171086505284,15.288,0,5.200533273777068,0.0722884372019091,1.1887970539024691e-08,-0.0045406774360142,-0.0023271280631607,0.000306890973361,14.778063092488138,16.44180285902342,23.27678363122876,33.54925500421998
0.62,31.22220360981588,131.01041738572903,9.882752054870728,12.107082331036372,-8.34519992351651,41.61764286338461,0.8335331867561254,1.8301473771673784,442.86563930529206,24.88695506193475,8.67133670817799,71.97250446641405,-0.022819173341555,119.97601695322676,379.0015752043779,15.288,0,5.219317482604133,0.0731419521790092,1.248144310332956e-08,-0.0049268412917313,-0.0026029163412525,0.0003369146461544,14.669107322469982,16.3114983489801,23.58072403731316,41.66620230474341
0.63,31.22220321664401,131.010418177036,10.097395484956436,12.0258429734749,-8.253271368099455,23.64230752954204,0.8516073844556044,1.799091688648492,286.11251274707894,25.19538800022161,8.784790576839681,71.96957983530748,-0.0276198337834135,119.97096881918296,388.4459859260364,15.288,0,5.23802337320388,0.07404860586853,1.308429314427048e-08,-0.0053236992196598,-0.0028849419262096,0.0003685574246898,14.55104098833937,16.173042075831077,23.90344585690008,23.725949324797604
0.64,31.222202818068343,131.01041897779373,10.314744982306632,11.930839565904469,-8.153116464990305,23.213771263296604,0.8710416111586545,1.7658481749646775,282.30782441796754,25.534734194709472,8.907953587360927,71.96642516488656,-0.0329191805493751,119.96539615496492,398.97175866050657,15.288,0,5.256658904236517,0.075046119735815,1.3697581700033753e-08,-0.0057304008010663,-0.0031725674445067,0.0004020479753164,14.417121279248123,16.019614874687914,24.258363376333627,23.297126636777573
0.65,31.22220241406749,131.01041978802596,10.534816312352309,11.860459066484152,-8.07019743853385,40.95971035449556,0.8890273489924138,1.734619517161564,436.7781447787475,25.82570922608823,9.0154901259786,71.96303447758329,-0.0387269703199922,119.9592886787198,408.10771836189326,15.288,0,5.275172421214832,0.0759014785081991,1.4322340382664237e-08,-0.0061472089114676,-0.0034659280129183,0.0004361969163974,14.313085765428635,15.89651731353827,24.56223298239498,41.0060623179152
0.66,31.222202004108937,131.0104206088132,10.75798143257668,11.785880615539364,-7.985342293317979,34.85457381693978,0.9076611879295088,1.7022689362698509,383.51251517160017,26.12731377864359,9.126235813805796,71.9594018651914,-0.0450530444531401,119.95263600664792,417.6865683287432,15.288,0,5.293630693877894,0.0767880843331308,1.49595586154947e-08,-0.0065751657154312,-0.0037656890617438,0.0004720027386368,14.204562151512214,15.7697152668915,24.877035931084407,34.90792008017617
0.67,31.222201588385687,131.01042143973595,10.98410680049538,11.699361693485596,-7.893474151461095,24.024396654426585,0.9275939108896876,1.6678025014495284,289.1562440103425,26.4569992937502,9.245768905792923,71.95552087145995,-0.0519078513519482,119.94542712324473,428.2848665659853,15.288,0,5.3120281743603535,0.0777572272787746,1.561038135902145e-08,-0.0070141183987666,-0.0040716949595151,0.0005098557276814,14.08234852510322,15.630001722181454,25.22101373678928,24.100075316408955
0.68,31.222201167073035,131.0104222804117,11.21307131468408,11.617924951884172,-7.805769413081418,29.979810476040623,0.9475070106069616,1.6332003018972263,340.8999924858462,26.77818583396192,9.362419580648307,71.95138512865232,-0.0593017759442096,119.9376510684566,438.7370501277181,15.288,0,5.33030346302735,0.0787013991053619,1.6275960710423682e-08,-0.007463979707263,-0.0043838363240225,0.0005491306397041,13.966668287354771,15.497563168182417,25.555847815796508,30.03921019169082
0.69,31.222200740252884,131.01042313065176,11.444818999966316,11.55034679010634,-7.727922561358033,36.90086894631583,0.9666334622122283,1.5996369408563846,401.0140726853634,27.07048986352123,9.469681944574274,71.94698825033664,-0.0672449779589241,119.92929711835892,448.35763874839046,15.288,0,5.348508606596591,0.0795606920549574,1.6957470879061905e-08,-0.0079247726025383,-0.0047020792744836,0.0005893826329506,13.86791698957056,15.382711555710214,25.86026782072362,36.94817109933855
0.7,31.22220030778037,131.0104239907375,11.679451910931412,11.482941222403705,-7.650926944589166,30.96155347903468,0.9860733384384772,1.5654436110730374,349.27032420985284,27.363847611964967,9.577110282715086,71.94232385423682,-0.0757474336226574,119.9203547387396,458.1175029903668,15.288,0,5.366647302995234,0.0804230890244297,1.7656081745192573e-08,-0.008396927257062,-0.0050266638828468,0.000631251145774,13.76981688285491,15.269235968391408,26.165611257180625,31.016781718343267
0.71,31.22219986970989,131.0104248605383,11.916933350905191,11.408082267717004,-7.569799158594843,25.4565458549354,1.0065010403959875,1.529577375236914,301.33126406340574,27.6759701464912,9.69036649161708,71.93738538165964,-0.0848193136514119,119.91081318656704,468.6173473390766,15.288,0,5.384661178895088,0.0813406435345238,1.8373030008980572e-08,-0.0088805077373353,-0.0053575821287601,0.0006752045678321,13.663311681822933,15.148150105556194,26.490365063466378,25.522311379567164
0.72,31.22219942604155,131.01042574003563,12.15726447560458,11.324327685986958,-7.483675384062938,31.156731507984908,1.0281310567054187,1.4917017171309344,350.79220534145287,28.01147658562,9.810914158690668,71.93216606973502,-0.0944709359366674,119.90066156254352,480.03691569967134,15.288,0,5.402605158205731,0.0823269319057382,1.9109586825031482e-08,-0.0093757243163271,-0.0056949237791475,0.0007214820485417,13.546726326836684,15.017586640827506,26.839283230322,31.209359906017188
0.73,31.222198976769985,131.0104266292221,12.400450296013236,11.264439609556325,-7.413652439886085,39.40002973355602,1.047934007999412,1.45647276712895,422.320318528234,28.29157363024844,9.913621562277116,71.92665902134863,-0.1047129638246985,119.88988859227698,489.6736087204431,15.288,0,5.420482690971877,0.0831503772739061,1.9867049676469123e-08,-0.0098828335534203,-0.0060388083764975,0.0007680918226962,13.458792229595474,14.916526001967217,27.13028663509592,39.44086486896057
0.74,31.22219852182659,131.01042752822332,12.64653997432356,11.1976799850867,-7.339853941985947,24.692095044926887,1.0687028934887624,1.4195925359170671,294.48281347105944,28.589396970316024,10.0218218004815,71.92085732375608,-0.1155555526406513,119.87848354121596,500.02557270681297,15.288,0,5.438260446674862,0.0840259285429305,2.0646753661632616e-08,-0.0104020823255199,-0.0063893468749266,0.0008169388964692,13.363124194355882,14.808436721859504,27.439606270244525,24.75594729656463
0.75,31.22219806158929,131.0104284362395,12.895271610608216,11.12679330692946,-7.264061077737533,28.819099696254884,1.090230690637526,1.3813699791270435,330.24688556441487,28.89893214080272,10.133611780201647,71.9147540746475,-0.1270088902378017,119.86643562817297,510.8994591026316,15.288,0,5.455932573863658,0.0849359090638804,2.1450120188170945e-08,-0.0109328996723748,-0.0067461101562057,0.0008679027755363,13.26297092541038,14.696529340563284,27.76095040261785,28.872777720211126
0.76,31.22219759593904,131.01042935350148,13.1467296088967,11.06450808658272,-7.194390417704706,31.019580495211727,1.1112514143147167,1.3437673172397369,349.27032420986166,29.18811318296149,10.23875989156542,71.90834232157636,-0.1390829891724917,119.85373425417454,521.1627997162186,15.288,0,5.473525604398522,0.085786075008739,2.2278516108451744e-08,-0.0114757449638361,-0.007109350235465,0.0009200900656569,13.17334080792986,14.595945263142465,28.0609882892742,31.068552660328706
0.77,31.22219712481296,131.01043028012444,13.400959265107243,11.00468429955403,-7.126882464216934,29.01180805810486,1.1323489169453018,1.3058815122585252,331.7687666960708,29.47184545293656,10.342018568683814,71.9016149810068,-0.1517878964387628,119.84036877945287,531.3313295249512,15.288,0,5.49104136803936,0.0866202340872798,2.3133359808625328e-08,-0.0120309341049911,-0.0074792221115188,0.000973956383277,13.086969413811152,14.499353873714366,28.35524197709361,29.063250805683868
0.78,31.222196648277293,131.01043121595626,13.657916009853537,10.938431404443117,-7.055881332602588,23.844917081590207,1.1544548383849784,1.266250562218954,286.8734378128899,29.773224575872568,10.45076107448346,71.89456491462872,-0.1651336185906705,119.82632859944805,542.2403003100999,15.288,0,5.508444544966072,0.0875062663788725,2.4016126401492292e-08,-0.0125984778330167,-0.0078556800290697,0.0010303056033314,12.993375707185155,14.396156539224306,28.66768861761107,23.90640556604239
0.79,31.222196166423128,131.0104321607932,13.917537985549608,10.86883243431607,-6.983364230781723,33.855418854445205,1.1772977922357306,1.2252896169863583,373.6203323159534,30.08485250875937,10.562631792631768,71.88718476588461,-0.1791301891644232,119.8116030810673,553.6368524666174,15.288,0,5.525750676589295,0.0884224287570368,2.492834299040689e-08,-0.0131783780742117,-0.0082386731183924,0.0010889830848084,12.896198930182369,14.289974229961826,28.990622126874097,33.8980346118624
0.8,31.22219567901446,131.01043311511108,14.179991269071351,10.81298192401119,-6.920060241980219,34.30406637385839,1.1989690013097551,1.1859947098688364,377.42502064505743,30.36040563323589,10.662849552814947,71.87946710461172,-0.1937878969157547,119.796181307314,563.8108261414817,15.288,0,5.54298523355388,0.0892325715271385,2.5871493679268618e-08,-0.0137714069752514,-0.0086286482565493,0.0011483815878299,12.815513628318955,14.201256304064096,29.276045916633205,34.34549577309986
0.81,31.22219518615779,131.01043407867533,14.445203353313955,10.749159845953873,-6.852306666448591,22.373269037654868,1.2218794165415117,1.1445774485216302,273.9374926939919,30.65843514213529,10.770090897082431,71.87140427046023,-0.2091168106477583,119.78005259905883,574.9196839038414,15.288,0,5.560139329317689,0.0901087826622567,2.6847204032533723e-08,-0.0143774535356126,-0.0090254786772056,0.0012106573240947,12.725794505439824,14.10397026093855,29.58464135820347,22.43582435025551
0.82,31.22219468805069,131.01043505106185,14.713038364346048,10.682382080609251,-6.783260290883125,28.70313431100921,1.245513941733224,1.1018366969351818,328.72500443277005,30.965830799858207,10.880187467124188,71.86298876426562,-0.2251269458523222,119.76320631192624,586.491216525552,15.288,0,5.577205195464324,0.0910125300415779,2.7857114035526523e-08,-0.0149962699497631,-0.0094289513970992,0.001275393185991,12.63293415443028,14.004095638563994,29.902806100935894,28.751265508871068
0.83,31.222194184673505,131.01043603229863,14.983511775405685,10.631742762594632,-6.724744722652738,36.441992414667325,1.2675398266293127,1.0614586964473902,395.68750322465047,31.228101303381017,10.975766077785163,71.85421280188129,-0.2418282612147689,119.74563186584888,596.4525748902577,15.288,0,5.594154076575549,0.0917836566259946,2.890287174494831e-08,-0.0156281523813317,-0.0098392028829747,0.0013403556278608,12.559277226138851,13.924606677682672,30.17420442053445,36.479475913546594
0.84,31.22219367591212,131.01043702261242,15.256704969543,10.57829409639638,-6.6649629659142455,22.56791465251469,1.2902010859181685,1.019900019151562,275.4593748256452,31.49837313466775,11.073760450393229,71.84506866444951,-0.259230335557794,119.72731907384843,606.8056434977478,15.288,0,5.611021293631683,0.0925783078259336,2.998613780962769e-08,-0.016273494104731,-0.0102564288454259,0.0014077462059922,12.482616007828124,13.8426961450868,30.45380271516263,22.627761415004294
0.85,31.22219316207797,131.0104380213433,15.53240283065717,10.512481360722484,-6.598039982196772,24.59584620515866,1.3147653210587,0.97513087166178,292.96093233939376,31.805164574904847,11.18328725218541,71.83554874201367,-0.2773426204279789,119.70825786516308,618.6672973306568,15.288,0,5.627793801517998,0.0934803033495875,3.110868185750996e-08,-0.0169317059927275,-0.0106802005575777,0.0014789118819296,12.39178582905632,13.746835170783422,30.77103605956535,24.650256360008598
0.86,31.222192642984588,131.0104390288691,15.810737257332988,10.456519818747894,-6.537668882434311,30.757287217174834,1.3384175517023345,0.931628206785858,346.2265619465587,32.083555172202935,11.283629235491864,71.82564496355624,-0.2961748188259268,119.68843790876237,629.5282581300937,15.288,0,5.644483065988585,0.0942988325563112,3.2272220143086864e-08,-0.01760351402166,-0.0111109241949779,0.0015510085089423,12.312754986456715,13.66373770188398,31.0588474901073,30.800487165273385
0.87,31.22219211865612,131.01044004512949,16.09169339718891,10.40530883638404,-6.480659735090552,28.65473288729596,1.3617520732583248,0.8884508326589503,327.964078366998,32.34771916383169,11.379308356404469,71.81534932602588,-0.3157364228911055,119.6678490818518,639.9202690540825,15.288,0,5.661088198275807,0.0950755552578693,3.34785496790754e-08,-0.0182890434317588,-0.0115486227812863,0.0016246329624008,12.239537123917774,13.587270016685473,31.33190873115793,28.70082630227493
0.88,31.222191589129128,131.01044107003926,16.37524782334605,10.348116494062229,-6.420439231688268,24.79152258293628,1.3862132114611432,0.8432814947430842,294.4828134710418,32.630053241256746,11.48066918134805,71.80465376643322,-0.3360367261330035,119.64648146385233,651.1218605579173,15.288,0,5.677605187845453,0.0959056908983136,3.4729514353931e-08,-0.0189883195483042,-0.0119932562732286,0.0017014261076153,12.159604832960303,13.504484781184187,31.62364233693313,24.844562840332795
0.89,31.222191054488896,131.01044210341126,16.661343170886084,10.285139132201063,-6.357148502445124,27.173969890925505,1.4118302129741267,0.7960569141314203,315.028134248087,32.93067054936238,11.58775984602342,71.7935500990787,-0.3570849726134508,119.62432517789723,663.1563416209605,15.288,0,5.694018956421475,0.0967895725552927,3.6027000712356246e-08,-0.0197013558617294,-0.0124447775653208,0.0017815316219014,12.073195328104,13.415604236801014,31.934139588211465,27.22226314606721
0.9,31.22219051465425,131.01044314540647,16.950038137134293,10.237880086095103,-6.303815689290905,29.99774862452908,1.4355404666526783,0.7517103676519434,339.37814235421445,33.182144351066405,11.679045387362136,71.78202988103756,-0.3788905993084682,119.60137013560636,673.3046814555228,15.288,0,5.710341265877672,0.09752902009964,3.7372901366686186e-08,-0.0204286045866991,-0.0129034122493023,0.0018613496202016,12.00533698275307,13.346585369415202,32.19393980596971,30.041484108623347
0.91,31.222189969699084,131.01044419586364,17.241283399761414,10.184717952807064,-6.247314548891839,22.873590330633995,1.4603991142524744,0.7053189648426159,277.7421810230789,33.451892597016055,11.776058328545188,71.77008484722974,-0.4014624157431888,119.5776069000464,684.277054475526,15.288,0,5.726576945633528,0.0983221877469386,3.876917758783224e-08,-0.0211700116851326,-0.013369069179651,0.0019445291058033,11.930848829373389,13.27129259210714,32.47251004688517,22.931013388613007
0.92,31.22218941983617,131.0104452543296,17.53493288870035,10.125903521068484,-6.18782122294836,27.194762669728764,1.486429598886494,0.6568294243988259,315.02813424806214,33.73986211955881,11.878801248223704,71.75770661354646,-0.4248091526877862,119.5530261078988,696.0892849558376,15.288,0,5.742718301839925,0.099168919660382,4.0217874246957e-08,-0.0219251558381861,-0.0138414319380306,0.0020311705958434,11.850032767032769,13.189993852608165,32.76976978854702,27.243274665650514
0.93,31.222188864968643,131.010446321001,17.831056331288863,10.081235392257108,-6.137205084694306,32.31104999387112,1.5106066319299565,0.6111509655713226,359.1625070654728,33.98140175664819,11.966604634374656,71.74488668649721,-0.4489394364191786,119.52761849673686,706.0713180569592,15.288,0,5.758773564126018,0.0998791918159432,4.172095797431199e-08,-0.0226945831573283,-0.0143207812107111,0.0021174421659566,11.78587306146484,13.126656924485404,33.019214245590625,32.3521156897905
0.94,31.22218830497957,131.01044739611945,18.12973752470351,10.024301998350944,-6.079632873701399,23.507160515339542,1.5369813821332308,0.5616967678771627,283.0687504837787,34.26289232096928,12.067081489654049,71.73161662008492,-0.4738614943332467,119.50137521440942,717.7968942579267,15.288,0,5.774742497811512,0.1007068970243694,4.328044545258598e-08,-0.0234786759511448,-0.0148072935891812,0.0022086821541239,11.70770593138284,13.049286827760689,33.309696885625506,23.564049111347696
0.95,31.22218774017435,131.0104484790371,18.43076596290459,9.969418614398675,-6.023669876062519,30.38806148398844,1.5633598803993445,0.512027004525282,342.4218736174873,34.53748305373713,12.165271830259684,71.71788762019068,-0.4995837868305603,119.4742871554608,729.3270907450718,15.288,0,5.790618673636858,0.1015143301655738,4.489854027355647e-08,-0.0242768390890502,-0.015300547868797,0.0023020029052882,11.63214149686035,12.975201041017296,33.59302927717015,30.432557344457056
0.96,31.22218717024212,131.01044957040443,18.734360650928632,9.92163259265925,-5.972287822847364,29.77831656003445,1.588885401389436,0.4635468921628364,337.09533515678345,34.78745007409,12.25548523671712,71.70369099034367,-0.526114506622508,119.44634547900245,739.9008135579372,15.288,0,5.806414445590761,0.1022493962377293,4.657724971792783e-08,-0.0250901651898541,-0.0158011517052123,0.0023962741139922,11.56501299497151,12.910544068330228,33.851023186866925,29.824278192264845
0.97,31.222186595203336,131.0104506701754,19.040509745447007,9.870731191096423,-5.919413423500297,19.11431841610341,1.6152184476131963,0.4135369785593377,245.02188719299323,35.04732389516556,12.348775508483389,71.68901770640906,-0.5534618697918932,119.41754131580552,750.9746328351025,15.288,0,5.8221282354283845,0.1030135890894064,4.831878280743648e-08,-0.0259187712512339,-0.0163091150579899,0.0024938302043219,11.494485963563578,12.842908888477918,34.11915781732314,19.186899488409686
0.98,31.222186015361643,131.0104517777063,19.349004039068618,9.808409558991723,-5.860174830614817,27.76365498334297,1.6438462422444609,0.3595357356193429,319.5937466429581,35.346827504377224,12.45469225264185,71.67385875327852,-0.5816338059404274,119.38786608453177,763.8420379635694,15.288,0,5.837749428336156,0.1038942730679636,5.0125495357284846e-08,-0.0267618910264899,-0.0168239154883298,0.0025968805898426,11.410967901941332,12.762149918043576,34.427917481543474,27.81460110171335
0.99,31.222185430560007,131.01045289332544,19.6599554558504,9.766123249364174,-5.813056166890259,30.32897526385771,1.6692711174486532,0.3105945372915616,341.6609485517054,35.57506548228858,12.537691088713858,71.65820488234303,-0.6106383089538908,119.35731112516407,773.7151859201742,15.288,0,5.853289798948332,0.1045654956036193,5.199957957952549e-08,-0.0276203370104956,-0.0173459836785846,0.0026974068307815,11.350800442567534,12.706571977080763,34.663518472312724,30.376465817896534
1.0,31.222184840796743,131.01045401703675,19.973367679993373,9.71273547045907,-5.759760363586136,27.158521268044588,1.696953632512116,0.2577113906887793,314.2672081822764,35.841900420371154,12.632985650959956,71.6420471254052,-0.6404825179994267,119.32586866616934,785.3417562948757,15.288,0,5.868744640202597,0.105350173899848,5.39433405947676e-08,-0.0284941416028397,-0.017875277538494,0.0028035306307138,11.278008113625674,12.638245147029972,34.938682438664166,27.212705566676334
1.01,31.222184246261246,131.01045514843776,20.289111239211465,9.661523919858537,-5.708066732772672,28.40055607179505,1.7245358298978677,0.2047706538506395,324.9203161036979,36.10019697130159,12.725478808474008,71.62537615326481,-0.671173845713895,119.2935306356686,796.677595859526,15.288,0,5.8841117492187776,0.1061097635506224,5.5959202850654016e-08,-0.0293829814022296,-0.0184115434155286,0.0029117290517528,11.207919597876607,12.5733337217303,35.20505837823475,28.453603287394984
1.02,31.222183646872903,131.0104562876996,20.6072448859694,9.613488945813229,-5.658536691999346,23.72633430581358,1.7517984220590648,0.1521375753483725,284.59063161540416,36.34586864848212,12.813852306939738,71.60818271627937,-0.7027191940873042,119.26028948771668,807.533032368576,15.288,0,5.899394841670985,0.1068322529139798,5.804950438362304e-08,-0.0302872826822074,-0.0189549747191091,0.0030216740951365,11.141677404496832,12.513068200309204,35.45847197219952,23.79140355558259
1.03,31.222183042703275,131.010457434672,20.92772135612885,9.558051341930373,-5.605036247949896,19.402793141161183,1.7807698204917368,0.0964328769371773,247.30469339049705,36.61816779056708,12.910722344849068,71.59045755807047,-0.7351251016823396,119.22613804651708,819.6530201675029,15.288,0,5.914591136735109,0.107633017316244,6.021669318938913e-08,-0.0312069540987773,-0.0195054557053903,0.0031366559296643,11.06709641594674,12.444497570357354,35.739134379716056,19.484579085318217
1.04,31.222182433816503,131.010458589219,21.250498541221607,9.51013560134429,-5.556190391811518,30.80459812017645,1.8085651769753848,0.0424561011660265,345.46563688072297,36.86132392489797,12.998175056968408,71.57219110491316,-0.768398272452669,119.19106894896731,830.5489193613901,15.288,0,5.9297027653186,0.1083481289876935,6.24632651505388e-08,-0.0321420524941341,-0.0200629591676433,0.0032519956868846,11.00135112237646,12.385881821748852,35.98992683718142,30.857672884802458
1.05,31.22218181991568,131.01045975197653,21.57578612270128,9.456319900806877,-5.504257372635543,18.614580708404503,1.837822118875588,-0.0141972677068812,240.45625879819983,37.12583453009622,13.09243095184086,71.55337382948389,-0.8025449389413624,119.1550753158152,842.4851199069863,15.288,0,5.944737971203208,0.1091260173358642,6.479158563547468e-08,-0.0330937021007566,-0.0206280834341854,0.0033722008565452,10.929001584485716,12.320786091109936,36.26255709204276,18.705090394134526
1.06,31.22218120124777,131.01046092242055,21.9034146047068,9.39758862457238,-5.449826049219663,26.485761755632463,1.868426905640244,-0.0733556364944859,308.17968365593924,37.4087423642415,13.192569900620269,71.53399579994793,-0.8375716228022838,119.11814994866728,855.347004853871,15.288,0,5.959690384187737,0.1099579904911372,6.720438357570828e-08,-0.0340612632115143,-0.0212003882578147,0.0034971321851379,10.851188875147455,12.25037613693584,36.55397594309475,26.551684992242002
1.07,31.22218057769228,131.01046210081097,22.23347074296012,9.350992903379703,-5.402630087426088,31.17768625509308,1.896787523965357,-0.1289906213553959,348.5093681440308,37.64322953372494,13.277064734098012,71.51404684747025,-0.873484832970612,119.08028564861868,866.0762047997287,15.288,0,5.974568517718302,0.1106476462426508,6.970423127940328e-08,-0.0350454707495888,-0.0217802389130871,0.0036206220803015,10.787479359643742,12.195625353467795,36.79584341508362,31.235597668565397
1.08,31.22217994914485,131.0104632873769,22.566030056241345,9.302050526061644,-5.354376240935827,21.01217134623686,1.9259035052477764,-0.1861368118576685,261.00157857466235,37.8854085920228,13.36397850892606,71.49351693258104,-0.9102904377178042,119.0414758775383,877.2278946879802,15.288,0,5.989373280096428,0.1113599197244676,7.229376774375177e-08,-0.0360467804328821,-0.022367832621736,0.0037479087254221,10.721241088691992,12.138742167446212,37.04556879777621,21.10106859635008
1.09,31.22217931589161,131.0104644815108,22.90089581577712,9.24064632680054,-5.299351423647318,19.33435773710511,1.9580589421425985,-0.2486669466263396,246.54375332474407,38.17664161445384,13.46669080316104,71.47239588152354,-0.9479941033643609,119.00171429487096,890.7379490615067,15.288,0,6.004095968928606,0.1122163906548049,7.497591052844797e-08,-0.03706431336173,-0.0229625923502234,0.00388320448157,10.64089362261732,12.067206677425355,37.34540777006352,19.434845488904852
1.1,31.222178678011765,131.01046568304747,23.23801562291593,9.185987522563853,-5.248444505179672,38.71889987325441,1.9890493513493075,-0.3094935526546727,413.1890617385841,38.43992764338646,13.560369982810212,71.45067338797655,-0.986601281804562,118.96099477110566,903.037059124828,15.288,0,6.01873941555504,0.1129907232523638,7.775346174860598e-08,-0.0380980979219705,-0.0235644698829437,0.004018910849188,10.568442689099902,12.004698305522869,37.61665638726476,38.77119176626298
1.11,31.222178035089247,131.010466892888,23.57768241131341,9.144478462139352,-5.205210612225904,28.369437174584128,2.0172658159990213,-0.3658707461465974,324.1593910376397,38.64736355563928,13.635949802460283,71.42833893979669,-1.026117321892673,118.91931127023804,912.7798118747352,15.288,0,6.033317455901267,0.1136008979696888,8.062899518961507e-08,-0.0391498911238166,-0.0241744083084363,0.0041520137110523,10.511190852708287,11.959211935176604,37.83085522472077,28.443420827635343
1.12,31.222177387189728,131.01046811090208,23.919853265757745,9.078937211359028,-5.148766784052957,10.753535304618463,2.051409887726176,-0.432581992369765,172.73281794065943,38.95347964371778,13.743406670123887,71.40538214536058,-1.0665469238563334,118.87665842386504,927.2664017336392,15.288,0,6.047823753647764,0.1145011443611151,8.360546977691788e-08,-0.0402194879345111,-0.0247922161331126,0.0042990932890226,10.426626166854753,11.884685528738514,38.145801320611056,10.95599978346381
1.13,31.222176734925053,131.01046933577447,24.264104413359544,9.02669575525372,-5.100053138740342,33.427837751874655,2.082706729030792,-0.494726858230376,367.5328077900705,39.20292049904291,13.832539593702167,71.38179184956543,-1.1078955700033333,118.83303002133276,939.1489772329104,15.288,0,6.062248746673993,0.1152348067179224,8.668627868860384e-08,-0.0413049461938206,-0.0254167159729162,0.0044432443325318,10.357418066498504,11.82733850180253,38.40286351327675,33.49630962880928
1.14,31.2221760776112,131.0104705689938,24.61091573669558,8.983727140720315,-5.056757267309326,18.550519632468312,2.111953765051389,-0.5536365019477766,239.69531773195544,39.410667646430205,13.90811822598054,71.35755761069132,-1.150167116196975,118.78842155260426,949.0973544366504,15.288,0,6.076611363686057,0.1158459213096794,8.98738785614381e-08,-0.0424090513362893,-0.0260494237097867,0.004586037431156,10.298938937729783,11.782281220849724,38.61738486314536,18.678560991591297
1.15,31.22217541575169,131.01047180948288,24.95993901283149,8.916666347325245,-5.000347237859173,18.28619265764452,2.147518839821441,-0.6236334021620211,237.41251153546767,39.72130710501808,14.017070869418411,71.33266892248795,-1.1933650583154432,118.74282886935327,964.0857883673508,15.288,0,6.090894315210894,0.1167594922008893,9.317168823158136e-08,-0.0435298363967324,-0.0266891497637212,0.0047441810158738,10.21313506212104,11.707925833609586,38.93685108386456,18.422421059680854
1.16,31.222174749489227,131.01047305693857,25.31107767641195,8.876059471046712,-4.958836827892577,47.71655341333332,2.176586893592265,-0.6827773837180762,490.0437743845894,39.91472785153614,14.087991573484995,71.30711453503125,-1.2374936026054288,118.69624705651252,973.4649400254922,15.288,0,6.105103603375332,0.1173285111371955,9.658286943099118e-08,-0.0446672171224094,-0.0273357798150122,0.004891680741142,10.157626096167355,11.667272930874578,39.136767659954266,47.771049654666015
1.17,31.22217407792664,131.01047431332688,25.664960342497192,8.822843009569066,-4.910607302047091,8.537616762151782,2.209139377513964,-0.748180311495381,153.70937929486794,40.161484551963134,14.176185851766723,71.28088385926424,-1.2825554219287107,118.6486728010086,985.5047515517722,15.288,0,6.119257764478353,0.118054318787644,1.0010984548195937e-07,-0.0458248277506593,-0.0279912833364311,0.0050493081140191,10.087895158056105,11.611651345681464,39.39107215523613,8.850478548935486
1.18,31.222173402249965,131.01047557607853,26.02076284330812,8.752962734352703,-4.853496143572279,23.257569025272424,2.246495487683556,-0.8221642485729062,280.02501822196746,40.48246853463709,14.288592997198116,71.25396574723011,-1.328553582955315,118.6001023537538,1001.2864459940718,15.288,0,6.133326569615773,0.1189983261083387,1.0375682137255529e-07,-0.0469978690226941,-0.0286528927199902,0.0052197726053169,9.999357706685378,11.535810000856406,39.7209945905902,23.38027401450046
1.19,31.22217272192676,131.01047684636367,26.37885948702757,8.719874582718033,-4.816762689262768,40.55850356462022,2.274017910382467,-0.8794716437534116,428.4078130529292,40.634117968062334,14.345867768071232,71.2263487184971,-1.3754911689306597,118.5505319315338,1008.7675383923212,15.288,0,6.147317059889792,0.1194445827388061,1.0752650745637113e-07,-0.0481891562788247,-0.0293221135751834,0.005371946151636,9.952784828807449,11.506891050093415,39.87839356783906,40.6317220805397
1.2,31.222172036500822,131.01047812520133,26.73957142299312,8.657239476328648,-4.764128411944848,4.274883872928102,2.3099561187277624,-0.951625913100325,117.1843741360236,40.91895231712783,14.446527780279586,71.19802216535659,-1.4233694086532855,118.49995969086798,1022.9240442761352,15.288,0,6.161241594916568,0.1202823471135243,1.114218315253167e-07,-0.0494003928987416,-0.0299998118575735,0.0055453805048199,9.872772937558752,11.441619544437025,40.17146680857146,4.951375695294453
1.21,31.2221713471588,131.01047941000397,27.102074074000647,8.596201041739766,-4.712625100966813,32.584559135084135,2.345769793075284,-1.0238887886201375,359.92343213200894,41.19568983979572,14.544643666714531,71.16897432979701,-1.4721907988567091,118.44838242833649,1036.770931369888,15.288,0,6.175082357819692,0.1210963198252025,1.1544725222789305e-07,-0.0506267512750109,-0.0306832362199323,0.0057212794211274,9.794720253624993,11.378999488430717,40.45626680237553,32.684927385591074
1.22,31.222170653000216,131.0104807027629,27.46699846397803,8.560238485166407,-4.674921075455066,23.6230178050439,2.3744297052624934,-1.0840186374698937,283.0687504825761,41.35146698900148,14.603228302299252,71.1391940066551,-1.5219564708347737,118.39579836594156,1044.5900165072596,15.288,0,6.188867273543204,0.121554733381473,1.196051907888571e-07,-0.0518725918492468,-0.0313747234047333,0.0058840311709423,9.745236945934408,11.348823908364064,40.61794662346603,23.76678318681424
1.23,31.222169954387613,131.01048200270367,27.834094728320675,8.496882029457398,-4.622644189961968,9.23966518291199,2.411399241082028,-1.1589260987215737,159.79687382222795,41.6353849158879,14.703760886265435,71.10867054499295,-1.5726662114412968,118.34220712576617,1058.946163666105,15.288,0,6.202580492824526,0.1223898315786158,1.2389944507675666e-07,-0.0531360902850883,-0.0320731870100277,0.0060685224134602,9.664827700746528,11.284735529734704,40.910049169688506,9.619218715389781
