Time,Latitude,Longitude,Altitude,Angle of Attack,Angle of Sideslip,X-Acceleration,Y-Acceleration,Z-Acceleration,Thrust,True Velocity,Ground Velocity,Pitch,Roll,Yaw,Dynamic Pressure,cp,parachute_deploy_gain,Wind Speed,Mach,omega_x,omega_y,omega_z,Cmq,Angle of Attack(total),Angle of Attack(gust),True Velocity(gust),Acceleration
0.0,31.222186000000004,131.010384,3.000000003643237,0.0,0.0,0.0,0.0,0.0,2.2828121974499247,0.0,0.0,69.99999999623421,0.0,113.69999999388332,0.0,15.288,0.0,0.0,0.0,0.0,0.0,0.0,-0.0,0.0,90.0,0.0,0.0
0.01,31.22218600000153,131.01038399999584,2.99999882256592,0.0,0.0,0.0,0.0,0.0,34.24218696174923,7.502283530665459e-11,7.190531319924593e-11,69.99999999623329,-4.83564628150269e-13,113.69999999388072,3.446445726795683e-21,15.288,0.0,0.0,2.204725565824978e-13,-3.659182332138578e-19,7.589415207398531e-19,4.811147140404426e-19,-1.5108918610345807e-31,0.0,89.9999999995224,7.502283530665459e-11,0.0
0.02,31.22218600000288,131.01038399999217,2.999997775701936,0.0,0.0,0.0,0.0,0.0,25.871876237766408,1.5320717031631675e-10,1.4674636035870463e-10,69.99999999623222,-9.67129256300373e-13,113.69999999387804,1.4372842949972735e-20,15.288,0.0,0.0,4.5023593667086093e-13,-7.284483346386986e-19,1.5178830414797062e-18,9.757819552369542e-19,-6.170906918166791e-31,0.0,89.99999999902465,1.5320717031631675e-10,0.0
0.03,31.22218599928065,131.01038400193067,3.000201659671132,18.81500467334555,-0.00012974450181,11.96616230539064,-1.8916256735984712e-05,3.349833086198469,180.34219359854663,0.0882870268161719,0.0553390044312322,69.99999999799445,-4.212591857125379e-12,113.69999999488518,0.0047728553458352,15.288,0.0,0.0,0.0002594525584132,3.2187251995663407e-17,-7.20264389268894e-10,1.2365134327422308e-11,1.6874092354518158e-13,18.815004673776716,89.46786891739345,0.0882666465974854,12.426199017587786
0.04,31.22218599548236,131.0103840121632,3.001799604587872,9.46752327608497,-4.6177622759613696e-05,55.21900012092241,3.931876292165237e-06,3.349616504302861,548.6359724538078,0.3767519978512604,0.1853356633749705,70.00000000507204,-2.4624598767003407e-11,113.70000000019972,0.086915163246288,15.288,0.0,0.0,0.0011071759353184,1.6174128009138757e-15,-1.3693172015529268e-08,2.7753303060112748e-11,1.3689612277852356e-11,9.467523276196548,87.63554493451223,0.3767447442872393,55.32050167054111
0.05,31.222185984749512,131.01038404118162,3.00777936418888,5.376730308971262,-2.257790939128127e-06,80.28807156553681,5.266841443842784e-05,3.348887800834877,761.6984298824644,1.018787885905993,0.4366201147110198,70.00000000894464,-1.1355399380652658e-10,113.70000001523856,0.635552918586145,15.288,0.0,0.0,0.0029939522895272,1.6418815498809788e-14,-9.32122351075408e-08,4.303264669380585e-11,2.5199270302492604e-10,5.3767303089717045,83.57022052969386,1.0187875312530217,80.35788377762394
0.06,31.22218596447235,131.01038409608267,3.0201664202003013,4.296730121134882,2.4863835723705905e-05,60.21296515808257,0.0001057204249726,3.347700952379021,590.4875390737208,1.721098934225416,0.7081674028809783,69.99999995523842,-3.0560354507026086e-10,113.70000004366592,1.8138247671743823,15.288,0.0,0.0,0.0050578622752421,8.328976953118383e-14,-3.2824985336199985e-07,5.923438275930214e-11,1.4991363363716091e-09,4.296730121206683,79.20467073327266,1.7211028398275985,60.305955550063224
0.07,31.22218593493329,131.01038417609837,3.038741944736831,3.8204913578752526,4.8016684030909405e-05,91.4060317508128,0.0001597686613101,3.346072557365335,855.2937749779139,2.4375792548422868,0.9844712334613328,69.99999973536046,-5.939103491363046e-10,113.7000000850886,3.6383156301599167,15.288,0.0,0.0,0.007163413150771,2.709313825263564e-13,-7.906546256197275e-07,7.920022733617308e-11,5.114174483651565e-09,3.820491358176508,74.87999294483174,2.437586797285377,91.46725557277466
0.08,31.222185894468456,131.01038428575305,3.0647976109320942,3.588632851766762,7.220043782492885e-05,19.18449428359557,0.0002119618497595,3.3440615022685813,241.2171988638848,3.1292508166901074,1.2522236515868983,69.99999919480445,-9.914748373602156e-10,113.7000001418522,5.996012698481753,15.288,0.0,0.0,0.0091960591623389,6.80386533246681e-13,-1.5973238302190878e-06,1.0839624626357699e-10,1.3263625118823921e-08,3.58863285249208,70.86684630658345,3.1292621579083604,19.473766155861934
0.09,31.22218584634549,131.01038441616095,3.0957981580345013,3.551302481506045,9.685468678862004e-05,57.102946699906326,0.0002554087225869,3.341892818148368,563.0937377043176,3.701810007254615,1.479132491047967,69.99999812344194,-1.4359264356978275e-09,113.7000002093888,8.390904013834115,15.288,0.0,0.0,0.010878666406854,1.440096519545733e-12,-2.748643691533636e-06,1.5214952332699618e-10,2.6999776649034504e-08,3.5513024828250237,67.68737872952666,3.701825221153239,57.20065357568538
0.1,31.222185790329306,131.01038456796124,3.1319266121977414,3.608446747536112,0.0001234669721807,54.26147302645416,0.0002914860332524,3.3396271157106168,538.7437595981919,4.174070299823608,1.6716491241860567,69.9999963052332,-1.902380107712657e-09,113.70000028805804,10.668380938744466,15.288,0.0,0.0,0.0122665227999911,2.687800116751415e-12,-4.315796035622946e-06,2.1749089204950437e-10,4.7802076800548326e-08,3.608446749645647,65.17160335282355,4.174089693970246,54.36414778470795
0.11,31.222185727066616,131.0103847393952,3.172681775073216,3.633547373470009,0.0001485939126744,42.987553988990406,0.0003293995000288,3.337005588796181,442.8656393052949,4.672024955140527,1.8729475711242067,69.99999349387662,-2.3433348587116544e-09,113.70000037699285,13.365573690709628,15.288,0.0,0.0,0.0137298902182575,4.5789425819531184e-12,-6.340230783164189e-06,3.1157625832417107e-10,7.860218435507205e-08,3.6335473765043056,62.62546922225161,4.672048296217748,43.116880735560244
0.12,31.22218565692512,131.0103849294629,3.2177790417108385,3.650108937861461,0.0001727442530266,46.86777100765684,0.000367618259785,3.334068179146888,475.58594813540446,5.17479364099247,2.0758708919414386,69.99998941286465,-2.702771525550512e-09,113.70000047573096,16.396890189902592,15.288,0.0,0.0,0.0152074069417046,7.288473386564583e-12,-8.86736416607888e-06,4.42271554299792e-10,1.217615295152289e-07,3.6501089419435786,60.16906436414164,5.174820775596283,46.986210423745625
0.13,31.222185580265183,131.0103851371844,3.2669395832841857,3.7280113734654137,0.0001995014041665,51.64515456841877,0.0003986198234033,3.3311573548369657,515.9156326236895,5.579364582999854,2.2451120211463422,69.99998375846928,-2.9114380666036422e-09,113.70000058383452,19.060875702782603,15.288,0.0,0.0,0.0163963474924215,1.100846422415094e-11,-1.1941028436408576e-05,6.179653149059831e-10,1.7678562106638216e-07,3.728011378795934,58.279338776943774,5.579395920607139,51.75247433579817
0.14,31.22218549718016,131.01038536230575,3.320091807147376,3.768719651034081,0.0002242721760019,48.1660778383537,0.0004326225136175,3.32784677779744,486.2390860568404,6.025734265159953,2.428648685938864,69.99997621008868,-2.890941335368725e-09,113.70000070125378,22.232643351545065,15.288,0.0,0.0,0.0177081261985351,1.5941871344608664e-11,-1.560901486259027e-05,8.477542742712431e-10,2.495765160917323e-07,3.7687196576976176,56.27980129251342,6.025769493750979,48.280903250602165
0.15,31.22218540777004,131.01038560455507,3.377159065217065,3.821894709649632,0.000249725644238,46.56959330999435,0.0004643042952466,3.324387732286376,472.54218587214,6.441023336496372,2.6014999612196745,69.99996641132823,-2.546763407193136e-09,113.70000082794672,25.402620271850456,15.288,0.0,0.0,0.0189285691155931,2.2314099732464315e-11,-1.992367942778425e-05,1.1417519574710292e-09,3.4051816697623295e-07,3.821894717796148,54.501255563441134,6.441062563308839,46.68809885900716
0.16,31.22218531193176,131.01038586421257,3.4382223512025254,3.8463320955387794,0.0002733212404609,36.974247749122085,0.0004987816203583,3.3205066466509234,391.1218908297564,6.895451966878468,2.7877331692857847,69.99995397923414,-1.77088415515292e-09,113.70000096417354,29.113317717489338,15.288,0.0,0.0,0.0202640360420561,3.0367358387834494e-11,-2.4945905791363795e-05,1.5114297685186711e-09,4.5643121540033697e-07,3.846332105235269,52.641145594326446,6.895494900078523,37.12304892183151
0.17,31.222185210004127,131.010386140357,3.503019838429153,3.8860314262554336,0.000297865039677,46.520531453299206,0.0005306403365217,3.31650761597812,471.78125980632376,7.314788342774694,2.9619016331667103,69.99993849340957,-4.3039914767238207e-10,113.70000110959404,32.761746921137856,15.288,0.0,0.0,0.0214963781445172,4.0366633128431416e-11,-3.0713078585132897e-05,1.96747427715988e-09,5.961228045584824e-07,3.886031437653654,51.00464968745696,7.314835131305714,46.63860064094784
0.18,31.22218510147516,131.01038643438045,3.571950002194137,3.9107265153396016,0.0003214293682635,38.895647526122765,0.0005639254295027,3.312149448254175,407.10156721191447,7.754626295791602,3.1430587898572058,69.9999195084231,1.6149322372810674e-09,113.70000126508234,36.81988229018681,15.288,0.0,0.0,0.0227889722876034,5.2593391349219385e-11,-3.731786027786564e-05,2.525509173087448e-09,7.6786585232224e-07,3.9107265285284982,49.36615848311875,7.754676785798701,39.036415444581515
0.19,31.222184986476247,131.0103867459258,3.644912152926752,3.920599115663931,0.0003437679584038,43.86258669386953,0.0005989384366483,3.307389681300437,448.9531328318269,8.219206165926856,3.332657190859447,69.99989653019398,4.538529095696477e-09,113.70000143063515,41.36350714675367,15.288,0.0,0.0,0.02415428010977,6.735860419174937e-11,-4.481243905342629e-05,3.199401151670645e-09,9.773118416308382e-07,3.92059913071168,47.71893898797248,8.21926016487149,43.987104227715655
0.2,31.222184864792144,131.01038707557822,3.722074668489528,3.943376465171875,0.000367328732016,40.28070981710589,0.0006315894240138,3.30251450988504,418.51563019916136,8.65238089736321,3.511445117640573,69.99986902534273,8.534090245934178e-09,113.7000016067622,45.83799876721736,15.288,0.0,0.0,0.025427299120469,8.499785987217288e-11,-5.328041996372527e-05,4.006766070954748e-09,1.2232205148646746e-06,3.9433764822533854,46.2587826635041,8.652438597225508,40.41586552155969
0.21,31.22218473678744,131.01038742234647,3.803156063113743,3.9664546506877016,0.000390962054969,38.67679184347145,0.0006636984664108,3.297405915846789,404.8187610144644,9.079179692250786,3.688002035198235,69.99983642883521,1.3827831253856693e-08,113.70000179318536,50.47126980736161,15.288,0.0,0.0,0.0266815841422463,1.0586558589671407e-10,-6.275155280099118e-05,4.961340042512481e-09,1.5117124669161171e-06,3.9664546699249135,44.88773728276958,9.079241104426773,38.817098210937615
0.22,31.2221846022986,131.01038778667507,3.8882846911135607,3.956175711337521,0.0004112685792646,46.713636108302936,0.0007011135033803,3.291572407481395,472.5421858721365,9.580256326712124,3.889976788904857,69.99979815126248,2.0662823443484168e-08,113.70000199039316,56.195522894218605,15.288,0.0,0.0,0.0281541581291438,1.3033127211465288e-10,-7.330053770532661e-05,6.0817207473359025e-09,1.8632831045819008e-06,3.956175732680424,43.35679625546934,9.580320928629488,46.8294591882524
0.23,31.222184460898035,131.01038816972698,3.977794004014759,3.9879066397329104,0.0004360962274406,38.89105719050748,0.0007308686121188,3.286096544282012,406.3406421461021,9.977039034039262,4.056142701351626,69.99975353557706,2.9316661139418326e-08,113.70000219928508,60.9462612310605,15.288,0.0,0.0,0.0293202403623685,1.5880617816859538e-10,-8.505067486192354e-05,7.393319440773217e-09,2.2514912291167663e-06,3.987906663538912,42.20670487756048,9.97710753587448,39.0296395118868
0.24,31.222184313516166,131.01038856897196,4.070963590490852,4.003523997322975,0.000459165577055,40.0792299321398,0.0007630441688766,3.280134925833028,416.2328240017114,10.408422364424831,4.234121060914368,69.99970190737699,4.010976417051318e-08,113.70000241888,66.32994780718496,15.288,0.0,0.0,0.030588009649109,1.91711512587616e-10,-9.795845222523724e-05,8.904557280909524e-09,2.7052895870113487e-06,4.003524023611085,41.011349410369874,10.408494489985014,40.21323112692186
0.25,31.22218416001652,131.01038898478134,4.167901030441617,4.0261356185860135,0.0004830526730531,41.17760020658354,0.0007934613160587,3.2740610008587527,425.36408079150686,10.816813039390448,4.4041629376391525,69.99964258149416,5.3372865854010094e-08,113.70000264972064,71.63651430352668,15.288,0.0,0.0,0.0317882126436337,2.2947426169209347e-10,-0.0001121037688082,1.0637152702866709e-08,3.217380562698304e-06,4.026135647516394,39.93186687113378,10.816888917126896,41.30755663120434
0.26,31.222184000702686,131.0103894163294,4.26837241014618,4.053359329950934,0.000507503069958,44.80261175215926,0.0008224724146494,3.2678597736729302,455.8015834241788,11.207047269494833,4.567925492611352,69.99957484039399,6.947299261165984e-08,113.70000289176392,76.89781807056055,15.288,0.0,0.0,0.0329350617559806,2.7254099134167665e-10,-0.0001275114371842,1.260720913253598e-08,3.7915697709142366e-06,4.053359361668992,38.945390435244384,11.207126987890645,44.921630958721536
0.27,31.22218383516388,131.01038986473338,4.372698316214008,4.0614460923241,0.0005296455772492,41.029837477288126,0.0008548809954683,3.2610328932384265,423.84219965987256,11.645685385842508,4.748226940060522,69.99949794024376,8.879821051920497e-08,113.70000314600205,83.0342688744587,15.288,0.0,0.0,0.0342241635563461,3.2137296827284217e-10,-0.0001442952656441,1.4842505534226832e-08,4.458527942364847e-06,4.061446126801262,37.8838346421185,11.645768582375233,41.15922617924542
0.28,31.222183663504484,131.01039032970942,4.48079961904222,4.081133040992532,0.0005533279247169,47.27661484082626,0.0008845140695959,3.254218495915602,476.3468732012221,12.047344998676092,4.915789434712848,69.99941106884992,1.1178948978424788e-07,113.70000341275257,88.85982357848233,15.288,0.0,0.0,0.0354045979054623,3.764736350660473e-10,-0.0001625146963723,1.7365685655384934e-08,5.194620655212288e-06,4.081133078439725,36.956255322213885,12.047431915223257,47.38848224631549
0.29,31.22218348566054,131.0103908114315,4.592727908358551,4.1001100265020245,0.0005770279952742,37.989969791857405,0.0009138463939581,3.247164755122801,397.97031042211177,12.446314684600782,5.082367374004485,69.99931338876085,1.3891902435864665e-07,113.70000369260468,94.8417675268915,15.288,0.0,0.0,0.0365771315767517,4.3836067907166327e-10,-0.0001822432988888,2.0202163500922312e-08,6.018074062137429e-06,4.100110067036654,36.07377590258778,12.446405323946324,38.12849176886316
0.3,31.222183301933686,131.01039130907952,4.708251093558373,4.112858061667493,0.0005998635114143,35.655053282557844,0.000944131403186,3.2397207148238625,378.1859457108711,12.860033399289696,5.253940723820665,69.99920403105713,1.707002607527005e-07,113.7000039856728,101.2505662360602,15.288,0.0,0.0,0.03779301412572,5.075709863465428e-10,-0.0002035013069687,2.3370674033523645e-08,6.94335970778e-06,4.112858105337573,35.19685285507256,12.860127625629724,35.80193592228613
0.31,31.222183112488807,131.0103918222051,4.827243246502713,4.136140889545823,0.0006242383343011,37.56633644061071,0.0009716215464757,3.232339252743767,394.1656220930212,13.2364445751808,5.4126574282679245,69.99908210036875,2.0768081583188525e-07,113.7000042923011,107.26326115439352,15.288,0.0,0.0,0.0388992619788015,5.846561731689753e-10,-0.0002263323252403,2.6893437641668458e-08,7.948283231812338e-06,4.1361409365698805,34.43286455705216,13.236542630309057,37.70514091683033
0.32,31.22218291741533,131.01039235056504,4.949637017503345,4.1622282001352975,0.0006491019906456,40.83513712643371,0.0009979686925508,3.224840963348891,421.55939346242695,13.59846554462374,5.566374262777002,69.99894668612772,2.504388718903276e-07,113.70000461297312,113.2095365840355,15.288,0.0,0.0,0.0399632243410653,6.701756367872645e-10,-0.00025078340164,3.0793566854276295e-08,9.047716714467492e-06,4.16222825066026,33.72644865222576,13.598567505326,40.96227562489027
0.33,31.222182716732533,131.01039289410716,5.075419569102976,4.187801887681037,0.0006739743721461,40.48743503284469,0.0010239291638211,3.217136801802925,418.5156301991682,13.956637761217308,5.718704299733134,69.99879684673242,2.995902922462564e-07,113.70000494831164,119.25032483364384,15.288,0.0,0.0,0.0410158804634189,7.647061680070125e-10,-0.0002769136723495,3.509664608790402e-08,1.0253455741189656e-05,4.187801941818244,33.053267359159875,13.956743628864118,40.61505097607
0.34,31.222182510255863,131.01039345333336,5.204736257784645,4.19642921746386,0.0006961879027693,31.814592723444047,0.0010535137542081,3.208669900766693,345.46563688075645,14.367047160772364,5.88887983533068,69.99863160305904,3.557915789971256e-07,113.70000529927128,126.36523219087664,15.288,0.0,0.0,0.042222056531773,8.688448410811866e-10,-0.0003048202762282,3.9835373705550826e-08,1.1618525957862828e-05,4.196429275109305,32.30947868183619,14.367156517712404,31.97598901989736
0.35,31.222182298183583,131.0103940277045,5.337435501771672,4.210915783240843,0.0007193441544952,34.813487415034444,0.0010813034848195,3.200164272309822,370.5765700527033,14.754132934586384,6.050986755458457,69.99844991734221,4.1975736284587617e-07,113.70000566632532,133.26448209504355,15.288,0.0,0.0,0.0433596939127697,9.832256819293898e-10,-0.0003345386312107,4.503361101379695e-08,1.309465610343774e-05,4.210915844572415,31.63649055965014,14.75424592890194,34.96026256388454
0.36,31.222182080444604,131.0103946174141,5.4735747500461605,4.22903876037745,0.0007431682866607,39.2632255716727,0.0011077666085529,3.1915717453569297,407.8625232777193,15.124417129017054,6.2072589919251575,69.99825073022951,4.922382611919288e-07,113.70000605036684,140.03566173682628,15.288,0.0,0.0,0.0444479595865755,1.1084921261805627e-09,-0.0003661511460057,5.0723697896912267e-08,1.4691545926915382e-05,4.229038825557203,31.017264542603208,15.124533865618538,39.39272792946638
0.37,31.22218185710795,131.01039522227452,5.613102797925907,4.249164960780052,0.0007674149135003,37.28328237034959,0.001133274451316,3.1828514669894137,391.1218908297666,15.483077353331511,6.359470679857624,69.99803294268581,5.740349991123437e-07,113.70000645214331,146.75405277514704,15.288,0.0,0.0,0.0455020695186381,1.245311285088233e-09,-0.0003997125883071,5.6934243389647934e-08,1.641828325195534e-05,4.2491650299519,30.439178816713017,15.483197898584232,37.418894813348615
0.38,31.2221816281124,131.0103958424523,5.756069531572451,4.260095806433531,0.0007900626414612,38.9278000801764,0.0011607546399008,3.1735466295306622,404.8187610144602,15.87126705947922,6.521735074464384,69.99779542676283,6.659911329739736e-07,113.70000687263192,154.20298254405043,15.288,0.0,0.0,0.0466429667223463,1.3943646956867835e-09,-0.0004353006984059,6.369875435270817e-08,1.8328108041903096e-05,4.260095879559656,29.83470194713067,15.87139116222873,39.05694584372078
0.39,31.22218139339905,131.0103964781077,5.9025231349944285,4.274091258047817,0.0008133283308351,33.320076729592266,0.0011870382950339,3.164143363712209,357.64062493382744,16.24457853509073,6.678818328235205,69.9975369905506,7.690136753559805e-07,113.70000731287368,161.54010621938565,15.288,0.0,0.0,0.0477401448128051,1.5563705124515804e-09,-0.0004730068442167,7.105463478762673e-08,2.0383860516746246e-05,4.274091335289374,29.274934656826048,16.244706292406182,33.46997636540994
0.4,31.22218115316572,131.01039712870306,6.0523126585892895,4.286421841403391,0.0008363022448449,31.88018820767003,0.0012133780841982,3.1544430614236454,345.465636880754,16.62063299903514,6.836764518435374,69.99725641601981,8.840594270905819e-07,113.70000777359816,169.10340080049767,15.288,0.0,0.0,0.0488453895716005,1.7320643186450851e-09,-0.0005128553637434,7.9027539265021e-08,2.2612406375611563e-05,4.286421922834417,28.730746964325096,16.620764365084565,32.03586915718869
0.41,31.22218090752676,131.01039779392735,6.205351877049411,4.30025870409831,0.0008595777771371,35.882550741685804,0.0012389121673015,3.1445895889870297,378.94687077668647,16.987310563534386,6.99141560549392,69.9969524610574,1.0121301778427253e-06,113.70000825570062,176.64448930727934,15.288,0.0,0.0,0.0499230826371405,1.922193031274436e-09,-0.0005548883906878,8.764667734700782e-08,2.5005077415911235e-05,4.300258789847355,28.21875643368965,16.987445585695873,36.020076248499606
0.42,31.222180656535848,131.0103984736348,6.36160173428776,4.322008670726048,0.0008844838439129,40.34064925656127,0.001261804338223,3.134918999355981,416.2328240017114,17.318628721060172,7.133856886815013,69.99662385300175,1.154276942054023e-06,113.70000876021427,183.59942989625057,15.288,0.0,0.0,0.0508968652507098,2.1275184665783874e-09,-0.0005991661829955,9.694534598491077e-08,2.752657757470936e-05,4.322008761057615,27.772396468009568,17.318767655457478,40.462275036947325
0.43,31.222180400205527,131.0103991677914,6.521055075967404,4.339436441324956,0.0009085827200945,35.541853595187746,0.0012854696362701,3.124839917627212,375.9031395134336,17.662848429084132,7.280642039343927,69.99626930133451,1.3115939750280808e-06,113.70000928827632,190.96736675963504,15.288,0.0,0.0,0.0519085689713619,2.3488101247838237e-09,-0.0006457514522491,1.0695800287133593e-07,3.0255957891170616e-05,4.339436536261635,27.322335771349252,17.662991148924057,35.67895714766603
0.44,31.22218013836212,131.0103998768696,6.683849332059896,4.342209064313268,0.0009296474314902,32.82948243168077,0.0013129688908547,3.113754688841357,353.0750125389216,18.063580761318697,7.446730341918701,69.99588746395321,1.4852372182848018e-06,113.7000098413532,199.7278270846888,15.288,0.0,0.0,0.0530863610987301,2.586862292117705e-09,-0.0006947575786514,1.1773083546077225e-07,3.329010177793299e-05,4.342209163639375,26.81344244367223,18.06372678999575,32.9768158972058
0.45,31.22217987077456,131.0104006014978,6.850166573233225,4.3420317510315165,0.0009500780330031,38.11022602597878,0.001341042003417,3.1022288449712887,397.2093853562869,18.47486275310604,7.616350301328129,69.99547690348253,1.6764536248320808e-06,113.70001042108892,208.92306716049887,15.288,0.0,0.0,0.0542951637545535,2.842521175226318e-09,-0.0007463379956615,1.2932090054593452e-07,3.657529369088674e-05,4.342031854775571,26.30944884471334,18.47501199101448,38.23628058998621
0.46,31.22217959739673,131.01040134180155,7.020045503401754,4.351169003849846,0.0009725797783515,44.3937050866137,0.0013660055515545,3.09098240974522,449.7140588976434,18.844323061800488,7.771531995684422,69.99503610583268,1.8865779683531e-06,113.70001102895836,217.3591612614144,15.288,0.0,0.0,0.0553810645782081,3.1166808800591503e-09,-0.000800596194505,1.417768495237597e-07,4.001824400409673e-05,4.351169112337076,25.873596578896564,18.844475834274814,44.50118229261506
0.47,31.22217931813738,131.01040209802923,7.193559875579052,4.358630093683735,0.0009947969928181,30.22514089990685,0.0013910994973101,3.079396422776949,331.0078106302534,19.2180591098146,7.9280875671397615,69.99456352718363,2.1170044481277104e-06,113.70001166656292,226.0625808853568,15.288,0.0,0.0,0.0564795377574197,3.4102493884459798e-09,-0.0008576351980594,1.551487523304888e-07,4.3718862242359527e-05,4.35863020698899,25.44665981168229,19.218215372160817,30.381603425148434
0.48,31.22217903348153,131.01040286886197,7.370336324605091,4.365514409145237,0.001016880998596,29.779838936311712,0.001416009414045,3.067527859335786,327.2031223011574,19.5915905767454,8.084483592791102,69.99405758812365,2.369198154608765e-06,113.70001233476164,234.93171707892955,15.288,0.0,0.0,0.057577416115756,3.7241711041759195e-09,-0.0009173883913609,1.6944871263079066e-07,4.767297940601472e-05,4.365514527349481,25.03354780044292,19.59175030803913,29.937410312943754
0.49,31.22217874361868,131.01040365378466,7.5502307795521535,4.3786401372577615,0.0010404145545081,37.2489281064929,0.0014385799934191,3.0558405437943126,389.60000969812296,19.93403005898306,8.23012235628909,69.99351671352461,2.644660619562788e-06,113.700013034871,243.21198709852868,15.288,0.0,0.0,0.0585839249886784,4.059374595909599e-09,-0.0009798792959512,1.8470833984680338e-07,5.180951737438081e-05,4.378640260624215,24.667474291142685,19.934193486919103,37.37406598941686
0.5,31.22217844858332,131.0104044527036,7.733219389747018,-21.255872160449226,-0.0064117224803496,38.670558097360285,0.0010993672939624,4.391655985469932,397.97031042210494,18.44652062202446,8.366023506705158,69.99293932307316,2.9449363413826395e-06,113.70001376847225,208.26488508693788,15.288,0.0,8.768049422645161,0.054212410035088,4.416605232284705e-09,-0.0010607533276333,3.84562001333629e-05,5.189948999529777e-05,21.25587308270387,33.10777851982595,18.445513471014507,38.91913034825726
0.51,31.22217814834088,131.01040526617345,7.919246268612594,-20.85199357516493,-0.0037928838118363,29.75806869657212,0.0009848037843056,4.414450013652136,323.3984349720841,18.75268741855016,8.526488849312171,69.99239745744688,6.341679112315519e-05,113.70007854563076,215.2317809434808,15.288,0.0,8.802844680600739,0.0551123181366828,4.773111931527784e-09,-0.0008070324643035,3.840356235176863e-05,4.014033456929036e-05,20.851993904753336,32.59203435723099,18.752091633754635,30.083716898727417
0.52,31.22217784246365,131.01040609482345,8.108307329401521,-20.45352909748032,-0.0036965499440797,35.59303717583071,0.0010057262741306,4.438126676879588,372.0984511843415,19.068424046582123,8.689240554365057,69.99200244492961,0.0001238073985154,113.70014324426424,222.5364155899209,15.288,0.0,8.837514893969884,0.0560403567935364,5.035074545922815e-09,-0.0005475413746065,3.835328282011551e-05,2.76917452197404e-05,20.453529417206116,32.075784996629075,19.06784339387513,35.868666894820365
0.53,31.222177530818502,131.01040693905847,8.30051398497726,-20.070850946519453,-0.0036032108391476,37.33216726782671,0.0010264467337486,4.461765909600915,386.5562464348624,19.38147936232087,8.850887010171409,69.99175769914567,0.00018411725481,113.7002078650996,229.8991242422548,15.288,0.0,8.872065590646711,0.0569605212817674,5.2005222128758525e-09,-0.0002820002235364,3.830214087320266e-05,1.4495958745700768e-05,20.07085125661273,31.578071415170665,19.38091337128616,37.5978466005523
0.54,31.222177213300256,131.010407799164,8.495942249861134,-19.70143839975021,-0.0035124050040769,32.87545573405171,0.001047039684342,4.485475467889755,349.2703242098436,19.69337200367221,9.012005586895798,69.99166671627552,0.0002443463371805,113.7002724082538,237.3534181755308,15.288,0.0,8.90652188997843,0.0578772748553971,5.267450689813529e-09,-1.0213792341988716e-05,3.825012077756261e-05,5.334694177553702e-07,19.701438700410637,31.095756226144356,19.69282027638469,33.18004040068256
0.55,31.22217689017741,131.0104086744095,8.694378472847532,-19.35026065022067,-0.0034250154704604,34.796714452117826,0.0010672300096498,4.50888768193828,365.2500005919907,19.99834065475935,9.170507011364643,69.99173299042721,0.0003044946952906,113.700336873391,244.75691455942564,15.288,0.0,8.940843493675851,0.0587736853570111,5.2338940437652304e-09,0.0002674623683548,3.819730661992441e-05,-1.41857006733366e-05,19.35026094172333,30.63620802833338,19.997802654587648,35.08762468349119
0.56,31.222176561444588,131.01040956480892,8.895821653853403,-19.020401221818148,-0.0033415380567468,32.52413376275822,0.0010868048863062,4.531713945802684,346.2265619465787,20.29190186618967,9.324795266538592,69.99195991956213,0.0003645624883502,113.70040126067973,251.99049057643143,15.288,0.0,8.975029847581354,0.0596365761752309,5.0979510656146045e-09,0.000551088529417,3.814370773081802e-05,-2.9657181031234336e-05,19.020401504479366,30.204242052072725,20.29137697861943,32.83832683748544
0.57,31.22217622716729,131.0104104701838,9.100216031450126,-18.691718255006016,-0.0032585584472314,32.16560827694553,0.0011067056773347,4.555204170859708,343.1828296833023,20.59373535259193,9.482007539145185,69.99235087327625,0.0004245499566651,113.70046557027425,259.5376550231215,15.288,0.0,9.009066012426114,0.060523784662513,4.8577613495875806e-09,0.000840588599328,3.8089358239540565e-05,-4.5908789585437474e-05,18.691718528892384,29.771812334296445,20.59322349942825,32.48655478946516
0.58,31.222175887318027,131.01041139060845,9.30757804902848,-18.35204715421367,-0.0031740643075649,42.11827237434603,0.0011275835604092,4.580249308674601,426.1250058573153,20.91759523402863,9.647092851735868,69.99290923226322,0.000484457400488,113.7005298025241,267.75955894546973,15.288,0.0,9.04295198701546,0.0614757337367169,4.511470539053479e-09,0.0011360308393544,3.803426725532421e-05,-6.301884629865438e-05,18.352047419245903,29.32154136002576,20.917096653173356,42.36658533326304
0.59,31.222175541494146,131.01041232717722,9.518214838879633,-18.046677417533463,-0.003095579651001,34.277387129991205,0.0011470746042896,4.603693212014202,360.68438819711065,21.213809974777423,9.80216316440446,69.99363861606571,0.0005442850755402,113.70059395826308,275.3911874105913,15.288,0.0,9.076729947351645,0.0623464417353841,4.057072976361978e-09,0.0014381149139972,3.797833537180976e-05,-8.090438342482502e-05,18.046677674190263,28.918153231940323,21.21332372226315,34.58515954806935
0.6,31.22217518989772,131.01041327934016,9.731964604181572,-17.715348703102002,-0.0030131185803231,30.54066770812118,0.0011683759359782,4.62984203637068,329.4859594986058,21.54980327345084,9.971484818232016,69.9945426736487,0.000604033304958,113.70065803753872,284.1779622989628,15.288,0.0,9.110369838545342,0.0633340637827352,3.492595631161918e-09,0.0017465443455057,3.7921638505221485e-05,-9.980994148088457e-05,17.715348951127357,28.475424256170523,21.549329973891243,30.889607033834587
0.61,31.22217483247465,131.01041424724392,9.948864249644648,-17.38825048929411,-0.0029317257195439,35.66148697433905,0.0011899162748164,4.6566063544364935,372.0984511843297,21.89254775762649,10.143148354297551,69.99562513055416,0.0006637024501826,113.7007220408022,293.2833053833564,15.288,0.0,9.14388221992319,0.0643415344087999,2.8160233575160838e-09,0.0020614549838302,3.7864178065868815e-05,-0.0001196773571319,17.388250728809574,28.036533996070293,21.89208724322755,35.96422719004306
0.62,31.22217446933056,131.0104152306008,10.16882678698386,-17.1215717583412,-0.0028605228547831,44.16521375311964,0.0012083696620857,4.6794486186085775,442.86563930529206,22.171401028075245,10.291862353231933,69.99688978461378,0.0007232929209288,113.70078596832934,300.7958446239043,15.288,0.0,9.177280798168178,0.0651612374168446,2.0253191003295557e-09,0.0023827950283654,3.780598854373716e-05,-0.0001400917234786,17.12157199014132,27.68371386899437,22.17095169819613,44.412423337317485
0.63,31.222174100279663,131.01041622991556,10.391991736676784,-16.84601863548933,-0.002788167219791,25.345884616515804,0.0012276481142519,4.703669862121938,286.11251274707894,22.469356370527613,10.447408069393644,69.99834023879009,0.0007828052863374,113.70084982097816,308.9281726478447,15.288,0.0,9.210503944290323,0.0660370875686196,1.1185897986718816e-09,0.0027108311858707,3.774705144112865e-05,-0.0001615163361045,16.846018859535313,27.31665429631507,22.46891840624505,25.778641909004566
0.64,31.222173725886872,131.01041724365163,10.617916349538532,-16.552870783591448,-0.0027133543080536,24.89174018453621,0.0012483698459563,4.7301511939149545,282.30782441796754,22.79974436367376,10.614483230996804,69.99998011064697,0.0008422401952588,113.70091359862676,318.072984713669,15.288,0.0,9.24358443686302,0.067008263511159,9.396029484318363e-11,0.003044664107945,3.768754408823184e-05,-0.0001840701186003,16.552870999756742,26.92208535931292,22.79931815097588,25.33718732002779
0.65,31.222173346127537,131.01041827187555,10.846615485080637,-16.30346208261969,-0.0026458818031097,43.460340148729976,0.001266691281511,4.753596437653261,436.7781447787475,23.08046059917248,10.763787000464855,70.00181288547418,0.0009015984224346,113.70097730212277,325.9464341806835,15.288,0.0,9.276472046012218,0.0678334612636433,-1.0503554033074224e-09,0.0033844307974911,3.762746904031071e-05,-0.0002071259432282,16.30346229149307,26.59081060888585,23.08004498503088,43.71953621139967
0.66,31.22217296050241,131.01041931594463,11.078472484362631,-16.051333348812843,-0.002578257209661,37.06444609646644,0.0012854680639666,4.777945956348703,383.51251517160017,23.372553049692705,10.917147315522872,70.00384206692772,0.0009608808056149,113.70104093305348,334.24116038057514,15.288,0.0,9.30921390535623,0.0686921004980657,-2.3161220908161176e-09,0.0037309554022139,3.756671799131134e-05,-0.0002312176228639,16.05133355043442,26.25438221509971,23.3721480579974,37.37113770882663
0.67,31.222172569185734,131.0104203753845,11.313347761254704,-15.784655706633288,-0.0025086797754557,25.722577195187768,0.0013055380904876,4.804394265102549,289.1562440103425,23.694160323482816,11.08098544457396,70.00607142981106,0.0010200881599149,113.70110449202627,343.4950414555738,15.288,0.0,9.341843420262135,0.0696374910996472,-3.7052591482241795e-09,0.004083978301412,3.750536310451998e-05,-0.0002565722444714,15.7846559009183,25.894865912758757,23.693766260985303,26.167406893335336
0.68,31.22217217233541,131.01042144976546,11.551114609120289,-15.529943957716842,-0.0024413508935127,31.95024992956811,0.0013251349315392,4.830479881450988,340.8999924858462,24.007358950457423,11.241792611882108,70.0085046707827,0.0010792292015281,113.701167990917,352.62790963157875,15.288,0.0,9.374257927706374,0.0705581758095953,-5.2196382446686955e-09,0.0044433074386342,3.744346496857078e-05,-0.0002828301855309,15.529944144887976,25.552097245835323,24.006975463955943,32.313341025077435
0.69,31.222171770022754,131.01042253889324,11.79171372116952,-15.300285668416944,-0.0023782013228071,39.188698393927424,0.0013432748104074,4.85480487351714,401.0140726853634,24.290890452252707,11.392047017127007,70.01114550413756,0.0011382893668445,113.70123140843748,360.997959799554,15.288,0.0,9.406517702678183,0.0713916751488007,-6.861067632384e-09,0.0048088499745309,3.7381067916558255e-05,-0.0003097060136817,15.300285848830493,25.24601825024844,24.29051688526259,39.48826678868703
0.7,31.222171362108767,131.01042364314537,12.03524933781472,-15.07440809263372,-0.0023159146617497,32.96553680001974,0.0013613989025211,4.879399608769472,349.27032420985284,24.575832465378703,11.542798115766391,70.0139974554752,0.0011972776010627,113.70129475712714,369.50829783672174,15.288,0.0,9.438651103876383,0.0722293269538498,-8.631253583439665e-09,0.0051808651038627,3.731816160711032e-05,-0.000337571163278,15.074408266409415,24.94470956316824,24.575468682354416,33.32469293045207
0.71,31.22217094863938,131.01042476239655,12.281682153502947,-14.8407285002893,-0.0022528047238016,27.19677948029149,0.0013803564491314,4.905475127188166,301.33126406340574,24.880656430493268,11.700569394631566,70.01706413487531,0.0012562028570937,113.70135804925164,378.7225031015808,15.288,0.0,9.470565553645624,0.0731254197429275,-1.0531945505420632e-08,0.0055592895183318,3.725478782055916e-05,-0.0003667124601639,14.840728667434718,24.6306975539214,24.88030256075485,27.635638263453405
0.72,31.222170529610104,131.0104258966587,12.531012019375597,-14.597414400805423,-0.0021886344828117,33.157280873764094,0.0014003607315417,4.933382042204522,350.79220534145287,25.210172992609674,11.867036499111125,70.02034933153654,0.0013150508935723,113.70142126400968,388.8111365821872,15.288,0.0,9.502331088558217,0.074094092843039,-1.2564925808053576e-08,0.0059441866558011,3.719096916545573e-05,-0.0003972852180216,14.597414561314272,24.300813541676384,25.209829202709127,33.522284159601035
0.73,31.222170105011216,131.01042704595775,12.78324274324183,-14.3928470175254,-0.0021304755359251,41.77983134184184,0.0014176406715579,4.957695642121795,422.320318528234,25.482263189924502,12.013208895402352,70.02385686327796,0.0013738307631643,113.70148441385057,397.23958416703925,15.288,0.0,9.533969414875,0.0748939941072395,-1.4732020828380164e-08,0.0063356628968254,3.712672308431018e-05,-0.0004280097686462,14.392847171874616,24.029520775918236,25.481928535609963,42.072949207802964
0.74,31.222169674774744,131.01042821047838,13.038423935367003,-14.181260983085531,-0.0020716003288118,26.376829783496728,0.0014356920139766,4.983424024047412,294.48281347105944,25.773132708453662,12.166004804397492,70.0275903524168,0.0014325519820104,113.70154751190628,406.3500356009412,15.288,0.0,9.56542863166541,0.0757490962239943,-1.7034907073877896e-08,0.0067338027267281,3.706207193315208e-05,-0.0004600876537186,14.181261131292842,23.74671978026893,25.772807302235023,26.843465992532046
0.75,31.22216923924703,131.01042938927836,13.296283288041156,-13.966769267990411,-0.0020126728085198,30.690331696226902,0.0014542255452373,5.010176228912748,330.24688556441487,26.076532753992176,12.323182173304987,70.03155354867881,0.0014911999976624,113.70161053632997,415.96311172599263,15.288,0.0,9.596683103866956,0.0766410338096312,-1.947533237733144e-08,0.007138008362168,3.6997139475485786e-05,-0.0004934340594503,13.966769410124046,23.458658648933252,26.07621660408677,31.09659672028378
0.76,31.2221687983134,131.01043058266924,13.556906901016912,-13.767702015009432,-0.0019562535073045,32.98702413095455,0.0014717109141059,5.035721942148119,349.27032420986166,26.35897274971883,12.472961894789014,70.03574998835724,0.0015497923744988,113.70167351173365,425.0120275475984,15.288,0.0,9.627788609533276,0.0774713755449095,-2.2054881682444585e-08,0.0075485519152836,3.693192016618561e-05,-0.0005274526560125,13.767702151306214,23.193855094446583,26.358665462136532,33.36918127045887
0.77,31.222168351911424,131.01043179082046,13.820340448712017,-13.57498630657452,-0.0019010172113068,30.878215763660847,0.0014888576082422,5.061095716206022,331.7687666960708,26.635985579676788,12.620825113582862,70.0401833469863,0.0016083230690791,113.7017364289258,433.9810972461256,15.288,0.0,9.658748534716503,0.0782857736739503,-2.4775156740416323e-08,0.0079655766429423,3.686642971689564e-05,-0.0005624272586286,13.57498643718204,22.93833998118845,26.63568696859157,31.290236509372843
0.78,31.222167900098466,131.0104330135757,14.08653660179062,-13.375942413072975,-0.0018452449981735,25.46210015868977,0.0015067572644151,5.087907314971646,286.8734378128899,26.931720651212803,12.775242508841476,70.04485725703313,0.001666793933081,113.7017992897784,443.6600985621111,15.288,0.0,9.689499506270105,0.0791552057794341,-2.763775806071905e-08,0.0083889715644688,3.680072153370361e-05,-0.0005988831450994,13.3759425380304,22.672312299566983,26.931430800806336,25.96546451745489
0.79,31.22216744295496,131.010434250716,14.355430139294858,-13.175072436679455,-0.0017895850931129,35.934778660874706,0.0015250545074702,5.115665451858363,373.6203323159534,27.23845113074253,12.93348090536962,70.04977542190755,0.0017251988470766,113.70186208472488,453.81178661820894,15.288,0.0,9.720070067697073,0.0800569623209001,-3.0644296242576606e-08,0.0088186222818738,3.6734849359184125e-05,-0.0006367093129837,13.17507255607037,22.402687605802765,27.2381700233735,36.29708463151255
0.8,31.222166980257985,131.01043550284723,14.627191814187624,-12.99600398425352,-0.0017371406047698,36.39722411937178,0.0015415609684256,5.14109618673577,377.42502064505743,27.50770688267469,13.07857393161558,70.05494153676291,0.0017835561661401,113.70192483952744,462.8160333298623,15.288,0.0,9.750505686623228,0.080848584052381,-3.37963030191542e-08,0.0092550375308445,3.666878195621296e-05,-0.0006748065510443,12.996004098355064,22.16701598070352,27.50743401326662,36.75852004601733
0.81,31.2221665121024,131.01043676971116,14.901745432900368,-12.808554883795644,-0.001683897996427,23.899413553697897,0.0015590337729083,5.168327822460227,273.9374926939919,27.80071904026535,13.231967865326752,70.06035936183633,0.0018418590313242,113.70198754347368,472.715917575678,15.288,0.0,9.780790832131984,0.081710036468621,-3.7095386593172123e-08,0.0096980019190174,3.660259035929077e-05,-0.0007146173586606,12.808554992633802,21.917414675832337,27.80045453418664,24.451862569581106
0.82,31.22216603866746,131.01043805082008,15.178949178404253,-12.619709837357291,-0.0016308274021232,30.51880882072695,0.0015768525428065,5.196459875142256,328.72500443277005,28.10379000768737,13.388839345773375,70.06603254725954,0.0019001194695594,113.7020502126349,483.06591058860175,15.288,0.0,9.810905650167754,0.0826010609732868,-4.054313447160492e-08,0.0101472005236192,3.653635794637099e-05,-0.0007558486468144,12.619709941022546,21.664936723248623,28.103533837918118,30.958050480553656
0.83,31.222165559931145,131.01043934623362,15.45881796102304,-12.45503931248836,-0.0015811546753988,38.613297631799874,0.0015924633504992,5.221571336759297,395.68750322465047,28.35987086851296,13.529263757542264,70.07196488789577,0.0019583216873175,113.70211282364528,491.8961605394903,15.288,0.0,9.840810207948287,0.0833539824783403,-4.414105236588815e-08,0.0106027546986397,3.6470109836295e-05,-0.0007969571944085,12.455039411265489,21.450945431915333,28.35962250131737,38.9647477056219
0.84,31.22216507578421,131.0104406562486,15.741435046418564,-12.288852605941328,-0.001531557376637,24.0801224061854,0.0016083522824612,5.2474494499526045,275.4593748256452,28.6245457227823,13.672677716365143,70.0781599170141,0.0020164776501268,113.70217539280986,501.10686594228446,15.288,0.0,9.870563714569908,0.0841321704842414,-4.789050173018408e-08,0.0110648489221576,3.640386530839471e-05,-0.0008394297110658,12.288852699912216,21.234121289251537,28.62430514631218,24.645243423700997
0.85,31.222164586511788,131.01044198008952,16.026576617749058,-12.108607619733109,-0.0014805686808383,26.19548135680028,0.0016258445519466,5.276179337262337,292.96093233939376,28.9277174225718,13.829471098825374,70.08462113995104,0.0020745973641884,113.70223793303008,511.7638291513272,15.288,0.0,9.900142339757618,0.0850235146930586,-5.1792986533960936e-08,0.0115329050242026,3.6337741717232726e-05,-0.0008841811141992,12.108607708899072,20.9939738298678,28.92748485538728,26.72155149980621
0.86,31.22216409193753,131.01044331823564,16.31437827147538,-11.943668034330368,-0.0014317506915403,32.63844457097447,0.0016419106558416,5.303079767096072,346.2265619465587,29.20134782942464,13.975933128602325,70.09135232027016,0.0021326665526665,113.70230042320917,521.476864077928,15.288,0.0,9.929566507021306,0.0858280400165501,-5.5849836160985707e-08,0.012007372301024,3.62717260953404e-05,-0.0009292385584292,11.9436681188995,20.778251305910054,29.20112293055195,33.06645916521192
0.87,31.222163592080488,131.01044467063497,16.60482364591418,-11.787057334341572,-0.00138420216378,30.429061876989355,0.0016572128601028,5.329154275390301,327.964078366998,29.460269940113,14.117247835693195,70.09835699369431,0.0021907058623339,113.70236289172357,530.7507053814961,15.288,0.0,9.958834815906636,0.0865893426672166,-6.006240807231424e-08,0.0124882256589135,3.620586773662975e-05,-0.000974993440333,11.787057414467998,20.575791799088396,29.46005251014558,30.892194722144815
0.88,31.22216308697131,131.010446037204,16.897887547416076,-11.624820561399556,-0.0013362956485742,26.376147954826184,0.0016732493002535,5.356763484603053,294.4828134710418,29.738455690600315,14.265226390655432,70.10563877680265,0.0022487093114387,113.70242532891837,540.8062931538026,15.288,0.0,9.98794035088192,0.0874072725817868,-6.443205435382619e-08,0.0129753622889599,3.614022606690737e-05,-0.0010225626258338,11.624820637147662,20.36370285659108,29.738245785770705,26.914607535028658
0.89,31.222162576685744,131.0104474177365,17.193509614584215,-11.457312825132243,-0.0012881348918643,28.86242426260746,0.0016900162327063,5.38592349059161,315.028134248087,30.03604918252677,14.419891494989928,70.11320125914715,0.0023066796091533,113.70248773742544,551.6685118587611,15.288,0.0,10.016843528450565,0.0882822538794016,-6.896011193750743e-08,0.0134686739403039,3.6074861259892974e-05,-0.001072030956657,11.457312896576363,20.142498319765355,30.03584684277113,29.36064898835537
0.9,31.222162061145426,131.01044881244547,17.49174974440931,-11.311816532791296,-0.001242713940941,31.810645015395608,0.0017044078609473,5.411696383882111,339.37814235421445,30.28227599795875,14.55668650561927,70.12104813369604,0.0023646213956603,113.70255012281244,560.7343606446237,15.288,0.0,10.045591223183491,0.0890062656953974,-7.364784015155742e-08,0.0139683845503313,3.600979595457898e-05,-0.0011208872699674,11.31181660016423,19.957461495782752,30.282080792909397,32.26768657576558
0.91,31.222161540415865,131.01045022115252,17.792555998838086,-11.16078872975145,-0.0011969653334186,24.34289919852856,0.0017195247960619,5.439014478065845,277.7421810230789,30.54787388240128,14.700161017845266,70.12918289817266,0.0024225360321686,113.70261248570884,570.5971183391235,15.288,0.0,10.074179409233777,0.089787221006418,-7.849648929491955e-08,0.0144743280806419,3.5945099587787204e-05,-0.0011716397442453,11.160788793123263,19.76292062990512,30.54768586352639,24.943127767765972
0.92,31.22216101469095,131.01045164333027,18.095776134182355,-11.004675657929596,-0.0011510007370834,28.858901327435465,0.0017353557362705,5.467890313609022,315.02813424806214,30.83280339166896,14.85026742196039,70.13760901139716,0.0024804350582127,113.70267484101852,581.2741046873879,15.288,0.0,10.102594650937904,0.0906250043685728,-8.350739368619173e-08,0.0149860774488615,3.588086910448168e-05,-0.0012243428038879,11.004675717380332,19.55948276134134,30.832622592895977,29.372334148306557
0.93,31.222160483878344,131.0104530792298,18.401481618259343,-10.867917284417526,-0.0011073225923447,34.20736410692113,0.0017489469422511,5.493524417434535,359.1625070654728,31.06915761622427,14.983507949757504,70.14633004023688,0.0025383074251265,113.70273717182664,590.2026485758443,15.288,0.0,10.130851670860553,0.0913200211244738,-8.868159127913752e-08,0.0155039208200499,3.581712357914475e-05,-0.0012763221770556,10.86791734015145,19.388326975796225,31.06898367839822,34.645671774800974
0.94,31.222159947867524,131.01045452915145,18.70975863588067,-10.717919635864607,-0.0010625865692722,24.98019579468436,0.0017642326653768,5.522337112394628,283.0687504837787,31.347658563727453,15.131275796260995,70.15534928521697,0.0025961745384423,113.7027995074215,600.8133230003244,15.288,0.0,10.158950227993328,0.0921389255319934,-9.402006743564805e-08,0.0160280109699184,3.575390038858083e-05,-0.0013312547663741,10.717919687921832,19.194521179698807,31.34749165301947,25.583322540987794
0.95,31.22215940693792,131.01045599233524,19.020388110626385,-10.572273358880432,-0.0010186024000539,32.17626417512169,0.0017790753612425,5.550845013102686,342.4218736174873,31.619098409579216,15.276525495735036,70.16467036437311,0.0026540213112023,113.70286182452163,611.2450380634997,15.288,0.0,10.186879115060208,0.0929370836173212,-9.952418981228769e-08,0.0165578083431057,3.569130807559225e-05,-0.0013871256855966,10.5722734073917,19.007749455885502,31.61893840788838,32.65155218043723
0.96,31.22215886080001,131.0104574695684,19.33359648422621,-10.436940890904156,-0.0009758759911614,31.528800521969345,0.0017926738795098,5.577717458009595,337.09533515678345,31.864831825413592,15.412848770735152,70.1742966438194,0.0027118719502109,113.70292415655844,620.7640803940993,15.288,0.0,10.214660357927691,0.0936596916078073,-1.0519468216680393e-07,0.0170939768840695,3.5629335114699784e-05,-0.0014431290157104,10.436940936021626,18.838317874277863,31.864678535171368,32.01837281326456
0.97,31.222158309470352,131.01045896080583,19.649370822610926,-10.299565998793708,-0.0009332239263628,20.353153825289,0.0018065871244659,5.605542492930289,245.02188719299323,32.121144809408186,15.552767897779356,70.18423174377185,0.0027697119193184,113.70298648131708,630.7716659767063,15.288,0.0,10.242291333487808,0.0944134038732554,-1.1103264138133045e-07,0.0176364717379317,3.556804468162508e-05,-0.0015008592500247,10.299566040616115,18.66516728179077,32.120998218936634,21.11096825206462
0.98,31.22215775322689,131.01046046529154,19.967493408684675,-10.150428083613948,-0.0008898473921212,29.401012015119143,0.0018221409433731,5.636587874955554,319.5937466429581,32.41930224076984,15.707013599471551,70.19447909675942,0.0028275533102467,113.70304881406844,642.5163790314293,15.288,0.0,10.26975342146484,0.0952901174974547,-1.1703941874725709e-07,0.018184631682104,3.5507556720369075e-05,-0.001561824197004,10.15042812220971,18.47139377738732,32.419162463868346,29.936443237390005
0.99,31.222157191922363,131.010461983426,20.28807970432164,-10.026511717609274,-0.0008489475575879,32.077969851050845,0.0018343588490565,5.66241577298901,341.6609485517054,32.64268450721978,15.835447097144424,70.20504220407419,0.0028854105287262,113.7031111739226,651.3812289779951,15.288,0.0,10.297067625306182,0.0959470525093029,-1.232157675087577e-07,0.0187389147025284,3.544788713975331e-05,-0.0016204696593462,10.02651175318195,18.321033645835385,32.64255115484928,32.57390221505544
1.0,31.22215662555345,131.0104635152182,20.611133034665286,-9.891210052296854,-0.0008073521481659,28.74866408261663,0.0018481601654062,5.691390476062706,314.2672081822764,32.90681860601827,15.977828901869913,70.21592443237346,0.0029432685848173,113.70317353789451,661.9448735089675,15.288,0.0,10.324225784180044,0.0967237777738311,-1.295626148187214e-07,0.0192992119268427,3.5389107379407594e-05,-0.001682374197679,9.891210084918214,18.15069737036168,32.9066917874394,29.30661385253924
1.01,31.22215605429269,131.0104650601988,20.936518430878667,-9.760024848134188,-0.0007663877482536,30.03984975832056,0.0018614325646509,5.7199074750512695,324.9203161036979,33.16213326816764,16.117090178267006,70.22712917619481,0.0030011416533439,113.70323592420092,672.2353962564999,15.288,0.0,10.351224159190952,0.097474587997693,-1.360810551363781e-07,0.0198651845582947,3.533130729040994e-05,-0.0017450931680283,9.760024877932189,17.987310571791607,33.162012884261664,30.579567009533513
1.02,31.22215547806405,131.0104666185746,21.26429637697148,-9.634008442421257,-0.0007260990139714,25.135499252571368,0.0018739949077716,5.747644237413264,284.59063161540416,33.4043194251089,16.251762908287336,70.2386596813976,0.0030590465500041,113.70329835509612,682.0685721727627,15.288,0.0,10.378069494978076,0.0981868171829394,-1.427717784109817e-07,0.0204370047510835,3.5274534821910853e-05,-0.0018083802481694,9.634008469525345,17.832819806006245,33.4042053697425,25.784273122733993
1.03,31.222154896931844,131.01046819017063,21.59441736694924,-9.50111632886147,-0.0006855887077374,20.598229105720986,0.0018875785659261,5.777636825502009,247.30469339049705,33.674680262425724,16.396003056267652,70.2505192648406,0.0031169691710422,113.70336080860764,693.1320393504461,15.288,0.0,10.404757030790137,0.0989818696656662,-1.4963565955484394e-07,0.0210144869536764,3.521886876480818e-05,-0.0018744695200012,9.501116353369945,17.665958066115163,33.67457257040335,21.393179594022975
1.04,31.222154310953435,131.0104697748309,21.926837183703803,-9.378208478365444,-0.000646084990636,32.52861023833225,0.001899720255837,5.805574357823673,345.46563688072297,33.91452196332101,16.529686350398606,70.2627112463094,0.003174922238537,113.7034233008682,703.0181634136305,15.288,0.0,10.43129069942926,0.0996872237216917,-1.5667351980214517e-07,0.0215975552709652,3.516437893498126e-05,-0.0019401376245429,9.37820850042142,17.516603648750365,33.914420476528,33.04262673079261
1.05,31.22215371985424,131.01047137330232,22.261773294263325,-9.250195259558245,-0.0006065026745515,19.753194730310177,0.0019126341615247,5.835360973983453,240.45625879819983,34.17698445386482,16.671027929870945,70.2752388674395,0.0032329110736379,113.70348583789524,713.9185326869148,15.288,0.0,10.457685272168773,0.1004590769734901,-1.6388563096951904e-07,0.0221868306571894,3.51110888735202e-05,-0.0020084326909739,9.250195279268327,17.357942837137834,34.176889184647486,20.597090653983447
1.06,31.22215312386,131.01047298497076,22.599049213124392,-9.118282005299315,-0.0005669884193284,27.98645987782592,0.0019261794261306,5.866805722564126,308.17968365593924,34.458965032869735,16.818926651747883,70.28810555090672,0.0032909411608521,113.70354842516792,725.7241304196841,15.288,0.0,10.483929615184664,0.1012883099927612,-1.7127315304927434e-07,0.0227817600425951,3.505910747801521e-05,-0.0020792356145826,9.118282022778352,17.191979136482136,34.45887597053709,28.59477836231011
1.07,31.222152522858337,131.01047461014196,22.9387547168872,-9.001168620437571,-0.000528673292265,32.890261575226766,0.0019374431420363,5.89465567527893,348.5093681440308,34.69010607818707,16.949356080104852,70.30131478495787,0.0033490181538843,113.70361106882235,735.4686916188236,15.288,0.0,10.510038973369683,0.101968114375785,-1.7883657448570457e-07,0.0233827070718461,3.500848171281216e-05,-0.002148327308425,9.001168635835159,17.05249214495262,34.69002303438052,33.4143124389927
1.08,31.22215191675235,131.0104762490795,23.280968076796498,-8.882855690074797,-0.000490532282341,22.23437983447557,0.0019488690575948,5.923310529048947,261.00157857466235,34.92947884802511,17.082508763508923,70.31486988746106,0.0034071478867231,113.70367377516187,745.6291367959792,15.288,0.0,10.536015117496996,0.1026721233057127,-1.8657642419655322e-07,0.0239898337169703,3.495927786473888e-05,-0.0022192442343277,8.882855703510268,16.91072370662696,34.929401795394384,23.009851326016136
1.09,31.22215130580385,131.01047790107134,23.625484531669315,-8.752526532079868,-0.0004520463626486,20.46728734866585,0.0019622284563454,5.9560495473517605,246.54375332474407,35.22065180230819,17.233194527756805,70.32877417690132,0.003465336377518,113.70373655017411,758.0870268524709,15.288,0.0,10.561842767856012,0.1035284030282316,-1.9449390282271178e-07,0.0246024413941839,3.4911613260103274e-05,-0.0022948112995839,8.75252654366243,16.746776398589507,35.220580795031594,21.316293802481397
1.1,31.22215069008434,131.0104795659231,23.972249311806365,-8.630899946787618,-0.0004143435729039,40.75859073424628,0.001974193080533,5.986787499250584,413.1890617385841,35.48253052350299,17.37376000421638,70.34303096856902,0.003523589827324,113.70379940030828,769.3766317213868,15.288,0.0,10.587527093059451,0.1042985835718809,-2.0258966480024977e-07,0.0252204336697779,3.4865567014046554e-05,-0.0023698674410651,8.630899956657977,16.59846448521981,35.48246543856676,41.19592634108873
1.11,31.222150069211185,131.0104812446756,24.32156693182605,-8.524546039010938,-0.0003776066214587,29.909494978094468,0.0019835804478644,6.013257170187011,324.1593910376397,35.68570299573541,17.49425950814177,70.35764361951621,0.0035819146244255,113.70386233285356,778.1866252793852,15.288,0.0,10.61309279172036,0.1048962093027286,-2.108634353258447e-07,0.0258448021930448,3.4821167783773065e-05,-0.0024423607737374,8.52454604731243,16.478234950206406,35.685643681426015,30.507985111672898
1.12,31.222149443244376,131.01048293716565,24.673392772480824,-8.394241697943155,-0.0003400997768208,11.449979192406776,0.0019969779835364,6.047853051275832,172.73281794065943,35.9929541050628,17.650019428171493,70.37261532474847,0.0036403173503217,113.70392535467376,791.6178115436132,15.288,0.0,10.638528777306568,0.1057997775172339,-2.1931598205282562e-07,0.0264752662864263,3.4778516760372366e-05,-0.0025233965188759,8.39424170478349,16.313372448489517,35.99290068231478,12.9490754119472
1.13,31.222148812743416,131.01048464187156,25.02728557476787,-8.279239781009727,-0.0003035617048859,35.1872040572347,0.0020077618756119,6.078094159073431,367.5328077900705,36.24063057811146,17.785379818390922,70.38794966400918,0.0036988048149742,113.70398847216312,802.522652927721,15.288,0.0,10.663818208828395,0.1065282375557684,-2.279491137568457e-07,0.0271104980772833,3.4737752655712647e-05,-0.0026016336967557,8.279239786536026,16.17672910577337,36.24058289475036,35.7082982232862
1.14,31.22214817708153,131.01048636049833,25.383744839385223,-8.175075835004092,-0.0002676470412951,19.59527419635583,0.002016585893844,6.105154226623986,239.69531773195544,36.444491776434575,17.905780862884306,70.4036496851427,0.003757383992105,113.70405169356977,811.5489774839704,15.288,0.0,10.688994843539795,0.1071279123279972,-2.3676164992150002e-07,0.0277521005435852,3.4698895339577366e-05,-0.0026780938662583,8.175075839355616,16.060380992202294,36.44444973453564,20.52431930729621
1.15,31.22214753671977,131.01048809179198,25.74240814873418,-8.047465479501765,-0.0002312813981734,19.308164283751687,0.0020295242295345,6.140753808015161,237.41251153546767,36.75689362476864,18.062802718087674,70.41971839152242,0.0038160620671548,113.70411502581996,825.493349202626,15.288,0.0,10.714028125624033,0.1080466491391316,-2.457552514359067e-07,0.0283987137825884,3.466208522734516e-05,-0.0027638886715639,8.047465482803332,15.899528920873523,36.75685729517157,20.26114679523263
1.16,31.22214689178772,131.0104898354001,26.103174759208848,-7.948067518603636,-0.0001960270875578,50.12221648570389,0.0020373421134615,6.166997571600924,490.0437743845894,36.94589357357384,18.17789535366121,70.4361591471619,0.0038748464708175,113.70417847656655,833.9754666551,15.288,0.0,10.738928842095472,0.1086026554200496,-2.549304165465871e-07,0.029050185306148,3.462740900787663e-05,-0.0028417319174546,7.948067521005504,15.79208212919364,36.94586278171093,50.50018265945838
1.17,31.22214624146577,131.01049159355233,26.46669976507486,-7.837105676881602,-0.0001606948155068,9.076713470827382,0.0020471684118996,6.197774847241263,153.70937929486794,37.19120390124234,18.31193865157282,70.45297482824253,0.0039337447939588,113.7042420549756,845.0574475739794,15.288,0.0,10.76373008123005,0.1093241949727994,-2.642852761604718e-07,0.0297085700975287,3.459490509324006e-05,-0.0029253298579793,7.837105678518806,15.66253280326969,37.19117865935974,10.99086642078295
1.18,31.22214558683774,131.01049336330072,26.832124572414465,-7.710781790197312,-0.0001254302956259,24.483866863231714,0.0020598326868424,6.234848385032439,280.02501822196746,37.51486577065297,18.472229066009128,70.47016855978845,0.0039927648997369,113.70430576779763,859.7997379424947,15.288,0.0,10.788378249267948,0.1102760594856222,-2.7382327680692173e-07,0.0303708395554783,3.456474329884131e-05,-0.0030164616413804,7.71078179121132,15.503045073650362,37.514846068108206,25.265254307125197
1.19,31.22214492741685,131.01049514596943,27.199839231546875,-7.622154690744463,-9.104549522452243e-05,42.59441062070027,0.0020652898370252,6.258136122445678,428.4078130529292,37.66017445143802,18.572201797569527,70.48774356802717,0.0040519148868483,113.70436962425684,866.442663852374,15.288,0.0,10.812882581642064,0.110703658067593,-2.835428521052684e-07,0.0310385799259712,3.453697763753961e-05,-0.0030946136917206,7.6221546912850355,15.416512910080025,37.66016015004507,43.05169088569351
1.2,31.22214426278834,131.01049694268704,27.57017909406968,-7.505532157792402,-5.654445657357336e-05,4.579952561323704,0.0020759804032642,6.292609773550959,117.1843741360236,37.94596699815656,18.7194032036596,70.5057024792533,0.0041112030009674,113.70443363362752,879.611650659712,15.288,0.0,10.837271120803983,0.1115442234191184,-2.934431756632633e-07,0.0317126312125427,3.45117032311771e-05,-0.0031856988849673,7.505532158004163,15.275448487639022,37.94595811617409,7.782859855853711
1.21,31.22214359403417,131.01049875051046,27.942284377407383,-7.391739413794202,-2.245233797076067e-05,34.221820589850765,0.0020860864103813,6.3265928517089325,359.92343213200894,38.22334014165445,18.86353258652556,70.52404850282652,0.0041706378409622,113.70449780343004,892.4861184801889,15.288,0.0,10.861509765029885,0.1123600486428846,-3.0352774399138445e-07,0.0323900354309498,3.448905122275516e-05,-0.0032774143871095,7.391739413828117,15.139554624673618,38.22333661484944,34.80170665279197
1.22,31.222142920334285,131.01050057167075,28.316813542898053,-7.303325661867506,1.13342221153965e-05,24.824510361773385,0.0020910490271406,6.350632704322552,283.0687504825761,38.37330206147406,18.96469157585845,70.54278443239005,0.004230228168028,113.70456214405093,899.4704886956633,15.288,0.0,10.88564832653831,0.1128013484740465,-3.137935795699524e-07,0.0330732263007881,3.446909975357424e-05,-0.0033595523053182,7.303325661876288,15.053797588532206,38.37330384184951,25.62395080426692
