Time,Latitude,Longitude,Altitude,Angle of Attack,Angle of Sideslip,X-Acceleration,Y-Acceleration,Z-Acceleration,Thrust,True Velocity,Ground Velocity,Pitch,Roll,Yaw,Dynamic Pressure,cp,parachute_deploy_gain,Wind Speed,Mach,omega_x,omega_y,omega_z,Cmq,Angle of Attack(total),Angle of Attack(gust),True Velocity(gust),Acceleration
0.0,31.222186000000004,131.010384,3.000000003643237,0.0,0.0,0.0,0.0,0.0,2.2828121974499247,0.0,0.0,69.99999999623421,0.0,113.69999999388332,0.0,15.288,0.0,0.0,0.0,0.0,0.0,0.0,-0.0,0.0,90.0,0.0,0.0
0.01,31.22218600000153,131.01038399999584,2.99999882256592,0.0,0.0,0.0,0.0,0.0,34.24218696174923,7.502283530665459e-11,7.190531319924593e-11,69.99999999623329,-4.83564628150269e-13,113.69999999388072,3.446445726795683e-21,15.288,0.0,0.0,2.204725565824978e-13,-3.659182332138578e-19,7.589415207398531e-19,4.811147140404426e-19,-1.5108918610345807e-31,0.0,89.9999999995224,7.502283530665459e-11,0.0
0.02,31.22218600000288,131.01038399999217,2.999997775701936,0.0,0.0,0.0,0.0,0.0,25.871876237766408,1.5320717031631675e-10,1.4674636035870463e-10,69.99999999623222,-9.67129256300373e-13,113.69999999387804,1.4372842949972735e-20,15.288,0.0,0.0,4.5023593667086093e-13,-7.284483346386986e-19,1.5178830414797062e-18,9.757819552369542e-19,-6.170906918166791e-31,0.0,89.99999999902465,1.5320717031631675e-10,0.0
0.03,31.22218599928065,131.01038400193067,3.000201659671132,18.81500467334555,-0.00012974450181,11.96616230539064,-1.8916256735984712e-05,3.349833086198469,180.34219359854663,0.0882870268161719,0.0553390044312322,69.99999999799445,-4.212591857125379e-12,113.69999999488518,0.0047728553458352,15.288,0.0,0.0,0.0002594525584132,3.2187251995663407e-17,-7.20264389268894e-10,1.2365134327422308e-11,1.6874092354518158e-13,18.815004673776716,89.46786891739345,0.0882666465974854,12.426199017587786
0.04,31.22218599548236,131.0103840121632,3.001799604587872,9.46752327608497,-4.6177622759613696e-05,55.21900012092241,3.931876292165237e-06,3.349616504302861,548.6359724538078,0.3767519978512604,0.1853356633749705,70.00000000507204,-2.4624598767003407e-11,113.70000000019972,0.086915163246288,15.288,0.0,0.0,0.0011071759353184,1.6174128009138757e-15,-1.3693172015529268e-08,2.7753303060112748e-11,1.3689612277852356e-11,9.467523276196548,87.63554493451223,0.3767447442872393,55.32050167054111
0.05,31.222185984749512,131.01038404118162,3.00777936418888,5.376730308971262,-2.257790939128127e-06,80.28807156553681,5.266841443842784e-05,3.348887800834877,761.6984298824644,1.018787885905993,0.4366201147110198,70.00000000894464,-1.1355399380652658e-10,113.70000001523856,0.635552918586145,15.288,0.0,0.0,0.0029939522895272,1.6418815498809788e-14,-9.32122351075408e-08,4.303264669380585e-11,2.5199270302492604e-10,5.3767303089717045,83.57022052969386,1.0187875312530217,80.35788377762394
0.06,31.22218596447235,131.01038409608267,3.0201664202003013,4.296730121134882,2.4863835723705905e-05,60.21296515808257,0.0001057204249726,3.347700952379021,590.4875390737208,1.721098934225416,0.7081674028809783,69.99999995523842,-3.0560354507026086e-10,113.70000004366592,1.8138247671743823,15.288,0.0,0.0,0.0050578622752421,8.328976953118383e-14,-3.2824985336199985e-07,5.923438275930214e-11,1.4991363363716091e-09,4.296730121206683,79.20467073327266,1.7211028398275985,60.305955550063224
0.07,31.22218593493329,131.01038417609837,3.038741944736831,3.8204913578752526,4.8016684030909405e-05,91.4060317508128,0.0001597686613101,3.346072557365335,855.2937749779139,2.4375792548422868,0.9844712334613328,69.99999973536046,-5.939103491363046e-10,113.7000000850886,3.6383156301599167,15.288,0.0,0.0,0.007163413150771,2.709313825263564e-13,-7.906546256197275e-07,7.920022733617308e-11,5.114174483651565e-09,3.820491358176508,74.87999294483174,2.437586797285377,91.46725557277466
0.08,31.222185894468456,131.01038428575305,3.0647976109320942,3.588632851766762,7.220043782492885e-05,19.18449428359557,0.0002119618497595,3.3440615022685813,241.2171988638848,3.1292508166901074,1.2522236515868983,69.99999919480445,-9.914748373602156e-10,113.7000001418522,5.996012698481753,15.288,0.0,0.0,0.0091960591623389,6.80386533246681e-13,-1.5973238302190878e-06,1.0839624626357699e-10,1.3263625118823921e-08,3.58863285249208,70.86684630658345,3.1292621579083604,19.473766155861934
0.09,31.22218584634549,131.01038441616095,3.0957981580345013,3.551302481506045,9.685468678862004e-05,57.102946699906326,0.0002554087225869,3.341892818148368,563.0937377043176,3.701810007254615,1.479132491047967,69.99999812344194,-1.4359264356978275e-09,113.7000002093888,8.390904013834115,15.288,0.0,0.0,0.010878666406854,1.440096519545733e-12,-2.748643691533636e-06,1.5214952332699618e-10,2.6999776649034504e-08,3.5513024828250237,67.68737872952666,3.701825221153239,57.20065357568538
0.1,31.222185790329306,131.01038456796124,3.1319266121977414,3.608446747536112,0.0001234669721807,54.26147302645416,0.0002914860332524,3.3396271157106168,538.7437595981919,4.174070299823608,1.6716491241860567,69.9999963052332,-1.902380107712657e-09,113.70000028805804,10.668380938744466,15.288,0.0,0.0,0.0122665227999911,2.687800116751415e-12,-4.315796035622946e-06,2.1749089204950437e-10,4.7802076800548326e-08,3.608446749645647,65.17160335282355,4.174089693970246,54.36414778470795
0.11,31.222185727066616,131.0103847393952,3.172681775073216,3.633547373470009,0.0001485939126744,42.987553988990406,0.0003293995000288,3.337005588796181,442.8656393052949,4.672024955140527,1.8729475711242067,69.99999349387662,-2.3433348587116544e-09,113.70000037699285,13.365573690709628,15.288,0.0,0.0,0.0137298902182575,4.5789425819531184e-12,-6.340230783164189e-06,3.1157625832417107e-10,7.860218435507205e-08,3.6335473765043056,62.62546922225161,4.672048296217748,43.116880735560244
0.12,31.22218565692512,131.0103849294629,3.2177790417108385,3.650108937861461,0.0001727442530266,46.86777100765684,0.000367618259785,3.334068179146888,475.58594813540446,5.17479364099247,2.0758708919414386,69.99998941286465,-2.702771525550512e-09,113.70000047573096,16.396890189902592,15.288,0.0,0.0,0.0152074069417046,7.288473386564583e-12,-8.86736416607888e-06,4.42271554299792e-10,1.217615295152289e-07,3.6501089419435786,60.16906436414164,5.174820775596283,46.986210423745625
0.13,31.222185580265183,131.0103851371844,3.2669395832841857,3.7280113734654137,0.0001995014041665,51.64515456841877,0.0003986198234033,3.3311573548369657,515.9156326236895,5.579364582999854,2.2451120211463422,69.99998375846928,-2.9114380666036422e-09,113.70000058383452,19.060875702782603,15.288,0.0,0.0,0.0163963474924215,1.100846422415094e-11,-1.1941028436408576e-05,6.179653149059831e-10,1.7678562106638216e-07,3.728011378795934,58.279338776943774,5.579395920607139,51.75247433579817
0.14,31.22218549718016,131.01038536230575,3.320091807147376,3.768719651034081,0.0002242721760019,48.1660778383537,0.0004326225136175,3.32784677779744,486.2390860568404,6.025734265159953,2.428648685938864,69.99997621008868,-2.890941335368725e-09,113.70000070125378,22.232643351545065,15.288,0.0,0.0,0.0177081261985351,1.5941871344608664e-11,-1.560901486259027e-05,8.477542742712431e-10,2.495765160917323e-07,3.7687196576976176,56.27980129251342,6.025769493750979,48.280903250602165
0.15,31.22218540777004,131.01038560455507,3.377159065217065,3.821894709649632,0.000249725644238,46.56959330999435,0.0004643042952466,3.324387732286376,472.54218587214,6.441023336496372,2.6014999612196745,69.99996641132823,-2.546763407193136e-09,113.70000082794672,25.402620271850456,15.288,0.0,0.0,0.0189285691155931,2.2314099732464315e-11,-1.992367942778425e-05,1.1417519574710292e-09,3.4051816697623295e-07,3.821894717796148,54.501255563441134,6.441062563308839,46.68809885900716
0.16,31.22218531193176,131.01038586421257,3.4382223512025254,3.8463320955387794,0.0002733212404609,36.974247749122085,0.0004987816203583,3.3205066466509234,391.1218908297564,6.895451966878468,2.7877331692857847,69.99995397923414,-1.77088415515292e-09,113.70000096417354,29.113317717489338,15.288,0.0,0.0,0.0202640360420561,3.0367358387834494e-11,-2.4945905791363795e-05,1.5114297685186711e-09,4.5643121540033697e-07,3.846332105235269,52.641145594326446,6.895494900078523,37.12304892183151
0.17,31.222185210004127,131.010386140357,3.503019838429153,3.8860314262554336,0.000297865039677,46.520531453299206,0.0005306403365217,3.31650761597812,471.78125980632376,7.314788342774694,2.9619016331667103,69.99993849340957,-4.3039914767238207e-10,113.70000110959404,32.761746921137856,15.288,0.0,0.0,0.0214963781445172,4.0366633128431416e-11,-3.0713078585132897e-05,1.96747427715988e-09,5.961228045584824e-07,3.886031437653654,51.00464968745696,7.314835131305714,46.63860064094784
0.18,31.22218510147516,131.01038643438045,3.571950002194137,3.9107265153396016,0.0003214293682635,38.895647526122765,0.0005639254295027,3.312149448254175,407.10156721191447,7.754626295791602,3.1430587898572058,69.9999195084231,1.6149322372810674e-09,113.70000126508234,36.81988229018681,15.288,0.0,0.0,0.0227889722876034,5.2593391349219385e-11,-3.731786027786564e-05,2.525509173087448e-09,7.6786585232224e-07,3.9107265285284982,49.36615848311875,7.754676785798701,39.036415444581515
0.19,31.222184986476247,131.0103867459258,3.644912152926752,3.920599115663931,0.0003437679584038,43.86258669386953,0.0005989384366483,3.307389681300437,448.9531328318269,8.219206165926856,3.332657190859447,69.99989653019398,4.538529095696477e-09,113.70000143063515,41.36350714675367,15.288,0.0,0.0,0.02415428010977,6.735860419174937e-11,-4.481243905342629e-05,3.199401151670645e-09,9.773118416308382e-07,3.92059913071168,47.71893898797248,8.21926016487149,43.987104227715655
0.2,31.222184864792144,131.01038707557822,3.722074668489528,3.943376465171875,0.000367328732016,40.28070981710589,0.0006315894240138,3.30251450988504,418.51563019916136,8.65238089736321,3.511445117640573,69.99986902534273,8.534090245934178e-09,113.7000016067622,45.83799876721736,15.288,0.0,0.0,0.025427299120469,8.499785987217288e-11,-5.328041996372527e-05,4.006766070954748e-09,1.2232205148646746e-06,3.9433764822533854,46.2587826635041,8.652438597225508,40.41586552155969
0.21,31.22218473678744,131.01038742234647,3.803156063113743,3.9664546506877016,0.000390962054969,38.67679184347145,0.0006636984664108,3.297405915846789,404.8187610144644,9.079179692250786,3.688002035198235,69.99983642883521,1.3827831253856693e-08,113.70000179318536,50.47126980736161,15.288,0.0,0.0,0.0266815841422463,1.0586558589671407e-10,-6.275155280099118e-05,4.961340042512481e-09,1.5117124669161171e-06,3.9664546699249135,44.88773728276958,9.079241104426773,38.817098210937615
0.22,31.2221846022986,131.01038778667507,3.8882846911135607,3.956175711337521,0.0004112685792646,46.713636108302936,0.0007011135033803,3.291572407481395,472.5421858721365,9.580256326712124,3.889976788904857,69.99979815126248,2.0662823443484168e-08,113.70000199039316,56.195522894218605,15.288,0.0,0.0,0.0281541581291438,1.3033127211465288e-10,-7.330053770532661e-05,6.0817207473359025e-09,1.8632831045819008e-06,3.956175732680424,43.35679625546934,9.580320928629488,46.8294591882524
0.23,31.222184460898035,131.01038816972698,3.977794004014759,3.9879066397329104,0.0004360962274406,38.89105719050748,0.0007308686121188,3.286096544282012,406.3406421461021,9.977039034039262,4.056142701351626,69.99975353557706,2.9316661139418326e-08,113.70000219928508,60.9462612310605,15.288,0.0,0.0,0.0293202403623685,1.5880617816859538e-10,-8.505067486192354e-05,7.393319440773217e-09,2.2514912291167663e-06,3.987906663538912,42.20670487756048,9.97710753587448,39.0296395118868
0.24,31.222184313516166,131.01038856897196,4.070963590490852,4.003523997322975,0.000459165577055,40.0792299321398,0.0007630441688766,3.280134925833028,416.2328240017114,10.408422364424831,4.234121060914368,69.99970190737699,4.010976417051318e-08,113.70000241888,66.32994780718496,15.288,0.0,0.0,0.030588009649109,1.91711512587616e-10,-9.795845222523724e-05,8.904557280909524e-09,2.7052895870113487e-06,4.003524023611085,41.011349410369874,10.408494489985014,40.21323112692186
0.25,31.22218416001652,131.01038898478134,4.167901030441617,4.0261356185860135,0.0004830526730531,41.17760020658354,0.0007934613160587,3.2740610008587527,425.36408079150686,10.816813039390448,4.4041629376391525,69.99964258149416,5.3372865854010094e-08,113.70000264972064,71.63651430352668,15.288,0.0,0.0,0.0317882126436337,2.2947426169209347e-10,-0.0001121037688082,1.0637152702866709e-08,3.217380562698304e-06,4.026135647516394,39.93186687113378,10.816888917126896,41.30755663120434
0.26,31.222184000702686,131.0103894163294,4.26837241014618,4.053359329950934,0.000507503069958,44.80261175215926,0.0008224724146494,3.2678597736729302,455.8015834241788,11.207047269494833,4.567925492611352,69.99957484039399,6.947299261165984e-08,113.70000289176392,76.89781807056055,15.288,0.0,0.0,0.0329350617559806,2.7254099134167665e-10,-0.0001275114371842,1.260720913253598e-08,3.7915697709142366e-06,4.053359361668992,38.945390435244384,11.207126987890645,44.921630958721536
0.27,31.22218383516388,131.01038986473338,4.372698316214008,4.0614460923241,0.0005296455772492,41.029837477288126,0.0008548809954683,3.2610328932384265,423.84219965987256,11.645685385842508,4.748226940060522,69.99949794024376,8.879821051920497e-08,113.70000314600205,83.0342688744587,15.288,0.0,0.0,0.0342241635563461,3.2137296827284217e-10,-0.0001442952656441,1.4842505534226832e-08,4.458527942364847e-06,4.061446126801262,37.8838346421185,11.645768582375233,41.15922617924542
0.28,31.222183663504484,131.01039032970942,4.48079961904222,4.081133040992532,0.0005533279247169,47.27661484082626,0.0008845140695959,3.254218495915602,476.3468732012221,12.047344998676092,4.915789434712848,69.99941106884992,1.1178948978424788e-07,113.70000341275257,88.85982357848233,15.288,0.0,0.0,0.0354045979054623,3.764736350660473e-10,-0.0001625146963723,1.7365685655384934e-08,5.194620655212288e-06,4.081133078439725,36.956255322213885,12.047431915223257,47.38848224631549
0.29,31.22218348566054,131.0103908114315,4.592727908358551,4.1001100265020245,0.0005770279952742,37.989969791857405,0.0009138463939581,3.247164755122801,397.97031042211177,12.446314684600782,5.082367374004485,69.99931338876085,1.3891902435864665e-07,113.70000369260468,94.8417675268915,15.288,0.0,0.0,0.0365771315767517,4.3836067907166327e-10,-0.0001822432988888,2.0202163500922312e-08,6.018074062137429e-06,4.100110067036654,36.07377590258778,12.446405323946324,38.12849176886316
0.3,31.222183301933686,131.01039130907952,4.708251093558373,4.112858061667493,0.0005998635114143,35.655053282557844,0.000944131403186,3.2397207148238625,378.1859457108711,12.860033399289696,5.253940723820665,69.99920403105713,1.707002607527005e-07,113.7000039856728,101.2505662360602,15.288,0.0,0.0,0.03779301412572,5.075709863465428e-10,-0.0002035013069687,2.3370674033523645e-08,6.94335970778e-06,4.112858105337573,35.19685285507256,12.860127625629724,35.80193592228613
0.31,31.222183112488807,131.0103918222051,4.827243246502713,4.136140889545823,0.0006242383343011,37.56633644061071,0.0009716215464757,3.232339252743767,394.1656220930212,13.2364445751808,5.4126574282679245,69.99908210036875,2.0768081583188525e-07,113.7000042923011,107.26326115439352,15.288,0.0,0.0,0.0388992619788015,5.846561731689753e-10,-0.0002263323252403,2.6893437641668458e-08,7.948283231812338e-06,4.1361409365698805,34.43286455705216,13.236542630309057,37.70514091683033
0.32,31.22218291741533,131.01039235056504,4.949637017503345,4.1622282001352975,0.0006491019906456,40.83513712643371,0.0009979686925508,3.224840963348891,421.55939346242695,13.59846554462374,5.566374262777002,69.99894668612772,2.504388718903276e-07,113.70000461297312,113.2095365840355,15.288,0.0,0.0,0.0399632243410653,6.701756367872645e-10,-0.00025078340164,3.0793566854276295e-08,9.047716714467492e-06,4.16222825066026,33.72644865222576,13.598567505326,40.96227562489027
0.33,31.222182716732533,131.01039289410716,5.075419569102976,4.187801887681037,0.0006739743721461,40.48743503284469,0.0010239291638211,3.217136801802925,418.5156301991682,13.956637761217308,5.718704299733134,69.99879684673242,2.995902922462564e-07,113.70000494831164,119.25032483364384,15.288,0.0,0.0,0.0410158804634189,7.647061680070125e-10,-0.0002769136723495,3.509664608790402e-08,1.0253455741189656e-05,4.187801941818244,33.053267359159875,13.956743628864118,40.61505097607
0.34,31.222182510255863,131.01039345333336,5.204736257784645,4.19642921746386,0.0006961879027693,31.814592723444047,0.0010535137542081,3.208669900766693,345.46563688075645,14.367047160772364,5.88887983533068,69.99863160305904,3.557915789971256e-07,113.70000529927128,126.36523219087664,15.288,0.0,0.0,0.042222056531773,8.688448410811866e-10,-0.0003048202762282,3.9835373705550826e-08,1.1618525957862828e-05,4.196429275109305,32.30947868183619,14.367156517712404,31.97598901989736
0.35,31.222182298183583,131.0103940277045,5.337435501771672,4.210915783240843,0.0007193441544952,34.813487415034444,0.0010813034848195,3.200164272309822,370.5765700527033,14.754132934586384,6.050986755458457,69.99844991734221,4.1975736284587617e-07,113.70000566632532,133.26448209504355,15.288,0.0,0.0,0.0433596939127697,9.832256819293898e-10,-0.0003345386312107,4.503361101379695e-08,1.309465610343774e-05,4.210915844572415,31.63649055965014,14.75424592890194,34.96026256388454
0.36,31.222182080444604,131.0103946174141,5.4735747500461605,4.22903876037745,0.0007431682866607,39.2632255716727,0.0011077666085529,3.1915717453569297,407.8625232777193,15.124417129017054,6.2072589919251575,69.99825073022951,4.922382611919288e-07,113.70000605036684,140.03566173682628,15.288,0.0,0.0,0.0444479595865755,1.1084921261805627e-09,-0.0003661511460057,5.0723697896912267e-08,1.4691545926915382e-05,4.229038825557203,31.017264542603208,15.124533865618538,39.39272792946638
0.37,31.22218185710795,131.01039522227452,5.613102797925907,4.249164960780052,0.0007674149135003,37.28328237034959,0.001133274451316,3.1828514669894137,391.1218908297666,15.483077353331511,6.359470679857624,69.99803294268581,5.740349991123437e-07,113.70000645214331,146.75405277514704,15.288,0.0,0.0,0.0455020695186381,1.245311285088233e-09,-0.0003997125883071,5.6934243389647934e-08,1.641828325195534e-05,4.2491650299519,30.439178816713017,15.483197898584232,37.418894813348615
0.38,31.2221816281124,131.0103958424523,5.756069531572451,4.260095806433531,0.0007900626414612,38.9278000801764,0.0011607546399008,3.1735466295306622,404.8187610144602,15.87126705947922,6.521735074464384,69.99779542676283,6.659911329739736e-07,113.70000687263192,154.20298254405043,15.288,0.0,0.0,0.0466429667223463,1.3943646956867835e-09,-0.0004353006984059,6.369875435270817e-08,1.8328108041903096e-05,4.260095879559656,29.83470194713067,15.87139116222873,39.05694584372078
0.39,31.22218139339905,131.0103964781077,5.9025231349944285,4.274091258047817,0.0008133283308351,33.320076729592266,0.0011870382950339,3.164143363712209,357.64062493382744,16.24457853509073,6.678818328235205,69.9975369905506,7.690136753559805e-07,113.70000731287368,161.54010621938565,15.288,0.0,0.0,0.0477401448128051,1.5563705124515804e-09,-0.0004730068442167,7.105463478762673e-08,2.0383860516746246e-05,4.274091335289374,29.274934656826048,16.244706292406182,33.46997636540994
0.4,31.22218115316572,131.01039712870306,6.0523126585892895,4.286421841403391,0.0008363022448449,31.88018820767003,0.0012133780841982,3.1544430614236454,345.465636880754,16.62063299903514,6.836764518435374,69.99725641601981,8.840594270905819e-07,113.70000777359816,169.10340080049767,15.288,0.0,0.0,0.0488453895716005,1.7320643186450851e-09,-0.0005128553637434,7.9027539265021e-08,2.2612406375611563e-05,4.286421922834417,28.730746964325096,16.620764365084565,32.03586915718869
0.41,31.22218090752676,131.01039779392735,6.205351877049411,4.30025870409831,0.0008595777771371,35.882550741685804,0.0012389121673015,3.1445895889870297,378.94687077668647,16.987310563534386,6.99141560549392,69.9969524610574,1.0121301778427253e-06,113.70000825570062,176.64448930727934,15.288,0.0,0.0,0.0499230826371405,1.922193031274436e-09,-0.0005548883906878,8.764667734700782e-08,2.5005077415911235e-05,4.300258789847355,28.21875643368965,16.987445585695873,36.020076248499606
0.42,31.222180656535848,131.0103984736348,6.36160173428776,4.322008670726048,0.0008844838439129,40.34064925656127,0.001261804338223,3.134918999355981,416.2328240017114,17.318628721060172,7.133856886815013,69.99662385300175,1.154276942054023e-06,113.70000876021427,183.59942989625057,15.288,0.0,0.0,0.0508968652507098,2.1275184665783874e-09,-0.0005991661829955,9.694534598491077e-08,2.752657757470936e-05,4.322008761057615,27.772396468009568,17.318767655457478,40.462275036947325
0.43,31.222180400205527,131.0103991677914,6.521055075967404,4.339436441324956,0.0009085827200945,35.541853595187746,0.0012854696362701,3.124839917627212,375.9031395134336,17.662848429084132,7.280642039343927,69.99626930133451,1.3115939750280808e-06,113.70000928827632,190.96736675963504,15.288,0.0,0.0,0.0519085689713619,2.3488101247838237e-09,-0.0006457514522491,1.0695800287133593e-07,3.0255957891170616e-05,4.339436536261635,27.322335771349252,17.662991148924057,35.67895714766603
0.44,31.22218013836212,131.0103998768696,6.683849332059896,4.342209064313268,0.0009296474314902,32.82948243168077,0.0013129688908547,3.113754688841357,353.0750125389216,18.063580761318697,7.446730341918701,69.99588746395321,1.4852372182848018e-06,113.7000098413532,199.7278270846888,15.288,0.0,0.0,0.0530863610987301,2.586862292117705e-09,-0.0006947575786514,1.1773083546077225e-07,3.329010177793299e-05,4.342209163639375,26.81344244367223,18.06372678999575,32.9768158972058
0.45,31.22217987077456,131.0104006014978,6.850166573233225,4.3420317510315165,0.0009500780330031,38.11022602597878,0.001341042003417,3.1022288449712887,397.2093853562869,18.47486275310604,7.616350301328129,69.99547690348253,1.6764536248320808e-06,113.70001042108892,208.92306716049887,15.288,0.0,0.0,0.0542951637545535,2.842521175226318e-09,-0.0007463379956615,1.2932090054593452e-07,3.657529369088674e-05,4.342031854775571,26.30944884471334,18.47501199101448,38.23628058998621
0.46,31.22217959739673,131.01040134180155,7.020045503401754,4.351169003849846,0.0009725797783515,44.3937050866137,0.0013660055515545,3.09098240974522,449.7140588976434,18.844323061800488,7.771531995684422,69.99503610583268,1.8865779683531e-06,113.70001102895836,217.3591612614144,15.288,0.0,0.0,0.0553810645782081,3.1166808800591503e-09,-0.000800596194505,1.417768495237597e-07,4.001824400409673e-05,4.351169112337076,25.873596578896564,18.844475834274814,44.50118229261506
0.47,31.22217931813738,131.01040209802923,7.193559875579052,4.358630093683735,0.0009947969928181,30.22514089990685,0.0013910994973101,3.079396422776949,331.0078106302534,19.2180591098146,7.9280875671397615,69.99456352718363,2.1170044481277104e-06,113.70001166656292,226.0625808853568,15.288,0.0,0.0,0.0564795377574197,3.4102493884459798e-09,-0.0008576351980594,1.551487523304888e-07,4.3718862242359527e-05,4.35863020698899,25.44665981168229,19.218215372160817,30.381603425148434
0.48,31.22217903348153,131.01040286886197,7.370336324605091,4.365514409145237,0.001016880998596,29.779838936311712,0.001416009414045,3.067527859335786,327.2031223011574,19.5915905767454,8.084483592791102,69.99405758812365,2.369198154608765e-06,113.70001233476164,234.93171707892955,15.288,0.0,0.0,0.057577416115756,3.7241711041759195e-09,-0.0009173883913609,1.6944871263079066e-07,4.767297940601472e-05,4.365514527349481,25.03354780044292,19.59175030803913,29.937410312943754
0.49,31.22217874361868,131.01040365378466,7.5502307795521535,4.3786401372577615,0.0010404145545081,37.2489281064929,0.0014385799934191,3.0558405437943126,389.60000969812296,19.93403005898306,8.23012235628909,69.99351671352461,2.644660619562788e-06,113.700013034871,243.21198709852868,15.288,0.0,0.0,0.0585839249886784,4.059374595909599e-09,-0.0009798792959512,1.8470833984680338e-07,5.180951737438081e-05,4.378640260624215,24.667474291142685,19.934193486919103,37.37406598941686
0.5,31.22217844858332,131.0104044527036,7.733219389747018,-16.035740915834435,-20.97748413427181,38.950820751737865,1.2129767652093943,4.1548437773057385,397.97031042210494,19.79915523789227,8.365996061088087,69.99293932307316,2.9449363413826395e-06,113.70001376847225,239.92773228420285,15.288,0.0,10.020627911594472,0.0581876628172049,4.416566661548473e-09,-0.0010631047813644,4.472187932587112e-05,5.582862834889986e-05,26.18295306297762,14.998102783294447,16.577145813180856,39.19056616943378
0.51,31.222178147842826,131.0104052658349,7.919267783274739,-15.70399248107663,-20.688362186542506,30.039413337992883,1.2419857824560578,4.171722195017897,323.3984349720841,20.103941924950654,8.525127321391983,69.9923816078457,-0.0001305484760098,113.69987212236904,247.3670279994008,15.288,0.0,10.06039768163634,0.0590835232683591,4.712145898893856e-09,-0.0008659014889358,-0.000244514826966,4.6171732899441245e-05,25.76351913049844,14.724451877131091,16.924378447604994,30.353124195822293
0.52,31.22217784049329,131.01040609349536,8.108384924716102,-15.37820569895154,-20.40170532555336,35.87561711503603,1.2722618622935806,4.189245766897413,372.0984511843415,20.41849652768402,8.686576641478151,69.99193798798728,-0.000724228317573,113.69924073913782,255.16376635382764,15.288,0.0,10.100031730975568,0.0600080965687203,4.767666467430644e-09,-0.000664398088059,-0.0005410135617636,3.59807917229585e-05,25.349384189537133,14.454126540145722,17.28109703165911,36.14178099826267
0.53,31.222177526389167,131.01040693607905,8.300682626543228,-15.065553245571026,-20.12560663697872,37.61598598937567,1.3027249729708772,4.206679302554048,386.5562464348624,20.730590534155453,8.846896719018883,69.99161100204148,-0.0017898542090685,113.69810710185052,263.0188114786027,15.288,0.0,10.139535859620189,0.0609254445172255,4.57786787104908e-09,-0.000458391961209,-0.0008451294202279,2.5203405572017586e-05,24.951077466268814,14.193277503330112,17.63387629080836,37.87288799474692
0.54,31.22217720540729,131.01040779385733,8.496237176625542,-14.764036492971597,-19.858057719138586,33.1605122976787,1.333486930907636,4.224108178516524,349.2703242098436,21.041683348323826,9.006663806315641,69.99140323896381,-0.0033395356374798,113.69645832222518,270.966917067845,15.288,0.0,10.178938474963124,0.06183985629256,4.1373824814069034e-09,-0.0002477480026576,-0.0011571299094711,1.3825888473497568e-05,24.56588124040001,13.940446085113786,17.98446309629627,33.45505721327064
0.55,31.222176877798425,131.01040866608585,8.694835204062862,-14.477292052072414,-19.603892036919056,35.08301692736303,1.3641543362834512,4.241250476861422,365.2500005919907,21.34619247167362,9.163791656753482,69.99131727171252,-0.0053854896708727,113.6942813980896,278.86105677606463,15.288,0.0,10.218193210088884,0.06273492526321,3.4408792178615277e-09,-3.275841943115734e-05,-0.0014766970669755,1.854545466372236e-06,24.19973027434954,13.698631479538523,18.326552414897627,35.36477342478415
0.56,31.22217654354003,131.01040955276517,8.896475974163264,-14.207516383057676,-19.366304032557565,32.811693880202505,1.3944092786154427,4.257887622735826,346.2265619465787,21.63976154410381,9.31668419359647,69.99135558435002,-0.0079397642601078,113.69156350886392,286.5784699686656,15.288,0.0,10.25729914743342,0.0635978483325395,2.4831825971918526e-09,0.000186607916067,-0.0018039536890592,-1.0709476686711836e-05,23.85644500449766,13.469730087320777,18.65530430438582,33.116177912498515
0.57,31.222176202680743,131.0104104537036,9.101103991881578,-13.939542962457114,-19.126936755472776,32.45439693894919,1.4255932451202815,4.27498117800895,343.1828296833023,21.941412762576302,9.47247943323677,69.99152062447907,-0.011014436574804,113.68829180408936,294.61798814519744,15.288,0.0,10.296238950055526,0.0644845304554737,1.2591833756609651e-09,0.000410276683741,-0.002138877453088,-2.3873638120804312e-05,23.51276843284238,13.241735511800822,18.992453714739064,32.76576965132572
0.58,31.22217585517639,131.0104113689623,9.308735968978487,-13.664295883359436,-18.87438654045964,42.40823707463225,1.458685216037655,4.293210114480932,426.1250058573153,22.26448188563366,9.636126186265088,69.99181483350081,-0.01462173023146,113.68445327899762,303.3518250786508,15.288,0.0,10.335012375281556,0.065434165005732,-2.3622814368488165e-10,0.0006382852406923,-0.0024816011237893,-3.7687377615234526e-05,23.15441636057523,13.007340418146514,19.353031848214737,42.649947097561345
0.59,31.22217550060683,131.010412299622,9.519679308100407,-13.41548613201221,-18.65116450778549,34.56856140718682,1.4902574024601631,4.310160632563163,360.68438819711065,22.5608623971376,9.789732209957489,69.99224082145064,-0.0187746963016799,113.680034050261,311.47559372621686,15.288,0.0,10.37366511519574,0.0663053698441706,-2.0085105721985997e-09,0.0008711561964035,-0.0028329440236264,-5.212084567797042e-05,22.83453269906069,12.793736989326312,19.682612637116925,34.86809128080473
0.6,31.22217513915676,131.01041324511894,9.733772480791346,-13.148249490595992,-18.400647397447187,30.832966078515256,1.5250135144778445,4.329119853689542,329.4859594986058,22.895893611377,9.957566060922096,69.99280120446105,-0.0234865995395121,113.67502000791372,320.7885788254905,15.288,0.0,10.412166752773231,0.0672901741848919,-4.063141621344945e-09,0.0011086447125644,-0.0031926506745415,-6.731328527535184e-05,22.482327848252027,12.564726952227872,20.054955785030582,31.172724329545236
0.61,31.22217477075458,131.01041420558587,9.951052663107545,-12.885045051492378,-18.151202333180485,35.95488421752903,1.5606897730905145,4.348488859692184,372.0984511843297,23.23759269359809,10.127718070621471,69.99349864056174,-0.0287710618212902,113.66939666403329,330.42805178958884,15.288,0.0,10.450527294700487,0.0682945824002861,-6.405697000499191e-09,0.0013508386931537,-0.0035609328217336,-8.32408228383573e-05,22.1332427867772,12.338434329232564,20.43386109497676,36.2505007831149
0.62,31.22217439548816,131.01041518072117,10.171433134131876,-12.667318211543126,-17.957025577664393,44.45979546078238,1.5922612420484303,4.36482496484606,442.86563930529206,23.517359639073486,10.274898303997896,69.99433582539059,-0.0346420560770704,113.6631491587313,338.4251033493603,15.288,0.0,10.488759214441268,0.0691169808338603,-9.041848618272657e-09,0.0015976820974181,-0.0039377962225403,-9.963489703456231e-05,21.85429810137167,12.148853447322814,20.742627489456225,44.70190605836935
0.63,31.22217401315552,131.01041617101657,10.395053672759076,-12.443732283778676,-17.752081398558342,25.641590443837167,1.6255724794099593,4.382158308434128,286.11251274707894,23.81571934144181,10.428885815022872,69.9953152505583,-0.0411130891893096,113.65626313333276,347.05917535524395,15.288,0.0,10.52679921779779,0.0699940297377744,-1.1976907329614648e-08,0.0018493616858551,-0.004323604420808,-0.0001167908396403,21.563409436190295,11.954196826122088,21.071629270649783,26.064093266704578
0.64,31.222173624304503,131.0104171749221,10.621471791205815,-12.207916258237775,-17.527665810401828,25.188499500715366,1.6616313581948627,4.401149563750671,282.30782441796754,24.145674298004625,10.594385045784888,69.9964395120228,-0.0481978703778481,113.64872400631972,356.7347010027948,15.288,0.0,10.564680631079453,0.0709639435032931,-1.5216286693937116e-08,0.0021051753571224,-0.0047174245102445,-0.0001347849476793,21.24994341212096,11.749127179644733,21.435177816671537,25.624044242675225
0.65,31.222173228894768,131.01041819249195,10.850702603421963,-12.0049099319045,-17.3436605661578,43.7582020524701,1.694516616492156,4.417793971231756,436.7781447787475,24.427390645485573,10.74209523551378,69.99771097486258,-0.0559098140612647,113.64051752148268,365.0995321269386,15.288,0.0,10.602337421507055,0.0717920912542261,-1.8765096270540792e-08,0.002365212584681,-0.0051194663841892,-0.0001531974292904,20.987586065729108,11.570853553890506,21.7444696296145,44.01327682643747
0.66,31.22217282641253,131.01041922507173,11.0831296919756,-11.80053608165103,-17.154961405313372,37.36336275763959,1.7286310191746697,4.435073509540045,383.51251517160017,24.720213087347894,10.893838674508975,69.9991319990619,-0.0642625232742775,113.63162922490088,373.8968857333783,15.288,0.0,10.639839153693048,0.0726528868001106,-2.262835379278921e-08,0.0026300834776663,-0.0055307196390703,-0.0001723916668248,20.720701792504094,11.391243040908478,22.06559971465548,37.6653543564168
0.67,31.22217241701552,131.01042027217392,11.318613719206628,-11.586158234549854,-16.949729027280842,26.022478191141968,1.7653416066097207,4.453882612572966,289.1562440103425,25.041826953163543,11.056038986922392,70.00070524255321,-0.0732706028512717,113.6220435894572,383.68041159303937,15.288,0.0,10.677216399862052,0.0735983078261758,-2.6811610628875248e-08,0.0028995739838574,-0.0059509620375149,-0.0001925240147767,20.43484396496581,11.203064905622536,22.418034126949127,26.45983508117665
0.68,31.22217200084527,131.0104213333559,11.557028226946656,-11.381129780302103,-16.754224634350514,32.251114283024776,1.801876548431576,4.472363728326167,340.8999924858462,25.35530700080252,11.21518949621564,70.0024331616813,-0.0829486463026866,113.61174511414316,393.3375522267039,15.288,0.0,10.714340022824324,0.0745198308617694,-3.1320312357658834e-08,0.0031735220166442,-0.006380042179731,-0.0002133463175134,20.16212859891998,11.022448700081302,22.760905146450227,32.60955640469462
0.69,31.222171577957617,131.01042240841085,11.798314159854344,-11.194957388716311,-16.581809515736428,39.49053534957802,1.8366300645012708,4.489475144498232,401.0140726853634,25.63993146735221,11.36376947041688,70.00431826867057,-0.0933111339807465,113.6007184099044,402.20857131564736,15.288,0.0,10.751300877056703,0.0753565538513178,-3.6159744666392417e-08,0.003451841088869,-0.006817919985911,-0.0002346563728876,19.918735047824534,10.857434498605228,23.07147455764792,39.78732184079708
0.7,31.22217114819936,131.01042349770495,12.042575980955585,-11.012072779464177,-16.41137113615496,33.26830935824963,1.871906723353006,4.506741322501133,349.27032420985284,25.925967401974468,11.512826937333424,70.0063628462606,-0.1043724207414721,113.58894823580953,411.2229608689718,15.288,0.0,10.78812071752684,0.0761974323147715,-4.1334947486625264e-08,0.003734710248648,-0.0072649591043359,-0.0002567121337577,19.678824806198183,10.695053102670396,23.383180838869563,33.62432392904092
0.71,31.222170711601564,131.01042460110116,12.28977462122922,-10.82402970279034,-16.231217934917726,27.50042045066536,1.909110414262336,4.525062394972704,301.33126406340574,26.231417283165367,11.668886321130929,70.0085693322516,-0.1161473013420192,113.5764188768132,420.95979313553977,15.288,0.0,10.82467842152232,0.0770953764733022,-4.6851148701120254e-08,0.0040220646718809,-0.0077211567671146,-0.0002797145183228,19.428167361962103,10.5282158102147,23.71578870792405,27.935533236643515
0.72,31.22217026814497,131.01042571859932,12.539910158404302,-10.629593630800656,-16.0393345178938,33.461727285722255,1.948671895041796,4.544700045936172,350.79220534145287,26.56101784428184,11.83362365462095,70.0109401532432,-0.1286509343081133,113.56311423697672,431.5946973703731,15.288,0.0,10.86108293954163,0.0780643084164552,-5.271362807842957e-08,0.0043139351152823,-0.0081866554552445,-0.000303775044619,19.164415170415005,10.35580683636253,24.074342925850377,33.8251210434805
0.73,31.222169817804776,131.01042685021332,12.792986634828766,-10.463686063908575,-15.885264270023416,42.08511655133106,1.98429546763122,4.5616082738518,422.320318528234,26.834613034510365,11.978048091120217,70.01347781357249,-0.1418990825265047,113.54901758073952,440.52117837943865,15.288,0.0,10.89734503135366,0.0788686450819878,-5.8927840910201023e-08,0.0046103842541038,-0.008661645815951,-0.0003279862796179,18.94740933993386,10.207466436996762,24.371206274108378,42.37809261500634
0.74,31.22216936049949,131.0104279961169,13.049053871443956,-10.2931519475166,-15.722340747681466,26.682881964808743,2.0217840252474084,4.579518252096687,294.48281347105944,27.126562712277828,12.12907776306076,70.01618464955983,-0.1559070557445792,113.53411265808856,450.14763401751793,15.288,0.0,10.933386286407314,0.0797269341990299,-6.549889709883115e-08,0.0049114574252883,-0.0091463006703359,-0.0003531975537994,18.720646121693196,10.05515371458297,24.68778053225246,27.148403047213442
0.75,31.222168896559715,131.01042915535515,13.307839792098768,-10.12102883920938,-15.55478251302552,30.99709844771564,2.060708355827644,4.598140261363929,330.24688556441487,27.43078367477135,12.284475024956183,70.01906293851289,-0.1706903612769088,113.51838301501176,460.2895088207104,15.288,0.0,10.96921380406437,0.0806212970483499,-7.243214583510289e-08,0.0052166894367429,-0.0096399950730657,-0.0003793455046163,18.489247586070267,9.90142072823892,25.017347141535705,31.40397307616234
0.76,31.22216842585808,131.0104303282293,13.569430706223848,-9.960452050890009,-15.401634918611803,33.29448665474932,2.0984463885935094,4.615816500688342,349.27032420986166,27.71455465745709,12.432459262175303,70.02211500778206,-0.1862645039536129,113.50181219523716,469.8503390615324,15.288,0.0,11.004873603645605,0.0814555633746441,-7.973252404491147e-08,0.0055262667155376,-0.0101431156556878,-0.0004060042500283,18.27607758325762,9.757510451427644,25.3243020093798,33.67836220508813
0.77,31.22216794831944,131.01043151489853,13.833872482006967,-9.804862034566632,-15.25361316195775,31.186335040131805,2.136205418243868,4.633316676830897,331.7687666960708,27.993042179456864,12.578511282074126,70.02534301230135,-0.2026452107140503,113.48438352254767,479.32811580161183,15.288,0.0,11.040369429287203,0.082274308661425,-8.740498994017141e-08,0.0058402783385953,-0.0106559037588051,-0.0004333745950593,18.06990896728892,9.617863799119434,25.62521368498998,31.60092546512027
0.78,31.222167463988043,131.01043271519575,14.101117995812794,-9.645130325674094,-15.097419881249635,25.77080217975691,2.175896373353094,4.651825732470639,286.8734378128899,28.28985394571152,12.73110331287463,70.0287492387015,-0.2198483993648585,113.4660801089786,489.5341251070493,15.288,0.0,11.07560431020549,0.0831469183843584,-9.54545976037538e-08,0.0061586233045555,-0.0111783029288697,-0.0004618309193088,17.854789697769007,9.474668127296525,25.9457046610164,26.27752371630574
0.79,31.222166972930943,131.0104339288912,14.37110223039469,-9.484566298989256,-14.937774339788763,36.24400948903089,2.216961251079314,4.6709844938223295,373.6203323159534,28.5974565194158,12.887503469402551,70.0323358038608,-0.2378902388826033,113.44688481606292,500.2246827328502,15.288,0.0,11.110658093698056,0.0840512514047396,-1.038864189635555e-07,0.0064811984338032,-0.0117102505710364,-0.0004912924899808,17.636409817651813,9.330732942659848,26.277527815166565,36.61094422671009
0.8,31.22216647491433,131.01043515658176,14.643996108615688,-9.339955186288352,-14.799812895994922,36.70697333323247,2.2554816318513207,4.68837517455284,377.42502064505743,28.868407237265284,13.030741581828968,70.0361049957243,-0.2567874626431506,113.42677990038696,509.7351299157832,15.288,0.0,11.1455596724217,0.0848478683245342,-1.1270533866610362e-07,0.0068083630544222,-0.012252426050184,-0.0005209685980621,17.44468364517191,9.200598850921644,26.569423831015637,37.073844559953876
0.81,31.22216597002019,131.01043639799866,14.919723635643845,-9.189776760024252,-14.65149974976323,24.209603337563028,2.296393444245137,4.707041858613345,273.9374926939919,29.16263679184665,13.18226724587927,70.04005895126055,-0.2765567953752357,113.40574763785112,520.1648446132511,15.288,0.0,11.180291184253532,0.0857129125214009,-1.2191650480622565e-07,0.0071399380724493,-0.0128046526919306,-0.0005518940997017,17.24141636012046,9.06567711750526,26.88618514202325,24.769629784711217
0.82,31.22216545841403,131.01043765264288,15.198143185235104,-9.038969771532669,-14.500193486598944,30.82937576230485,2.338631945247972,4.726312194955512,328.72500443277005,29.46674535676445,13.337259326904142,70.04419987136454,-0.2972151107421554,113.38377014201956,531.0557885180401,15.288,0.0,11.214799652426416,0.086607000562472,-1.3152510495813822e-07,0.0074756713521056,-0.0133666288921289,-0.0005838553652724,17.035373087805105,8.930242059716052,27.213295895565956,31.277110420128476
0.83,31.222164940062203,131.01043892056452,15.4792698545142,-8.905693330962789,-14.373713826446396,38.924236393560975,2.377466503430192,4.743315208969493,395.68750322465047,29.72482314979944,13.47579045394674,70.04852976461973,-0.3187794834863363,113.36082933051092,540.3841975846906,15.288,0.0,11.249098107590193,0.0873658054094609,-1.415360143459501e-07,0.0078156333538608,-0.0139385747969922,-0.0006157361284428,16.85946394427354,8.810145535381372,27.490613702376024,39.284189758328864
0.84,31.22216441484611,131.01044020205262,15.7631870472251,-8.77168682751902,-14.244366277675043,24.39136498213432,2.417456909200603,4.760831027643915,275.4593748256452,29.991328513490924,13.61729868064984,70.05305068755183,-0.3412667909153285,113.33690732266848,550.1025369473806,15.288,0.0,11.283225485566728,0.0881493878451988,-1.5195383675976169e-07,0.0081599407598839,-0.0145207953489226,-0.0006486076216872,16.680834219844577,8.689509613448607,27.776806601079294,24.96894662722693
0.85,31.22216388303688,131.01044149632014,16.049671147252354,-8.628122766391222,-14.09838590046032,26.506937167924924,2.4611669909795246,4.780382228005236,292.96093233939376,30.295593667475053,13.772179560341296,70.05776444739679,-0.3646939458934865,113.3119862188704,561.3054068398002,15.288,0.0,11.317154451355936,0.0890439603958416,-1.627836419402716e-07,0.0085081479680581,-0.0151126675192478,-0.0006831276917918,16.483269432647422,8.56058867842882,28.10330446571924,27.046757943007428
0.86,31.222163344449648,131.01044280383914,16.338857884162536,-8.495697312410206,-13.96786863242724,32.95008399205306,2.5028907960939284,4.798540415905843,346.2265619465587,30.570908794415043,13.91671662380612,70.06267310405126,-0.3890785871052659,113.286047339336,571.5377597328105,15.288,0.0,11.350908240186,0.089853452086876,-1.740299284767115e-07,0.0088605660797371,-0.0157148152640157,-0.000717868910928,16.304618949655595,8.441521924432903,28.398509336633484,33.39159306687245
0.87,31.222162799093127,131.01044412454908,16.630731055231003,-8.369452415808318,-13.845340939992363,30.740837563295138,2.5438392269423145,4.816042915310992,327.964078366998,30.83180224483967,14.056094868374016,70.06777850507953,-0.4144383285375725,113.25907204574656,581.3181451595971,15.288,0.0,11.384485151509644,0.0906205637439402,-1.85697406869663e-07,0.0092171561584891,-0.0163272902135301,-0.0007531110343844,16.136000256991874,8.328011509751821,28.67808524700125,31.219616933388934
0.88,31.222162246988013,131.01044545835805,16.9252656098596,-8.23954075622383,-13.715362207176977,26.68797520154905,2.586914684127576,4.834605575884537,294.4828134710418,31.111605670366856,14.202128857405212,70.07308241041906,-0.4407908386294157,113.23104164878256,591.9003844393915,15.288,0.0,11.417842849808627,0.0914432634170735,-1.9779076519485265e-07,0.0095778222288232,-0.0169500494441297,-0.0007896598669991,15.959251128355332,8.211411361226785,28.977717997091105,27.245431892627906
0.89,31.222161688199428,131.01044680505095,17.222401335668202,-8.106310368135995,-13.578333932144368,29.17422501754508,2.6321746357776217,4.854244814448304,315.028134248087,31.410472978980497,14.354842906305995,70.07858669873366,-0.4681540851513048,113.20193713531287,603.3097298795968,15.288,0.0,11.450997968571489,0.0923220040399438,-2.1031472269467897e-07,0.0099424642261194,-0.0175830412055627,-0.000827574286767,15.774884165349375,8.092004146271854,29.29750198519522,29.69221179713937
0.9,31.222161122640724,131.01044816483355,17.522198257778275,-7.988774745842315,-13.46478050821094,32.12240232913799,2.6734818001886462,4.871365570539283,339.37814235421445,31.65891396412597,14.489673008216524,70.08429311938158,-0.4965466122520912,113.17173889837528,612.8735772781704,15.288,0.0,11.483981387148727,0.0930525392544868,-2.232737629001982e-07,0.0103112247296281,-0.0182266251481882,-0.0008650321237785,15.618581925384552,7.98664028144019,29.563285493934032,32.599485254414446
0.91,31.2221605503681,131.01044953751975,17.824604568260757,-7.867676936833133,-13.343936977367568,24.65452785120459,2.716956916137621,4.889554919509533,277.7421810230789,31.926381351487688,14.631176354636551,70.09020330949096,-0.5259864818995882,113.1404278437366,623.2548304350694,15.288,0.0,11.516783365415447,0.0938390051621257,-2.3667243648191962e-07,0.0106839610114431,-0.0188806828911615,-0.0009038478904498,15.454331625246054,7.878292736133664,29.84921783075764,25.2811262755612
0.92,31.222159971563325,131.01045092257195,18.129468177417355,-7.7433494516245185,-13.21621869996622,29.170318366928583,2.7626403595037536,4.908816668168663,315.02813424806214,32.21285178140501,14.779308609930196,70.09631884961773,-0.5564920149157124,113.10798460963969,634.4711688356972,15.288,0.0,11.54938846314622,0.0946813335827641,-2.505155953006488e-07,0.011060340922787,-0.0195447632902634,-0.0009440572449573,15.282650306930336,7.767240133762867,30.155213716459173,29.70919279390843
0.93,31.22215938612785,131.0104523202357,18.43686065236056,-7.632742169754096,-13.109423083213636,34.51854333033813,2.8045068595973017,4.925673501709814,359.1625070654728,32.45159186094647,14.910562648042196,70.10264127323869,-0.5880817690508037,113.07438958961993,643.8915597937756,15.288,0.0,11.581813414839228,0.0953833790375706,-2.648072059958314e-07,0.0114405523795249,-0.0202193106741447,-0.0009837184546501,15.135862734533571,7.668608373637829,30.410288467267133,34.9808140531264
0.94,31.222158793946885,131.01045373080754,18.74686825035148,-7.513246578582957,-12.986480808683115,25.29102733974024,2.8506305897992146,4.944773424492799,283.0687504837787,32.731761282060006,15.056342313996309,70.10917198492454,-0.6207741460943116,113.03962335015612,655.038069883846,15.288,0.0,11.614057859097308,0.0962072038651035,-2.795512117918259e-07,0.0118246838896381,-0.0209046098096648,-0.0010254956055622,14.97085423693694,7.562248625002083,30.70927101144632,25.927069693248356
0.95,31.22215819528577,131.01045515351555,19.059272061885952,-7.397050217409442,-12.86744814447104,32.486684315202034,2.8966382735316207,4.963592859972438,342.4218736174873,33.004999540286484,15.199599428446136,70.1159124408897,-0.6545882992687008,113.00366566529748,665.9999894860698,15.288,0.0,11.646108908494522,0.0970106645091855,-2.9475261719170016e-07,0.0122123222814613,-0.0216000616969465,-0.0010679227686867,14.810927143086465,7.459043868278101,31.000733001794444,32.99109614976216
0.96,31.22215758985545,131.0104565891468,19.37429855738612,-7.2882399824052015,-12.759289341815796,31.838756334735336,2.9408295310089527,4.981173854311477,337.09533515678345,33.25295953024992,15.33391924505544,70.12286399889808,-0.6895434005391428,112.96649629747512,676.0241760917827,15.288,0.0,11.677991646107625,0.0977398337483983,-3.104146765593924e-07,0.0126039246797315,-0.0223066012350841,-0.001110413724436,14.664104980070476,7.362699187068884,31.26525945442545,32.359959459801246
0.97,31.222156977665875,131.01045803765032,19.69193488616984,-7.17828660662161,-12.647788205981902,20.662558697879305,2.9864917837205938,4.999382893885566,245.02188719299323,33.51132567972335,15.471830115978204,70.13002801173585,-0.7256591258776918,112.92809448044288,686.5490771595977,15.288,0.0,11.709702995437109,0.098499597822154,-3.2654169002312866e-07,0.0129994345420048,-0.0230242674291192,-0.00115412151903,14.513916961053829,7.265579768198653,31.540711419174496,21.467517193127247
0.98,31.22215635898125,131.01045949825857,20.01196348513053,-7.060538300818168,-12.521537297322604,29.709756692787213,3.0365524464093627,5.019845841491412,319.5937466429581,33.81087666170936,15.624072893122175,70.13740573271426,-0.7629551941206119,112.88843940994012,698.8562999622076,15.288,0.0,11.741221605943911,0.0993804247410596,-3.431387928995332e-07,0.013398351999018,-0.0237523030417789,-0.0012001345383255,14.34723388268094,7.161673179020149,31.859617395498432,30.283479750133537
0.99,31.222155733652144,131.0104609713696,20.33449985676804,-6.9603283838650185,-12.423814742337637,32.38604087934224,3.0801871599920454,5.036496149471302,341.6609485517054,34.03683922119327,15.750484842536606,70.14499841339071,-0.8014518781644672,112.84750970134732,708.2066724198352,15.288,0.0,11.772567597876902,0.1000449613723558,-3.602094254676225e-07,0.0138009823805444,-0.0244913872074777,-0.0012444226018239,14.213899197725482,7.073880978826973,32.100567897354274,32.91974316793261
1.0,31.22215510167117,131.01046245698845,20.659547387736843,-6.852570225748465,-12.311778634284662,29.05604327489989,3.128115096504503,5.0553308871251135,314.2672081822764,34.30291568043192,15.890849333464498,70.15280701461646,-0.8411687178200973,112.8052847605182,719.3000337949835,15.288,0.0,11.803727507492852,0.1008274134793753,-3.777575346769821e-07,0.0142072204652262,-0.025241475733373,-0.001291026814801,14.064563742910163,6.979555075598464,32.38383453083687,29.657969000391034
1.01,31.22215446320021,131.01046395463666,20.98697122540176,-6.747878423290245,-12.203657841354175,30.346462624753386,3.1757314362833986,5.073774491663495,324.9203161036979,34.56031360117231,16.028090014792937,70.16083266381918,-0.8821261467043443,112.76174304271088,730.1123597646935,15.288,0.0,11.834708177673168,0.1015843649138586,-3.9578764309008857e-07,0.0146167970286791,-0.0260022175549936,-0.0013381701565822,13.920195203396046,6.888306209731287,32.65782884077702,30.93115341501522
1.02,31.222153818161587,131.01046546451903,21.316831898375128,-6.646950048608355,-12.100771641943169,25.441269387180483,3.222611483980587,5.091597402470911,284.59063161540416,34.80478224965291,16.160736831512487,70.16907621962153,-0.9243443545261772,112.716863279951,740.4545968639801,15.288,0.0,11.86551714940092,0.1023033211438166,-4.143031498577249e-07,0.015029809970499,-0.0267739337272298,-0.0013856709115733,13.782277192917409,6.800800788492015,32.918096667333444,26.145129124114472
1.03,31.222153166613992,131.01046698645538,21.64907996515808,-6.541602795821347,-11.988754788746768,20.90306380642113,3.2727097908381246,5.1109660818010365,247.30469339049705,35.07700994525268,16.302957164277746,70.17753845956246,-0.9678435404014168,112.67062420018392,752.0589154606282,15.288,0.0,11.896148988447052,0.103103879271741,-4.333079726214624e-07,0.0154461013909148,-0.0275564803556263,-0.0014351433318289,13.634365184116382,6.709591908360476,33.20753255763516,21.766273915387572
1.04,31.222152508608584,131.0104685202841,21.983671284072333,-6.443264232576411,-11.88781142999319,32.83243988240535,3.320414082802144,5.1288033924337375,345.46563688072297,35.31917089711798,16.434612489147753,70.18622018447896,-1.0126446715635833,112.6230037239242,762.4542251359325,15.288,0.0,11.926608067725736,0.1038160689030751,-4.5280596014643574e-07,0.0158655914667228,-0.0283498526206246,-0.0014842485742079,13.499547013113668,6.62513309246686,33.465206700442614,33.39609082738984
1.05,31.222151843879093,131.0104700667578,22.320823257368755,-6.3417163140945485,-11.77981293501856,20.055859428697023,3.3708395563751448,5.147898263560607,240.45625879819983,35.58362764838072,16.57392931290419,70.19512204844656,-1.0587685882367377,112.5739799164983,773.889854460023,15.288,0.0,11.956910984835108,0.1045938027606805,-4.727994281071896e-07,0.0162886948579525,-0.0291549806903181,-0.0015351906534584,13.35711922460558,6.538098340615333,33.746267261708425,20.978582251202035
1.06,31.222151172639222,131.01047162525222,22.66035951773416,-6.237793751709516,-11.666135702584924,28.287817059544064,3.4237634613067613,5.168107376891041,308.17968365593924,35.86733606568059,16.7198096500113,70.20424475950821,-1.1062371150641253,112.52352980572824,786.253861494154,15.288,0.0,11.98704512392782,0.1054281335513652,-4.932932603553546e-07,0.0167149946121222,-0.0299712391151597,-0.0015878775491242,13.20867772783314,6.449239180415458,34.04745959534591,28.959145085659678
1.07,31.22215049477821,131.01047319607335,23.00236982173955,-6.14406615409754,-11.569593060350856,33.19025393624914,3.4722403121568486,5.185691874222179,348.5093681440308,36.10092212701014,16.848203245622052,70.21358899758204,-1.155072645012496,112.47162982578809,796.5020004638636,15.288,0.0,12.017027619113549,0.1061151439209729,-5.14290472922881e-07,0.017144720497463,-0.0307992183710028,-0.0016392533619405,13.080143960363356,6.37017080070972,34.29589984727519,33.77189377799893
1.08,31.22214981020236,131.01047477948657,23.346932404692897,-6.049745566155832,-11.47074967387306,22.53290297374764,3.5220700646124725,5.203778524906134,261.00157857466235,36.342621948062416,16.979320055573204,70.2231552503035,-1.205297249573548,112.418256762599,807.1763331111334,15.288,0.0,12.046853420038088,0.1068260123702977,-5.357942475599167e-07,0.0175779573263492,-0.0316392515016005,-0.0016918726389202,12.949396381908404,6.290989347167442,34.552813163852974,23.392648522573044
1.09,31.222149119160143,131.01047637476825,23.69384262062136,-5.947611528912909,-11.35620273008118,20.764206804228884,3.5776431770685475,5.224684127604536,246.54375332474407,36.63542667565101,17.127990247068738,70.23294392736402,-1.2569333261501356,112.36338706546032,820.2078908565658,15.288,0.0,12.076502452101488,0.1076871082649916,-5.578097116635243e-07,0.0180141833195828,-0.0324905075411555,-0.001747770340597,12.80127562291032,6.204983734551172,34.86325506278662,21.708273518279913
1.1,31.222148421717765,131.0104779817189,24.043045733496594,-5.851533308492902,-11.251487996188624,41.05383214774656,3.6308742658411854,5.244095811553236,413.1890617385841,36.89934392230565,17.266532500816727,70.24295535560354,-1.3100035915010988,112.30699685505353,832.039906803489,15.288,0.0,12.105987159648103,0.1084633007787048,-5.80340484301399e-07,0.0184533017536966,-0.0333529597771447,-0.001803211605296,12.664708541017417,6.125033520012999,35.143301781989145,41.5463707540195
1.11,31.222147717511326,131.0104796013933,24.394846071848104,-5.765837599326775,-11.16496057062032,30.202992379779992,3.678687258586729,5.260418694858398,324.1593910376397,37.105324044271406,17.384982643095515,70.25318980669657,-1.3645312602906987,112.2490617343633,841.3266568540624,15.288,0.0,12.135335697749849,0.1090691994030539,-6.033876013636984e-07,0.0188959777510376,-0.0342280754782208,-0.0018567134680538,12.54906687053608,6.055266364619588,35.36261436808833,30.87758885477868
1.12,31.22214700659953,131.01048123362642,24.74919899740282,-5.66445308357819,-11.04763280415681,11.741554268519172,3.73773854305502,5.282400417483104,172.73281794065943,37.41403714115823,17.538736026304242,70.26364735787065,-1.420539264187056,112.18955761732784,855.3553099124525,15.288,0.0,12.164535348782673,0.1099770855244794,-6.26955092384826e-07,0.019341981885051,-0.0351156022841994,-0.0019162847917438,12.399086043849248,5.971301767387922,35.689412101724784,13.406660293579662
1.13,31.222146289509134,131.01048287686936,25.10566355032057,-5.573447684087685,-10.948622270856347,35.4767995898575,3.7912623070649727,5.301230296773428,367.5328077900705,37.66395293121423,17.672070899124407,70.27432825293056,-1.4780523822682932,112.1284584655702,866.7908853950617,15.288,0.0,12.193566829206937,0.1107121484930691,-6.510499740541521e-07,0.0197903551168691,-0.0360138188488552,-0.0019737362735245,12.27014236304016,5.897561917715312,35.95459478112586,36.07048685115455
1.14,31.2221455656509,131.01048453285603,25.464738839385912,-5.489805449775646,-10.862529384826669,19.88280653793583,3.840788172392705,5.317745932390625,239.69531773195544,37.870598369231246,17.79042365303137,70.28523229141196,-1.5370936807642277,112.06574007356711,876.2981478899682,15.288,0.0,12.222468640779304,0.1113200281418666,-6.756708569762625e-07,0.0202421828003912,-0.0369250635921079,-0.0020298042948163,12.15608225346867,5.831330153236352,36.17451942763792,20.936954683325666
1.15,31.222144835461524,131.01048620031213,25.826062651707428,-5.390923623331162,-10.745829523023124,19.59345123437447,3.9022472916744606,5.340180925502914,237.41251153546767,38.18444940571569,17.94545532783914,70.29635915068448,-1.5976864025362747,112.0013780578763,890.8519835685454,15.288,0.0,12.251205837901576,0.1122430460144386,-7.008244122992883e-07,0.0206964852364667,-0.0378475792983519,-0.0020924867400569,12.008045425838006,5.751213700796948,36.50637668638355,20.679661445881948
1.16,31.22214409906168,131.010487878877,26.189534295248404,-5.310805660758678,-10.664316719081535,50.40523743106885,3.9512988719044864,5.355966695803158,490.0437743845894,38.37640853661924,18.0585009150172,70.30770864844848,-1.6598555814827578,111.93534614466525,899.7999818703704,15.288,0.0,12.279790694775857,0.1128077718898056,-7.265140860657867e-07,0.0211531245834553,-0.0387812578655401,-0.0021493308708702,11.899817885702513,5.689493026164133,36.71091698121259,50.842768438629406
1.17,31.222143355689635,131.01048957082543,26.55580827448847,-5.223293554234761,-10.567228134914563,9.357300530967036,4.0068601417538,5.374851176126769,153.70937929486794,38.62399387516224,18.19052253968236,70.31928018470323,-1.7236246876603736,111.86761973440568,911.4154814446016,15.288,0.0,12.308260948397736,0.1135360203611375,-7.52736679389842e-07,0.0216134881488165,-0.0397291259830739,-0.0022101980021815,11.774501510022215,5.621367910249931,36.97349193743442,11.510995899048986
1.18,31.22214260635979,131.01049127315304,26.92402661884104,-5.125966723739487,-10.44943662848431,24.761861656654244,4.071436900181582,5.398049675839335,280.02501822196746,38.9490273819762,18.34884784533641,70.33107321900741,-1.7890185558346174,111.79817278722209,926.7869606608792,15.288,0.0,12.33655535529546,0.1144919387838473,-7.795040257944258e-07,0.0220754478463608,-0.0406870443856908,-0.0022763546171256,11.626441319955504,5.544398826507424,37.31671776852989,25.668372200789694
1.19,31.222141850619685,131.01049298721017,27.294579008588823,-5.053457461934621,-10.379815549030091,42.869820515156206,4.117390578941646,5.41153694329919,428.4078130529292,39.097773400990896,18.44675351326212,70.34308717056331,-1.8560628209216388,111.72697842804112,933.8460196915116,15.288,0.0,12.364723502144098,0.1149296631960834,-8.06813890411425e-07,0.0225400629923224,-0.0416573686975509,-0.0023330576491124,11.532470217418176,5.49198084334619,37.47621967289193,43.40575017517791
1.2,31.222141088092737,131.01049471415485,27.66780037857128,-4.9629325898830325,-10.273004609807495,4.852549320409815,4.17912910686418,5.432747882126774,117.1843741360236,39.385386706506615,18.59197269051316,70.35532096534081,-1.924781078119746,111.65401195999384,947.6018041824868,15.288,0.0,12.39276885193313,0.1157756030995922,-8.346661317088606e-07,0.0230078720358835,-0.0426414558392276,-0.0023989119961757,11.397398163862944,5.422862349196799,37.78033904059243,8.398041709208291
1.21,31.222140319782305,131.01049645098,28.042831652069264,-4.8744239232879885,-10.16898851304338,34.49149524374391,4.240570483349259,5.453509551860042,359.92343213200894,39.66469930084265,18.734129822803,70.367773790962,-1.995199682205129,111.5792457660722,961.055209720197,15.288,0.0,12.420598297873948,0.1165971519938332,-8.630728619489353e-07,0.0234768101878323,-0.0436351959834519,-0.0024650762513035,11.26579827763927,5.356355116522278,38.07573115665427,35.17650421240989
1.22,31.22213954493619,131.01049819996973,28.420330583310115,-4.802502264395142,-10.09769573228735,25.09121659500713,4.288518830493376,5.467265227819941,283.0687504825761,39.81800630745036,18.83323159940037,70.38044445598383,-2.067343698322228,111.5026536140573,968.4635451232816,15.288,0.0,12.448307669198314,0.1170483073170209,-8.920279887435802e-07,0.023948505930364,-0.044642214836604,-0.0025242321215603,11.17085903369545,5.30682818857847,38.24006211829601,26.035582057030844
