Time,Latitude,Longitude,Altitude,Angle of Attack,Angle of Sideslip,X-Acceleration,Y-Acceleration,Z-Acceleration,Thrust,True Velocity,Ground Velocity,Pitch,Roll,Yaw,Dynamic Pressure,cp,parachute_deploy_gain,Wind Speed,Mach,omega_x,omega_y,omega_z,Cmq,Angle of Attack(total),Angle of Attack(gust),True Velocity(gust),Acceleration
0.0,31.222216000000007,131.010392,3.000000004412624,0.0,0.0,0.0,0.0,0.0,2.2828121974499247,0.0,0.0,71.99999999612658,-1.0292491154817412e-14,119.99999999354436,0.0,15.288,0.0,0.0,0.0,0.0,0.0,0.0,-0.0,0.0,90.0,0.0,0.0
0.01,31.22221599999862,131.01039200000284,3.0000009727369523,0.0,0.0,0.0,0.0,0.0,34.24218696174923,5.916279387578309e-11,5.734623670548936e-11,71.99999999613168,-5.86671995824671e-13,119.9999999935449,2.1432944861733093e-21,15.288,0.0,0.0,1.7386402909615473e-13,-3.4220131069073734e-19,7.115076756936125e-19,5.488773498207866e-19,-1.1574302492039043e-31,0.0,89.99999999962336,5.916279387578309e-11,0.0
0.02,31.22221599999738,131.01039200000537,3.0000018317022668,0.0,0.0,0.0,0.0,0.0,25.871876237766408,1.2265415415436536e-10,1.1895038237325684e-10,71.9999999961369,-1.1836364828043265e-12,119.99999999354544,9.211895886571454e-21,15.288,0.0,0.0,3.6044858651615574e-13,-6.979551485375437e-19,1.4162390878091906e-18,1.0909784360635388e-18,-4.776231873571785e-31,0.0,89.99999999921916,1.2265415415436536e-10,0.0
0.03,31.22221599921969,131.01039200159065,3.0001883335529382,18.80143492628821,-0.0001350810307892,10.931161642028636,-1.75114298675875e-05,3.026590975169265,180.34219359854663,0.0798232026864394,0.0478175828508887,71.99999999765336,-5.341802909786072e-12,119.99999999436793,0.0039016003969354,15.288,0.0,0.0,0.0002345795854893,3.788270153300133e-17,-7.771883375645477e-10,1.1422790048099072e-11,1.7057759223764537e-13,18.80143492675591,89.51882325913425,0.079801984207741,11.342422482672777
0.04,31.222215995131297,131.01039200995308,3.001692634342189,9.19442604083399,-4.49173898918486e-05,52.29595764159784,6.445392950801871e-06,3.026413589912948,548.6359724538078,0.3504174083926908,0.1601447499964056,72.00000000319055,-3.111420077280171e-11,119.99999999870242,0.0751892535633216,15.288,0.0,0.0,0.0010297854387864,2.0082066977226968e-15,-1.520937588847922e-08,2.5623342884322286e-11,1.4654248781413086e-11,9.19442604094277,87.798916624545,0.3504103527855857,52.383455068075136
0.05,31.222215983575865,131.01039203366796,3.0074067499493786,5.158590039700252,1.707592688632746e-06,76.26884281015512,5.843947534199429e-05,3.0258124765658088,761.6984298824644,0.9592973585397016,0.3772700771701255,72.0000000004862,-1.3608731808076822e-10,120.0000000109612,0.5634958029902841,15.288,0.0,0.0,0.0028191251099456,2.086299069701397e-14,-1.0551247853743037e-07,3.973493515691201e-11,2.783064866637575e-10,5.158590039700515,83.94063169874748,0.959297626767734,76.32884071402438
0.06,31.222215961742712,131.0103920785344,3.019291017943491,4.109521257467909,3.140103977270004e-05,57.06876634333886,0.0001151069734147,3.024834864051463,590.4875390737208,1.6257536642597354,0.6118982818704327,71.99999992547217,-3.5903296759057166e-10,120.00000003412836,1.6184272268450337,15.288,0.0,0.0,0.0047776672697797,1.0694899894620088e-13,-3.741090980393931e-07,5.521401959501359e-11,1.6723176417636091e-09,4.109521257587776,79.78719176344794,1.6257585967235286,57.148873286519276
0.07,31.222215929936205,131.01039214392435,3.0371334573469446,3.649087515174788,5.707077112564807e-05,86.89643797254193,0.0001728541558773,3.0234947746384675,855.2937749779139,2.3057260079826607,0.8506307413593818,71.99999965378231,-6.907496536790437e-10,120.00000006788592,3.255354923652711,15.288,0.0,0.0,0.0067759305364855,3.495199904512709e-13,-9.036515915819006e-07,7.594816279105379e-11,5.728932851326001e-09,3.6490875156204896,75.6601668283889,2.305734972638426,86.94902215090157
0.08,31.222215886364623,131.01039223353447,3.0621840248716574,3.4254446680114707,8.413075603463509e-05,17.831756866644035,0.0002285946601282,3.021841001032126,241.2171988638848,2.961944911520492,1.0819695676346892,71.99999900671328,-1.141745983122182e-09,120.00000011415082,5.371998197385977,15.288,0.0,0.0,0.0087043901031071,8.800530155962314e-13,-1.829098470920821e-06,1.0943386634701918e-10,1.4896287129277132e-08,3.4254446690434226,71.81713637501419,2.9619581267487467,18.085991154451033
0.09,31.22221583454733,131.01039234010327,3.0919888289029,3.389560809024919,0.0001118726864415,54.09031716446879,0.0002748660999733,3.020060228038602,563.0937377043176,3.504225426410036,1.2780161667917422,71.99999774508822,-1.634190085504106e-09,120.00000016921716,7.519080503822694,15.288,0.0,0.0,0.0102980157586766,1.865782139518716e-12,-3.1503298654458527e-06,1.6284478329871028e-10,3.03536411425607e-08,3.389560810868955,68.76526501308032,3.504242999330529,54.17456206384468
0.1,31.22221577423132,131.0103924641528,3.1267248829165366,3.4447939461814814,0.0001419149103147,51.372195336549765,0.0003131602029306,3.0182021883815127,538.7437595981919,3.950569597142709,1.4443465951180965,71.99999562056465,-2.1287748602259068e-09,120.00000023339832,9.55649523509932,15.288,0.0,0.0,0.0116097108366932,3.485956000178229e-12,-4.949356763187612e-06,2.4573266549165286e-10,5.3761299442583966e-08,3.444793949101151,66.34639928474206,3.9505918890846927,51.460781166288626
0.11,31.222215706113143,131.01039260424562,3.165907002780892,3.4691423802630394,0.0001702373452339,40.591037561894986,0.0003534470100582,3.016051659024047,442.8656393052949,4.421478635995476,1.6182620895289603,71.99999235067894,-2.5564479031457968e-09,120.00000030601664,11.970509656144712,15.288,0.0,0.0,0.0129935974697161,5.942887149865172e-12,-7.273722517324353e-06,3.67769289312894e-10,8.842679949465076e-08,3.4691423844348632,63.88798785789768,4.421505376815134,40.70293476011277
0.12,31.222215630588888,131.0103927595646,3.2092596514826863,3.4852659299808075,0.0001974376474727,44.30042894095728,0.000394069215595,3.013641598889868,475.58594813540446,4.896982486381051,1.793579340340896,71.99998761802138,-2.8337988279882726e-09,120.00000038673312,14.683611096353944,15.288,0.0,0.0,0.0143909889875706,9.464337642181618e-12,-1.017558359402848e-05,5.395790443954697e-10,1.3700793350599625e-07,3.4852659355662303,61.5068242157714,4.897013499814194,44.40281567867803
0.13,31.222215548046687,131.0103929293088,3.256512891171917,3.5606043721293616,0.0002276507019012,48.86766833507025,0.0004268800875964,3.0112558910133567,515.9156326236895,5.278566579338586,1.939796541405244,71.99998107389406,-2.8573058577484587e-09,120.00000047523812,17.061052093156064,15.288,0.0,0.0,0.0155123760833565,1.4300406003001044e-11,-1.3705268062305584e-05,7.724776992181392e-10,1.989112774124932e-07,3.560604379397528,59.67313531776262,5.27860233862722,48.960358155653
0.14,31.222215458587108,131.01039311327068,3.30759734332425,3.6000732663755977,0.0002555702913645,45.540290862247225,0.0004629468001456,3.0085404980032777,486.2390860568404,5.70011779273801,2.098362647205908,71.99997235012626,-2.508533681468686e-09,120.00000057154703,19.894788765881632,15.288,0.0,0.0,0.0167512184495524,2.071534240530911e-11,-1.7917736259613292e-05,1.0787346240473087e-09,2.8081526258393346e-07,3.6000732754351943,57.72385750323359,5.700157937625502,45.639559681930805
0.15,31.222215362317904,131.01039331122794,3.3624387479639086,3.651605404442164,0.0002842753491325,44.01308509501,0.0004965057129938,3.005703619811542,472.54218587214,6.091938849578711,2.2476968067377374,71.99996103728932,-1.6446954747148112e-09,120.00000067569304,22.723773683610247,15.288,0.0,0.0,0.0179026934683374,2.9002783512213203e-11,-2.287326399669318e-05,1.47199345427166e-09,3.831202693354572e-07,3.651605415492516,55.98561718911576,6.091983503446133,44.115597174664394
0.16,31.22221525912812,131.01039352340948,3.421115382839859,3.67540086436193,0.0003108411545024,34.83804992586084,0.0005330990866742,3.002517946501868,391.1218908297564,6.521183188362317,2.4085903880902046,71.99994669525161,-1.0153513453738144e-10,120.00000078796704,26.03872642002185,15.288,0.0,0.0,0.019164148528834,3.9478358970291335e-11,-2.864207894220033e-05,1.9677461746207517e-09,5.135466997084602e-07,3.6754008774883777,54.15946979122355,6.521232015176687,34.96719658394182
0.17,31.2222151493826,131.01039374906244,3.4833737923187487,3.7139589864597298,0.0003384978477213,43.96471427482637,0.0005668629535037,2.999235483723449,471.78125980632376,6.916861975403744,2.559060925010733,71.99992884100092,2.3206494032971838e-09,120.0000009081849,29.29426197817256,15.288,0.0,0.0,0.0203269651395979,5.248754693205839e-11,-3.5267097947693114e-05,2.580363454062817e-09,6.706952682968329e-07,3.713959001863866,52.549031795895466,6.916915146521327,44.06689817851128
0.18,31.22221503253009,131.01039398932429,3.549599475912623,3.7380363034619775,0.0003650282082698,36.67395661481795,0.0006021794701355,2.9956556354306425,407.10156721191447,7.332140201215607,2.71556808256092,71.99990696207136,5.837017536380516e-09,120.00000103716444,32.917216366714264,15.288,0.0,0.0,0.0215473823438242,6.839750892601699e-11,-4.285557247677198e-05,3.331016495775474e-09,8.639362741436378e-07,3.738036321259578,50.93050624815799,7.332197539712479,36.796100973258795
0.19,31.22221490871209,131.01039424390297,3.619694897703461,3.747799769666444,0.0003901520189829,41.42208371271829,0.0006393759928961,2.991742733214697,448.9531328318269,7.771071983754382,2.879366399937307,71.99988049019642,1.0709144790974043e-08,120.00000117502664,36.97605053227239,15.288,0.0,0.0,0.0228373144884866,8.761416506509219e-11,-5.146771415177372e-05,4.238406957677133e-09,1.0996552116864756e-06,3.747799789945131,49.29705748437159,7.771133268690212,41.529983675580546
0.2,31.22221477769685,131.01039451327668,3.693822889232993,3.7700519460961166,0.0004166800650969,37.99697972290605,0.0006740224661302,2.987733789228414,418.51563019916136,8.179966026035371,3.0338260708461373,71.99984881140107,1.723179577184912e-08,120.0000013223286,40.969302182777255,15.288,0.0,0.0,0.024038975990988,1.1057590044953188e-10,-6.120032215177249e-05,5.3263847350253015e-09,1.376394225587184e-06,3.7700519690893857,47.8457752505109,8.180031477986942,38.11426270718793
0.21,31.222214639876928,131.01039479663547,3.771710975053407,3.7926098867321474,0.0004432924407074,36.46301043881366,0.0007080907240332,2.983530483977461,404.8187610144644,8.582757448615462,3.1863584283669346,71.99981127559042,2.5745201416596626e-08,120.00000147900325,45.103059028532826,15.288,0.0,0.0,0.0252227064089584,1.3774582723633048e-10,-7.20875523136271e-05,6.61341033873124e-09,1.7010673350603349e-06,3.792609912601061,46.47936953648762,8.582827080829217,36.584868250565684
0.22,31.22221449507626,131.01039509434258,3.8534832466471007,3.782921298925821,0.0004660920499522,44.14577847155813,0.0007479176313898,2.978724032883548,472.5421858721365,9.056569122268344,3.360845972992861,71.99976720416048,3.661811567390422e-08,120.00000164562512,50.21995530074818,15.288,0.0,0.0,0.0266151520780326,1.6960703048385348e-10,-8.421592474264931e-05,8.124635526119773e-09,2.0969540034515424e-06,3.7829213275976334,44.9464484092354,9.056642335836344,44.24615863872642
0.23,31.22221434283448,131.01039540734791,3.9394622486964206,3.813874679301352,0.0004940771488601,36.66675459308932,0.000779455230549,2.974212905336642,406.3406421461021,9.430647902846331,3.5044030163419806,71.99971583979395,5.0272885112871524e-08,120.00000182313076,54.45382429059888,15.288,0.0,0.0,0.0277145095638672,2.0669790509245914e-10,-9.77285871729516e-05,9.894576563683824e-09,2.5339062472561444e-06,3.813874711257219,43.79476959007253,9.430725512303388,36.78718303164376
0.24,31.222214184153326,131.01039573358457,4.028950821673608,3.829256049377765,0.0005200487408944,37.802126339316736,0.0008136255607606,2.9692962675112065,416.2328240017114,9.837806876534357,3.658163422426286,71.9996564062533,6.718950080713476e-08,120.0000020109434,59.25679777340223,15.288,0.0,0.0,0.0289110855155543,2.4956955046738006e-10,-0.0001125744417092,1.1934277804843484e-08,3.0448209172448607e-06,3.829256084638984,42.59361542722471,9.83788856559955,37.91856374864305
0.25,31.22221401888584,131.01039607335582,4.122052964664892,3.851417709838087,0.0005469594058717,38.85163035360012,0.0008459008130282,2.964283881833675,425.36408079150686,10.22297576958679,3.8050691648373967,71.99958811418384,8.786880969336211e-08,120.00000220974424,63.98709205399403,15.288,0.0,0.0,0.0300430411774988,2.987811646313829e-10,-0.0001288461362054,1.4273117985167728e-08,3.621333387698252e-06,3.8514177486178034,41.50703126619192,10.223061685769354,38.96455005232871
0.26,31.222213847358866,131.0103964259872,4.218542267117083,3.8780574625554745,0.0005745172425185,42.3164797140743,0.0008766626387865,2.959162938653076,455.8015834241788,10.590779679138215,3.946551912391076,71.99951013710364,1.1286401474734325e-07,120.00000241975916,68.67355887153568,15.288,0.0,0.0,0.0311239685467471,3.5491769188178554e-10,-0.0001465721578858,1.6932703957058654e-08,4.267712643344226e-06,3.8780575050466,40.51245375834074,10.590869924095635,42.41981967733593
0.27,31.22221366913008,131.0103967923915,4.318728802515264,3.886188503202341,0.0005994342651313,38.70936050721014,0.0009111181036949,2.953518013741325,423.84219965987256,11.004860953238978,4.102320296019413,71.99942161756776,1.4276417094868828e-07,120.0000026420792,74.14786134434608,15.288,0.0,0.0,0.0323408987462391,4.1858405402174807e-10,-0.0001658847815307,1.995072923688136e-08,5.018832267232506e-06,3.886188549362022,39.43841359495857,11.00495511215316,38.8218734782956
0.28,31.22221348431185,131.01039717233687,4.422535913956003,3.90556090261878,0.0006261175699806,44.68030766832924,0.0009425767186621,2.947879457547137,476.3468732012221,11.38358114165448,4.247086834352694,71.999321619057,1.7823531611327881e-07,120.000002877279,79.33831935330025,15.288,0.0,0.0,0.033453914386159,4.904408325040897e-10,-0.0001868529238516,2.3357766479368094e-08,5.847713054408178e-06,3.9055609527288775,38.49894431917428,11.383679491972384,44.77744842575601
0.29,31.222213292835256,131.0103975659655,4.530013412817602,3.9242599519377537,0.0006528240665589,35.802573724660256,0.0009737210635801,2.942037024315898,397.97031042211177,11.759725774384751,4.391004157029451,71.99920917567837,2.1999186079018322e-07,120.00000312617878,84.66717879828003,15.288,0.0,0.0,0.0345593650464213,5.711677680739745e-10,-0.0002095620322847,2.7188189988316943e-08,6.77505090435382e-06,3.9242600061534456,37.60352534239979,11.759828319749328,35.92324968749781
0.3,31.222213095024976,131.0103979726075,4.64093665799555,3.936939025755682,0.0006785438093183,33.570228713727204,0.0010059102294455,2.93586442972183,378.1859457108711,12.149968255527943,4.539237002744259,71.99908328532703,2.6880857935396905e-07,120.00000338923812,90.3787563598417,15.288,0.0,0.0,0.0357062504417728,6.614698865958865e-10,-0.0002340353597042,3.1467140861055e-08,7.817263716758327e-06,3.9369390841381695,36.71173884615234,12.150074840940263,33.698361337808635
0.31,31.22221289105846,131.01039839189684,4.755183729044857,3.9598342215431432,0.0007060286581592,35.396825578217346,0.0010350810412898,2.9297385597941448,394.1656220930212,12.504537499407316,4.6763673222047455,71.99894291513503,3.255120771695107e-07,120.00000366712923,95.72967338626896,15.288,0.0,0.0,0.0367483036680869,7.620720834468404e-10,-0.0002603234137215,3.622454560346964e-08,8.948994505138873e-06,3.9598342843844345,35.934338386209795,12.504648402129598,35.5178635353378
0.32,31.222212681031937,131.01039882363492,4.872689374180126,3.985461429033668,0.0007340760463279,38.52097867048992,0.0010630242168685,2.9235095146848846,421.55939346242695,12.84534566718622,4.809181081594425,71.99878701464397,3.909756427278764e-07,120.0000039606604,101.01782231644016,15.288,0.0,0.0,0.0377499198995686,8.737098716736534e-10,-0.0002884807530145,4.1491545539590986e-08,1.0187112828155184e-05,3.98546149652875,35.21473736963424,12.845460975581933,38.631757748577954
0.33,31.22221246496604,131.01039926777932,4.9934410812554,4.010606629086,0.0007621365968788,38.18822026147908,0.0010905599149574,2.917102431053817,418.5156301991682,13.18247167592885,4.940798912752974,71.99861449732019,4.661299779655886e-07,120.000004270781,106.38859400029033,15.288,0.0,0.0,0.0387407190563976,9.971421990244511e-10,-0.0003185760672934,4.7302669734505256e-08,1.154498667827874e-05,4.010606701382261,34.52805863348922,13.182591392065536,38.299473293007864
0.34,31.222212242662028,131.01039972474007,5.117579377337869,4.019339771238816,0.0007871574969313,29.898022638335373,0.0011220389395318,2.910051232417875,345.46563688075645,13.569536737955724,5.0878303926024735,71.99842423285973,5.519675040347761e-07,120.0000045987411,112.72655675097128,15.288,0.0,0.0,0.0398782837956187,1.1331556132162459e-09,-0.0003507224668667,5.37022358302301e-08,1.308298593306914e-05,4.019339848191799,33.76700548046532,13.5696603843662,30.039310197084795
0.35,31.22221201433324,131.01040019407705,5.2449575244483055,4.033762873683395,0.000813261106463,32.76415525156106,0.0011515840876071,2.902959820469776,370.5765700527033,13.934300103976534,5.227895396154902,71.99821502296155,6.495674834876441e-07,120.000004945438,118.8669740701126,15.288,0.0,0.0,0.040950312688979,1.2825853697215452e-09,-0.0003849609961885,6.072234695821837e-08,1.4746020857580124e-05,4.033762955530055,33.07785186209504,13.934427850732408,32.89250745069162
0.36,31.22221177990305,131.01040067594835,5.375631006350063,4.051723629010647,0.0008401329464575,37.01692984301412,0.0011797030485285,2.8957873473716007,407.8625232777193,14.282998147928636,5.362923567977223,71.9979856440668,7.600645476620651e-07,120.00000531213882,124.88900300695136,15.288,0.0,0.0,0.0419751331662584,1.4462801652534363e-09,-0.0004213876232777,6.84067806399068e-08,1.654507199147348e-05,4.051723715967022,32.44322602189087,14.283130115703262,37.13002398000203
0.37,31.222211539445663,131.01040117020102,5.509550188388412,4.071639898917391,0.0008674922629137,35.12417761390579,0.0012067983861697,2.88849906286036,391.1218908297666,14.620581431527652,5.494447309446232,71.99773482653193,8.846681943540367e-07,120.00000570002652,130.86067091914967,15.288,0.0,0.0,0.0429672939311924,1.6251202388969355e-09,-0.0004600660652957,7.679415042686734e-08,1.849041957573993e-05,4.071639991174516,31.85023865502424,14.620717696893658,35.24274792557624
0.38,31.222211292895075,131.01040167697127,5.646763233102716,4.08264881385344,0.0008930259828975,36.695642158537446,0.0012360471443664,2.880711738179021,404.8187610144602,14.986392916850402,5.634654729559426,71.99746126698146,1.0246533537040716e-06,120.0000061105033,137.4891296153862,15.288,0.0,0.0,0.0440424171304414,1.8200057922063743e-09,-0.0005010869196581,8.592980519823866e-08,2.0642694281337543e-05,4.082648911356968,31.228847973200924,14.986533193043764,36.808540518115166
0.39,31.22221104018777,131.0104021963902,5.787316652586672,4.096641430700089,0.0009192713382325,31.335681548387896,0.0012640110027448,2.872831219844713,357.64062493382744,15.337978856701952,5.770390286512262,71.99716358743511,1.1813915463769678e-06,120.00000654506955,144.01394309468844,15.288,0.0,0.0,0.0450757388736732,2.031886352449547e-09,-0.00054455673306,9.586443829735616e-08,2.295945663566148e-05,4.096641533664766,30.65298398882095,15.338123255506089,31.4670954954126
0.4,31.222210781536543,131.01040272801887,5.931064331106764,4.109028969993624,0.0009451871856381,29.95928076777898,0.0012920492774571,2.8646905607053603,345.465636880754,15.692185018814769,5.906873567965718,71.99684037970908,1.3563276523471372e-06,120.00000700500496,150.74021066990193,15.288,0.0,0.0,0.0461167659598875,2.2617341782092324e-09,-0.0005905037520737,1.0663253249436129e-07,2.5471259834659164e-05,4.1090290785164525,30.09246700352443,15.692333488470696,30.095929256306363
0.41,31.222210517064383,131.01040327160345,6.077922766619747,4.122888296344507,0.0009714525997821,33.78425365340317,0.0013192264430821,2.85640971467756,378.94687077668647,16.03742529732769,6.0405139809190125,71.99649020751959,1.5509747261474075e-06,120.0000074917568,157.44375780268788,15.288,0.0,0.0,0.0471314487675864,2.5105374204052982e-09,-0.0006389770219162,1.1827345344180344e-07,2.816813594418537e-05,4.122888410595805,29.56469007160549,16.037577892745222,33.904791300285986
0.42,31.22221024682894,131.0104038270252,6.227854084363214,4.14444025865494,0.0009995884754813,38.04468161607466,0.0013435485656724,2.8482703202464488,416.2328240017114,16.348862540904037,6.163613566771559,71.99611159893284,1.766920641656551e-06,120.00000800692096,163.6157044470786,15.288,0.0,0.0,0.0480467946810589,2.779304965995011e-09,-0.0006900467934588,1.308321832549104e-07,3.100973487310896e-05,4.144440378988911,29.104646754454564,16.34901955589459,38.15115260238947
0.43,31.222209970843565,131.0104043942566,6.380851271439565,4.1618082623168045,0.0010268052928652,33.45815353250911,0.0013687230309017,2.8397750580998298,375.9031395134336,16.67263197205097,6.290467308135904,71.99570306121484,2.005818691215035e-06,120.00000855220898,170.15779512382937,15.288,0.0,0.0,0.0489983878509763,3.0690566816849196e-09,-0.0007437862329608,1.443552931671376e-07,3.4086145072160934e-05,4.161808388761201,28.640125213458976,16.672793262249197,33.57845085853367
0.44,31.22220968892116,131.01040497368373,6.537047157143216,4.164954087655709,0.0010505545842624,30.86574023822051,0.0013980747538988,2.830419582421933,353.0750125389216,17.050421620730056,6.433992917638883,71.99526304125902,2.269416145406482e-06,120.00000912964636,177.9537948947602,15.288,0.0,0.0,0.050108743779844,3.380847125286677e-09,-0.0008003278134917,1.589055036683518e-07,3.750784460406397e-05,4.164954219916419,28.113519280259386,17.050586641458253,30.99524475496968
0.45,31.22220940081287,131.01040556582012,6.696617751072218,4.165241899529329,0.0010735835484822,35.912216710755274,0.0014280646808282,2.820677244966047,397.2093853562869,17.438293672974723,6.580571293039616,71.99478987454265,2.5595995397253085e-06,120.00000974147088,186.13940823302417,15.288,0.0,0.0,0.0512487363629523,3.7158016249566814e-09,-0.000859850913876,1.745604864109677e-07,4.121350642664912e-05,4.1652420376426775,27.591357195572936,17.43846231108416,36.02281959036367
0.46,31.222209106468902,131.0104061707686,6.859600379555308,4.174585124444534,0.0010989881252456,41.916816790010685,0.0014546917035209,2.811153314474766,449.7140588976434,17.786187321601275,6.714685486378061,71.99428180697711,2.8783880229668832e-06,120.0000103898448,193.6374175079873,15.288,0.0,0.0,0.0522712438446989,4.0751091178509895e-09,-0.0009224765531151,1.9138630415982226e-07,4.50966024037632e-05,4.1745852688465686,27.13985967570823,17.786359950252297,42.01097612387663
0.47,31.22220880579083,131.01040678873238,7.026066274755745,4.1823089530633855,0.0011240727220223,28.37640408484148,0.0014814747534716,2.801325368441072,331.0078106302534,18.138167428286582,6.849989708801916,71.99373704967608,3.2278903746588286e-06,120.00001107707628,201.37401505997488,15.288,0.0,0.0,0.0533057667609836,4.459978104761035e-09,-0.0009883252835099,2.094509673354327e-07,4.927107017839778e-05,4.182309103852639,26.69716826759888,18.13834399721685,28.514342615617974
0.48,31.222208499300592,131.0104074186346,7.195654207463586,4.189479568102716,0.0011490100608361,27.95074823096412,0.0015080719422187,2.7912412472910484,327.2031223011574,18.48995085190441,6.98515976370584,71.99315377257649,3.6103201777021456e-06,120.00001180491516,209.25751230436188,15.288,0.0,0.0,0.0543397174489847,4.8716620260348906e-09,-0.0010573190976925,2.2877013380347535e-07,5.373205427420879e-05,4.189479725385959,26.268461765425428,18.4901313379827,28.089773168283216
0.49,31.222208187201936,131.01040806005494,7.368224738812109,4.202723284133339,0.001175611380853,35.08821363242469,0.0015321405723077,2.781292092003844,389.60000969812296,18.812014261754847,7.111044804193205,71.99253015042137,4.027946338669921e-06,120.0000125755114,216.60722913930897,15.288,0.0,0.0,0.0552863302793499,5.311396446020465e-09,-0.0011294854492155,2.4938633613154685e-07,5.8398320167141767e-05,4.202723448262914,25.88860807032205,18.81219892635871,35.1982716047702
0.5,31.22220786953184,131.01040871291724,7.5437546994244835,4.220815778795054,0.0012036252596423,36.05491615971072,0.0015540388599792,2.7714444106710974,397.97031042210494,19.10875420627192,7.229005658018125,71.99186435180009,4.483102820610566e-06,120.00001339126192,223.4908652241728,15.288,0.0,0.0,0.0561585257949344,5.7804122391526605e-09,-0.0012048912160576,2.713531252030471e-07,6.327866493526626e-05,4.220815950099865,25.54902500917784,19.108943271285572,36.161276053538906
0.51,31.222207546379583,131.0104093770373,7.722184419225251,4.232567510615346,0.0012298790840397,27.54004661432325,0.0015777580800203,2.761017323676155,323.3984349720841,19.430597746636646,7.354673636736509,71.99115452520388,4.978202222778502e-06,120.00001425458936,231.07869697977367,15.288,0.0,0.0,0.0571045034845869,6.2799518101633574e-09,-0.0012835871653678,2.947201005874635e-07,6.854585242460463e-05,4.232567688976395,25.189423168613605,19.430790935591396,27.678103017910345
0.52,31.22220721796493,131.01041005258665,7.903534773201732,4.239716455402633,17.62328414133195,33.44271501626012,-1.0930373264040525,2.749829449413517,372.0984511843415,20.73646997735256,7.483117972252439,71.99039247369677,0.0001368600230165,120.00015327904244,263.178059163465,15.288,0.0,6.285727556963035,0.0609424506664339,6.855381810165544e-09,-0.0013839458819752,0.0002524549699526,7.88707602555153e-05,18.11034682094519,40.30956665437887,23.461285030201672,33.57337457355999
0.53,31.222206884693325,131.01041074036107,8.087934284081177,4.24844465307735,17.385489581730557,35.10770156766107,-1.12083892859181,2.7387612424588914,386.5562464348624,21.05507717331699,7.611152622755108,71.98957829577864,0.0008755073047409,120.00093033704016,271.32262538957485,15.288,0.0,6.309912951045163,0.0618789346746771,7.652059137568947e-09,-0.0014695867332025,0.0006245454406728,8.503671261269103e-05,17.881469581522,39.79500462229903,23.744269225779178,35.23219837607346
0.54,31.22220654649377,131.0104114406165,8.275457755812054,4.256972915542198,17.15544046781829,30.852281430322684,-1.1489663166872777,2.7274575952349864,349.2703242098436,21.37210401141993,7.738520869449865,71.98871410268494,0.0022773547432295,120.00240477719863,279.54972784425775,15.288,0.0,6.334045765535181,0.0628107802568493,8.685260031523089e-09,-0.0015589267011372,0.0010062206585002,9.156290377100933e-05,17.660292890340724,39.29576718469667,24.02678928710527,30.993909369205443
0.55,31.222206203680628,131.01041215274702,8.465899677560243,4.266504630631607,16.93713218086075,32.69140390297979,-1.1770918516551612,2.7160059472372824,365.2500005919907,21.682000786644668,7.8634337154284495,71.98779776343324,0.0043589038980117,120.0045939582314,287.71021764314423,15.288,0.0,6.358096107684171,0.063721677192293,9.960956716726396e-09,-0.0016519365180798,0.0013970925642392,9.84308760523268e-05,17.45095925102244,38.82022629828843,24.303900794722097,32.8251446711271
0.56,31.22220585627276,131.01041287675474,8.659260151042739,4.277900687278136,16.73316718410552,30.52325705176352,-1.2049530459898297,2.7044812224566903,346.2265619465787,21.980479613713296,7.984513293960904,71.98682712315112,0.0071363753863747,120.00751494466508,295.6806058222121,15.288,0.0,6.382062296592961,0.0645990236545121,1.1484995037458029e-08,-0.0017487135298819,0.0017973008422414,0.0001056297889122,17.256182906193793,38.37395652226311,24.5717140077313,30.666518412980835
0.57,31.222205504364663,131.010413612485,8.855486322992148,4.287092373628887,16.52805906101209,30.18410113329776,-1.2336686433590218,2.6925730073755134,343.1828296833023,22.286562400204865,8.107927936995065,71.98579998157254,0.0106259718620069,120.01118478303349,303.96704309414963,15.288,0.0,6.405932680082803,0.065498723591966,1.326321592627332e-08,-0.0018493130843067,0.0022068123843267,0.0001132598344049,17.059984046788422,37.92550482613347,24.84692620054412,30.329059480089413
0.58,31.222205147950543,131.01041435998945,9.054595146087443,4.291425478354766,16.31222709523121,39.69721986457314,-1.2640595125831608,2.680041582784153,426.1250058573153,22.613494840582927,8.237952518212678,71.98471407988313,0.0148440321180944,120.0156206641844,312.9445529522108,15.288,0.0,6.429706266500934,0.0664597055549836,1.5301494900967143e-08,-0.0019538372091539,0.0026257793331491,0.000121414387509,16.85243638857668,37.45512154571382,25.14133859189884,39.807659241822606
0.59,31.222204786621848,131.0104151201524,9.25688473107348,4.300828047713862,16.121294804013306,32.20883050024655,-1.293276214004654,2.667694488269185,360.68438819711065,22.913433701385525,8.359118052141092,71.98356702387176,0.0198079367126889,120.02084087600156,321.29497922779706,15.288,0.0,6.453418781895767,0.0673413615616368,1.7606023523166495e-08,-0.0020626009456586,0.0030551708496294,0.0001298706586022,16.67040369317303,37.03607670161231,25.41247919570051,32.344982909905276
0.6,31.222204420620805,131.01041589251534,9.462199694656343,4.302051766210754,15.907785678091724,28.64202286010603,-1.325245895801635,2.6544015974905792,329.4859594986058,23.25130684606264,8.492396154772495,71.98235634842169,0.0255352824268109,120.026863934267,330.8337145229788,15.288,0.0,6.477046843211983,0.0683345110197298,2.018314363537528e-08,-0.0021755936527082,0.0034946764845562,0.0001390023822913,16.464722823129307,36.57055672420029,25.71811597369553,28.79527041102299
0.61,31.22220404991392,131.01041667718843,9.67057681261973,4.3017403356316,15.695442899511376,33.53829536034904,-1.3580842976916063,2.640693260493004,372.0984511843297,23.595296273770465,8.627500985035697,71.98107946070117,0.0320440780467097,120.03370879217336,340.68828963184893,15.288,0.0,6.500593622943542,0.0693456429878628,2.303930647373844e-08,-0.0022929483229107,0.0039445412444025,0.0001486647842181,16.259966581372293,36.10742861266651,26.030011158460155,33.66949523728652
0.62,31.22220367463992,131.0104174739271,9.881933069576087,4.3131475808272,15.52948601542862,41.66675526407832,-1.3875841054861469,2.627813551076736,442.86563930529206,23.877554021651942,8.742589404822493,71.97973379800388,0.0393526999610293,120.04139478308488,348.88090044343016,15.288,0.0,6.524058270640952,0.0701753546756176,2.618110388709465e-08,-0.0024147336938646,0.0044047647210579,0.0001584304541463,16.103111847735157,35.74096770527412,26.28716228903884,41.77259015126568
0.63,31.22220329462167,131.01041828313467,10.096404410399543,4.320464467183342,15.354729046178068,23.68993514186057,-1.4186436735072043,2.6143234675489606,286.11251274707894,24.177872516418624,8.863379288110046,71.97831668247827,0.0474788592663936,120.0499405502409,357.70478068672134,15.288,0.0,6.547423864895114,0.0710581528919021,2.961483701654768e-08,-0.0025411373191136,0.0048757726103824,0.0001688172658748,15.936904607375356,35.35671205545179,26.561021006454013,23.875934831769825
0.64,31.222202910491127,131.0104191035472,10.313563767747896,4.321434037491979,15.163892765026196,23.259904147203216,-1.4521062668920517,2.599955091483611,282.30782441796754,24.50901809617682,8.993965868740373,71.97682536513229,0.0564404178797831,120.05936489621796,367.5626267591769,15.288,0.0,6.5706994928767966,0.0720315578034746,3.3347038460161574e-08,-0.0026719220773287,0.0053564503767747,0.0001799331940363,15.753736023471603,34.939135845817816,26.86324694087481,23.449765884229212
0.65,31.222202522243844,131.01041993521036,10.53342652830766,4.3310532085334765,15.00685881177166,41.00427164573573,-1.4829981897888052,2.586208353058121,436.7781447787475,24.792211326833296,9.109029299608329,71.97525720019509,0.066254767867091,120.06968612426644,376.09787775387184,15.288,0.0,6.593823000574215,0.0728640382812578,3.738391173788643e-08,-0.0028072197465465,0.0058470403496193,0.0001912247468246,15.60553599870738,34.59294574716887,27.122623384876228,41.11250479444948
0.66,31.222202129362408,131.01042077922455,10.756364303627423,4.3381301875866205,14.846059530938108,34.89753434684872,-1.5150331000200927,2.571964308576255,383.51251517160017,25.086062846066767,9.22740536087872,71.97360930897305,0.0769394926829797,120.08092275150172,385.0579257839704,15.288,0.0,6.616874471698376,0.0737278501183441,4.173158932197171e-08,-0.0029474308870357,0.0063487114365113,0.000203151137427,15.453207672751825,34.23937820156085,27.392068904825507,35.02496579853052
0.67,31.22220173205749,131.01042163519335,10.9822431635337,4.33957488394019,14.671583675421276,24.06574247082729,-1.549362323398424,2.5568545700738285,289.1562440103425,25.407935484971425,9.354659213550152,71.9718788032532,0.0885133421447739,120.09309451236628,394.9939021834476,15.288,0.0,6.639850958584953,0.07467402295763,4.639681986697009e-08,-0.0030925518682745,0.0068611938873754,0.000215883809134,15.28638955054843,33.857415533653764,27.687439184207616,24.250731732750957
0.68,31.22220133052174,131.01042250275685,11.210941622890996,4.342164257908797,14.505293460147758,30.019495142206928,-1.5836519169434375,2.541591130854471,340.8999924858462,25.72146612528413,9.479125430489423,71.97006257356719,0.1009950211024122,120.10622110660536,404.7935063805752,15.288,0.0,6.662671284021766,0.075595685794975,5.1386340576863375e-08,-0.0032425999294111,0.0073843008799984,0.0002291465130796,15.127895948779583,33.493308051460865,27.97569116186081,30.168488982106183
0.69,31.22220092485337,131.01042338174778,11.44240333076638,4.34947256221102,14.358306237693332,36.93882992065853,-1.616546490966977,2.5266114509366457,401.0140726853634,26.006358380872022,9.594304260967556,71.96815759861235,0.11440291043613,120.12032188766575,413.8009950115333,15.288,0.0,6.685402622192528,0.0764331870111755,5.6706742991736585e-08,-0.0033976298003726,0.0079179779090781,0.0002427560775508,14.989364059522742,33.17056542967628,28.23822328888447,37.06041208471378
0.7,31.222200514922235,131.01042427246662,11.676730014708708,4.356074496834899,14.213013434366976,30.99775260424265,-1.649992781609789,2.5113045448329507,349.27032420985284,26.292382564563944,9.709742415764342,71.96616077350123,0.1287551619176074,120.13541597326046,422.94369744618086,15.288,0.0,6.708050599059843,0.0772740218666194,6.236443561638278e-08,-0.0035578397515738,0.0084626494807282,0.0002569928642963,14.852412610396684,32.85201065104039,28.50213066785037,31.14305369115391
0.71,31.222200100798133,131.0104251748028,11.91388461819686,4.358905103973092,14.059691330271132,25.490958390502367,-1.6851834238144796,2.495275590503456,301.33126406340574,26.59717483171585,9.831089254090031,71.9640688822087,0.144070357852681,120.1515229362529,432.7965574520519,15.288,0.0,6.730543014988134,0.0781700237118556,6.836607265516708e-08,-0.0037233007718692,0.0090183057329718,0.0002720561054786,14.706866578898088,32.51711514544109,28.783568485164437,25.66817490806046
0.72,31.222199682496385,131.01042608875764,12.153867954003264,4.35730297441196,13.896658775976595,31.18933814119845,-1.7224930438512596,2.4783935040679976,350.79220534145287,26.92533575288669,9.959800866117636,71.96187860612643,0.1603674455626422,120.168662735868,443.53207079897976,15.288,0.0,6.75294452007486,0.0791347143500158,7.471840927960521e-08,-0.0038941359083258,0.0095851084976841,0.0002880428319161,14.550921168294837,32.161973796753934,29.086878662374165,31.33503199827852
0.73,31.22219926002721,131.01042701434395,12.396684676250306,4.3647711034764045,13.765076145364487,39.430742495969184,-1.7565744379737067,2.462404694050629,422.320318528234,27.19841334851917,10.070791323288708,71.95958648760575,0.1776660372827316,120.18685603340444,452.5637722268703,15.288,0.0,6.775261790496551,0.0799375200778344,8.142842401475487e-08,-0.0040704858433807,0.0101632742173178,0.0003041336902006,14.427766844162656,31.874563672514665,29.33988659431835,39.54658574917505
0.74,31.222198833335447,131.01042795170483,12.64238363202564,4.3687322841889085,13.62617222985052,24.72088761616885,-1.7923624335554362,2.44569418752156,294.48281347105944,27.48922254751311,10.18735173566611,71.95718902680413,0.1959850163339308,120.20612272935271,462.28235161423487,15.288,0.0,6.797457942094447,0.0807924470587642,8.85028278078334e-08,-0.0042524899233182,0.0107530010525521,0.0003211221157768,14.296750108137385,31.5722113691442,29.609497196948425,24.90614919419194
0.75,31.22219840281571,131.01042890006224,12.890702553605642,4.370302351417048,13.483408660867571,28.845941144027663,-1.8294871887940056,2.4283718644253054,330.24688556441487,27.791778865623574,10.307568260138792,71.95468272011159,0.2153433751983941,120.22648283624088,472.50317818056095,15.288,0.0,6.819516595290699,0.0816819067663546,9.594865956658014e-08,-0.004439989267293,0.011353542456907,0.0003389630631425,14.161491067436572,31.262239267436783,29.890252899266336,29.005729326645138
0.76,31.22219796836149,131.01042985966328,13.141725536876924,4.374815950486957,13.35261012786538,31.044411806005115,-1.865717358763194,2.411184509000789,349.27032420986166,28.07413509175972,10.4212360668663,71.95206400082976,0.2357599198122244,120.24795617461804,482.1413112244752,15.288,0.0,6.841475303171048,0.0825120043807363,1.0377253510962617e-07,-0.0046331999275115,0.0119653466180898,0.0003572983963308,14.038637102065035,30.978601703094014,30.152624182809703,31.193752842196872
0.77,31.2221975299223,131.01043083063902,13.395497585522705,4.379749863866265,13.22605580751043,29.034582708630964,-1.9020836491015591,2.393789797091318,331.7687666960708,28.351132378481903,10.533098043837768,71.9493290952684,0.2572536561947664,120.27056278584868,491.6904913190277,15.288,0.0,6.863336384517027,0.0833263589095436,1.1198119920304993e-07,-0.0048322878931603,0.0125886906870262,0.0003763191048409,13.920082503671338,30.704774300105413,30.410274696268296,29.195121936124366
0.78,31.22219708757748,131.0104318128543,13.651973813068173,4.381364432303478,13.092747092998207,23.865608553464007,-1.9402305904804693,2.3756198845516074,286.8734378128899,28.645791980402745,10.650501242130112,71.94647424667363,0.2798436090898987,120.29432272800692,501.9517364979084,15.288,0.0,6.8850620951301895,0.0841926318471226,1.2058152603121262e-07,-0.005037307131559,0.0132235001007386,0.0003963525212839,13.79423626134108,30.41708686669425,30.684544095789285,24.06190632945128
0.79,31.22219664143148,131.0104328061228,13.911092052793396,4.380940531574244,12.956515409231407,33.8739936829598,-1.97967510684016,2.356829227523974,373.6203323159534,28.95074137564061,10.771089281373492,71.9434955331757,0.3035490161220273,120.3192562907272,512.6829395635904,15.288,0.0,6.906659593725284,0.0850891550768263,1.2958049670744022e-07,-0.0052483077083097,0.013869692151618,0.0004173405006356,13.665121154240405,30.12371013490668,30.968644805140556,34.01354444290618
0.8,31.22219619125797,131.01043381093254,14.173018129111291,4.385826480667374,12.838245767432804,34.32044931648142,-2.0170579592995144,2.3385825848379334,377.42502064505743,29.219797394111385,10.88013888522744,71.94038900511643,0.3283896167254825,120.34538428850126,522.2434031669361,15.288,0.0,6.928166688696467,0.0858801916991717,1.3898490849712338e-07,-0.0054656311982919,0.0145280578420417,0.0004386500195141,13.554810997273782,29.869911676128897,31.219591765614695,34.459116828532494
0.81,31.22219573717616,131.01043482706532,14.437679241692427,4.386721567381813,12.71135517255648,22.387437110639983,-2.0566257122815927,2.319404611470662,273.9374926939919,29.511327126510995,10.99625524527258,71.93715046180553,0.3543850031578951,120.37272739657077,532.7028304864984,15.288,0.0,6.949572299934215,0.08673728858125,1.4880195054460565e-07,-0.0056892877962376,0.0151983803611262,0.0004611436517725,13.435214802151105,29.59804758665182,31.491682954941616,22.601032884693332
0.82,31.22219527939746,131.01043585411503,14.704939182620716,4.3857721229607165,12.58198923537726,28.715053625802465,-2.097469752963212,2.2995999035262584,328.72500443277005,29.81226568305277,11.115274034275233,71.93377578414301,0.3815546990441034,120.40130621164552,543.6086306139805,15.288,0.0,6.97086674468154,0.0876220468839822,1.5903887077669054e-07,-0.0059192338275126,0.0158802937387043,0.0004846619477534,13.31281873961048,29.321397386851817,31.77279376884937,28.883245036069006
0.83,31.222194817913163,131.01043689212372,14.974813162731955,4.3913545207897045,12.473144213907371,36.451578674615085,-2.135490431739051,2.2806176864974548,395.68750322465047,30.068271946140925,11.219899469078932,71.93026067053779,0.4099183444854955,120.431141462889,552.9706239824912,15.288,0.0,6.99202276489306,0.0883747509967483,1.6970268827124266e-07,-0.0061556335631368,0.0165740460849026,0.0005083331317457,13.212024794596005,29.09026445415736,32.012109755959884,36.585230958512035
0.84,31.222194352616874,131.01043794132772,15.247382349401704,4.395226829996282,12.361854007613603,22.575130078514984,-2.174632515318222,2.261066619178255,275.4593748256452,30.33231355393345,11.326995050724296,71.92660073042417,0.4394950668900883,120.46225334869705,562.7102508735675,15.288,0.0,7.013067744324691,0.089151079450759,1.808001942583295e-07,-0.0063986913699701,0.017279986795525,0.0005330310645292,13.10849532101149,28.854538001423112,32.25907889081637,22.792058855990028
0.85,31.222193883834684,131.01043900108616,15.52243128558766,4.393152485989413,12.236724907493604,24.60068141312174,-2.2171251055602816,2.2401321750305088,292.96093233939376,30.632847555327213,11.445614409110185,71.92279164864865,0.4703038355473564,120.49466189579624,573.9010518724066,15.288,0.0,7.033993559790261,0.0900346719797151,1.923387210381402e-07,-0.006648229716332,0.0179973712941413,0.0005592908767897,12.99010303740035,28.589148259687832,32.54040878560217,24.801761265789693
0.86,31.22219341138651,131.0104400717848,15.80009168502233,4.394946291225641,12.124357976408236,30.75967230699884,-2.258019552808185,2.219592280673397,346.2265619465587,30.90510895780212,11.555150273695956,71.91882879177837,0.5023643077769014,120.528387869652,584.1323501592158,15.288,0.0,7.054814581127789,0.0908351748756724,2.0432507390836374e-07,-0.0069045834556726,0.0187269212485756,0.0005860039317082,12.885120245973743,28.35239345321777,32.79541699083786,30.922203715570472
0.87,31.22219293530568,131.01044115337498,16.080348455792407,4.3984044954426444,12.018551812847054,28.65461052703576,-2.29836247178956,2.1990757203318454,327.964078366998,31.163231032923424,11.660103935513144,71.91470745595569,0.5356958977699785,120.5634517852182,593.9145573682148,15.288,0.0,7.075529729351598,0.0915941275432598,2.1676635818150002e-07,-0.0071678551332707,0.0194686852849703,0.0006134127195679,12.786980035911592,28.130764996094427,33.03728658375454,28.830627959369743
0.88,31.22219245563748,131.01044224578243,16.363177940435747,4.398742414968012,11.906545142134624,24.78886542759161,-2.3406920027655045,2.177649727813691,294.4828134710418,31.439540462564967,11.770753866408468,71.9104229529636,0.5703178212203291,120.59987394825852,604.4767400824894,15.288,0.0,7.09613402056076,0.0924065436444773,2.2966970572733386e-07,-0.0074381080022051,0.0202226009553673,0.0006421669518248,12.682086368208868,27.89616575306719,33.29638413245037,24.994176253201545
0.89,31.22219197247695,131.01044334883247,16.648522527544745,4.396025404449088,11.788638200316232,27.168751792581503,-2.385062333399024,2.155278859086037,315.028134248087,31.734160095825384,11.887136242581525,71.9059703988425,0.6062493913970368,120.63767477835236,615.8420371241658,15.288,0.0,7.116620307668748,0.0932727847783975,2.4304232939727853e-07,-0.0077154003361361,0.0209885943959012,0.0006723305636377,12.570737987368975,27.64917284926944,33.57287753443154,27.358267914133794
0.9,31.22219148574897,131.01044446269353,16.93644073158505,4.399993243927003,11.690068021866274,29.989877890951707,-2.4260895298890137,2.13396132978629,339.37814235421445,31.979782397823595,11.98786682166015,71.90134475329067,0.6435104355429898,120.67687524132324,625.3948683216837,15.288,0.0,7.136980540397676,0.0939950212001251,2.5689130606003054e-07,-0.0079999671524894,0.0217670726443053,0.0007025044500008,12.479909335123269,27.44568031129955,33.80334033187368,30.16342946812007
0.91,31.22219099553548,131.0104455872143,17.226883009588747,4.400882435675449,11.585384436015609,22.86303945821429,-2.46914256753509,2.1117021381025807,277.7421810230789,32.243696916430466,12.09432596019136,71.89654097730951,0.6821198474454653,120.71749532769992,635.7419224657701,15.288,0.0,7.157231910294511,0.0947710296977591,2.712238132049497e-07,-0.0082918415338403,0.0225578834248167,0.0007341234233324,12.382411556246552,27.22934670318919,34.05114923176071,23.092737477543544
0.92,31.22219050206128,131.01044672195724,17.519703015176162,4.398780694592299,11.47493251060742,27.18150505459947,-2.5142615107868056,2.0884703051650666,315.02813424806214,32.5258564184499,12.20649893404758,71.89155390985097,0.7220965648750018,120.75955508129428,646.8989674815766,15.288,0.0,7.17736482439069,0.095600671879655,2.8604738432877445e-07,-0.0085909059663552,0.0233604813892158,0.0007672356063646,12.278593209727052,27.00084205485884,34.31630911289556,27.377316088203326
0.93,31.22219000523296,131.0104478671229,17.81497032563605,4.40278892121351,11.381728801205163,32.29499768730988,-2.556138345105229,2.066276382034228,359.1625070654728,32.76171023598967,12.30388864819783,71.8863782700576,0.7634595265074771,120.8030745546936,656.2960507798266,15.288,0.0,7.197389608825773,0.0962942191258364,3.013687545749873e-07,-0.0088974365907559,0.0241753709532647,0.0008003504519277,12.193135284252165,26.81141119301517,34.53781279818673,32.461827073496956
0.94,31.22218950493429,131.01044902295305,18.11276866464759,4.400767620255022,11.275072716409952,23.488216606304068,-2.601899576828688,2.042408393716352,283.0687504837787,33.03750310706996,12.413876186897856,71.88100872152611,0.806227153836116,120.8480732641717,667.3730638101557,15.288,0.0,7.217306001334955,0.0971051642443548,3.171946897248965e-07,-0.0092116467360879,0.0250028728879346,0.0008355660740146,12.093108834222669,26.592671832198405,34.797178574558,23.719983827972616
0.95,31.22218900148573,131.0104501888194,18.412887170327807,4.399313923284753,11.171571757954815,30.36615993617935,-2.647681057205197,2.0183298369184985,342.4218736174873,33.30645692616984,12.521615089804282,71.875439718611,0.850418504877431,120.8945714034198,678.2637290739953,15.288,0.0,7.237105989025949,0.0978960156912034,3.335330638498989e-07,-0.0095333479799567,0.0258422651192695,0.0008717614695219,11.996332604870116,26.38160785620854,35.05018541904764,30.54811842946964
0.96,31.22218849457012,131.0104513653631,18.715544884572783,4.40080635743421,11.076984767515508,29.753395676943047,-2.6919778368063407,1.9946268981777733,337.09533515678345,33.550865396918105,12.621483287639224,71.86966558783901,0.8960523297763094,120.94258885394196,688.234676895421,15.288,0.0,7.256805058175898,0.0986147301524554,3.503901276659767e-07,-0.0098630493155436,0.0266946267740708,0.0009085024350018,11.909017569928798,26.19118785510171,35.28001536290635,29.941440103066586
0.97,31.22218798421192,131.01045255254283,19.020729816990567,4.400499126485721,10.979540769179824,19.08633575726763,-2.737705198477266,1.970169786356217,245.02188719299323,33.80521237927157,12.724425076542872,71.86368059927341,0.9431476471845956,120.99214578087968,698.6886773379725,15.288,0.0,7.27640126443699,0.0993626643306039,3.677732040705654e-07,-0.0102008581673253,0.0275599857443551,0.000946714028537,11.818502520873986,25.995054102929,35.519338545026365,19.382074485977842
0.98,31.22218747072952,131.01045374973378,19.32823241130892,4.394461682304619,10.869801970876248,27.73261351097792,-2.787465755984213,1.9439226648192904,319.5937466429581,34.0991920783762,12.839864438663328,71.857478813478,0.9917231834916748,121.04326205815076,710.8725098754276,15.288,0.0,7.295881355921205,0.1002270979595458,3.856904818367331e-07,-0.01054651004019,0.0284374349716821,0.0009872757459003,11.714587509035772,25.771869799636917,35.79639291256325,27.940054631601168
0.99,31.222186953963387,131.01045495726018,19.63816456481925,4.397547143947378,10.783579317950004,30.29484502172256,-2.831611972576623,1.9196765373343765,341.6609485517054,34.322028243290184,12.9326584390424,71.85105414214183,1.0417979828838877,121.09595790192672,720.1724479476004,15.288,0.0,7.31526009453017,0.1008824288099271,4.041486070742762e-07,-0.0109004022538386,0.0293277415292236,0.0010270418712614,11.635937198456944,25.60234761711191,36.00592633809585,30.48738787205981
1.0,31.22218643391249,131.01045617512597,19.95052987928213,4.395054498852498,10.68542597819106,27.121292714701905,-2.87973008892374,1.8936532633744187,314.2672081822764,34.58346516523814,13.037620119752546,71.84440053481838,1.0933897667599244,121.15025214629682,731.1636573113831,15.288,0.0,7.334531621331238,0.1016512262907287,4.2315472519331284e-07,-0.0112626062116914,0.0302308374645856,0.0010692199582246,11.544274635077665,25.40657483940968,36.25221517189396,27.33940903866585
1.01,31.222185910776496,131.01045740294185,20.26519863195617,4.393277129983578,10.590411634408326,28.36017789279299,-2.927688263801341,1.867478819406192,324.9203161036979,34.83641645860526,13.13981752107938,71.83751169475448,1.1465169661798058,121.20616438242152,741.8761441097522,15.288,0.0,7.3536932083958595,0.102395089946224,4.427166159571369e-07,-0.0116330426712196,0.0311462915193347,0.0011124316082096,11.455885396900396,25.21854819396667,36.49049815570016,28.57198848210945
1.02,31.22218538447192,131.01045864087425,20.58222954953579,4.392715846244877,10.499623269942528,23.68275122229071,-2.9751036513411964,1.8413084368718144,284.59063161540416,35.07679601757542,13.23795465292128,71.83038127111064,1.201197318472278,121.26371348258,752.1268083780615,15.288,0.0,7.372749535134713,0.103102009255202,4.628410465192127e-07,-0.0120119524440614,0.0320744566838845,0.0011565564166526,11.371960048562498,25.040781610979803,36.7168575612682,23.939807099323737
1.03,31.2221848550734,131.01045988877638,20.90157525462427,4.388288495793105,10.401182012416587,19.35598607953961,-3.025529316167632,1.813705194747362,247.30469339049705,35.34382480620742,13.344470322731226,71.82300281965912,1.2574481338432628,121.32291788064244,763.5983916800222,15.288,0.0,7.39169715051085,0.1038872672925505,4.835353195562563e-07,-0.0123993556937587,0.0330151418815777,0.0012029086408596,11.27960887255034,24.846251186211465,36.96867973290667,19.674794821999402
1.04,31.22218432264889,131.01046114651663,21.22319350263073,4.387195088394062,10.311789911668011,30.754497797189607,-3.073913321490202,1.7867061856322894,345.46563688072297,35.581773947101325,13.44169506846385,71.81536966097407,1.3152872502682582,121.38379657771031,773.8908112440959,15.288,0.0,7.410538749378448,0.1045870585991547,5.048067726590928e-07,-0.0127953361514212,0.0339683148219007,0.0012496427116454,11.196970424549052,24.67298358953612,37.19281595987612,30.959334567447538
1.05,31.222183786883928,131.0104624147066,21.547294215678868,4.382946407798808,10.21645766858498,18.5611625365386,-3.124876245841835,1.7584323060919709,240.45625879819983,35.841103123976445,13.545623317591645,71.80747504232113,1.3747318879956278,121.44636793733888,785.1881093417751,15.288,0.0,7.429284679646477,0.1053497014370977,5.266613378122092e-07,-0.0132004436574771,0.0349350396632154,0.0012985627500614,11.107750445380937,24.486801334742463,37.437410028651634,18.904329938792817
1.06,31.22218324803801,131.0104636928383,21.87370761862469,4.375996010014035,10.11632609570174,26.42900015403633,-3.1782176707333383,1.728946254990101,308.17968365593924,36.11886103004147,13.655323965815583,71.79931192942001,1.435800029296684,121.5106511373485,797.3802155925795,15.288,0.0,7.447926994273401,0.1061665213883757,5.491074905157772e-07,-0.0136144622197746,0.035914557475685,0.0013496276493819,11.013169944017482,24.29020378729564,37.69968625632725,26.67550134219146
1.07,31.222182705982664,131.01046498116017,22.20252054382313,4.374696852218727,10.030239178298826,31.117493841685743,-3.2276518055216514,1.7008370392336432,348.5093681440308,36.3482637787984,13.749621985862545,71.79087307902012,1.498509876129382,121.57666560059424,807.5157247296956,15.288,0.0,7.46647637770148,0.1068412162635955,5.721520380780509e-07,-0.0140377770537205,0.0369075278030893,0.0014003858845556,10.933786718125065,24.126480182211026,37.9157749563933,31.33064004770835
1.08,31.222182160603584,131.01046627988725,22.533808627447616,4.371983193789724,9.942142260889325,20.94851194582392,-3.2784303597657143,1.6719419301513885,261.00157857466235,36.58539084877421,13.846295600632414,71.78215120535548,1.5628787168900122,121.64442980211996,818.0601255783605,15.288,0.0,7.4849339951665215,0.107538623919905,5.958019705638169e-07,-0.0144706552329819,0.037914311657798,0.0014529403630806,10.85210230951883,23.95882488210173,38.139273451349375,21.269312358089046
1.09,31.222181612201528,131.01046758843077,22.86737481670585,4.362835294055781,9.840975784132056,19.267234975592704,-3.3345498559762854,1.6405747923658027,246.54375332474407,36.87159066459222,13.958460353881614,71.77313885671757,1.6289237224350874,121.7139621071613,830.8825904489764,15.288,0.0,7.503288977050317,0.1083802839109981,6.200661803164836e-07,-0.0149127730438466,0.0389339090660457,0.0015089965982296,10.75599926656667,23.76159562650588,38.40981830442509,19.622361019919094
1.1,31.222181060858365,131.01046890662823,23.203166607646462,4.356741317715714,9.747817715187391,38.64824731511816,-3.3886531721395654,1.6097977431796666,413.1890617385841,37.12989427455995,14.061716393247064,71.76382841390364,1.6966619229327564,121.78528074796549,842.537673782265,15.288,0.0,7.521544893468951,0.1091399546175908,6.44952213872709e-07,-0.0153642068205459,0.0399662542633807,0.0015655171448537,10.668532481812882,23.583432444435385,38.65370196687353,38.82990393531171
1.11,31.222180506124904,131.01047023533567,23.541477468871715,4.356945946658788,9.66955029294584,28.295160565203467,-3.437928992728013,1.5808162120165967,324.1593910376397,37.33239953516223,14.147208799745124,71.75421205328453,1.7661104120571944,121.85840403967268,851.7254048963001,15.288,0.0,7.5397190960049665,0.109735619396809,6.704652818722334e-07,-0.0158258093763873,0.0410130246386298,0.0016212936937564,10.597289536098687,23.4405054327526,38.84408908924495,28.547056714587228
1.12,31.22217994806372,131.01047157441783,23.88226447829184,4.344876107709992,9.565753282705575,10.67568416605676,-3.4975997545705586,1.5471769222380551,172.73281794065943,37.63359358303189,14.263921149865087,71.74428189854682,1.8372853574122936,121.93334933789752,865.4957828624233,15.288,0.0,7.557803676744973,0.1106213807658986,6.96613429721073e-07,-0.0162975603357927,0.0420738960683896,0.0016830380320233,10.497894633384613,23.238827580635963,39.12920790768862,11.340070232819242
1.13,31.22217938733008,131.01047292261669,24.22510303893556,4.339207035463724,9.47695468950447,33.34632134857108,-3.5523149480005567,1.5153799749223866,367.5328077900705,37.87816416398242,14.362623673343768,71.73402959617961,1.910204614709566,122.01013579192008,876.7527102559258,15.288,0.0,7.5757866815718256,0.111340710069227,7.234077134852399e-07,-0.0167786508120429,0.0431468196853624,0.0017439229691123,10.414859577732749,23.072633449546835,39.360022193183966,33.569219017432495
1.14,31.222178823179146,131.01047428133867,24.570474061432368,4.337983009260066,9.398682088870714,18.465257762432007,-3.603473593240544,1.4848573859067684,239.69531773195544,38.08107993254882,14.44804599380104,71.72344702035399,1.9848833204941607,122.0887797064376,886.1421149293709,15.288,0.0,7.593691844591832,0.1119376057128026,7.508511961813712e-07,-0.0172704124127434,0.0442344825938867,0.0018045914558494,10.34331500200517,22.931765051944883,39.55080935512925,18.872084347700422
1.15,31.222178256146133,131.01047564954817,24.918028703563007,4.324317980899864,9.295063991585998,18.197242840802097,-3.665709213763624,1.4492968043201082,237.41251153546767,38.38690950498829,14.566046327649198,71.71252590021379,2.0613362086795872,122.16929697848305,900.4024424063754,15.288,0.0,7.611497533743184,0.1128370204250884,7.789545633590599e-07,-0.0177720216019053,0.0453348045360209,0.0018718559092077,10.243707388935857,22.73203712216049,39.8405787345065,18.619278511102603
1.16,31.222177686381865,131.0104770269521,25.267670208182867,4.323855682060981,9.220321809218593,47.62376954509363,-3.716611578247559,1.4183712501313834,490.0437743845894,38.57556549626901,14.646830131661774,71.70125748650183,2.1395795717235515,122.25170516526124,909.2438729579172,15.288,0.0,7.629211288030061,0.1133920157405616,8.07725685426658e-07,-0.0182835074506205,0.0464476110876204,0.0019351278434489,10.175870238134674,22.600796879423317,40.01764717437565,47.789626534541476
1.17,31.222177112898304,131.01047841539403,25.62002875226864,4.316748176500853,9.132616043962706,8.441007112705298,-3.773639680014744,1.3845227888115543,153.70937929486794,38.817582997434926,14.744463501563873,71.68963323416182,2.219627137199077,122.3360191427958,920.65742833858,15.288,0.0,7.646856355874336,0.1141038745252156,8.371660941645271e-07,-0.0188066145924859,0.0475763866513511,0.0020029138180559,10.093604520142977,22.43973502263049,40.2460642049765,9.349217125730997
1.18,31.222176536980328,131.0104798124361,25.974278360731784,4.3008462073023646,9.027720617650049,23.157166852475022,-3.8390881666036014,1.3466923011643563,280.02501822196746,39.13385968639546,14.865611823106788,71.67764420251838,2.301493619039962,122.42225484333235,935.6893139428082,15.288,0.0,7.664372310429827,0.1150340263928844,8.672916006549015e-07,-0.0193392033311831,0.0487162754659396,0.0020763455551106,9.992178632302906,22.238505240873867,40.546070442041845,23.51183860820627
1.19,31.2221759580394,131.0104812191724,26.33079430021479,4.303658679138506,8.9623341655295,40.45411493340596,-3.887381617760884,1.316126454165267,428.4078130529292,39.280833418990206,14.93298723895126,71.66528116244561,2.385194013731849,122.510428519051,942.6985013108682,15.288,0.0,7.68180592000491,0.1154665204246671,8.981049383630331e-07,-0.019882648041982,0.0498699604608306,0.0021426360844439,9.934462617117644,22.13166950437276,40.682899607474255,40.661767543119396
1.2,31.222175375558106,131.0104826365395,26.68989875406508,4.291015981450377,8.866215982564313,4.166595753064362,-3.9504264447954687,1.2787692072733587,117.1843741360236,39.5610300065751,15.042567479550948,71.65253519550934,2.4707401428113545,122.6005530983816,956.1623278240648,15.288,0.0,7.699164031629373,0.1162906332252934,9.296106406153678e-07,-0.0204378217718188,0.0510389803472299,0.0022180979111708,9.842527294740616,21.95244100305528,40.94818035482871,5.882315866277828
1.21,31.22217479083568,131.01048406209932,27.050765101164927,4.278957140072303,8.772321791264229,32.4723333627799,-4.013285593769777,1.2411845901287133,359.92343213200894,39.83316382783414,15.149554619619275,71.63939668075524,2.5581464314119047,122.69264427238636,969.3285362368669,15.288,0.0,7.71641765255522,0.11709105423732,9.618250701794104e-07,-0.0210025420557986,0.0522185108281533,0.0022949864490884,9.752935972525496,21.778948454826885,41.20573969030532,32.742929533984
1.22,31.22217420286593,131.01048549770107,27.414026204724536,4.2797613791699245,8.70518819491224,23.506705057327483,-4.063675648944994,1.2088857778358528,283.0687504825761,39.984348558883234,15.218086735930436,71.62585614688646,2.647425015431353,122.78671534490516,976.6664914787088,15.288,0.0,7.73360180355108,0.1175359491878978,9.9474740363466e-07,-0.0215789308621781,0.0534127010065436,0.0023668364744284,9.693062009214003,21.670265047613118,41.34650151825787,23.885980140154764
1.23,31.22217361203372,131.01048694259916,27.77943175483472,4.26605878791572,8.609872370270725,9.119353952936542,-4.128628868412632,1.169762419699505,159.79687382222795,40.263722732385936,15.327267393340051,71.61190427710127,2.738585773162926,122.8827772622206,990.3275188708858,15.288,0.0,7.750696640002969,0.1183576713365395,1.028388170709874e-06,-0.0221662082519816,0.0546196494831928,0.0024481521004783,9.601662112578346,21.49454730017258,41.61107411566652,10.078518590079138
