Time,Latitude,Longitude,Altitude,Angle of Attack,Angle of Sideslip,X-Acceleration,Y-Acceleration,Z-Acceleration,Thrust,True Velocity,Ground Velocity,Pitch,Roll,Yaw,Dynamic Pressure,cp,parachute_deploy_gain,Wind Speed,Mach,omega_x,omega_y,omega_z,Cmq,Angle of Attack(total),Angle of Attack(gust),True Velocity(gust),Acceleration
0.0,31.222186000000004,131.010384,3.000000003643237,0.0,0.0,0.0,0.0,0.0,2.2828121974499247,0.0,0.0,69.99999999623421,0.0,113.69999999388332,0.0,15.288,0,0.0,0.0,0.0,0.0,0.0,-0.0,0.0,90.0,0.0,0.0
0.01,31.22218600000153,131.01038399999584,2.99999882256592,0.0,0.0,0.0,0.0,0.0,34.24218696174923,7.502283530665459e-11,7.190531319924593e-11,69.99999999623329,-4.83564628150269e-13,113.69999999388072,3.446445726795683e-21,15.288,0,0.0,2.204725565824978e-13,-3.659182332138578e-19,7.589415207398531e-19,4.811147140404426e-19,-1.5108918610345807e-31,0.0,89.9999999995224,7.502283530665459e-11,0.0
0.02,31.22218600000288,131.01038399999217,2.999997775701936,0.0,0.0,0.0,0.0,0.0,25.871876237766408,1.5320717031631675e-10,1.4674636035870463e-10,69.99999999623222,-9.67129256300373e-13,113.69999999387804,1.4372842949972735e-20,15.288,0,0.0,4.5023593667086093e-13,-7.284483346386986e-19,1.5178830414797062e-18,9.757819552369542e-19,-6.170906918166791e-31,0.0,89.99999999902465,1.5320717031631675e-10,0.0
0.03,31.22218599928065,131.01038400193067,3.000201659671132,18.81500467334555,-0.00012974450181,11.96616230539064,-1.8916256735984712e-05,3.349833086198469,180.34219359854663,0.0882870268161719,0.0553390044312322,69.99999999799445,-4.212591857125379e-12,113.69999999488518,0.0047728553458352,15.288,0,0.0,0.0002594525584132,3.2187251995663407e-17,-7.20264389268894e-10,1.2365134327422308e-11,1.6874092354518158e-13,18.815004673776716,89.46786891739345,0.0882666465974854,12.426199017587786
0.04,31.22218599548236,131.0103840121632,3.001799604587872,9.46752327608497,-4.6177622759613696e-05,55.21900012092241,3.931876292165237e-06,3.349616504302861,548.6359724538078,0.3767519978512604,0.1853356633749705,70.00000000507204,-2.4624598767003407e-11,113.70000000019972,0.086915163246288,15.288,0,0.0,0.0011071759353184,1.6174128009138757e-15,-1.3693172015529268e-08,2.7753303060112748e-11,1.3689612277852356e-11,9.467523276196548,87.63554493451223,0.3767447442872393,55.32050167054111
0.05,31.222185984749512,131.01038404118162,3.00777936418888,5.376730308971262,-2.257790939128127e-06,80.28807156553681,5.266841443842784e-05,3.348887800834877,761.6984298824644,1.018787885905993,0.4366201147110198,70.00000000894464,-1.1355399380652658e-10,113.70000001523856,0.635552918586145,15.288,0,0.0,0.0029939522895272,1.6418815498809788e-14,-9.32122351075408e-08,4.303264669380585e-11,2.5199270302492604e-10,5.3767303089717045,83.57022052969386,1.0187875312530217,80.35788377762394
0.06,31.22218596447235,131.01038409608267,3.0201664202003013,4.296730121134882,2.4863835723705905e-05,60.21296515808257,0.0001057204249726,3.347700952379021,590.4875390737208,1.721098934225416,0.7081674028809783,69.99999995523842,-3.0560354507026086e-10,113.70000004366592,1.8138247671743823,15.288,0,0.0,0.0050578622752421,8.328976953118383e-14,-3.2824985336199985e-07,5.923438275930214e-11,1.4991363363716091e-09,4.296730121206683,79.20467073327266,1.7211028398275985,60.305955550063224
0.07,31.22218593493329,131.01038417609837,3.038741944736831,3.8204913578752526,4.8016684030909405e-05,91.4060317508128,0.0001597686613101,3.346072557365335,855.2937749779139,2.4375792548422868,0.9844712334613328,69.99999973536046,-5.939103491363046e-10,113.7000000850886,3.6383156301599167,15.288,0,0.0,0.007163413150771,2.709313825263564e-13,-7.906546256197275e-07,7.920022733617308e-11,5.114174483651565e-09,3.820491358176508,74.87999294483174,2.437586797285377,91.46725557277466
0.08,31.222185894468456,131.01038428575305,3.0647976109320942,3.588632851766762,7.220043782492885e-05,19.18449428359557,0.0002119618497595,3.3440615022685813,241.2171988638848,3.1292508166901074,1.2522236515868983,69.99999919480445,-9.914748373602156e-10,113.7000001418522,5.996012698481753,15.288,0,0.0,0.0091960591623389,6.80386533246681e-13,-1.5973238302190878e-06,1.0839624626357699e-10,1.3263625118823921e-08,3.58863285249208,70.86684630658345,3.1292621579083604,19.473766155861934
0.09,31.22218584634549,131.01038441616095,3.0957981580345013,3.551302481506045,9.685468678862004e-05,57.102946699906326,0.0002554087225869,3.341892818148368,563.0937377043176,3.701810007254615,1.479132491047967,69.99999812344194,-1.4359264356978275e-09,113.7000002093888,8.390904013834115,15.288,0,0.0,0.010878666406854,1.440096519545733e-12,-2.748643691533636e-06,1.5214952332699618e-10,2.6999776649034504e-08,3.5513024828250237,67.68737872952666,3.701825221153239,57.20065357568538
0.1,31.222185790329306,131.01038456796124,3.1319266121977414,3.608446747536112,0.0001234669721807,54.26147302645416,0.0002914860332524,3.3396271157106168,538.7437595981919,4.174070299823608,1.6716491241860567,69.9999963052332,-1.902380107712657e-09,113.70000028805804,10.668380938744466,15.288,0,0.0,0.0122665227999911,2.687800116751415e-12,-4.315796035622946e-06,2.1749089204950437e-10,4.7802076800548326e-08,3.608446749645647,65.17160335282355,4.174089693970246,54.36414778470795
0.11,31.222185727066616,131.0103847393952,3.172681775073216,3.633547373470009,0.0001485939126744,42.987553988990406,0.0003293995000288,3.337005588796181,442.8656393052949,4.672024955140527,1.8729475711242067,69.99999349387662,-2.3433348587116544e-09,113.70000037699285,13.365573690709628,15.288,0,0.0,0.0137298902182575,4.5789425819531184e-12,-6.340230783164189e-06,3.1157625832417107e-10,7.860218435507205e-08,3.6335473765043056,62.62546922225161,4.672048296217748,43.116880735560244
0.12,31.22218565692512,131.0103849294629,3.2177790417108385,3.650108937861461,0.0001727442530266,46.86777100765684,0.000367618259785,3.334068179146888,475.58594813540446,5.17479364099247,2.0758708919414386,69.99998941286465,-2.702771525550512e-09,113.70000047573096,16.396890189902592,15.288,0,0.0,0.0152074069417046,7.288473386564583e-12,-8.86736416607888e-06,4.42271554299792e-10,1.217615295152289e-07,3.6501089419435786,60.16906436414164,5.174820775596283,46.986210423745625
0.13,31.222185580265183,131.0103851371844,3.2669395832841857,3.7280113734654137,0.0001995014041665,51.64515456841877,0.0003986198234033,3.3311573548369657,515.9156326236895,5.579364582999854,2.2451120211463422,69.99998375846928,-2.9114380666036422e-09,113.70000058383452,19.060875702782603,15.288,0,0.0,0.0163963474924215,1.100846422415094e-11,-1.1941028436408576e-05,6.179653149059831e-10,1.7678562106638216e-07,3.728011378795934,58.279338776943774,5.579395920607139,51.75247433579817
0.14,31.22218549718016,131.01038536230575,3.320091807147376,3.768719651034081,0.0002242721760019,48.1660778383537,0.0004326225136175,3.32784677779744,486.2390860568404,6.025734265159953,2.428648685938864,69.99997621008868,-2.890941335368725e-09,113.70000070125378,22.232643351545065,15.288,0,0.0,0.0177081261985351,1.5941871344608664e-11,-1.560901486259027e-05,8.477542742712431e-10,2.495765160917323e-07,3.7687196576976176,56.27980129251342,6.025769493750979,48.280903250602165
0.15,31.22218540777004,131.01038560455507,3.377159065217065,3.821894709649632,0.000249725644238,46.56959330999435,0.0004643042952466,3.324387732286376,472.54218587214,6.441023336496372,2.6014999612196745,69.99996641132823,-2.546763407193136e-09,113.70000082794672,25.402620271850456,15.288,0,0.0,0.0189285691155931,2.2314099732464315e-11,-1.992367942778425e-05,1.1417519574710292e-09,3.4051816697623295e-07,3.821894717796148,54.501255563441134,6.441062563308839,46.68809885900716
0.16,31.22218531193176,131.01038586421257,3.4382223512025254,3.8463320955387794,0.0002733212404609,36.974247749122085,0.0004987816203583,3.3205066466509234,391.1218908297564,6.895451966878468,2.7877331692857847,69.99995397923414,-1.77088415515292e-09,113.70000096417354,29.113317717489338,15.288,0,0.0,0.0202640360420561,3.0367358387834494e-11,-2.4945905791363795e-05,1.5114297685186711e-09,4.5643121540033697e-07,3.846332105235269,52.641145594326446,6.895494900078523,37.12304892183151
0.17,31.222185210004127,131.010386140357,3.503019838429153,3.8860314262554336,0.000297865039677,46.520531453299206,0.0005306403365217,3.31650761597812,471.78125980632376,7.314788342774694,2.9619016331667103,69.99993849340957,-4.3039914767238207e-10,113.70000110959404,32.761746921137856,15.288,0,0.0,0.0214963781445172,4.0366633128431416e-11,-3.0713078585132897e-05,1.96747427715988e-09,5.961228045584824e-07,3.886031437653654,51.00464968745696,7.314835131305714,46.63860064094784
0.18,31.22218510147516,131.01038643438045,3.571950002194137,3.9107265153396016,0.0003214293682635,38.895647526122765,0.0005639254295027,3.312149448254175,407.10156721191447,7.754626295791602,3.1430587898572058,69.9999195084231,1.6149322372810674e-09,113.70000126508234,36.81988229018681,15.288,0,0.0,0.0227889722876034,5.2593391349219385e-11,-3.731786027786564e-05,2.525509173087448e-09,7.6786585232224e-07,3.9107265285284982,49.36615848311875,7.754676785798701,39.036415444581515
0.19,31.222184986476247,131.0103867459258,3.644912152926752,3.920599115663931,0.0003437679584038,43.86258669386953,0.0005989384366483,3.307389681300437,448.9531328318269,8.219206165926856,3.332657190859447,69.99989653019398,4.538529095696477e-09,113.70000143063515,41.36350714675367,15.288,0,0.0,0.02415428010977,6.735860419174937e-11,-4.481243905342629e-05,3.199401151670645e-09,9.773118416308382e-07,3.92059913071168,47.71893898797248,8.21926016487149,43.987104227715655
0.2,31.222184864792144,131.01038707557822,3.722074668489528,3.943376465171875,0.000367328732016,40.28070981710589,0.0006315894240138,3.30251450988504,418.51563019916136,8.65238089736321,3.511445117640573,69.99986902534273,8.534090245934178e-09,113.7000016067622,45.83799876721736,15.288,0,0.0,0.025427299120469,8.499785987217288e-11,-5.328041996372527e-05,4.006766070954748e-09,1.2232205148646746e-06,3.9433764822533854,46.2587826635041,8.652438597225508,40.41586552155969
0.21,31.22218473678744,131.01038742234647,3.803156063113743,3.9664546506877016,0.000390962054969,38.67679184347145,0.0006636984664108,3.297405915846789,404.8187610144644,9.079179692250786,3.688002035198235,69.99983642883521,1.3827831253856693e-08,113.70000179318536,50.47126980736161,15.288,0,0.0,0.0266815841422463,1.0586558589671407e-10,-6.275155280099118e-05,4.961340042512481e-09,1.5117124669161171e-06,3.9664546699249135,44.88773728276958,9.079241104426773,38.817098210937615
0.22,31.2221846022986,131.01038778667507,3.8882846911135607,3.956175711337521,0.0004112685792646,46.713636108302936,0.0007011135033803,3.291572407481395,472.5421858721365,9.580256326712124,3.889976788904857,69.99979815126248,2.0662823443484168e-08,113.70000199039316,56.195522894218605,15.288,0,0.0,0.0281541581291438,1.3033127211465288e-10,-7.330053770532661e-05,6.0817207473359025e-09,1.8632831045819008e-06,3.956175732680424,43.35679625546934,9.580320928629488,46.8294591882524
0.23,31.222184460898035,131.01038816972698,3.977794004014759,3.9879066397329104,0.0004360962274406,38.89105719050748,0.0007308686121188,3.286096544282012,406.3406421461021,9.977039034039262,4.056142701351626,69.99975353557706,2.9316661139418326e-08,113.70000219928508,60.9462612310605,15.288,0,0.0,0.0293202403623685,1.5880617816859538e-10,-8.505067486192354e-05,7.393319440773217e-09,2.2514912291167663e-06,3.987906663538912,42.20670487756048,9.97710753587448,39.0296395118868
0.24,31.222184313516166,131.01038856897196,4.070963590490852,4.003523997322975,0.000459165577055,40.0792299321398,0.0007630441688766,3.280134925833028,416.2328240017114,10.408422364424831,4.234121060914368,69.99970190737699,4.010976417051318e-08,113.70000241888,66.32994780718496,15.288,0,0.0,0.030588009649109,1.91711512587616e-10,-9.795845222523724e-05,8.904557280909524e-09,2.7052895870113487e-06,4.003524023611085,41.011349410369874,10.408494489985014,40.21323112692186
0.25,31.22218416001652,131.01038898478134,4.167901030441617,4.0261356185860135,0.0004830526730531,41.17760020658354,0.0007934613160587,3.2740610008587527,425.36408079150686,10.816813039390448,4.4041629376391525,69.99964258149416,5.3372865854010094e-08,113.70000264972064,71.63651430352668,15.288,0,0.0,0.0317882126436337,2.2947426169209347e-10,-0.0001121037688082,1.0637152702866709e-08,3.217380562698304e-06,4.026135647516394,39.93186687113378,10.816888917126896,41.30755663120434
0.26,31.222184000702686,131.0103894163294,4.26837241014618,4.053359329950934,0.000507503069958,44.80261175215926,0.0008224724146494,3.2678597736729302,455.8015834241788,11.207047269494833,4.567925492611352,69.99957484039399,6.947299261165984e-08,113.70000289176392,76.89781807056055,15.288,0,0.0,0.0329350617559806,2.7254099134167665e-10,-0.0001275114371842,1.260720913253598e-08,3.7915697709142366e-06,4.053359361668992,38.945390435244384,11.207126987890645,44.921630958721536
0.27,31.22218383516388,131.01038986473338,4.372698316214008,4.0614460923241,0.0005296455772492,41.029837477288126,0.0008548809954683,3.2610328932384265,423.84219965987256,11.645685385842508,4.748226940060522,69.99949794024376,8.879821051920497e-08,113.70000314600205,83.0342688744587,15.288,0,0.0,0.0342241635563461,3.2137296827284217e-10,-0.0001442952656441,1.4842505534226832e-08,4.458527942364847e-06,4.061446126801262,37.8838346421185,11.645768582375233,41.15922617924542
0.28,31.222183663504484,131.01039032970942,4.48079961904222,4.081133040992532,0.0005533279247169,47.27661484082626,0.0008845140695959,3.254218495915602,476.3468732012221,12.047344998676092,4.915789434712848,69.99941106884992,1.1178948978424788e-07,113.70000341275257,88.85982357848233,15.288,0,0.0,0.0354045979054623,3.764736350660473e-10,-0.0001625146963723,1.7365685655384934e-08,5.194620655212288e-06,4.081133078439725,36.956255322213885,12.047431915223257,47.38848224631549
0.29,31.22218348566054,131.0103908114315,4.592727908358551,4.1001100265020245,0.0005770279952742,37.989969791857405,0.0009138463939581,3.247164755122801,397.97031042211177,12.446314684600782,5.082367374004485,69.99931338876085,1.3891902435864665e-07,113.70000369260468,94.8417675268915,15.288,0,0.0,0.0365771315767517,4.3836067907166327e-10,-0.0001822432988888,2.0202163500922312e-08,6.018074062137429e-06,4.100110067036654,36.07377590258778,12.446405323946324,38.12849176886316
0.3,31.222183301933686,131.01039130907952,4.708251093558373,4.112858061667493,0.0005998635114143,35.655053282557844,0.000944131403186,3.2397207148238625,378.1859457108711,12.860033399289696,5.253940723820665,69.99920403105713,1.707002607527005e-07,113.7000039856728,101.2505662360602,15.288,0,0.0,0.03779301412572,5.075709863465428e-10,-0.0002035013069687,2.3370674033523645e-08,6.94335970778e-06,4.112858105337573,35.19685285507256,12.860127625629724,35.80193592228613
0.31,31.222183112488807,131.0103918222051,4.827243246502713,4.136140889545823,0.0006242383343011,37.56633644061071,0.0009716215464757,3.232339252743767,394.1656220930212,13.2364445751808,5.4126574282679245,69.99908210036875,2.0768081583188525e-07,113.7000042923011,107.26326115439352,15.288,0,0.0,0.0388992619788015,5.846561731689753e-10,-0.0002263323252403,2.6893437641668458e-08,7.948283231812338e-06,4.1361409365698805,34.43286455705216,13.236542630309057,37.70514091683033
0.32,31.22218291741533,131.01039235056504,4.949637017503345,4.1622282001352975,0.0006491019906456,40.83513712643371,0.0009979686925508,3.224840963348891,421.55939346242695,13.59846554462374,5.566374262777002,69.99894668612772,2.504388718903276e-07,113.70000461297312,113.2095365840355,15.288,0,0.0,0.0399632243410653,6.701756367872645e-10,-0.00025078340164,3.0793566854276295e-08,9.047716714467492e-06,4.16222825066026,33.72644865222576,13.598567505326,40.96227562489027
0.33,31.222182716732533,131.01039289410716,5.075419569102976,4.187801887681037,0.0006739743721461,40.48743503284469,0.0010239291638211,3.217136801802925,418.5156301991682,13.956637761217308,5.718704299733134,69.99879684673242,2.995902922462564e-07,113.70000494831164,119.25032483364384,15.288,0,0.0,0.0410158804634189,7.647061680070125e-10,-0.0002769136723495,3.509664608790402e-08,1.0253455741189656e-05,4.187801941818244,33.053267359159875,13.956743628864118,40.61505097607
0.34,31.222182510255863,131.01039345333336,5.204736257784645,4.19642921746386,0.0006961879027693,31.814592723444047,0.0010535137542081,3.208669900766693,345.46563688075645,14.367047160772364,5.88887983533068,69.99863160305904,3.557915789971256e-07,113.70000529927128,126.36523219087664,15.288,0,0.0,0.042222056531773,8.688448410811866e-10,-0.0003048202762282,3.9835373705550826e-08,1.1618525957862828e-05,4.196429275109305,32.30947868183619,14.367156517712404,31.97598901989736
0.35,31.222182298183583,131.0103940277045,5.337435501771672,4.210915783240843,0.0007193441544952,34.813487415034444,0.0010813034848195,3.200164272309822,370.5765700527033,14.754132934586384,6.050986755458457,69.99844991734221,4.1975736284587617e-07,113.70000566632532,133.26448209504355,15.288,0,0.0,0.0433596939127697,9.832256819293898e-10,-0.0003345386312107,4.503361101379695e-08,1.309465610343774e-05,4.210915844572415,31.63649055965014,14.75424592890194,34.96026256388454
0.36,31.222182080444604,131.0103946174141,5.4735747500461605,4.22903876037745,0.0007431682866607,39.2632255716727,0.0011077666085529,3.1915717453569297,407.8625232777193,15.124417129017054,6.2072589919251575,69.99825073022951,4.922382611919288e-07,113.70000605036684,140.03566173682628,15.288,0,0.0,0.0444479595865755,1.1084921261805627e-09,-0.0003661511460057,5.0723697896912267e-08,1.4691545926915382e-05,4.229038825557203,31.017264542603208,15.124533865618538,39.39272792946638
0.37,31.22218185710795,131.01039522227452,5.613102797925907,4.249164960780052,0.0007674149135003,37.28328237034959,0.001133274451316,3.1828514669894137,391.1218908297666,15.483077353331511,6.359470679857624,69.99803294268581,5.740349991123437e-07,113.70000645214331,146.75405277514704,15.288,0,0.0,0.0455020695186381,1.245311285088233e-09,-0.0003997125883071,5.6934243389647934e-08,1.641828325195534e-05,4.2491650299519,30.439178816713017,15.483197898584232,37.418894813348615
0.38,31.2221816281124,131.0103958424523,5.756069531572451,4.260095806433531,0.0007900626414612,38.9278000801764,0.0011607546399008,3.1735466295306622,404.8187610144602,15.87126705947922,6.521735074464384,69.99779542676283,6.659911329739736e-07,113.70000687263192,154.20298254405043,15.288,0,0.0,0.0466429667223463,1.3943646956867835e-09,-0.0004353006984059,6.369875435270817e-08,1.8328108041903096e-05,4.260095879559656,29.83470194713067,15.87139116222873,39.05694584372078
0.39,31.22218139339905,131.0103964781077,5.9025231349944285,4.274091258047817,0.0008133283308351,33.320076729592266,0.0011870382950339,3.164143363712209,357.64062493382744,16.24457853509073,6.678818328235205,69.9975369905506,7.690136753559805e-07,113.70000731287368,161.54010621938565,15.288,0,0.0,0.0477401448128051,1.5563705124515804e-09,-0.0004730068442167,7.105463478762673e-08,2.0383860516746246e-05,4.274091335289374,29.274934656826048,16.244706292406182,33.46997636540994
0.4,31.22218115316572,131.01039712870306,6.0523126585892895,4.286421841403391,0.0008363022448449,31.88018820767003,0.0012133780841982,3.1544430614236454,345.465636880754,16.62063299903514,6.836764518435374,69.99725641601981,8.840594270905819e-07,113.70000777359816,169.10340080049767,15.288,0,0.0,0.0488453895716005,1.7320643186450851e-09,-0.0005128553637434,7.9027539265021e-08,2.2612406375611563e-05,4.286421922834417,28.730746964325096,16.620764365084565,32.03586915718869
0.41,31.22218090752676,131.01039779392735,6.205351877049411,4.30025870409831,0.0008595777771371,35.882550741685804,0.0012389121673015,3.1445895889870297,378.94687077668647,16.987310563534386,6.99141560549392,69.9969524610574,1.0121301778427253e-06,113.70000825570062,176.64448930727934,15.288,0,0.0,0.0499230826371405,1.922193031274436e-09,-0.0005548883906878,8.764667734700782e-08,2.5005077415911235e-05,4.300258789847355,28.21875643368965,16.987445585695873,36.020076248499606
0.42,31.222180656535848,131.0103984736348,6.36160173428776,4.322008670726048,0.0008844838439129,40.34064925656127,0.001261804338223,3.134918999355981,416.2328240017114,17.318628721060172,7.133856886815013,69.99662385300175,1.154276942054023e-06,113.70000876021427,183.59942989625057,15.288,0,0.0,0.0508968652507098,2.1275184665783874e-09,-0.0005991661829955,9.694534598491077e-08,2.752657757470936e-05,4.322008761057615,27.772396468009568,17.318767655457478,40.462275036947325
0.43,31.222180400205527,131.0103991677914,6.521055075967404,4.339436441324956,0.0009085827200945,35.541853595187746,0.0012854696362701,3.124839917627212,375.9031395134336,17.662848429084132,7.280642039343927,69.99626930133451,1.3115939750280808e-06,113.70000928827632,190.96736675963504,15.288,0,0.0,0.0519085689713619,2.3488101247838237e-09,-0.0006457514522491,1.0695800287133593e-07,3.0255957891170616e-05,4.339436536261635,27.322335771349252,17.662991148924057,35.67895714766603
0.44,31.22218013836212,131.0103998768696,6.683849332059896,4.342209064313268,0.0009296474314902,32.82948243168077,0.0013129688908547,3.113754688841357,353.0750125389216,18.063580761318697,7.446730341918701,69.99588746395321,1.4852372182848018e-06,113.7000098413532,199.7278270846888,15.288,0,0.0,0.0530863610987301,2.586862292117705e-09,-0.0006947575786514,1.1773083546077225e-07,3.329010177793299e-05,4.342209163639375,26.81344244367223,18.06372678999575,32.9768158972058
0.45,31.22217987077456,131.0104006014978,6.850166573233225,4.3420317510315165,0.0009500780330031,38.11022602597878,0.001341042003417,3.1022288449712887,397.2093853562869,18.47486275310604,7.616350301328129,69.99547690348253,1.6764536248320808e-06,113.70001042108892,208.92306716049887,15.288,0,0.0,0.0542951637545535,2.842521175226318e-09,-0.0007463379956615,1.2932090054593452e-07,3.657529369088674e-05,4.342031854775571,26.30944884471334,18.47501199101448,38.23628058998621
0.46,31.22217959739673,131.01040134180155,7.020045503401754,4.351169003849846,0.0009725797783515,44.3937050866137,0.0013660055515545,3.09098240974522,449.7140588976434,18.844323061800488,7.771531995684422,69.99503610583268,1.8865779683531e-06,113.70001102895836,217.3591612614144,15.288,0,0.0,0.0553810645782081,3.1166808800591503e-09,-0.000800596194505,1.417768495237597e-07,4.001824400409673e-05,4.351169112337076,25.873596578896564,18.844475834274814,44.50118229261506
0.47,31.22217931813738,131.01040209802923,7.193559875579052,4.358630093683735,0.0009947969928181,30.22514089990685,0.0013910994973101,3.079396422776949,331.0078106302534,19.2180591098146,7.9280875671397615,69.99456352718363,2.1170044481277104e-06,113.70001166656292,226.0625808853568,15.288,0,0.0,0.0564795377574197,3.4102493884459798e-09,-0.0008576351980594,1.551487523304888e-07,4.3718862242359527e-05,4.35863020698899,25.44665981168229,19.218215372160817,30.381603425148434
0.48,31.22217903348153,131.01040286886197,7.370336324605091,4.365514409145237,0.001016880998596,29.779838936311712,0.001416009414045,3.067527859335786,327.2031223011574,19.5915905767454,8.084483592791102,69.99405758812365,2.369198154608765e-06,113.70001233476164,234.93171707892955,15.288,0,0.0,0.057577416115756,3.7241711041759195e-09,-0.0009173883913609,1.6944871263079066e-07,4.767297940601472e-05,4.365514527349481,25.03354780044292,19.59175030803913,29.937410312943754
0.49,31.22217874361868,131.01040365378466,7.5502307795521535,4.3786401372577615,0.0010404145545081,37.2489281064929,0.0014385799934191,3.0558405437943126,389.60000969812296,19.93403005898306,8.23012235628909,69.99351671352461,2.644660619562788e-06,113.700013034871,243.21198709852868,15.288,0,0.0,0.0585839249886784,4.059374595909599e-09,-0.0009798792959512,1.8470833984680338e-07,5.180951737438081e-05,4.378640260624215,24.667474291142685,19.934193486919103,37.37406598941686
0.5,31.22217844858332,131.0104044527036,7.733219389747018,16.56126498377247,13.026990679774745,38.8300450205406,-1.1108751893077229,2.0078670322947327,397.97031042210494,23.568510111304903,8.36606535597106,69.99293932307316,2.9449363413826395e-06,113.70001376847225,339.97844749494067,15.288,0,7.5154709336958545,0.0692654056692213,4.416640996685587e-09,-0.0010584230784109,3.2419929184031423e-05,6.616459459740309e-05,20.957318189914687,37.18957447713208,25.597200398794676,38.897788754668376
0.51,31.222178149255484,131.01040526526566,7.919297069299459,16.40630303293924,12.860975927131964,29.923746260886915,-1.1354626373894068,1.9716857853453504,323.3984349720841,23.912386489605662,8.50336205121274,69.99225278964539,0.0002408326715158,113.70026735599482,349.9654820471996,15.288,0,7.5453019726246255,0.0702761701810305,4.926386390018383e-09,-0.0013736720274673,0.0002974637381463,8.712292388109284e-05,20.736704010272803,36.74528867797516,25.915661892121868,30.010121801202068
0.52,31.222177846039944,131.0104060913361,8.10850813812325,16.24949985094232,12.694188543055258,35.764808166925576,-1.1607504368256347,1.9343395262010936,372.0984511843415,24.26474404818764,8.643644223945277,69.99138337506922,0.00090002968322,113.70096932229497,360.34865621007503,15.288,0,7.575041170985559,0.071311866870736,5.703100746644746e-09,-0.0016978123733138,0.0005686378851258,0.0001092657332549,20.51416456509548,36.29947326646777,26.24246934923809,35.835883053110344
0.53,31.222177538827086,131.0104069312912,8.30096558867693,16.098805285258564,12.53320516717068,37.51008323875798,-1.1861709817206327,1.8966501507683435,386.5562464348624,24.61383839724665,8.782403433629836,69.99032584223703,0.0019903725734424,113.70213014166984,370.7849872919816,15.288,0,7.604692414008262,0.0723379803360428,6.752787393526877e-09,-0.002031238630576,0.0008462099770914,0.0001326022344179,20.29985323886204,35.86895012031486,26.566886814139814,37.57672987329842
0.54,31.22217722754335,131.0104077853827,8.496747567823423,15.952803558074546,12.376942873629533,33.05956222436107,-1.2118109822203649,1.858504535524452,349.2703242098436,24.961231380748707,8.920209099859967,69.98907480254393,0.0035219213774652,113.703760528009,381.3179938859336,15.288,0,7.63427676327461,0.0733591008288534,8.081578642143997e-09,-0.0023742662230618,0.001130384189951,0.0001571801886334,20.092021568374896,35.45087447059696,26.8903118523764,33.13392792035977
0.55,31.222176912488283,131.010408652847,8.695642528854636,15.815057677968175,12.227942436359571,34.98708288734901,-1.2373726718334592,1.8202942818927208,365.2500005919907,25.301192706215726,9.0550002782992,69.98762480349407,0.0055047638968176,113.70587122623556,391.7680203419939,15.288,0,7.6637591850592335,0.0743583873356733,9.695636985917485e-09,-0.0027266208941231,0.0014209009708798,0.0001829615555379,19.894985001436204,35.052247493818804,27.207405709730192,35.056248107404784
0.56,31.22217659368664,131.010409533666,8.897651519509953,15.687961635909213,12.08788407758452,32.72085459687885,-1.262614975897607,1.7823408388390716,346.2265619465787,25.62929832120695,9.185181303478604,69.98597043117647,0.007948795554826,113.70847277908024,401.9869934835528,15.288,0,7.693138747635165,0.0753228378138706,1.1600965756929e-08,-0.003088472456295,0.0017178496135325,0.0002099259444622,19.711633986225085,34.67775165530012,27.514004462690565,32.79367714961594
0.57,31.222176271233288,131.0104104276299,9.10272080330988,15.558249217769465,11.947035194372276,32.36868512940839,-1.28855371980445,1.7432940990114452,343.1828296833023,25.965169690479684,9.31790031614248,69.9841062374483,0.0108638718306889,113.71157568896588,412.58396723330713,15.288,0,7.722402222519857,0.0763101184205652,1.3803538718010876e-08,-0.0034598452225297,0.002021205463289,0.0002382456343093,19.52575765570513,34.301148426202694,27.82823622251713,32.44119637145421
0.58,31.22217594512988,131.01041133478185,9.310868822738032,15.417568011673287,11.799323966595072,42.32764826878716,-1.3159311657484962,1.7021572667729203,426.1250058573153,26.322479496040003,9.4581099421065,69.98202669683006,0.014259897964078,113.71519051386328,424.0088574678242,15.288,0,7.7515492190654225,0.0773604127414275,1.630934098550987e-08,-0.0038409210733663,0.0023310661946482,0.0002681208662957,19.32716742558669,33.9058975282297,28.16284001550387,42.38229373405805
0.59,31.22217561500408,131.01041225618368,9.522404769811216,15.296954410215166,11.667270786311867,34.49322298592413,-1.342151613172706,1.6623939151853813,360.68438819711065,26.6518632684306,9.587876757624096,69.97972591658275,0.0181473712070947,113.7193284478062,434.6780082456265,15.288,0,7.780610632943668,0.0783286416217917,1.91246644328034e-08,-0.0042325818619434,0.0026480689025473,0.0002991524447334,19.15367806888464,33.55323552781253,28.47191435374027,34.55933096051878
0.6,31.222175281088205,131.0104131912529,9.737168895497495,15.154987208199024,11.520820681525176,30.76282598703444,-1.3707766708209173,1.6192350085494192,329.4859594986058,27.020328665431627,9.731504535627003,69.97719801059952,0.0225368567434328,113.7240007506062,446.77083382242927,15.288,0,7.809569213837306,0.0794117374476658,2.2255930358005882e-08,-0.0046346196724561,0.0029720062099731,0.0003320896841113,18.95480912674269,33.161330533849124,28.81784480529684,30.83589488571299
0.61,31.22217494335842,131.01041414010356,9.955200155269656,15.012386584532724,11.374994985755158,35.88997687889217,-1.4000940358492424,1.5749630666983148,372.0984511843297,27.395048212826268,9.877078478879453,69.97443682427104,0.0274391459054248,113.72921893462728,459.2388330078044,15.288,0,7.838429728599608,0.0805132222489705,2.5709654229668013e-08,-0.0050473004078211,0.0033030357681674,0.000366667812512,18.75579740827766,32.77103563021956,29.170113818954928,35.9517901131237
0.62,31.222174601951007,131.01041510241492,10.17641362153957,14.909273551258732,11.258636998171912,44.40035911366476,-1.4263000180998957,1.5347027116921907,442.86563930529206,27.705978714823708,9.999293709895896,69.97143604676509,0.032865221511028,113.73499471901296,469.7126253139906,15.288,0,7.867197071806586,0.0814272408467993,2.9492495077098503e-08,-0.0054706778158386,0.0036411509271995,0.0004019268080185,18.605430670007,32.46148846690131,29.463122220971943,44.449764156599315
0.63,31.222174256708136,131.01041607866145,10.400950755176314,14.797025485135748,11.136623662071152,25.587636360407,-1.4538146154220215,1.4925043940697955,286.11251274707894,28.03547301150129,10.12794112691108,69.96818958738598,0.0388256029838996,113.7413393279434,480.940834884674,15.288,0,7.895834068647325,0.0823958258029141,3.361073380381548e-08,-0.0059051810185729,0.0039866318207048,0.0004389995531382,18.44450589419448,32.13669629857015,29.77381556711207,25.672325192992446
0.64,31.222173908224143,131.01041706727491,10.628370803061944,14.66907362162624,11.004287955877675,25.139990116914515,-1.4834048979802814,1.447319903510205,282.30782441796754,28.39673791092428,10.267793907495932,69.96469126702617,0.0453308536783746,113.74826403465237,493.4047194566257,15.288,0,7.924359940344184,0.0834577919324132,3.807091924348869e-08,-0.0063498977079561,0.0043387362606487,0.0004781329495997,18.26505293614639,31.783585294165327,30.11468004001724,25.225271615445653
0.65,31.22217355650151,131.01041806829258,10.858690517367725,14.570048947934987,10.893536676471486,43.715347402070336,-1.510584973450506,1.405219927250211,436.7781447787475,28.70840278772132,10.389507621905382,69.96093487007343,0.0523912533874936,113.7557798239996,504.2836058368104,15.288,0,7.952712615048567,0.0843739918169971,4.287922066498996e-08,-0.0068050892883797,0.0046976174509867,0.0005180202588083,18.12126669525791,31.490191444449547,30.40926482385236,43.76400471265916
0.66,31.22217320106554,131.01041908304487,11.092295002552657,14.466408109332086,10.780340339074709,37.32619568599312,-1.5386902634550848,1.3616905485935136,383.51251517160017,29.03100598152273,10.514892457859778,69.95691420393511,0.0600171056317827,113.76389770180884,515.6692278918805,15.288,0,7.980967234579683,0.0853223474209684,4.804162123668336e-08,-0.0072718370450309,0.0050640464131403,0.0005597580744667,17.972390068647275,31.19028254485812,30.71440428057417,37.38270526949637
0.67,31.222172842118887,131.0104201110265,11.329046613843616,14.34918213469326,10.658335965056544,25.99096857975724,-1.5687548768833723,1.3153127020712578,289.1562440103425,29.382496380306144,10.650411267674158,69.95262264229189,0.0682193780212348,113.77262938709706,528.2196518491622,15.288,0,8.009129687631841,0.086355611029222,5.3564815334260967e-08,-0.007749963932861,0.005437840244257,0.0006037715467368,17.807546621484565,30.866140274066694,31.04706469803308,26.07146883245943
0.68,31.222172479847327,131.0104211517775,11.568820555134344,14.238124041028724,10.541540113214456,32.22535386929501,-1.5986780744099178,1.2689355409596224,340.8999924858462,29.725287113980404,10.782549671852363,69.94805352530405,0.0770089406885996,113.78198649976994,540.6040420958706,15.288,0,8.037103744950624,0.0873633146180582,5.9455434279682594e-08,-0.008239361854116,0.0058188687903842,0.0006493725179847,17.650672179657388,30.556708957266668,31.37182225401641,32.2899272373599
0.69,31.222172114348616,131.01042220507475,11.81155937249456,14.143417344114098,10.43713746774494,39.47068438055162,-1.6272473217225212,1.224230927006771,401.0140726853634,30.038428086025,10.903773444232511,69.94320022802066,0.0863964314707365,113.79198041703728,552.0411520193219,15.288,0,8.064972134171873,0.0882838850332333,6.571993965531601e-08,-0.0087400387536984,0.0062070896268282,0.0006960728706985,17.514096871569762,30.281869404001363,31.668837754908235,39.52317801844652
0.7,31.2221717455078,131.01042327126933,12.057369023975369,14.049146080495587,10.333797098626496,33.25442652312305,-1.656201648543017,1.1788200372352176,349.27032420985284,30.35266793012914,11.025146875950112,69.93805609482573,0.0963923011757186,113.8026223256052,563.638354955497,15.288,0,8.092723250486078,0.0892076932101011,7.236454184325047e-08,-0.0092524299535426,0.0066027794306765,0.0007445717799852,17.37850524535913,30.01026041072396,31.967110870061195,33.31650497820282
0.71,31.22217137339596,131.0104243502084,12.306211975343592,13.946491179267118,10.225275287445504,27.492512834421863,-1.686608733202979,1.1312233304265211,301.33126406340574,30.68622556815109,11.153228066739068,69.93261441237115,0.1070071687916244,113.81392358663912,576.0807532248336,15.288,0,8.120297640966337,0.0901882855167524,7.939569052183568e-08,-0.0097765861019873,0.0070059261442621,0.0007953791826049,17.233204938176655,29.724563566046605,32.28389556157715,27.567418761883907
0.72,31.222170998033526,131.01042544187635,12.55808983711991,13.833786523605765,10.110459571679275,33.45977781968671,-1.7187985579115923,1.0809790927693688,350.79220534145287,31.043885817754443,11.28971194402838,69.92686814624818,0.11825184000626,113.8258957775208,589.5736559726619,15.288,0,8.147766282296725,0.0912397253818847,8.681992632813233e-08,-0.0103127112424237,0.0074166315964293,0.0008487542223683,17.07620663770569,29.42142786115744,32.62380385089818,33.521329269951124
0.73,31.222170619436262,131.01042654627105,12.813008198354517,13.74896779450896,10.015945117758024,42.08938183235709,-1.7479941577844802,1.0346838462337655,422.320318528234,31.344544055575792,11.405491842541547,69.92081012578659,0.1301374233882623,113.83855079468869,601.0342168571041,15.288,0,8.17513022376883,0.0921236417908776,9.464397061691949e-08,-0.010861056494096,0.0078350307962545,0.000902519119174,16.953359160265446,29.175290959814504,32.90984419595697,42.13836870676482
0.74,31.22217023755863,131.0104276635521,13.07101829744174,13.656387287089949,9.916651043609848,26.69336642724976,-1.7785859812471227,0.9862653587596452,294.48281347105944,31.66344321432256,11.52759066864662,69.91443327704741,0.1426745375941489,113.85190002339031,613.3110690952226,15.288,0,8.202313199295393,0.0930611779313509,1.0287423584946744e-07,-0.0114218632796915,0.0082612504601343,0.0009587529608822,16.82152977060778,28.916179680954137,33.21338164412157,26.77072839259333
0.75,31.222169852773725,131.01042879274803,13.331849661598568,13.559293511402284,9.814886577420795,31.01382974699573,-1.8102637901932943,0.9361496459654168,330.24688556441487,31.99443546617596,11.653808053871348,69.90773044763205,0.1558737997913084,113.86595485120569,626.1848379037286,15.288,0,8.229364709824974,0.0940342651134465,1.1151755101231029e-07,-0.0119945191233727,0.0086947892653511,0.0010173210603517,16.684658597916634,28.650366626558665,33.52862516320065,31.08071856835622
0.76,31.222169464987985,131.0104299341468,13.595589950092176,13.472374526809084,9.720871469719192,33.31760326755074,-1.8410310230734424,0.8871097485368993,349.27032420986166,32.30447757794343,11.772293305282304,69.90069442572802,0.1697456570504488,113.88072649556328,638.3635615820775,15.288,0,8.256296014294193,0.094945786781516,1.2058016421601436e-07,-0.0125794870634061,0.0091359368145038,0.0010772472592106,16.560462379208925,28.406598476637125,33.82411350521222,33.38021938855069
0.77,31.222169074159925,131.0104310878943,13.862286378952504,13.38848121624662,9.629573782251729,31.215918170956822,-1.8717951204936167,0.8378834354938636,331.7687666960708,32.60889735558239,11.888549877354397,69.89331799264745,0.18430056408838,113.89622618004807,650.4347703794625,15.288,0,8.283075368361185,0.0958407924729513,1.300684112970643e-07,-0.0131770800190123,0.0095848705361959,0.0011390267322903,16.44028689888987,28.170842419993864,34.114396260185345,31.2832097598768
0.78,31.22216868036876,131.0104322538097,14.131893204197416,13.29738330449844,9.533892187357427,25.806861449909352,-1.9040181672440404,0.7864229533089567,286.8734378128899,32.93151599172008,12.01111728138256,69.88559367265978,0.1995489581213138,113.91246513007584,663.3515144882784,15.288,0,8.309694386335577,0.0967892951456025,1.3998881458102713e-07,-0.0137872922478001,0.0100415341512277,0.0012035332155335,16.311795605940368,27.923047618800727,34.422194944283895,25.888952163760973
0.79,31.222168283717128,131.01043343164935,14.404346805128927,13.202658350514827,9.436331358319691,36.28657220448353,-1.9372753785880548,0.7333153015762879,373.6203323159534,33.26472780627045,12.137268255295792,69.87751407227974,0.2155012710102438,113.92945455630642,676.8257332521184,15.288,0,8.336184344693615,0.0977689413240408,1.5034794372518646e-07,-0.0144101097261714,0.0105058660253925,0.0012705953864535,16.17931020369755,27.67016249031936,34.740291455416724,36.34564773910634
0.8,31.222167883999543,131.01043462199874,14.679819286398343,13.124007335646944,9.350454276047463,36.75623949769082,-1.968585325915425,0.6827449130364848,377.42502064505743,33.5607431650669,12.249883372984725,69.86907140966778,0.2321681951942556,113.94720596716468,688.9069457338129,15.288,0,8.362564985176762,0.0986392717983823,1.611520654881793e-07,-0.015046317940867,0.0109783816913267,0.0013384628661193,16.066530694010837,27.450649338242822,35.02299815631314,36.81524970461688
0.81,31.222167481332114,131.0104358245758,14.958235996023689,13.03634642415304,9.258948827814512,24.26555246672712,-2.001693671509157,0.6294469533637633,273.9374926939919,33.879944610620306,12.37059182120147,69.86025787832479,0.2495602306336887,113.96573067392784,702.0550961259206,15.288,0,8.388804265841417,0.0995777580469074,1.7240793910187557e-07,-0.0156957851082147,0.0114589319799645,0.0014094791200689,15.943256646683476,27.21547897736897,35.32801508306069,24.356108423497076
0.82,31.22216707591696,131.01043703886722,15.239456730143065,12.945445338788836,9.165786397603132,30.89210745477716,-2.035782798465472,0.5745573533872663,328.72500443277005,34.20880650150754,12.494568347085504,69.85106575189512,0.2676877379986113,113.985039836403,715.7311662202737,15.288,0,8.414869077567822,0.1005446468233332,1.8412238314535601e-07,-0.0163582359671831,0.0119472654594165,0.0014831858477001,15.816425341292929,26.97590980628379,35.6424318074653,30.964444622055762
0.83,31.22216666775081,131.01043826491113,15.523497814385244,12.873377801376323,9.086054522847832,38.994032418902776,-2.067264957687182,0.5231505777327446,395.68750322465047,34.491108185799355,12.60169600921745,69.84148703071546,0.2865610789218561,114.00514463701955,727.5729320017152,15.288,0,8.440808151319528,0.1013746973240116,1.963018639004255e-07,-0.0170339545686915,0.0124435325428274,0.0015571554418662,15.71254336183586,26.774903420920232,35.91236776921107,39.052296158084026
0.84,31.222166256739083,131.01043950298697,15.8104437268914,12.798259664931306,9.004750404704174,24.468268099363097,-2.0996061046619827,0.4703329871847791,275.4593748256452,34.78166685046888,12.711582682658786,69.83151387708101,0.3061901951230334,114.0260558136313,739.8625600204896,15.288,0,8.466623040076954,0.1022290251156757,2.0895254067676946e-07,-0.0177233309589351,0.0129479578109944,0.0016337782317428,15.605309435126127,26.56974985863276,36.190314035957456,24.562689239899566
0.85,31.22216584319017,131.0104407522933,16.100072282865774,12.709106872854736,8.914417332542495,26.59089081309132,-2.1347607533075887,0.4133173718244414,292.96093233939376,35.10994757694496,12.834786922586783,69.82113839112958,0.3265848615530895,114.04778393647469,753.8736277297077,15.288,0,8.49229310200563,0.1031942332510334,2.220813225395657e-07,-0.0184257395534164,0.0134600416082303,0.0017145114746414,15.481554683357112,26.339045222329084,36.50457841191268,26.679645967618434
0.86,31.222165426940744,131.01044201329373,16.39252019777431,12.631469310579368,8.832423235772914,33.04125312155921,-2.1683849231755694,0.358267596707474,346.2265619465587,35.40889530958228,12.947318990190446,69.810352383607,0.3477551456430496,114.0703398977067,766.7446367181255,15.288,0,8.517831921972473,0.1040732359617714,2.3569425647620165e-07,-0.0191419137705377,0.0139802514121573,0.001796266715269,15.371914298647884,26.13250772923212,36.79080069216875,33.11426666391469
0.87,31.222165008026128,131.01044328591703,16.687772393980286,12.559429806447747,8.754687983368349,30.83933280278508,-2.2013876433376005,0.3038943827521543,327.964078366998,35.69311941821707,13.054415473730726,69.79914764903562,0.3697108732919558,114.09373434194404,779.0811317817323,15.288,0,8.543200450808914,0.104908972220438,2.497977929576464e-07,-0.0198719660514616,0.0145086112090223,0.0018796895025372,15.269263156434103,25.938593553316156,37.06295770561921,30.919296678175648
0.88,31.22216458649264,131.0104445700614,16.985804921114273,12.480700170183868,8.672911461464333,26.793806959891047,-2.235994083822116,0.2470242340837107,294.4828134710418,35.99612074929328,13.168053759801667,69.78751594462108,0.3924616640844432,114.11797770435516,792.3419422265503,15.288,0,8.568436233085789,0.105799907435064,2.643984211272426e-07,-0.0206159059758409,0.0150450721406037,0.001966556681718,15.15889094291159,25.733361119609118,37.353261881019776,26.888078806768963
0.89,31.22216416243302,131.0104458655008,17.28655871474237,12.395532860690029,8.587289079544515,29.287399204989423,-2.2722460462557743,0.1875822859405858,315.028134248087,36.31803532962987,13.288289631885094,69.77544890647583,0.4160170825198941,114.1430803720956,806.5538988427955,15.288,0,8.5935370811872,0.106746441987082,2.795026775465556e-07,-0.0213737310711719,0.0155895770808334,0.0020570198698958,15.041109661824793,25.517293543779623,37.6618792101152,29.376011325589097
0.9,31.2221637357812,131.01044717243295,17.590094741127484,12.328584223903825,8.514369467378158,32.24315434134133,-2.3054634732165247,0.1322787647466359,339.37814235421445,36.5891378299669,13.390191682871228,69.76293791083235,0.4403868896743184,114.16905295319884,818.6163096496413,15.288,0,8.618512243668782,0.1075436383070223,2.951168145333844e-07,-0.0221458898042579,0.016142384081941,0.0021471799814608,14.945385234519696,25.338212942529363,37.92165484608027,32.32574301354103
0.91,31.222163306617247,131.01044849066224,17.896362228928393,12.255033098013024,8.437459470939718,24.78285961573473,-2.340307321574895,0.0744283434924278,277.7421810230789,36.87913130989334,13.4986887825117,69.74997448690576,0.4655802009353331,114.19590538169216,831.6194377240115,15.288,0,8.643354263256404,0.1083963684229628,3.112473023897863e-07,-0.0229323108188036,0.016703386219593,0.0022409845709864,14.842036046374256,25.147917516362902,38.19969928260684,24.89322616036233
0.92,31.22216287515468,131.01044981963886,18.205210347733324,12.175177379316878,8.35678030112872,29.30623012572501,-2.37681008795866,0.013968211575976,315.02813424806214,37.187972942483306,13.613785162555036,69.73655015198946,0.4916060254429006,114.22364748183908,845.5813520141116,15.288,0,8.668051423675418,0.1093045069247554,3.279010318984037e-07,-0.0237325445511794,0.0172722142202246,0.0023385372560912,14.731426236252451,24.946970046292936,38.49600372113604,29.402458153819534
0.93,31.222162441309745,131.01045115960235,18.5167114308067,12.111684389838784,8.287429143095054,34.662258602249125,-2.410374615725177,-0.0424692015388378,359.1625070654728,37.44876752543192,13.711554135152818,69.72265621260196,0.5184732838551949,114.2522890041986,857.457196344963,15.288,0,8.692616087556694,0.1100714325829049,3.4508378548176125e-07,-0.0245471354496637,0.0178491901040683,0.002435694622866,14.640590393140013,24.779255215381763,38.74601936024582,34.74599085981583
0.94,31.222162004976955,131.01045251084537,18.83095235839422,12.034311216363609,8.209261143288417,25.442469237434715,-2.447155998916824,-0.1037770653253658,283.0687504837787,37.75089475453524,13.82395723407615,69.7082840622955,0.5461904757688164,114.28183926048008,871.322207012217,15.288,0,8.717042256825577,0.1109598546286435,3.6280140564164107e-07,-0.0253764643807367,0.0184345201718742,0.0025382228206405,14.53345508815204,24.586199448941297,39.0359950052006,25.560097477516276
0.95,31.222161566459032,131.0104538725817,19.14771561448284,11.959432429626512,8.133160031812693,32.64593408226593,-2.483815816527958,-0.1651402987969095,342.4218736174873,38.045868767658575,13.933680398125851,69.69342477981051,0.5747663535033435,114.31230784423067,884.9649742312439,15.288,0,8.741307213076217,0.1118272608923799,3.810611121161089e-07,-0.0262199082670687,0.0190277163642831,0.0026429980492323,14.429537908111923,24.39947320815105,39.319136443617886,32.74070287016413
0.96,31.22216112546259,131.0104552455996,19.46722788981363,11.892826731144083,8.062931073602567,32.00596023791119,-2.519058374921685,-0.224669168084533,337.09533515678345,38.315340804444816,14.034135563169205,69.67806942625604,0.6042093710245536,114.3437040451537,897.5179217454889,15.288,0,8.765450363612025,0.1126197192689006,3.9986791866470324e-07,-0.0270785727103991,0.0196294815366831,0.0027488010232929,14.335710861395428,24.23022570800886,39.5776869435221,32.10572569000899
0.97,31.222160682013424,131.01045662984183,19.789477114753616,11.822819157935111,7.990844535897189,20.83774205735796,-2.5553914964951048,-0.2860079928129346,245.02188719299323,38.59505991118356,14.138116451002135,69.66220884904637,0.6345280293226192,114.37603721650748,910.642134629722,15.288,0,8.789469283298992,0.1134423060354713,4.19228228938397e-07,-0.0279525617439598,0.0202398261673836,0.0028581481401632,14.238069446206945,24.055860099423505,39.84619366275047,20.995792919565986
0.98,31.222160236412023,131.0104580245269,20.11424708487798,11.7399403417477,7.910694351662669,29.892839334271613,-2.595053723322448,-0.3524383195987418,319.5937466429581,38.91582398131241,14.256675854968211,69.64583387081184,0.6657305246522705,114.4093164004951,925.8128745361744,15.288,0,8.813348060349014,0.114385545775579,4.391495853646066e-07,-0.0288410745271103,0.0208581431306379,0.0029734149470661,14.125365071605806,23.858060797776837,40.15448879610121,30.007338436799547
0.99,31.222159788512023,131.01045943005133,20.441653716862785,11.68007766440092,7.8460249494744785,32.57732119699878,-2.629771689620777,-0.4118800753094351,341.6609485517054,39.16275370942797,14.348680903877543,69.62893507859823,0.6978251218690384,114.44355072782454,937.5696511378708,15.288,0,8.837104206641746,0.1151117732770464,4.596373715294296e-07,-0.0297449258743667,0.0214849283936464,0.0030859601136927,14.040232738335218,23.70611390084427,40.39135615939726,32.68588687351766
1.0,31.222159338314736,131.01046084641663,20.77170096167003,11.607707777939174,7.773529778082955,29.25534607023571,-2.667752474370244,-0.476327434586851,314.2672081822764,39.44966071750473,14.454879908645156,69.61150335149242,0.730819201244825,114.47874840055005,951.3271160218732,15.288,0,8.860730632511103,0.1159555159600199,4.806977655568029e-07,-0.0306641350185143,0.0221201339527474,0.003204530576358,13.940467611644664,23.531416607580844,40.666981276331,29.38058993244868
1.01,31.222158886009485,131.01046227313375,21.104255050933435,11.537973259943591,7.703119984129096,30.55387004760909,-2.705456760750772,-0.5406094990551508,324.9203161036979,39.7277114602023,14.557805021324356,69.59352920218727,0.7647204281748531,114.51491794002996,964.7539266661296,15.288,0,8.884223989726214,0.1167732366614603,5.02337661845485e-07,-0.0315983546737014,0.0227634634366416,0.0033253286521618,13.844047524344017,23.363166144605053,40.93407279413257,30.678180027520288
1.02,31.222158431520263,131.01046371040653,21.439376861821977,11.472006609459772,7.635512519713453,25.656878649079182,-2.742556827053136,-0.6042419275346567,284.59063161540416,39.99266435499938,14.655931091961408,69.57500322869186,0.7995359421225003,114.5520673227726,977.6336834194968,15.288,0,8.907589765973448,0.1175524677399006,5.245626303467992e-07,-0.0325480053699275,0.0234151400778878,0.0034480003007532,13.752304832784604,23.203528687655368,41.1885009295792,25.810117168858064
1.03,31.22215797491891,131.01046515804956,21.77701762848565,11.39776786703128,7.562888143743826,21.126817160150264,-2.782080236719869,-0.6716878614954033,247.30469339049705,40.28521299233913,14.76385401728412,69.55591602570453,0.8352725088297625,114.5902041425068,991.9567197836624,15.288,0,8.930823753814606,0.118412821952479,5.473789630942799e-07,-0.0335129793229221,0.0240750295681891,0.0035760797565129,13.650972092696392,23.029276637425145,41.46974194776908,21.319792174063217
1.04,31.22215751627113,131.01046661589552,22.11713390377809,11.332235498498267,7.496243891637245,33.06449599488972,-2.819728493666391,-0.7366147304600908,345.46563688072297,40.54753435416595,14.860851084395904,69.53625786634687,0.8719370693889372,114.62933619673365,1004.8844103590168,15.288,0,8.953929080305809,0.119184336810329,5.707928807923291e-07,-0.0344933186977929,0.0247430986027655,0.003704535298446,13.56015268674252,22.87310820933256,41.72168512110188,33.192685420664645
1.05,31.222157055283965,131.0104680847068,22.459942619277047,11.260145911274584,7.425707732014692,20.29617841372084,-2.85941505879581,-0.8048035777832921,240.45625879819983,40.83199052339298,14.965683107563173,69.51601907434834,0.9095360816917052,114.66947078486612,1018.9995953377716,15.288,0,8.976917998477154,0.120020923948604,5.948087477033705e-07,-0.0354901568094775,0.0254200419700464,0.0038382077307909,13.46177909027367,22.70562574352159,41.99515530369066,20.512406525780165
1.06,31.222156592202328,131.01046956384707,22.80526857443944,11.182627614563588,7.352029133711706,28.536367963474216,-2.900972777034729,-0.8760261836226465,308.17968365593924,41.13552634236197,15.077286242003112,69.49518956305437,0.948076307249834,114.71061554728028,1034.17162989234,15.288,0,8.999780949716179,0.120913603641397,6.194341832566278e-07,-0.0365028258088234,0.0261053486522381,0.0039769409728036,13.357195073074932,22.52897632362997,42.28721381993992,28.69681796775187
1.07,31.2221561269076,131.0104710536251,23.153201568159297,11.119037378471894,7.2876281058470465,33.4472679013185,-2.939072989081688,-0.9423749482359436,348.5093681440308,41.388819215979765,15.17076298977946,69.47375900650837,0.9875645013072388,114.75277813643667,1046.9117196764616,15.288,0,9.022530594489588,0.1216586093818688,6.446744921410498e-07,-0.0375320585571682,0.0267994409460572,0.0041141157676453,13.269265452854784,22.38042182798845,42.530473046275645,33.589372584804
1.08,31.222155659293875,131.0104725543106,23.5038197478316,11.052926428658964,7.2219244108304625,22.798389804718983,-2.978160468668692,-1.010444053300515,261.00157857466235,41.65007685033552,15.267003902258503,69.45171721395785,1.0280067616196475,114.79596552149692,1060.134520426113,15.288,0,9.045168242454984,0.1224270364543102,6.7053528267158e-07,-0.0385783049748813,0.02750254893948,0.0042553512045449,13.17854688662763,22.22828575303401,42.78149259213827,23.014278495097468
1.09,31.22215518964449,131.01047406516668,23.856919722729582,10.9728352571728,7.1476247311747,21.038008409747007,-3.021603505138005,-1.085273752977628,246.54375332474407,41.96223735162888,15.381480477664052,69.42905386036736,1.0694089831302231,114.84018447356192,1076.0486432634702,15.288,0,9.06768086055717,0.1233450985214412,6.97024654496862e-07,-0.0396406564157677,0.028214004624881,0.0044051550971957,13.07152961348792,22.050484869335,43.08207376861432,21.281581348897696
1.1,31.222154718037583,131.01047558598913,24.21244734495905,10.900543231003995,7.078628131974007,41.33609302873352,-3.0631993476676422,-1.1576246904414755,413.1890617385841,42.24538829365782,15.485479829264344,69.40575848781067,1.111776847230423,114.8854415554485,1090.582221448144,15.288,0,9.090072632953929,0.1241778993732085,7.241488677692084e-07,-0.0407191259876048,0.0289337508807586,0.0045553804421133,12.973904551926823,21.888912216481984,43.354470164169584,41.46559865777393
1.11,31.2221542440526,131.01047711785387,24.570705571619964,10.84328652226015,7.019478164771456,30.493968685211364,-3.1005796343354155,-1.2239308853254731,324.1593910376397,42.47054089389478,15.568520704896065,69.38182043046392,1.1551159385561929,114.9317432473172,1102.2000846079216,15.288,0,9.112364170839411,0.1248402272685363,7.519110080822787e-07,-0.0418154854741631,0.0296628822767909,0.0047028041112064,12.894172612390088,21.75750829533555,43.57040173810373,30.67562105411332
1.12,31.22215376774879,131.0104786605955,24.93165002150896,10.758971097166745,6.943504643211404,12.040883257245186,-3.1465275853639594,-1.3033559241836694,172.73281794065943,42.79814585546057,15.688377483097852,69.3572291477683,1.1994311776801885,114.97909533968948,1119.2309401882926,15.288,0,9.134545978037076,0.1258037196185763,7.803179882238865e-07,-0.0429295149260573,0.0304011813678509,0.0048651678943284,12.78276787375345,21.575273901130743,43.88616129190742,12.513282627878603
1.13,31.22215328974278,131.01048021263117,25.294842508145447,10.689856746090664,6.877453567771624,35.784733538707094,-3.188176618862317,-1.3766172041834837,367.5328077900705,43.06689412230229,15.787022363924017,69.3319733232645,1.2447283056235905,115.0275045200528,1133.291815475343,15.288,0,9.156603747855296,0.1265942150394206,8.093804356440455e-07,-0.0440592241420866,0.0311472800578706,0.0050243761206983,12.6894357345862,21.423445111472297,44.144609653389296,35.95283993673077
1.14,31.222152809335213,131.0104817757361,25.66077924578484,10.63136581143317,6.818374916492656,20.19953993657944,-3.22669167545209,-1.4454331838714651,239.69531773195544,43.29231768429822,15.86996837848395,69.30604236840111,1.291011391256102,115.07697571222852,1145.146511639008,15.288,0,9.178565696117715,0.1272573683173899,8.390986465661895e-07,-0.0452074277576076,0.0319029391445809,0.0051821157901834,12.608762743957737,21.293265187559893,44.36081936550956,20.506638678899485
1.15,31.22215232702912,131.01048334861093,26.029100119848543,10.545793957382903,6.742586101825991,19.91859192172521,-3.274307817369285,-1.5282627012778756,237.41251153546767,43.62462188744941,15.991451947964311,69.27942563095608,1.3382841387950737,115.12751347008964,1162.7527279549204,15.288,0,9.200405985452896,0.1282347064808636,8.694830087075556e-07,-0.0463721196815687,0.0326667838474271,0.0053562364099085,12.4964481180279,21.11214201264009,44.68130195559903,20.243689948011443
1.16,31.222151842967044,131.01048493088663,26.39970527198069,10.490238640536004,6.68588283849431,50.739275182533135,-3.3123281291954894,-1.5968908986670138,490.0437743845894,43.8351237617232,16.068957920989998,69.25211170263097,1.3865510035440365,115.17912317306124,1173.9592677527962,15.288,0,9.2221221586348,0.1288540162950223,9.005399083333987e-07,-0.0475531968534613,0.0334386788174485,0.0055189645965338,12.4195443149792,20.98991110244019,44.88295798943391,50.87234636053785
1.17,31.22215135621945,131.01048652490127,26.773244625003247,10.420572163513372,6.620628035146654,9.700038225966804,-3.3552691041482485,-1.6732479119144708,153.70937929486794,44.101020713906415,16.166387968796716,69.22408984789405,1.4358148659992966,115.2318085407967,1188.2019304878324,15.288,0,9.243737978246536,0.1296361709439556,9.322676089477416e-07,-0.0487543346679673,0.0342209168929089,0.0056924856500853,12.326242114327712,20.841746255485795,45.13867377155725,10.399438971463564
1.18,31.222150867994927,131.01048812757705,27.148865946355087,10.33225544480083,6.544062921328057,25.113009904775435,-3.4050699119372507,-1.7603274901355868,280.02501822196746,44.44406557897062,16.29175961426321,69.19534876474879,1.4860790245037003,115.28557375972456,1206.715413504132,15.288,0,9.265221089785072,0.1306451146405028,9.646830461433849e-07,-0.0499706580981872,0.0350102895742467,0.0058796740016558,12.211250402638,20.65877415102209,45.4697710967416,25.40386821834534
1.19,31.222150377739965,131.01048974030252,27.526956212672665,10.285584823032483,6.493632452306684,43.23007865309669,-3.440489003716517,-1.8258521390910665,428.4078130529292,44.61108554294138,16.3534143457349,69.16587681258625,1.5373468149466352,115.3404230823762,1215.757925709525,15.288,0,9.286608318580896,0.1311366360920624,9.977857704256153e-07,-0.0512050006523068,0.0358085417587215,0.0060473317224471,12.145212560597772,20.55709910254148,45.62892067801755,43.40518864112266
1.2,31.22214988496639,131.01049136427773,27.90784736288669,10.20575508946858,6.422921025157951,5.221386902358953,-3.4879553753096446,-1.910010278274016,117.1843741360236,44.91654739814268,16.46514683727004,69.13566323792793,1.589619663623802,115.39635874194524,1232.418951984441,15.288,0,9.307902118285826,0.1320351248833492,1.0315780475847374e-06,-0.0524590819122276,0.0366166900404585,0.006237632528031,12.040504902540857,20.392759954681797,45.92334569569277,6.563295905822733
1.21,31.22214939089743,131.01049299641264,28.29068676613738,10.127874750500544,6.353706183841882,34.868952868203046,-3.53512949506621,-1.994055038342055,359.92343213200894,45.21359461112305,16.573910931807546,69.10469611967864,1.6429003264842854,115.4533844160727,1248.7276737018904,15.288,0,9.329067923831888,0.1329088888273524,1.066077310742182e-06,-0.0537280027429143,0.0374315411450201,0.0064305259477414,11.938247276949609,20.23321250393666,46.2095881772051,35.10437679503497
1.22,31.22214889458475,131.01049463906543,28.67612674299078,10.078360798119396,6.302204640316002,25.47779302587232,-3.571851040860176,-2.0624249369520413,283.0687504825761,45.38483284502509,16.63699724396213,69.07296409636473,1.6971901650803505,115.5115023176362,1258.157654498879,15.288,0,9.350147385202552,0.133412837332832,1.1012785812108223e-06,-0.0550161590670295,0.038255809712474,0.0066093947156224,11.869301885993488,20.129443516810348,46.37278585685849,25.809487673098893
1.23,31.22214839638936,131.01049629130085,29.06390880875504,9.998160325175824,6.232104727998893,10.406765864651195,-3.620424754991783,-2.149253183626645,159.79687382222795,45.689328612347616,16.748486441736084,69.04045636927877,1.7524891588214095,115.570713202476,1275.049242995911,15.288,0,9.371116829839169,0.1343085180994969,1.137192023329125e-06,-0.0563217031763779,0.0390882458677107,0.0068113792012505,11.764650570892456,19.967639393261383,46.66633616304856,11.226198840905854
