Time,Latitude,Longitude,Altitude,Angle of Attack,Angle of Sideslip,X-Acceleration,Y-Acceleration,Z-Acceleration,Thrust,True Velocity,Ground Velocity,Pitch,Roll,Yaw,Dynamic Pressure,cp,parachute_deploy_gain,Wind Speed,Mach,omega_x,omega_y,omega_z,Cmq,Angle of Attack(total),Angle of Attack(gust),True Velocity(gust),Acceleration
0.0,31.222186000000004,131.010384,3.000000003643237,0.0,0.0,0.0,0.0,0.0,2.2828121974499247,0.0,0.0,69.99999999623421,0.0,113.69999999388332,0.0,15.288,0.0,0.0,0.0,0.0,0.0,0.0,-0.0,0.0,90.0,0.0,0.0
0.01,31.22218600000153,131.01038399999584,2.99999882256592,0.0,0.0,0.0,0.0,0.0,34.24218696174923,7.502283530665459e-11,7.190531319924593e-11,69.99999999623329,-4.83564628150269e-13,113.69999999388072,3.446445726795683e-21,15.288,0.0,0.0,2.204725565824978e-13,-3.659182332138578e-19,7.589415207398531e-19,4.811147140404426e-19,-1.5108918610345807e-31,0.0,89.9999999995224,7.502283530665459e-11,0.0
0.02,31.22218600000288,131.01038399999217,2.999997775701936,0.0,0.0,0.0,0.0,0.0,25.871876237766408,1.5320717031631675e-10,1.4674636035870463e-10,69.99999999623222,-9.67129256300373e-13,113.69999999387804,1.4372842949972735e-20,15.288,0.0,0.0,4.5023593667086093e-13,-7.284483346386986e-19,1.5178830414797062e-18,9.757819552369542e-19,-6.170906918166791e-31,0.0,89.99999999902465,1.5320717031631675e-10,0.0
0.03,31.22218599928065,131.01038400193067,3.000201659671132,18.81500467334555,-0.00012974450181,11.96616230539064,-1.8916256735984712e-05,3.349833086198469,180.34219359854663,0.0882870268161719,0.0553390044312322,69.99999999799445,-4.212591857125379e-12,113.69999999488518,0.0047728553458352,15.288,0.0,0.0,0.0002594525584132,3.2187251995663407e-17,-7.20264389268894e-10,1.2365134327422308e-11,1.6874092354518158e-13,18.815004673776716,89.46786891739345,0.0882666465974854,12.426199017587786
0.04,31.22218599548236,131.0103840121632,3.001799604587872,9.46752327608497,-4.6177622759613696e-05,55.21900012092241,3.931876292165237e-06,3.349616504302861,548.6359724538078,0.3767519978512604,0.1853356633749705,70.00000000507204,-2.4624598767003407e-11,113.70000000019972,0.086915163246288,15.288,0.0,0.0,0.0011071759353184,1.6174128009138757e-15,-1.3693172015529268e-08,2.7753303060112748e-11,1.3689612277852356e-11,9.467523276196548,87.63554493451223,0.3767447442872393,55.32050167054111
0.05,31.222185984749512,131.01038404118162,3.00777936418888,5.376730308971262,-2.257790939128127e-06,80.28807156553681,5.266841443842784e-05,3.348887800834877,761.6984298824644,1.018787885905993,0.4366201147110198,70.00000000894464,-1.1355399380652658e-10,113.70000001523856,0.635552918586145,15.288,0.0,0.0,0.0029939522895272,1.6418815498809788e-14,-9.32122351075408e-08,4.303264669380585e-11,2.5199270302492604e-10,5.3767303089717045,83.57022052969386,1.0187875312530217,80.35788377762394
0.06,31.22218596447235,131.01038409608267,3.0201664202003013,4.296730121134882,2.4863835723705905e-05,60.21296515808257,0.0001057204249726,3.347700952379021,590.4875390737208,1.721098934225416,0.7081674028809783,69.99999995523842,-3.0560354507026086e-10,113.70000004366592,1.8138247671743823,15.288,0.0,0.0,0.0050578622752421,8.328976953118383e-14,-3.2824985336199985e-07,5.923438275930214e-11,1.4991363363716091e-09,4.296730121206683,79.20467073327266,1.7211028398275985,60.305955550063224
0.07,31.22218593493329,131.01038417609837,3.038741944736831,3.8204913578752526,4.8016684030909405e-05,91.4060317508128,0.0001597686613101,3.346072557365335,855.2937749779139,2.4375792548422868,0.9844712334613328,69.99999973536046,-5.939103491363046e-10,113.7000000850886,3.6383156301599167,15.288,0.0,0.0,0.007163413150771,2.709313825263564e-13,-7.906546256197275e-07,7.920022733617308e-11,5.114174483651565e-09,3.820491358176508,74.87999294483174,2.437586797285377,91.46725557277466
0.08,31.222185894468456,131.01038428575305,3.0647976109320942,3.588632851766762,7.220043782492885e-05,19.18449428359557,0.0002119618497595,3.3440615022685813,241.2171988638848,3.1292508166901074,1.2522236515868983,69.99999919480445,-9.914748373602156e-10,113.7000001418522,5.996012698481753,15.288,0.0,0.0,0.0091960591623389,6.80386533246681e-13,-1.5973238302190878e-06,1.0839624626357699e-10,1.3263625118823921e-08,3.58863285249208,70.86684630658345,3.1292621579083604,19.473766155861934
0.09,31.22218584634549,131.01038441616095,3.0957981580345013,3.551302481506045,9.685468678862004e-05,57.102946699906326,0.0002554087225869,3.341892818148368,563.0937377043176,3.701810007254615,1.479132491047967,69.99999812344194,-1.4359264356978275e-09,113.7000002093888,8.390904013834115,15.288,0.0,0.0,0.010878666406854,1.440096519545733e-12,-2.748643691533636e-06,1.5214952332699618e-10,2.6999776649034504e-08,3.5513024828250237,67.68737872952666,3.701825221153239,57.20065357568538
0.1,31.222185790329306,131.01038456796124,3.1319266121977414,3.608446747536112,0.0001234669721807,54.26147302645416,0.0002914860332524,3.3396271157106168,538.7437595981919,4.174070299823608,1.6716491241860567,69.9999963052332,-1.902380107712657e-09,113.70000028805804,10.668380938744466,15.288,0.0,0.0,0.0122665227999911,2.687800116751415e-12,-4.315796035622946e-06,2.1749089204950437e-10,4.7802076800548326e-08,3.608446749645647,65.17160335282355,4.174089693970246,54.36414778470795
0.11,31.222185727066616,131.0103847393952,3.172681775073216,3.633547373470009,0.0001485939126744,42.987553988990406,0.0003293995000288,3.337005588796181,442.8656393052949,4.672024955140527,1.8729475711242067,69.99999349387662,-2.3433348587116544e-09,113.70000037699285,13.365573690709628,15.288,0.0,0.0,0.0137298902182575,4.5789425819531184e-12,-6.340230783164189e-06,3.1157625832417107e-10,7.860218435507205e-08,3.6335473765043056,62.62546922225161,4.672048296217748,43.116880735560244
0.12,31.22218565692512,131.0103849294629,3.2177790417108385,3.650108937861461,0.0001727442530266,46.86777100765684,0.000367618259785,3.334068179146888,475.58594813540446,5.17479364099247,2.0758708919414386,69.99998941286465,-2.702771525550512e-09,113.70000047573096,16.396890189902592,15.288,0.0,0.0,0.0152074069417046,7.288473386564583e-12,-8.86736416607888e-06,4.42271554299792e-10,1.217615295152289e-07,3.6501089419435786,60.16906436414164,5.174820775596283,46.986210423745625
0.13,31.222185580265183,131.0103851371844,3.2669395832841857,3.7280113734654137,0.0001995014041665,51.64515456841877,0.0003986198234033,3.3311573548369657,515.9156326236895,5.579364582999854,2.2451120211463422,69.99998375846928,-2.9114380666036422e-09,113.70000058383452,19.060875702782603,15.288,0.0,0.0,0.0163963474924215,1.100846422415094e-11,-1.1941028436408576e-05,6.179653149059831e-10,1.7678562106638216e-07,3.728011378795934,58.279338776943774,5.579395920607139,51.75247433579817
0.14,31.22218549718016,131.01038536230575,3.320091807147376,3.768719651034081,0.0002242721760019,48.1660778383537,0.0004326225136175,3.32784677779744,486.2390860568404,6.025734265159953,2.428648685938864,69.99997621008868,-2.890941335368725e-09,113.70000070125378,22.232643351545065,15.288,0.0,0.0,0.0177081261985351,1.5941871344608664e-11,-1.560901486259027e-05,8.477542742712431e-10,2.495765160917323e-07,3.7687196576976176,56.27980129251342,6.025769493750979,48.280903250602165
0.15,31.22218540777004,131.01038560455507,3.377159065217065,3.821894709649632,0.000249725644238,46.56959330999435,0.0004643042952466,3.324387732286376,472.54218587214,6.441023336496372,2.6014999612196745,69.99996641132823,-2.546763407193136e-09,113.70000082794672,25.402620271850456,15.288,0.0,0.0,0.0189285691155931,2.2314099732464315e-11,-1.992367942778425e-05,1.1417519574710292e-09,3.4051816697623295e-07,3.821894717796148,54.501255563441134,6.441062563308839,46.68809885900716
0.16,31.22218531193176,131.01038586421257,3.4382223512025254,3.8463320955387794,0.0002733212404609,36.974247749122085,0.0004987816203583,3.3205066466509234,391.1218908297564,6.895451966878468,2.7877331692857847,69.99995397923414,-1.77088415515292e-09,113.70000096417354,29.113317717489338,15.288,0.0,0.0,0.0202640360420561,3.0367358387834494e-11,-2.4945905791363795e-05,1.5114297685186711e-09,4.5643121540033697e-07,3.846332105235269,52.641145594326446,6.895494900078523,37.12304892183151
0.17,31.222185210004127,131.010386140357,3.503019838429153,3.8860314262554336,0.000297865039677,46.520531453299206,0.0005306403365217,3.31650761597812,471.78125980632376,7.314788342774694,2.9619016331667103,69.99993849340957,-4.3039914767238207e-10,113.70000110959404,32.761746921137856,15.288,0.0,0.0,0.0214963781445172,4.0366633128431416e-11,-3.0713078585132897e-05,1.96747427715988e-09,5.961228045584824e-07,3.886031437653654,51.00464968745696,7.314835131305714,46.63860064094784
0.18,31.22218510147516,131.01038643438045,3.571950002194137,3.9107265153396016,0.0003214293682635,38.895647526122765,0.0005639254295027,3.312149448254175,407.10156721191447,7.754626295791602,3.1430587898572058,69.9999195084231,1.6149322372810674e-09,113.70000126508234,36.81988229018681,15.288,0.0,0.0,0.0227889722876034,5.2593391349219385e-11,-3.731786027786564e-05,2.525509173087448e-09,7.6786585232224e-07,3.9107265285284982,49.36615848311875,7.754676785798701,39.036415444581515
0.19,31.222184986476247,131.0103867459258,3.644912152926752,3.920599115663931,0.0003437679584038,43.86258669386953,0.0005989384366483,3.307389681300437,448.9531328318269,8.219206165926856,3.332657190859447,69.99989653019398,4.538529095696477e-09,113.70000143063515,41.36350714675367,15.288,0.0,0.0,0.02415428010977,6.735860419174937e-11,-4.481243905342629e-05,3.199401151670645e-09,9.773118416308382e-07,3.92059913071168,47.71893898797248,8.21926016487149,43.987104227715655
0.2,31.222184864792144,131.01038707557822,3.722074668489528,3.943376465171875,0.000367328732016,40.28070981710589,0.0006315894240138,3.30251450988504,418.51563019916136,8.65238089736321,3.511445117640573,69.99986902534273,8.534090245934178e-09,113.7000016067622,45.83799876721736,15.288,0.0,0.0,0.025427299120469,8.499785987217288e-11,-5.328041996372527e-05,4.006766070954748e-09,1.2232205148646746e-06,3.9433764822533854,46.2587826635041,8.652438597225508,40.41586552155969
0.21,31.22218473678744,131.01038742234647,3.803156063113743,3.9664546506877016,0.000390962054969,38.67679184347145,0.0006636984664108,3.297405915846789,404.8187610144644,9.079179692250786,3.688002035198235,69.99983642883521,1.3827831253856693e-08,113.70000179318536,50.47126980736161,15.288,0.0,0.0,0.0266815841422463,1.0586558589671407e-10,-6.275155280099118e-05,4.961340042512481e-09,1.5117124669161171e-06,3.9664546699249135,44.88773728276958,9.079241104426773,38.817098210937615
0.22,31.2221846022986,131.01038778667507,3.8882846911135607,3.956175711337521,0.0004112685792646,46.713636108302936,0.0007011135033803,3.291572407481395,472.5421858721365,9.580256326712124,3.889976788904857,69.99979815126248,2.0662823443484168e-08,113.70000199039316,56.195522894218605,15.288,0.0,0.0,0.0281541581291438,1.3033127211465288e-10,-7.330053770532661e-05,6.0817207473359025e-09,1.8632831045819008e-06,3.956175732680424,43.35679625546934,9.580320928629488,46.8294591882524
0.23,31.222184460898035,131.01038816972698,3.977794004014759,3.9879066397329104,0.0004360962274406,38.89105719050748,0.0007308686121188,3.286096544282012,406.3406421461021,9.977039034039262,4.056142701351626,69.99975353557706,2.9316661139418326e-08,113.70000219928508,60.9462612310605,15.288,0.0,0.0,0.0293202403623685,1.5880617816859538e-10,-8.505067486192354e-05,7.393319440773217e-09,2.2514912291167663e-06,3.987906663538912,42.20670487756048,9.97710753587448,39.0296395118868
0.24,31.222184313516166,131.01038856897196,4.070963590490852,4.003523997322975,0.000459165577055,40.0792299321398,0.0007630441688766,3.280134925833028,416.2328240017114,10.408422364424831,4.234121060914368,69.99970190737699,4.010976417051318e-08,113.70000241888,66.32994780718496,15.288,0.0,0.0,0.030588009649109,1.91711512587616e-10,-9.795845222523724e-05,8.904557280909524e-09,2.7052895870113487e-06,4.003524023611085,41.011349410369874,10.408494489985014,40.21323112692186
0.25,31.22218416001652,131.01038898478134,4.167901030441617,4.0261356185860135,0.0004830526730531,41.17760020658354,0.0007934613160587,3.2740610008587527,425.36408079150686,10.816813039390448,4.4041629376391525,69.99964258149416,5.3372865854010094e-08,113.70000264972064,71.63651430352668,15.288,0.0,0.0,0.0317882126436337,2.2947426169209347e-10,-0.0001121037688082,1.0637152702866709e-08,3.217380562698304e-06,4.026135647516394,39.93186687113378,10.816888917126896,41.30755663120434
0.26,31.222184000702686,131.0103894163294,4.26837241014618,4.053359329950934,0.000507503069958,44.80261175215926,0.0008224724146494,3.2678597736729302,455.8015834241788,11.207047269494833,4.567925492611352,69.99957484039399,6.947299261165984e-08,113.70000289176392,76.89781807056055,15.288,0.0,0.0,0.0329350617559806,2.7254099134167665e-10,-0.0001275114371842,1.260720913253598e-08,3.7915697709142366e-06,4.053359361668992,38.945390435244384,11.207126987890645,44.921630958721536
0.27,31.22218383516388,131.01038986473338,4.372698316214008,4.0614460923241,0.0005296455772492,41.029837477288126,0.0008548809954683,3.2610328932384265,423.84219965987256,11.645685385842508,4.748226940060522,69.99949794024376,8.879821051920497e-08,113.70000314600205,83.0342688744587,15.288,0.0,0.0,0.0342241635563461,3.2137296827284217e-10,-0.0001442952656441,1.4842505534226832e-08,4.458527942364847e-06,4.061446126801262,37.8838346421185,11.645768582375233,41.15922617924542
0.28,31.222183663504484,131.01039032970942,4.48079961904222,4.081133040992532,0.0005533279247169,47.27661484082626,0.0008845140695959,3.254218495915602,476.3468732012221,12.047344998676092,4.915789434712848,69.99941106884992,1.1178948978424788e-07,113.70000341275257,88.85982357848233,15.288,0.0,0.0,0.0354045979054623,3.764736350660473e-10,-0.0001625146963723,1.7365685655384934e-08,5.194620655212288e-06,4.081133078439725,36.956255322213885,12.047431915223257,47.38848224631549
0.29,31.22218348566054,131.0103908114315,4.592727908358551,4.1001100265020245,0.0005770279952742,37.989969791857405,0.0009138463939581,3.247164755122801,397.97031042211177,12.446314684600782,5.082367374004485,69.99931338876085,1.3891902435864665e-07,113.70000369260468,94.8417675268915,15.288,0.0,0.0,0.0365771315767517,4.3836067907166327e-10,-0.0001822432988888,2.0202163500922312e-08,6.018074062137429e-06,4.100110067036654,36.07377590258778,12.446405323946324,38.12849176886316
0.3,31.222183301933686,131.01039130907952,4.708251093558373,4.112858061667493,0.0005998635114143,35.655053282557844,0.000944131403186,3.2397207148238625,378.1859457108711,12.860033399289696,5.253940723820665,69.99920403105713,1.707002607527005e-07,113.7000039856728,101.2505662360602,15.288,0.0,0.0,0.03779301412572,5.075709863465428e-10,-0.0002035013069687,2.3370674033523645e-08,6.94335970778e-06,4.112858105337573,35.19685285507256,12.860127625629724,35.80193592228613
0.31,31.222183112488807,131.0103918222051,4.827243246502713,4.136140889545823,0.0006242383343011,37.56633644061071,0.0009716215464757,3.232339252743767,394.1656220930212,13.2364445751808,5.4126574282679245,69.99908210036875,2.0768081583188525e-07,113.7000042923011,107.26326115439352,15.288,0.0,0.0,0.0388992619788015,5.846561731689753e-10,-0.0002263323252403,2.6893437641668458e-08,7.948283231812338e-06,4.1361409365698805,34.43286455705216,13.236542630309057,37.70514091683033
0.32,31.22218291741533,131.01039235056504,4.949637017503345,4.1622282001352975,0.0006491019906456,40.83513712643371,0.0009979686925508,3.224840963348891,421.55939346242695,13.59846554462374,5.566374262777002,69.99894668612772,2.504388718903276e-07,113.70000461297312,113.2095365840355,15.288,0.0,0.0,0.0399632243410653,6.701756367872645e-10,-0.00025078340164,3.0793566854276295e-08,9.047716714467492e-06,4.16222825066026,33.72644865222576,13.598567505326,40.96227562489027
0.33,31.222182716732533,131.01039289410716,5.075419569102976,4.187801887681037,0.0006739743721461,40.48743503284469,0.0010239291638211,3.217136801802925,418.5156301991682,13.956637761217308,5.718704299733134,69.99879684673242,2.995902922462564e-07,113.70000494831164,119.25032483364384,15.288,0.0,0.0,0.0410158804634189,7.647061680070125e-10,-0.0002769136723495,3.509664608790402e-08,1.0253455741189656e-05,4.187801941818244,33.053267359159875,13.956743628864118,40.61505097607
0.34,31.222182510255863,131.01039345333336,5.204736257784645,4.19642921746386,0.0006961879027693,31.814592723444047,0.0010535137542081,3.208669900766693,345.46563688075645,14.367047160772364,5.88887983533068,69.99863160305904,3.557915789971256e-07,113.70000529927128,126.36523219087664,15.288,0.0,0.0,0.042222056531773,8.688448410811866e-10,-0.0003048202762282,3.9835373705550826e-08,1.1618525957862828e-05,4.196429275109305,32.30947868183619,14.367156517712404,31.97598901989736
0.35,31.222182298183583,131.0103940277045,5.337435501771672,4.210915783240843,0.0007193441544952,34.813487415034444,0.0010813034848195,3.200164272309822,370.5765700527033,14.754132934586384,6.050986755458457,69.99844991734221,4.1975736284587617e-07,113.70000566632532,133.26448209504355,15.288,0.0,0.0,0.0433596939127697,9.832256819293898e-10,-0.0003345386312107,4.503361101379695e-08,1.309465610343774e-05,4.210915844572415,31.63649055965014,14.75424592890194,34.96026256388454
0.36,31.222182080444604,131.0103946174141,5.4735747500461605,4.22903876037745,0.0007431682866607,39.2632255716727,0.0011077666085529,3.1915717453569297,407.8625232777193,15.124417129017054,6.2072589919251575,69.99825073022951,4.922382611919288e-07,113.70000605036684,140.03566173682628,15.288,0.0,0.0,0.0444479595865755,1.1084921261805627e-09,-0.0003661511460057,5.0723697896912267e-08,1.4691545926915382e-05,4.229038825557203,31.017264542603208,15.124533865618538,39.39272792946638
0.37,31.22218185710795,131.01039522227452,5.613102797925907,4.249164960780052,0.0007674149135003,37.28328237034959,0.001133274451316,3.1828514669894137,391.1218908297666,15.483077353331511,6.359470679857624,69.99803294268581,5.740349991123437e-07,113.70000645214331,146.75405277514704,15.288,0.0,0.0,0.0455020695186381,1.245311285088233e-09,-0.0003997125883071,5.6934243389647934e-08,1.641828325195534e-05,4.2491650299519,30.439178816713017,15.483197898584232,37.418894813348615
0.38,31.2221816281124,131.0103958424523,5.756069531572451,4.260095806433531,0.0007900626414612,38.9278000801764,0.0011607546399008,3.1735466295306622,404.8187610144602,15.87126705947922,6.521735074464384,69.99779542676283,6.659911329739736e-07,113.70000687263192,154.20298254405043,15.288,0.0,0.0,0.0466429667223463,1.3943646956867835e-09,-0.0004353006984059,6.369875435270817e-08,1.8328108041903096e-05,4.260095879559656,29.83470194713067,15.87139116222873,39.05694584372078
0.39,31.22218139339905,131.0103964781077,5.9025231349944285,4.274091258047817,0.0008133283308351,33.320076729592266,0.0011870382950339,3.164143363712209,357.64062493382744,16.24457853509073,6.678818328235205,69.9975369905506,7.690136753559805e-07,113.70000731287368,161.54010621938565,15.288,0.0,0.0,0.0477401448128051,1.5563705124515804e-09,-0.0004730068442167,7.105463478762673e-08,2.0383860516746246e-05,4.274091335289374,29.274934656826048,16.244706292406182,33.46997636540994
0.4,31.22218115316572,131.01039712870306,6.0523126585892895,4.286421841403391,0.0008363022448449,31.88018820767003,0.0012133780841982,3.1544430614236454,345.465636880754,16.62063299903514,6.836764518435374,69.99725641601981,8.840594270905819e-07,113.70000777359816,169.10340080049767,15.288,0.0,0.0,0.0488453895716005,1.7320643186450851e-09,-0.0005128553637434,7.9027539265021e-08,2.2612406375611563e-05,4.286421922834417,28.730746964325096,16.620764365084565,32.03586915718869
0.41,31.22218090752676,131.01039779392735,6.205351877049411,4.30025870409831,0.0008595777771371,35.882550741685804,0.0012389121673015,3.1445895889870297,378.94687077668647,16.987310563534386,6.99141560549392,69.9969524610574,1.0121301778427253e-06,113.70000825570062,176.64448930727934,15.288,0.0,0.0,0.0499230826371405,1.922193031274436e-09,-0.0005548883906878,8.764667734700782e-08,2.5005077415911235e-05,4.300258789847355,28.21875643368965,16.987445585695873,36.020076248499606
0.42,31.222180656535848,131.0103984736348,6.36160173428776,4.322008670726048,0.0008844838439129,40.34064925656127,0.001261804338223,3.134918999355981,416.2328240017114,17.318628721060172,7.133856886815013,69.99662385300175,1.154276942054023e-06,113.70000876021427,183.59942989625057,15.288,0.0,0.0,0.0508968652507098,2.1275184665783874e-09,-0.0005991661829955,9.694534598491077e-08,2.752657757470936e-05,4.322008761057615,27.772396468009568,17.318767655457478,40.462275036947325
0.43,31.222180400205527,131.0103991677914,6.521055075967404,4.339436441324956,0.0009085827200945,35.541853595187746,0.0012854696362701,3.124839917627212,375.9031395134336,17.662848429084132,7.280642039343927,69.99626930133451,1.3115939750280808e-06,113.70000928827632,190.96736675963504,15.288,0.0,0.0,0.0519085689713619,2.3488101247838237e-09,-0.0006457514522491,1.0695800287133593e-07,3.0255957891170616e-05,4.339436536261635,27.322335771349252,17.662991148924057,35.67895714766603
0.44,31.22218013836212,131.0103998768696,6.683849332059896,4.342209064313268,0.0009296474314902,32.82948243168077,0.0013129688908547,3.113754688841357,353.0750125389216,18.063580761318697,7.446730341918701,69.99588746395321,1.4852372182848018e-06,113.7000098413532,199.7278270846888,15.288,0.0,0.0,0.0530863610987301,2.586862292117705e-09,-0.0006947575786514,1.1773083546077225e-07,3.329010177793299e-05,4.342209163639375,26.81344244367223,18.06372678999575,32.9768158972058
0.45,31.22217987077456,131.0104006014978,6.850166573233225,4.3420317510315165,0.0009500780330031,38.11022602597878,0.001341042003417,3.1022288449712887,397.2093853562869,18.47486275310604,7.616350301328129,69.99547690348253,1.6764536248320808e-06,113.70001042108892,208.92306716049887,15.288,0.0,0.0,0.0542951637545535,2.842521175226318e-09,-0.0007463379956615,1.2932090054593452e-07,3.657529369088674e-05,4.342031854775571,26.30944884471334,18.47501199101448,38.23628058998621
0.46,31.22217959739673,131.01040134180155,7.020045503401754,4.351169003849846,0.0009725797783515,44.3937050866137,0.0013660055515545,3.09098240974522,449.7140588976434,18.844323061800488,7.771531995684422,69.99503610583268,1.8865779683531e-06,113.70001102895836,217.3591612614144,15.288,0.0,0.0,0.0553810645782081,3.1166808800591503e-09,-0.000800596194505,1.417768495237597e-07,4.001824400409673e-05,4.351169112337076,25.873596578896564,18.844475834274814,44.50118229261506
0.47,31.22217931813738,131.01040209802923,7.193559875579052,4.358630093683735,0.0009947969928181,30.22514089990685,0.0013910994973101,3.079396422776949,331.0078106302534,19.2180591098146,7.9280875671397615,69.99456352718363,2.1170044481277104e-06,113.70001166656292,226.0625808853568,15.288,0.0,0.0,0.0564795377574197,3.4102493884459798e-09,-0.0008576351980594,1.551487523304888e-07,4.3718862242359527e-05,4.35863020698899,25.44665981168229,19.218215372160817,30.381603425148434
0.48,31.22217903348153,131.01040286886197,7.370336324605091,4.365514409145237,0.001016880998596,29.779838936311712,0.001416009414045,3.067527859335786,327.2031223011574,19.5915905767454,8.084483592791102,69.99405758812365,2.369198154608765e-06,113.70001233476164,234.93171707892955,15.288,0.0,0.0,0.057577416115756,3.7241711041759195e-09,-0.0009173883913609,1.6944871263079066e-07,4.767297940601472e-05,4.365514527349481,25.03354780044292,19.59175030803913,29.937410312943754
0.49,31.22217874361868,131.01040365378466,7.5502307795521535,4.3786401372577615,0.0010404145545081,37.2489281064929,0.0014385799934191,3.0558405437943126,389.60000969812296,19.93403005898306,8.23012235628909,69.99351671352461,2.644660619562788e-06,113.700013034871,243.21198709852868,15.288,0.0,0.0,0.0585839249886784,4.059374595909599e-09,-0.0009798792959512,1.8470833984680338e-07,5.180951737438081e-05,4.378640260624215,24.667474291142685,19.934193486919103,37.37406598941686
0.5,31.22217844858332,131.0104044527036,7.733219389747018,4.396357947794185,3.539729103619635,38.27407642361536,-0.2277516219291188,3.0442562291324373,397.97031042210494,20.28870614586615,8.3664649573212,69.99293932307316,2.9449363413826395e-06,113.70001376847225,251.93924972019568,15.288,0.0,1.2525784889493092,0.0596264021382909,4.416769394513709e-09,-0.0010472760810716,5.18679161945689e-06,5.6357245998767e-05,5.64207757485707,27.753346039120316,20.844371862058445,38.39562856459902
0.51,31.222178148583662,131.01040526545023,7.919241811783706,4.408032839112984,3.488392752616145,29.36373177996513,-0.2332829217922694,3.032037807392838,323.3984349720841,20.63056723676712,8.511929451893684,69.99232260953808,4.965141981287954e-05,113.7000638957992,260.49638953902405,15.288,0.0,1.2575491204889595,0.0606312236458985,4.814848373981997e-09,-0.0011154010699522,5.9877816820310245e-05,6.103355881952264e-05,5.619218193871941,27.35796571383866,21.17818421991466,29.5207794313225
0.52,31.222177843673208,131.01040609209974,8.108309294857602,4.417013618114604,3.437119727838721,35.200786198415166,-0.2389859156552584,3.0194114586435785,372.0984511843415,20.98119069890272,8.66026944366848,69.99166613071293,0.00018337520114,113.70020663682156,269.42118883215164,15.288,0.0,1.2625021495906978,0.0616618032970855,5.268443876110487e-09,-0.0011864472070507,0.0001159470539144,6.60232856709792e-05,5.594674518384165,26.963406817729936,21.52076843874877,35.330854911974676
0.53,31.22217753371707,131.01040693303457,8.300533487434613,4.42612965179972,3.3879245591751985,36.94208868909772,-0.2447144657315171,3.006565458767696,386.5562464348624,21.3281139113588,8.807238654186126,69.99096817019506,0.0004063381252585,113.70044435707976,278.39945009543595,15.288,0.0,1.2674383819537411,0.0626815148577863,5.779256644350817e-09,-0.0012605481402593,0.0001734576326499,7.130540574956803e-05,5.571876688390095,26.58418747264065,21.859977794597626,37.06504064129372
0.54,31.222177218623465,131.01040778851623,8.495991544324,4.435023993643534,3.3404292965453086,32.48763366889169,-0.2504896567870169,2.993471671104539,349.2703242098436,21.673008014379835,8.953409304910005,69.99022695247511,0.0007208193914635,113.70077948319695,287.4707765592676,15.288,0.0,1.2723614168870507,0.0636952697717378,6.3490348755593654e-09,-0.0013378217753231,0.0002324574091284,7.689885425013998e-05,5.550279800673343,26.217680806898088,22.197424216073085,32.626215825896324
0.55,31.222176898674068,131.01040865779075,8.694470950629025,4.444936769964873,3.2954352096534376,34.41124736232239,-0.2562392350290131,2.98023320721702,365.2500005919907,22.00983884673559,9.096709440340542,69.98944066297129,0.0011291100986636,113.70121445404668,296.4700096215503,15.288,0.0,1.2772655087261382,0.0646853339893591,6.979567345623527e-09,-0.0014182426879232,0.0002928850230721,8.278688767772367e-05,5.531324970116101,25.86977121449699,22.52719924111384,34.54101031449293
0.56,31.22217657387628,131.0104095408495,8.895971799824055,4.456755320854485,3.25345443247155,32.14113459181767,-0.2619052462540324,2.966939192551984,346.2265619465787,22.3339672769767,9.235543046133936,69.98860747428087,0.0016334613517223,113.7017516664522,305.2603445110635,15.288,0.0,1.282150588321053,0.0656380733480576,7.672607701351958e-09,-0.00150189327637,0.0003547614865292,8.895916249006689e-05,5.516001483813634,25.544269344183,22.84474411238985,32.27884532289925
0.57,31.222176244308063,131.01041043749174,9.100439417076348,4.466293455428743,3.2113316548642,31.78515363439863,-0.2677349787347008,2.953226885108745,343.1828296833023,22.666172294713977,9.3770538962498,69.98772552817347,0.0022361210675001,113.7023935138768,314.40285687979707,15.288,0.0,1.2870145301873,0.0666145558859558,8.429922850043842e-09,-0.0015888201311076,0.0004180808362655,9.550588424546496e-05,5.499047855799437,25.218601842188868,23.170343026602684,31.923176887899043
0.58,31.222175909954345,131.01041134776963,9.307891332370012,4.470819143804691,3.167130412016308,41.74040932176701,-0.2739077833994552,2.938817715046242,426.1250058573153,23.02085768235049,9.526193047688492,69.98679292506698,0.0029393554417238,113.70314240951164,324.3130772547839,15.288,0.0,1.2918573425244717,0.0676571138526722,9.253292991943804e-09,-0.0016791095668817,0.0004828660026336,0.0001025106754445,5.477094872464428,24.87874226742518,23.518096052650343,41.8446346068971
0.59,31.222175570425406,131.01041227275448,9.51863580634126,4.480551863337133,3.128047076646003,33.90227124195536,-0.279794504924956,2.9246597509872174,360.68438819711065,23.34593002038777,9.665044035742897,69.98580765944995,0.0037455748440791,113.7040009206722,333.5300981367523,15.288,0.0,1.2966849772319586,0.068612647818447,1.0144562740411605e-08,-0.0017730292490978,0.0005492671848558,0.0001097708052067,5.462606154905951,24.57665202201966,23.83703845637772,34.02933903247526
0.6,31.222175225936272,131.01041321187327,9.732512158580713,4.481854020410824,3.0844908166144025,30.16831359083161,-0.286257413170129,2.9094330620914524,329.4859594986058,23.7120311595198,9.81789622740181,69.9847676747863,0.0046572192050325,113.70497164544336,344.0656107822428,15.288,0.0,1.3014932916335047,0.0696887708948195,1.1105666584915e-08,-0.0018705694292704,0.00061723510461,0.000117623321923,5.438904512211401,24.24296065909788,24.1963078466821,30.309633599965224
0.61,31.222174876445774,131.0104141652495,9.949558435062269,4.481564913235428,3.0412616267750527,35.291977333618625,-0.2928809568372321,2.8937601511898734,372.0984511843297,24.084514752159183,9.972836595899077,69.98367085044937,0.0056767840049063,113.70605724157252,354.9527156223476,15.288,0.0,1.3062837392823887,0.0707836595327831,1.2138557773933428e-08,-0.001971842651152,0.0006868071186039,0.0001259365978211,5.414316444872831,23.91232652962099,24.56201071434296,35.41162649729807
0.62,31.222174522072663,131.01041513257206,10.169688785779144,4.493334841305283,3.0074377673182253,43.79878855997664,-0.2987476578909644,2.87909229224844,442.86563930529206,24.38979579768308,10.104565119886455,69.98251500050928,0.0068068184995285,113.70726042400494,364.00039092798926,15.288,0.0,1.3110581617168595,0.071681049292453,1.3245248935978142e-08,-0.0020769067180363,0.0007579823876313,0.0001343252863162,5.405199957344003,23.65097062279139,24.861986120511496,43.89433109083587
0.63,31.222174162643206,131.0104161143241,10.393043807846077,4.5008851561930285,2.9719006431905988,24.98261846204713,-0.3049258647106002,2.863753755888844,286.11251274707894,24.714519930423883,10.24286878942882,69.98129795497204,0.0080497757854288,113.7085838059632,373.7494521534389,15.288,0.0,1.3158080586249223,0.0726355890804947,1.4427666326475728e-08,-0.0021859205332604,0.0008308263083611,0.0001432550212557,5.391844051275086,23.37815147463954,25.181135692505823,25.148067332849955
0.64,31.222173798734858,131.01041710894677,10.619181869474025,4.501892337749444,2.93320887868656,24.531662894183068,-0.311598680586279,2.84743319965118,282.30782441796754,25.07246004114532,10.39249204959349,69.98001749527151,0.0094081300464684,113.71003002226423,384.64551409694656,15.288,0.0,1.3205379632953445,0.0736877574808778,1.5687868216998987e-08,-0.0022986814800749,0.0009051649264514,0.0001528233159875,5.371501931889873,23.08304141363852,25.533006183132265,24.698328970156204
0.65,31.222173430334607,131.0104181164857,10.848118881952352,4.511803754281106,2.901354064967143,43.10367243492764,-0.3176873031609177,2.831875951599897,436.7781447787475,25.37832685951677,10.52410678411032,69.97867140218949,0.0108842931631877,113.71160164248144,394.0789177427519,15.288,0.0,1.3252403169629037,0.0745868902295981,1.7027786254657706e-08,-0.0024153010017809,0.0009810353319575,0.0001625318859293,5.362538476859395,22.83897244225045,25.83387574372004,43.197766423802285
0.66,31.22217305695395,131.01041913827908,11.080239179458706,4.519091612626846,2.8687900425129014,36.71127991681704,-0.3239938529619131,2.8157853814143943,383.51251517160017,25.695593321520487,10.659529570621336,69.97725740944713,0.012480699092782,113.71330126060084,403.98463595063873,15.288,0.0,1.329922569270465,0.0755195339690509,1.844929703878489e-08,-0.0025361192157277,0.0010586183031772,0.0001727917332866,5.351174573721091,22.590650239733066,26.14603354452785,36.82053357111815
0.67,31.222172678779355,131.01042017383057,11.315404276348616,4.520573013355805,2.8335561887607854,25.372956670523216,-0.330766524316543,2.7987364746294867,289.1562440103425,26.0429979462052,10.805207294964491,69.97577311836825,0.014199948131642,113.71513164695,414.9728603311239,15.288,0.0,1.3345891668747472,0.0765407617321774,1.995451793164549e-08,-0.0026611321813121,0.0011378711577002,0.000183756310565,5.333662068605627,22.323467679320267,26.487910499626103,25.528988670769518
0.68,31.222172295980727,131.01042122268905,11.553488557520364,4.523230248611184,2.8000157710746225,31.60431307677874,-0.3375012813920894,2.7815558615814595,340.8999924858462,26.38124085812897,10.947627526387992,69.97421606125904,0.0160446376547413,113.71709557184768,425.81234653973286,15.288,0.0,1.3392248639784678,0.0775350709854242,2.1545569424318767e-08,-0.0027903537354515,0.0012187643028187,0.0001951773384312,5.318214308941625,22.06971333405562,26.82089126064651,31.728277059763066
0.69,31.22217190864085,131.0104222846396,11.794433772920245,4.530747635379863,2.7703632874652326,38.8466325994832,-0.3439067691873539,2.764750381964068,401.0140726853634,26.68842930265447,11.079260601201389,69.97258386587829,0.0180173007376628,113.71919572919585,435.7764866207892,15.288,0.0,1.3438393635619164,0.0784381180764645,2.322452538049564e-08,-0.0029238296163154,0.0013012886719961,0.0002068902083815,5.30910354174126,21.84553925748081,27.123427406105705,38.946411655757124
0.7,31.2221715166312,131.010423360041,12.038345153084167,4.537535845503975,2.7410936155114607,32.627458627264595,-0.3504018030959175,2.7476150608256886,349.27032420985284,26.996727596173194,11.2111648852384,69.97087403159505,0.0201204609919489,113.72143481182748,445.8921635098395,15.288,0.0,1.3484362060893116,0.0793444346221287,2.499341203196872e-08,-0.0030617276562096,0.0013855094491871,0.0002191454057973,5.299727235931069,21.625053642521905,27.42713334717072,32.744819841006176
0.71,31.222171120008664,131.01042444874838,12.285184416381448,4.540436907179116,2.7102777826593263,26.86276910406473,-0.3572407791245943,2.729695982082608,301.33126406340574,27.325160129719936,11.349885094972604,69.96908401968679,0.0223566945338685,113.72381556572444,456.7964580574786,15.288,0.0,1.3530013480583571,0.0803099342882272,2.685434696642552e-08,-0.0032041073732925,0.0014714244681251,0.000232120860277,5.286377566329657,21.39409463668518,27.750730817382458,27.003466908290907
0.72,31.22217071877965,131.01042555075404,12.53495243986054,4.538768928505027,2.677585725843296,32.827399123183085,-0.3645007977163954,2.710845734277853,350.79220534145287,27.67863029579564,11.497108598234192,69.96721122084374,0.024728628778486,113.72634079188776,468.67962034755686,15.288,0.0,1.3575463421024727,0.0813490290081477,2.8809476865698704e-08,-0.0033510725565887,0.0015590582034944,0.0002459021940772,5.268290379506396,21.149950194444067,28.099071402436653,32.94115478575926
0.73,31.222170312945607,131.01042666606392,12.78765407811128,4.5464500641338095,2.651167371769126,41.45434113155619,-0.3710424725910035,2.6930773927573406,422.320318528234,27.97265793673708,11.623772795177404,69.9652529279455,0.027238983971878,113.7290133905027,478.67837709243616,15.288,0.0,1.362073556053688,0.0822134269365719,3.086101417461862e-08,-0.0035027419856284,0.0016484437307772,0.0002597558405643,5.261571653095845,20.953304817914397,28.38895374410264,41.54338379346678
0.74,31.22216990244844,131.0104277948448,13.04333990069028,4.550517860365022,2.6233382204502407,26.055820286522344,-0.3779164321935625,2.6745335241239934,294.48281347105944,28.28568562860792,11.7568603804107,69.96320641871209,0.0298903869415009,113.7318361655916,489.4395920333863,15.288,0.0,1.3665744804945577,0.0831336751149276,3.3011114462917714e-08,-0.0036592332625474,0.0017396110839699,0.0002743908217984,5.25115589833425,20.747070140629177,28.69761467304745,26.195452300064115
0.75,31.222169487646045,131.01042893613388,13.301738689412856,4.552123318044365,2.5947898384591976,30.3738998056244,-0.3850442677920766,2.655340633170656,330.24688556441487,28.61125032507381,11.894155160397435,69.96106902706303,0.0326854601255312,113.7348119079242,500.75878212326313,15.288,0.0,1.371047536026282,0.0840907784463336,3.526207130709482e-08,-0.0038204104104986,0.00183244412682,0.0002897669537964,5.238376322840232,20.53631194434574,29.018699648785443,30.49217739631653
0.76,31.222169068433136,131.01043009022567,13.562937474485668,4.556766393335062,2.568643548725744,32.675351422844145,-0.3919523451067168,2.636358817800845,349.27032420986166,28.914997071468648,12.023833486242532,69.95883795190841,0.0356268242369917,113.73794341591568,511.4348426840472,15.288,0.0,1.3754996940963435,0.0849837651370597,3.761602099661341e-08,-0.00398645629911,0.0019270118601191,0.0003055633515513,5.229544055613247,20.344325740603534,29.3183435143068,32.7838772121815
0.77,31.22216864475662,131.01043125727296,13.826982860777132,4.561846750944296,2.543370977650546,30.57144786290272,-0.3988590201909851,2.61719666467494,331.7687666960708,29.21290206367944,12.151390040509392,69.95651036984202,0.0387171185978907,113.74123350536564,522.0142994895205,15.288,0.0,1.3799314352472112,0.0858595903599962,4.0075145169186986e-08,-0.0041575111943538,0.0020233567136069,0.0003219498464199,5.221638173257362,20.159701753082768,29.612282649905364,30.685863705194166
0.78,31.22216821668353,131.01043243710188,14.093828481212762,4.563509145156837,2.5167988468269065,25.16032898318064,-0.4061093505950602,2.597206199926094,286.8734378128899,29.529697797389595,12.285337883849722,69.95408341008688,0.0419589895926725,113.74468499989445,533.3838600187164,15.288,0.0,1.3843321796088843,0.0867909454553315,4.264169514040797e-08,-0.0043336201237833,0.0021214666684379,0.000339217934002,5.210229381431491,19.96621014708797,29.92490851194367,25.297283636617095
0.79,31.22216778430412,131.0104336294758,14.363410091010904,4.563074539009439,2.489695114926792,35.63810985442295,-0.4136017569923073,2.576566510032777,373.6203323159534,29.857444861742216,12.422947380346589,69.95155410150241,0.0453551211526768,113.74830076641312,545.2753930495093,15.288,0.0,1.3887089262883952,0.0877544960992522,4.5317965768888296e-08,-0.0045148248225744,0.0022213285447422,0.0003573150119036,5.196837375074054,19.76946463867077,30.248402194759336,35.73352257180822
0.8,31.222167347403506,131.0104348349861,14.63589928409882,4.568121403793293,2.466158835053995,36.1058912434352,-0.4206299074613298,2.5566106146252463,377.42502064505743,30.14659380170672,12.547157217372977,69.94891949122386,0.0489082482683471,113.75208371856696,555.8732244958917,15.288,0.0,1.3930667592518593,0.0886046107992049,4.81061424038569e-08,-0.0047014148009532,0.002323064417695,0.0003756757604938,5.190065368969247,19.6003893039557,30.533857521492024,36.19873713041156
0.81,31.222166906086,131.01043605335744,14.91122082518232,4.569059007345209,2.4409628486423967,23.61349710294056,-0.4280837509923641,2.535656897975584,273.9374926939919,30.45976988015381,12.67952653650986,69.94617648368843,0.0526211066066631,113.75603677939672,567.467520995271,15.288,0.0,1.3974034566494065,0.0895253525711712,5.1008604516367686e-08,-0.0048933978942637,0.0024266403236897,0.0003950681516242,5.178992448535801,19.4195243003492,30.843079451981183,23.753106260712453
0.82,31.22216646054094,131.010437284084,15.189233896264968,4.56810133460016,2.415311338396964,30.23841914673744,-0.4357716459749972,2.514053639130718,328.72500443277005,30.78294280283563,12.815230740190588,69.94332193928088,0.0564964293088582,113.76016286966832,579.5573917227413,15.288,0.0,1.4017141608884045,0.0904754849702784,5.4027772854955444e-08,-0.0050907362177559,0.0025319993973841,0.0004153498002986,5.166131147130051,19.235952277614192,31.162226662643025,30.34587871724329
0.83,31.222166010754822,131.01043852720997,15.469954306287663,4.573889778071035,2.393717978549547,38.3387026547512,-0.4428405414441971,2.4934497407758727,395.68750322465047,31.05790762252805,12.934225990107372,69.94035277037288,0.0605369432567568,113.76446489593648,589.9413774857378,15.288,0.0,1.4059970573254854,0.0912839351443025,5.7165953440388224e-08,-0.005293568637291,0.0026391797846425,0.0004357448978123,5.161218381841638,19.083998983314306,31.43380259177722,38.42225293504207
0.84,31.222165556625303,131.01043978301962,15.753466091278726,4.577923378887518,2.371678304558831,23.811447511892595,-0.4501121921102856,2.4722664723247108,275.4593748256452,31.34142757090844,13.056054236086847,69.93726574361017,0.0647453368713949,113.7689457358044,600.7450401733071,15.288,0.0,1.4102587154363075,0.0921175382514706,6.042541286167534e-08,-0.0055020680852713,0.0027482352256987,0.0004570297571731,5.154635225960508,18.929422153593496,31.713863549411787,23.943678395503127
0.85,31.222165098447707,131.01044105071912,16.03954646821617,4.575831678235666,2.3469610222138915,25.932766367244376,-0.4580479544082207,2.4495810492218686,292.96093233939376,31.663945660203066,13.191209691624596,69.93405773384512,0.0691242537915751,113.77360820810054,613.1557092796456,15.288,0.0,1.4144957277450887,0.0930657716169342,6.380863822145627e-08,-0.0057160830672425,0.0028590504903998,0.000479679738388,5.141472992232487,18.75514169287612,32.032502348329686,26.052228824101125
0.86,31.222164636051986,131.0104423307762,16.328331767135595,4.577741298370294,2.324772735765917,32.38191248103532,-0.4656207481811793,2.427411861374105,346.2265619465587,31.95613323680405,13.315808970044833,69.93072535349489,0.073676463375459,113.77845527813636,624.5067184825713,15.288,0.0,1.4187110031618195,0.0939248671003865,6.731789155190292e-08,-0.0059358974547607,0.0029717370415771,0.00050270867461,5.133106031707929,18.60085537605168,32.321207493106385,32.47610486119461
0.87,31.222164169464747,131.01044362312507,16.619806467296442,4.581379849546902,2.3038962445525195,30.17890015915231,-0.4730485997668345,2.405338474044295,327.964078366998,32.233140667095206,13.435068370159671,69.9272653362972,0.0784046740615845,113.78348983528764,635.3627628734911,15.288,0.0,1.4229043351895334,0.0947393537116245,7.095555480985348e-08,-0.0061615977733451,0.003086302298283,0.0005263317600137,5.126954345668346,18.45732956897661,32.59493832666896,30.278299869189194
0.88,31.222163698723943,131.0104449276691,16.91394619312351,4.581810434888186,2.281833402401515,26.13245504657973,-0.4808539096652748,2.3823091312314366,294.4828134710418,32.52954108027528,13.560901515393176,69.92367422897073,0.083311605512955,113.78871479323924,647.0831868404773,15.288,0.0,1.427072477373342,0.0956108484224119,7.472406300102666e-08,-0.0063932372216795,0.0032027365368699,0.0005511249806087,5.117484327487369,18.305440372191715,32.8878758913591,26.245224785486204
0.89,31.22216322391311,131.01044624418785,17.21069144304586,4.579100420779263,2.258644453491349,28.62530199298875,-0.489045536130923,2.3582878285940647,315.028134248087,32.84544513294134,13.693351472970852,69.91994862836957,0.0883999697789516,113.79413304962516,659.6934463826051,15.288,0.0,1.4312134790034812,0.0965396770572444,7.862586477347425e-08,-0.0066308648311112,0.0033210283547151,0.0005771441403433,5.104778955565237,18.14558882083164,33.20014029145873,28.726444284121037
0.9,31.22216274495995,131.01044757288318,17.51010285258688,4.583304001179854,2.239264868251986,31.580381180164487,-0.4965211806434011,2.335525200039388,339.37814235421445,33.10894334495112,13.80763001963148,69.91608502334404,0.0936725551684711,113.79974758425416,670.3012336751484,15.288,0.0,1.4353331965332556,0.0973144825279407,8.266334179623635e-08,-0.0068746797987126,0.0034412407345021,0.0006031485260904,5.1000276026687565,18.01574657072667,33.46059671009236,31.67051762645085
0.91,31.22216226193681,131.01044891356426,17.812129273921762,4.584344123305639,2.2187203397044044,24.1195970185882,-0.5043806300988914,2.3117778784333005,277.7421810230789,33.391935685173415,13.928520723434051,69.91207982805082,0.0991320500987651,113.80556127991198,681.7889689173737,15.288,0.0,1.439430417158829,0.098146593864171,8.683897766699777e-08,-0.0071247098743375,0.0035633502611696,0.0006304093663342,5.091995731016149,17.877607859559113,33.74036436509579,24.235380688537187
0.92,31.22216177504637,131.0104502656879,18.116619409672246,4.5823113964433,2.1970802955051254,28.64266078005568,-0.5126309182523058,2.287013118829064,315.02813424806214,33.694351776919625,14.056008172154966,69.90792950524366,0.1047811315370747,113.81157699937488,694.1739158573054,15.288,0.0,1.443503216434653,0.0990358047024309,9.115538060745181e-08,-0.0073808550103173,0.0036872729706852,0.0006589689584396,5.080791501722324,17.73162985476353,34.03938377019512,28.73839306616472
0.93,31.222161284200848,131.01045162949654,18.42364535980405,4.586603520373236,2.1788260665950365,33.99846959641612,-0.5201900085958449,2.263486081423973,359.1625070654728,33.94729467571578,14.166329514736736,69.90363042294166,0.1106224900471386,113.81779762396674,704.6145606393414,15.288,0.0,1.4475536867175995,0.0997796103930083,9.561485960899573e-08,-0.0076433495311006,0.0038130870532256,0.00068750721721,5.076816820803178,17.61256148659355,34.2894613918409,34.0777038807528
0.94,31.22216078929288,131.0104530052847,18.73329385378812,4.584685946780248,2.157980169577599,24.778781534937345,-0.5285041174996936,2.2381710721461934,283.0687504837787,34.24281056736844,14.291228559303631,69.89917894398623,0.1166587511419404,113.82422596673052,716.9141690812454,15.288,0.0,1.4515817850785706,0.1006485573502229,1.0021976321148985e-07,-0.0079123736964703,0.0039408418451879,0.0007178796610015,5.066189825430167,17.47401473956998,34.58170516239832,24.885271561840714
0.95,31.22216029061212,131.0104543922739,19.0453468668868,4.58337179483617,2.1377756360045264,31.98253366005289,-0.536790314245937,2.212700170879402,342.4218736174873,34.530976628127085,14.413494689751364,69.89457130158519,0.1228926339861968,113.83086494087304,729.0092924000214,15.288,0.0,1.4555859051348157,0.1014959099878123,1.0497284708918677e-07,-0.0081877656622482,0.0040704255272465,0.0007490946666768,5.056444238460197,17.341061411962198,34.86669973224,32.0634783703218
0.96,31.22215978786877,131.01045579125145,19.36003115483448,4.58511887586697,2.119330238702444,31.34297613303978,-0.5447448456124276,2.18772774020218,337.09533515678345,34.792926233839694,14.526608000475102,69.88980369642141,0.1293268214890359,113.83771742316668,740.0893039855381,15.288,0.0,1.4595691797984485,0.1022662140839217,1.0987626063027073e-07,-0.0084699572036687,0.0042020048236833,0.0007807670651292,5.050275508350629,17.222478200747904,35.12575394091086,31.423956665072794
0.97,31.222159281084217,131.0104572021633,19.677334455464905,4.585026012190445,2.100355317824284,20.175377936107903,-0.5529569252122845,2.161996979211373,245.02188719299323,35.06543255069856,14.643258221351257,69.88487223933146,0.1359640428456378,113.84478633973588,751.7048992491633,15.288,0.0,1.4635312264825489,0.103067555956525,1.1493256619858959e-07,-0.0087590396047374,0.004335584489088,0.0008137139628208,5.042274719186239,17.100394065653425,35.39528170476006,20.29842031203534
0.98,31.22215877054631,131.01045862423564,19.997040092419365,4.579032069400654,2.0790198039616667,29.23135191695149,-0.5619510004339947,2.1343557814631327,319.5937466429581,35.380119546584886,14.774375343070025,69.87977299975971,0.1428069939387253,113.85207458261029,765.2339617324104,15.288,0.0,1.467469381741184,0.1039928881767514,1.2014466488473877e-07,-0.0090547888477369,0.0044710253204531,0.0008487120442349,5.027986771447375,16.960349454235917,35.706619554739994,29.314556084331507
0.99,31.22215825610938,131.01046005786557,20.319263985721648,4.582485563727261,2.0622749181452087,31.91676167259382,-0.5697877677776805,2.1090124233220777,341.6609485517054,35.61897072577581,14.879206340779412,69.87450195034808,0.1498584228893958,113.85958510057462,775.5770233004951,15.288,0.0,1.4713866320534297,0.1046953248091851,1.255148692446269e-07,-0.0093575441359789,0.004608447106914,0.0008829834246331,5.024249074902411,16.857009219823198,35.942842170907504,31.99144052972904
1.0,31.22215773777311,131.01046150305646,20.6440100011812,4.580195995949515,2.04324011535448,28.59598420374694,-0.5783914657471511,2.0817811531658257,314.2672081822764,35.89889833476081,14.998121524397195,69.8690551314778,0.1571209076363138,113.86732066288216,787.7907906321391,15.288,0.0,1.4752818046567355,0.1055185065015404,1.3104573297152686e-07,-0.0096673677511716,0.0047478405060634,0.0009193589663809,5.014392101496645,16.73623813900589,36.219781718841,28.677493998574388
1.01,31.22215721571767,131.010462959325,20.971144067528293,4.578667852894251,2.024838769395489,29.895885100877432,-0.5869325014816474,2.0544656639520875,324.9203161036979,36.16974729175315,15.113805867441211,69.86342840266238,0.1645971401333516,113.87528416339651,799.6979088926496,15.288,0.0,1.4791537683130926,0.1063150118924335,1.367400349047685e-07,-0.0099841931116435,0.0048891399190079,0.0009566224228106,5.005540864798233,16.621053078586723,36.48774202042235,29.9721414798896
1.02,31.22215668986829,131.01046442687547,21.300727099079527,4.57842006263807,2.0072815566696525,25.00044903918955,-0.5953348656054424,2.0272389359256424,284.59063161540416,36.427177587198784,15.224755783493116,69.85761773096611,0.1722897055475671,113.88347837606416,811.0960928991004,15.288,0.0,1.4830040260403083,0.1070720840341511,1.4260018564601112e-07,-0.0103082254759268,0.0050324006954062,0.0009946671929042,4.9982526178265765,16.5131515615472,36.74241614246626,25.089571010016336
1.03,31.222156160293345,131.01046590552525,21.632710220967063,4.574198602434834,1.9882673112914164,20.472200230489275,-0.6043073205030085,1.9985162491230088,247.30469339049705,36.71292392189707,15.345399008584945,69.85161891503134,0.180201170669568,113.89190606737176,823.8447221532354,15.288,0.0,1.4868323390286693,0.1079123956815912,1.486288359068244e-07,-0.0106394829610222,0.0051775943551856,0.0010346513073211,4.986792234709461,16.3942242393886,37.02517754189973,20.57839247397297
1.04,31.22215562705461,131.01046739511014,21.967049875041887,4.5734493747121485,1.9710315566461685,32.411838018884254,-0.6128442059705113,1.97054373283214,345.46563688072297,36.9676940173821,15.45524156616954,69.8454277266922,0.1883341633405025,113.90057006160195,835.2917465266986,15.288,0.0,1.4906392524555334,0.1086616659445141,1.548286225508802e-07,-0.0109780377826221,0.0053247170914836,0.0010749484763091,4.979271973792551,16.290019899159567,37.277241867263314,32.477467025403726
1.05,31.222155089871645,131.01046889638687,22.3039634535956,4.569461933501711,1.9526711142429567,19.645745731534447,-0.6218615978765731,1.9412599864854267,240.45625879819983,37.245163978964015,15.57283505943522,69.83903992880774,0.1966912386149213,113.9094731076138,847.8503341926754,15.288,0.0,1.4944268353522858,0.1094776685598677,1.6120168538864957e-07,-0.0113243580224173,0.0054739341040958,0.001117146152747,4.968381916742719,16.177385902794544,37.55182946781814,19.751215849414105
1.06,31.2221545489788,131.01047040872578,22.643275433298648,4.562704881255027,1.9334075691327928,27.888409269207376,-0.6313195496042802,1.9107338908374447,308.17968365593924,37.54217736739656,15.69710175919017,69.83245099871483,0.2052750930763819,113.9186181144213,861.398625420403,15.288,0.0,1.4981932495301111,0.1103511261332724,1.677511102674314e-07,-0.0116782618347162,0.0056251297170587,0.0011612080112673,4.954637720106817,16.05800306444065,37.84581868548722,27.960916292963635
1.07,31.22215400426256,131.01047193243403,22.98507584408236,4.561821889350113,1.916885300280051,32.801914769519925,-0.6399735704680818,1.8818096817183767,348.5093681440308,37.78775129390935,15.803476489459737,69.8256564172676,0.2140884430472994,113.9280080051912,872.6761328756073,15.288,0.0,1.5019398309664342,0.1110733922625426,1.744793483487055e-07,-0.0120400779078221,0.0057784070807482,0.0012049761339207,4.947413469806721,15.961198943247808,38.088798764962974,32.862081285213144
1.08,31.22215345562375,131.0104734677789,23.329443129000897,4.559503566019311,1.8999985000194493,22.155891935863103,-0.6488628599398328,1.8521166507604767,261.00157857466235,38.041503601473885,15.9125828023007,69.8186516392951,0.223133902740669,113.93764559962564,884.406620312662,15.288,0.0,1.5056675162115607,0.1118197068466432,1.813889579559353e-07,-0.0124100349043971,0.0059338233179432,0.0012503005194939,4.938769374855195,15.862035660055843,38.33989997148377,22.24263713170444
1.09,31.222152903333782,131.0104750140308,23.67617355365805,4.5505532294027775,1.8806096536063128,20.39869582251601,-0.6587734342211587,1.8198132127438944,246.54375332474407,38.34734353118196,16.039640173721146,69.81143205031528,0.2324140836338906,113.94753371512932,898.6544733271347,15.288,0.0,1.50937412022329,0.1127191378902889,1.884832055189415e-07,-0.0127878601644408,0.0060912259095409,0.001298680839263,4.923087177874982,15.7431136272448,38.642695965707766,20.49030243374765
1.1,31.22215234746791,131.01047657098837,24.02521295858369,4.544792874287308,1.8627941597433952,40.70014178285405,-0.6682573847504256,1.7882467090964602,413.1890617385841,38.623502446047326,16.156340233080314,69.80399293139976,0.241931599341277,113.9576751756001,911.6138598982916,15.288,0.0,1.5130603706037895,0.1135313334758817,1.957648745037341e-07,-0.0131736208191949,0.0062506065563183,0.0013474464745475,4.910994108213418,15.63740101057447,38.916057922412286,40.7448884569499
1.11,31.22215178763008,131.01047813971545,24.37686523586272,4.545586215130028,1.8478804770108168,29.86152480977445,-0.6767638651206843,1.7587344900704016,324.1593910376397,38.840384403920616,16.25240498108908,69.79632956419465,0.2516890670493703,113.96807280315528,921.8494080645104,15.288,0.0,1.5167297750019944,0.1141692972896598,2.032358830718452e-07,-0.0135680435264956,0.0064122257776394,0.0013955351758699,4.906103209507697,15.55588335149559,39.13059847259682,29.920926127051473
1.12,31.222151223881216,131.01047972004693,24.73108616670692,4.5336970566965205,1.828059173848598,11.412396186531554,-0.6872740697113211,1.7242514559470097,172.73281794065943,39.16199103996763,16.38467484038524,69.78843708470984,0.2616890269282797,113.97872935167062,937.146942757526,15.288,0.0,1.5203807454424898,0.1151151034918911,2.1089924414962946e-07,-0.0139711139800501,0.0065760355248736,0.0014488421188998,4.887661134373756,15.434780207355876,39.44909318746907,11.562360288824808
1.13,31.22215065680429,131.01048131041915,25.08743652000505,4.528469810033216,1.8111599080463407,35.160332117499465,-0.6967874842274984,1.6918625277851476,367.5328077900705,39.42344976419681,16.496026655316044,69.78031048148539,0.2719342358557802,113.98964779394748,949.6696282168292,15.288,0.0,1.5240108773091514,0.1158841169588192,2.187590111730692e-07,-0.0143821484224667,0.0067417222271677,0.0015013736464949,4.876525942816054,15.33802502601175,39.7078987197862,35.20790914303154
1.14,31.222150085745536,131.01048291258417,25.44641420262544,4.527883036733051,1.796317499181413,19.57941436038901,-0.7055775746980522,1.660955964334836,239.69531773195544,39.64068486046852,16.5919437251783,69.77194481564506,0.2824271282355509,114.00083077611292,960.1312871511476,15.288,0.0,1.5276249656142065,0.1165231454397399,2.268164117130929e-07,-0.0148022810527746,0.0069097025192982,0.00155369302786,4.8704990387322615,15.25875405933354,39.92280353114037,19.66240273021544
1.15,31.222149511183485,131.0104845252568,25.807658391407504,4.514434248154142,1.7766059597114112,19.303207155808845,-0.7164947361777533,1.624686496385354,237.41251153546767,39.96704720324434,16.725650917192112,69.76333526314885,0.2931700673310208,114.01228085587984,975.9720500265624,15.288,0.0,1.531218653131614,0.117482961162738,2.3507544725665785e-07,-0.0152308163680394,0.0070796579862838,0.0016117793861698,4.850763914259336,15.13974964664502,40.24607109748582,19.384704728692082
1.16,31.222148933254072,131.0104861480729,26.171069139860084,4.514708350757783,1.7624930453083765,50.12865674866597,-0.7251844816233165,1.5935221525931156,490.0437743845894,40.16910172835,16.816144772963742,69.75447657055444,0.3041656771443203,114.02400088027404,985.8306873814084,15.288,0.0,1.5347934673212285,0.1180773838223956,2.435390806066016e-07,-0.0156677829455852,0.0072515644972804,0.0016663447490271,4.84587877437725,15.06756015539616,40.44590982837463,50.159220815407075
1.17,31.22214835109608,131.01048778333504,26.53729889560725,4.508128722256371,1.7459023222602867,9.094601991294088,-0.7350299473576932,1.5593098770389773,153.70937929486794,40.42771365948216,16.926172955636197,69.74536370248538,0.3154162487415831,114.03599334567151,998.5301357150336,15.288,0.0,1.5383541052880028,0.1188380667528308,2.5220803431896214e-07,-0.0161146671971493,0.007425962176856,0.001724846430246,4.833746609680094,14.975368713691658,40.70191691616375,9.25653832143498
1.18,31.222147765843104,131.0104894280069,26.90549299045639,4.492460100785072,1.7260249473279334,24.51316311453008,-0.7464797259160778,1.5208950036581848,280.02501822196746,40.764991350190606,17.06348139047584,69.73599149921888,0.3269242070195899,114.04826088090084,1015.2246706103684,15.288,0.0,1.5418929362421567,0.1198299991471855,2.61088191366102e-07,-0.0165696563784088,0.00760210488423,0.0017882795428327,4.811990425696147,14.856086560764902,41.03607370915292,24.57164055314407
1.19,31.22214717698373,131.01049108345575,27.27604003200176,4.496248513569422,1.7137974893553891,42.6357664807673,-0.7545909042668862,1.4903991850724618,428.4078130529292,40.92280736919196,17.138350048205545,69.72635451890281,0.3386920650687887,114.06080622287976,1023.0640727575224,15.288,0.0,1.5454161336148453,0.1202944074512984,2.7018070187704137e-07,-0.0170339229496032,0.0077804097440943,0.0018454368599197,4.811166239684778,14.801351161169936,41.1919699088381,42.66848111388765
1.2,31.222146584075663,131.0104927508582,27.649273751171627,4.484036100290949,1.6956627531737372,4.6331959578859925,-0.7655149070985608,1.4527097704606748,117.1843741360236,41.22176280091768,17.26219308566858,69.7164476199883,0.3507219206836265,114.07363166880928,1038.0291362364128,15.288,0.0,1.5489224716644003,0.1211737106150146,2.7948744638133256e-07,-0.0175082145664335,0.0079611173750488,0.0019106095411408,4.793326507864784,14.69755013430036,41.488078003645306,4.9155756055983035
1.21,31.22214598825725,131.01049442717115,28.02433875039908,4.472466142759186,1.6779751211015974,34.287135933181055,-0.7763777134770994,1.4148653822400004,359.92343213200894,41.51211987941813,17.383012679464063,69.70626532164455,0.3630162292546228,114.0867398860157,1052.6660100233848,15.288,0.0,1.552403100551624,0.1220277482569533,2.890145286376044e-07,-0.0179906825036725,0.0081434868755127,0.0019770170987711,4.776278105042274,14.597867262484169,41.7756579193896,34.32509718710612
1.22,31.22214538865959,131.01049611471132,28.401890328414265,4.474297912429708,1.6654748223440023,24.90242292236444,-0.7848197439611123,1.3827888467447242,283.0687504825761,41.67435232136816,17.459166276755813,69.69580216677994,0.3755771873908505,114.10013328379344,1060.871403523468,15.288,0.0,1.55586942284978,0.1225051637419293,2.9876190080555106e-07,-0.0184831363107893,0.0083281624371399,0.002038997288519,4.773626204073429,14.54267848021203,41.9359276547322,24.953130353314286
1.23,31.222144785627066,131.01049781255364,28.7816696359435,4.461101241187249,1.647561465948164,9.838413145307385,-0.7960287983204462,1.3435044787842958,159.79687382222795,41.97229998138778,17.582499700907995,69.68505296570635,0.388406687217878,114.11381394127848,1076.0556115840216,15.288,0.0,1.559317440365747,0.123381534072152,3.087336657438539e-07,-0.0189849201515155,0.008514854263683,0.0021092488518149,4.755038931656079,14.441950484661684,42.23106266725666,9.96157815559493
