Time,Latitude,Longitude,Altitude,Angle of Attack,Angle of Sideslip,X-Acceleration,Y-Acceleration,Z-Acceleration,Thrust,True Velocity,Ground Velocity,Pitch,Roll,Yaw,Dynamic Pressure,cp,parachute_deploy_gain,Wind Speed,Mach,omega_x,omega_y,omega_z,Cmq,Angle of Attack(total),Angle of Attack(gust),True Velocity(gust),Acceleration
0.0,31.222216000000007,131.010392,3.000000004412624,0.0,0.0,0.0,0.0,0.0,2.2828121974499247,0.0,0.0,71.99999999612658,-1.0292491154817412e-14,119.99999999354436,0.0,15.288,0.0,0.0,0.0,0.0,0.0,0.0,-0.0,0.0,90.0,0.0,0.0
0.01,31.22221599999862,131.01039200000284,3.0000009727369523,0.0,0.0,0.0,0.0,0.0,34.24218696174923,5.916279387578309e-11,5.734623670548936e-11,71.99999999613168,-5.86671995824671e-13,119.9999999935449,2.1432944861733093e-21,15.288,0.0,0.0,1.7386402909615473e-13,-3.4220131069073734e-19,7.115076756936125e-19,5.488773498207866e-19,-1.1574302492039043e-31,0.0,89.99999999962336,5.916279387578309e-11,0.0
0.02,31.22221599999738,131.01039200000537,3.0000018317022668,0.0,0.0,0.0,0.0,0.0,25.871876237766408,1.2265415415436536e-10,1.1895038237325684e-10,71.9999999961369,-1.1836364828043265e-12,119.99999999354544,9.211895886571454e-21,15.288,0.0,0.0,3.6044858651615574e-13,-6.979551485375437e-19,1.4162390878091906e-18,1.0909784360635388e-18,-4.776231873571785e-31,0.0,89.99999999921916,1.2265415415436536e-10,0.0
0.03,31.22221599921969,131.01039200159065,3.0001883335529382,18.80143492628821,-0.0001350810307892,10.931161642028636,-1.75114298675875e-05,3.026590975169265,180.34219359854663,0.0798232026864394,0.0478175828508887,71.99999999765336,-5.341802909786072e-12,119.99999999436793,0.0039016003969354,15.288,0.0,0.0,0.0002345795854893,3.788270153300133e-17,-7.771883375645477e-10,1.1422790048099072e-11,1.7057759223764537e-13,18.80143492675591,89.51882325913425,0.079801984207741,11.342422482672777
0.04,31.222215995131297,131.01039200995308,3.001692634342189,9.19442604083399,-4.49173898918486e-05,52.29595764159784,6.445392950801871e-06,3.026413589912948,548.6359724538078,0.3504174083926908,0.1601447499964056,72.00000000319055,-3.111420077280171e-11,119.99999999870242,0.0751892535633216,15.288,0.0,0.0,0.0010297854387864,2.0082066977226968e-15,-1.520937588847922e-08,2.5623342884322286e-11,1.4654248781413086e-11,9.19442604094277,87.798916624545,0.3504103527855857,52.383455068075136
0.05,31.222215983575865,131.01039203366796,3.0074067499493786,5.158590039700252,1.707592688632746e-06,76.26884281015512,5.843947534199429e-05,3.0258124765658088,761.6984298824644,0.9592973585397016,0.3772700771701255,72.0000000004862,-1.3608731808076822e-10,120.0000000109612,0.5634958029902841,15.288,0.0,0.0,0.0028191251099456,2.086299069701397e-14,-1.0551247853743037e-07,3.973493515691201e-11,2.783064866637575e-10,5.158590039700515,83.94063169874748,0.959297626767734,76.32884071402438
0.06,31.222215961742712,131.0103920785344,3.019291017943491,4.109521257467909,3.140103977270004e-05,57.06876634333886,0.0001151069734147,3.024834864051463,590.4875390737208,1.6257536642597354,0.6118982818704327,71.99999992547217,-3.5903296759057166e-10,120.00000003412836,1.6184272268450337,15.288,0.0,0.0,0.0047776672697797,1.0694899894620088e-13,-3.741090980393931e-07,5.521401959501359e-11,1.6723176417636091e-09,4.109521257587776,79.78719176344794,1.6257585967235286,57.148873286519276
0.07,31.222215929936205,131.01039214392435,3.0371334573469446,3.649087515174788,5.707077112564807e-05,86.89643797254193,0.0001728541558773,3.0234947746384675,855.2937749779139,2.3057260079826607,0.8506307413593818,71.99999965378231,-6.907496536790437e-10,120.00000006788592,3.255354923652711,15.288,0.0,0.0,0.0067759305364855,3.495199904512709e-13,-9.036515915819006e-07,7.594816279105379e-11,5.728932851326001e-09,3.6490875156204896,75.6601668283889,2.305734972638426,86.94902215090157
0.08,31.222215886364623,131.01039223353447,3.0621840248716574,3.4254446680114707,8.413075603463509e-05,17.831756866644035,0.0002285946601282,3.021841001032126,241.2171988638848,2.961944911520492,1.0819695676346892,71.99999900671328,-1.141745983122182e-09,120.00000011415082,5.371998197385977,15.288,0.0,0.0,0.0087043901031071,8.800530155962314e-13,-1.829098470920821e-06,1.0943386634701918e-10,1.4896287129277132e-08,3.4254446690434226,71.81713637501419,2.9619581267487467,18.085991154451033
0.09,31.22221583454733,131.01039234010327,3.0919888289029,3.389560809024919,0.0001118726864415,54.09031716446879,0.0002748660999733,3.020060228038602,563.0937377043176,3.504225426410036,1.2780161667917422,71.99999774508822,-1.634190085504106e-09,120.00000016921716,7.519080503822694,15.288,0.0,0.0,0.0102980157586766,1.865782139518716e-12,-3.1503298654458527e-06,1.6284478329871028e-10,3.03536411425607e-08,3.389560810868955,68.76526501308032,3.504242999330529,54.17456206384468
0.1,31.22221577423132,131.0103924641528,3.1267248829165366,3.4447939461814814,0.0001419149103147,51.372195336549765,0.0003131602029306,3.0182021883815127,538.7437595981919,3.950569597142709,1.4443465951180965,71.99999562056465,-2.1287748602259068e-09,120.00000023339832,9.55649523509932,15.288,0.0,0.0,0.0116097108366932,3.485956000178229e-12,-4.949356763187612e-06,2.4573266549165286e-10,5.3761299442583966e-08,3.444793949101151,66.34639928474206,3.9505918890846927,51.460781166288626
0.11,31.222215706113143,131.01039260424562,3.165907002780892,3.4691423802630394,0.0001702373452339,40.591037561894986,0.0003534470100582,3.016051659024047,442.8656393052949,4.421478635995476,1.6182620895289603,71.99999235067894,-2.5564479031457968e-09,120.00000030601664,11.970509656144712,15.288,0.0,0.0,0.0129935974697161,5.942887149865172e-12,-7.273722517324353e-06,3.67769289312894e-10,8.842679949465076e-08,3.4691423844348632,63.88798785789768,4.421505376815134,40.70293476011277
0.12,31.222215630588888,131.0103927595646,3.2092596514826863,3.4852659299808075,0.0001974376474727,44.30042894095728,0.000394069215595,3.013641598889868,475.58594813540446,4.896982486381051,1.793579340340896,71.99998761802138,-2.8337988279882726e-09,120.00000038673312,14.683611096353944,15.288,0.0,0.0,0.0143909889875706,9.464337642181618e-12,-1.017558359402848e-05,5.395790443954697e-10,1.3700793350599625e-07,3.4852659355662303,61.5068242157714,4.897013499814194,44.40281567867803
0.13,31.222215548046687,131.0103929293088,3.256512891171917,3.5606043721293616,0.0002276507019012,48.86766833507025,0.0004268800875964,3.0112558910133567,515.9156326236895,5.278566579338586,1.939796541405244,71.99998107389406,-2.8573058577484587e-09,120.00000047523812,17.061052093156064,15.288,0.0,0.0,0.0155123760833565,1.4300406003001044e-11,-1.3705268062305584e-05,7.724776992181392e-10,1.989112774124932e-07,3.560604379397528,59.67313531776262,5.27860233862722,48.960358155653
0.14,31.222215458587108,131.01039311327068,3.30759734332425,3.6000732663755977,0.0002555702913645,45.540290862247225,0.0004629468001456,3.0085404980032777,486.2390860568404,5.70011779273801,2.098362647205908,71.99997235012626,-2.508533681468686e-09,120.00000057154703,19.894788765881632,15.288,0.0,0.0,0.0167512184495524,2.071534240530911e-11,-1.7917736259613292e-05,1.0787346240473087e-09,2.8081526258393346e-07,3.6000732754351943,57.72385750323359,5.700157937625502,45.639559681930805
0.15,31.222215362317904,131.01039331122794,3.3624387479639086,3.651605404442164,0.0002842753491325,44.01308509501,0.0004965057129938,3.005703619811542,472.54218587214,6.091938849578711,2.2476968067377374,71.99996103728932,-1.6446954747148112e-09,120.00000067569304,22.723773683610247,15.288,0.0,0.0,0.0179026934683374,2.9002783512213203e-11,-2.287326399669318e-05,1.47199345427166e-09,3.831202693354572e-07,3.651605415492516,55.98561718911576,6.091983503446133,44.115597174664394
0.16,31.22221525912812,131.01039352340948,3.421115382839859,3.67540086436193,0.0003108411545024,34.83804992586084,0.0005330990866742,3.002517946501868,391.1218908297564,6.521183188362317,2.4085903880902046,71.99994669525161,-1.0153513453738144e-10,120.00000078796704,26.03872642002185,15.288,0.0,0.0,0.019164148528834,3.9478358970291335e-11,-2.864207894220033e-05,1.9677461746207517e-09,5.135466997084602e-07,3.6754008774883777,54.15946979122355,6.521232015176687,34.96719658394182
0.17,31.2222151493826,131.01039374906244,3.4833737923187487,3.7139589864597298,0.0003384978477213,43.96471427482637,0.0005668629535037,2.999235483723449,471.78125980632376,6.916861975403744,2.559060925010733,71.99992884100092,2.3206494032971838e-09,120.0000009081849,29.29426197817256,15.288,0.0,0.0,0.0203269651395979,5.248754693205839e-11,-3.5267097947693114e-05,2.580363454062817e-09,6.706952682968329e-07,3.713959001863866,52.549031795895466,6.916915146521327,44.06689817851128
0.18,31.22221503253009,131.01039398932429,3.549599475912623,3.7380363034619775,0.0003650282082698,36.67395661481795,0.0006021794701355,2.9956556354306425,407.10156721191447,7.332140201215607,2.71556808256092,71.99990696207136,5.837017536380516e-09,120.00000103716444,32.917216366714264,15.288,0.0,0.0,0.0215473823438242,6.839750892601699e-11,-4.285557247677198e-05,3.331016495775474e-09,8.639362741436378e-07,3.738036321259578,50.93050624815799,7.332197539712479,36.796100973258795
0.19,31.22221490871209,131.01039424390297,3.619694897703461,3.747799769666444,0.0003901520189829,41.42208371271829,0.0006393759928961,2.991742733214697,448.9531328318269,7.771071983754382,2.879366399937307,71.99988049019642,1.0709144790974043e-08,120.00000117502664,36.97605053227239,15.288,0.0,0.0,0.0228373144884866,8.761416506509219e-11,-5.146771415177372e-05,4.238406957677133e-09,1.0996552116864756e-06,3.747799789945131,49.29705748437159,7.771133268690212,41.529983675580546
0.2,31.22221477769685,131.01039451327668,3.693822889232993,3.7700519460961166,0.0004166800650969,37.99697972290605,0.0006740224661302,2.987733789228414,418.51563019916136,8.179966026035371,3.0338260708461373,71.99984881140107,1.723179577184912e-08,120.0000013223286,40.969302182777255,15.288,0.0,0.0,0.024038975990988,1.1057590044953188e-10,-6.120032215177249e-05,5.3263847350253015e-09,1.376394225587184e-06,3.7700519690893857,47.8457752505109,8.180031477986942,38.11426270718793
0.21,31.222214639876928,131.01039479663547,3.771710975053407,3.7926098867321474,0.0004432924407074,36.46301043881366,0.0007080907240332,2.983530483977461,404.8187610144644,8.582757448615462,3.1863584283669346,71.99981127559042,2.5745201416596626e-08,120.00000147900325,45.103059028532826,15.288,0.0,0.0,0.0252227064089584,1.3774582723633048e-10,-7.20875523136271e-05,6.61341033873124e-09,1.7010673350603349e-06,3.792609912601061,46.47936953648762,8.582827080829217,36.584868250565684
0.22,31.22221449507626,131.01039509434258,3.8534832466471007,3.782921298925821,0.0004660920499522,44.14577847155813,0.0007479176313898,2.978724032883548,472.5421858721365,9.056569122268344,3.360845972992861,71.99976720416048,3.661811567390422e-08,120.00000164562512,50.21995530074818,15.288,0.0,0.0,0.0266151520780326,1.6960703048385348e-10,-8.421592474264931e-05,8.124635526119773e-09,2.0969540034515424e-06,3.7829213275976334,44.9464484092354,9.056642335836344,44.24615863872642
0.23,31.22221434283448,131.01039540734791,3.9394622486964206,3.813874679301352,0.0004940771488601,36.66675459308932,0.000779455230549,2.974212905336642,406.3406421461021,9.430647902846331,3.5044030163419806,71.99971583979395,5.0272885112871524e-08,120.00000182313076,54.45382429059888,15.288,0.0,0.0,0.0277145095638672,2.0669790509245914e-10,-9.77285871729516e-05,9.894576563683824e-09,2.5339062472561444e-06,3.813874711257219,43.79476959007253,9.430725512303388,36.78718303164376
0.24,31.222214184153326,131.01039573358457,4.028950821673608,3.829256049377765,0.0005200487408944,37.802126339316736,0.0008136255607606,2.9692962675112065,416.2328240017114,9.837806876534357,3.658163422426286,71.9996564062533,6.718950080713476e-08,120.0000020109434,59.25679777340223,15.288,0.0,0.0,0.0289110855155543,2.4956955046738006e-10,-0.0001125744417092,1.1934277804843484e-08,3.0448209172448607e-06,3.829256084638984,42.59361542722471,9.83788856559955,37.91856374864305
0.25,31.22221401888584,131.01039607335582,4.122052964664892,3.851417709838087,0.0005469594058717,38.85163035360012,0.0008459008130282,2.964283881833675,425.36408079150686,10.22297576958679,3.8050691648373967,71.99958811418384,8.786880969336211e-08,120.00000220974424,63.98709205399403,15.288,0.0,0.0,0.0300430411774988,2.987811646313829e-10,-0.0001288461362054,1.4273117985167728e-08,3.621333387698252e-06,3.8514177486178034,41.50703126619192,10.223061685769354,38.96455005232871
0.26,31.222213847358866,131.0103964259872,4.218542267117083,3.8780574625554745,0.0005745172425185,42.3164797140743,0.0008766626387865,2.959162938653076,455.8015834241788,10.590779679138215,3.946551912391076,71.99951013710364,1.1286401474734325e-07,120.00000241975916,68.67355887153568,15.288,0.0,0.0,0.0311239685467471,3.5491769188178554e-10,-0.0001465721578858,1.6932703957058654e-08,4.267712643344226e-06,3.8780575050466,40.51245375834074,10.590869924095635,42.41981967733593
0.27,31.22221366913008,131.0103967923915,4.318728802515264,3.886188503202341,0.0005994342651313,38.70936050721014,0.0009111181036949,2.953518013741325,423.84219965987256,11.004860953238978,4.102320296019413,71.99942161756776,1.4276417094868828e-07,120.0000026420792,74.14786134434608,15.288,0.0,0.0,0.0323408987462391,4.1858405402174807e-10,-0.0001658847815307,1.995072923688136e-08,5.018832267232506e-06,3.886188549362022,39.43841359495857,11.00495511215316,38.8218734782956
0.28,31.22221348431185,131.01039717233687,4.422535913956003,3.90556090261878,0.0006261175699806,44.68030766832924,0.0009425767186621,2.947879457547137,476.3468732012221,11.38358114165448,4.247086834352694,71.999321619057,1.7823531611327881e-07,120.000002877279,79.33831935330025,15.288,0.0,0.0,0.033453914386159,4.904408325040897e-10,-0.0001868529238516,2.3357766479368094e-08,5.847713054408178e-06,3.9055609527288775,38.49894431917428,11.383679491972384,44.77744842575601
0.29,31.222213292835256,131.0103975659655,4.530013412817602,3.9242599519377537,0.0006528240665589,35.802573724660256,0.0009737210635801,2.942037024315898,397.97031042211177,11.759725774384751,4.391004157029451,71.99920917567837,2.1999186079018322e-07,120.00000312617878,84.66717879828003,15.288,0.0,0.0,0.0345593650464213,5.711677680739745e-10,-0.0002095620322847,2.7188189988316943e-08,6.77505090435382e-06,3.9242600061534456,37.60352534239979,11.759828319749328,35.92324968749781
0.3,31.222213095024976,131.0103979726075,4.64093665799555,3.936939025755682,0.0006785438093183,33.570228713727204,0.0010059102294455,2.93586442972183,378.1859457108711,12.149968255527943,4.539237002744259,71.99908328532703,2.6880857935396905e-07,120.00000338923812,90.3787563598417,15.288,0.0,0.0,0.0357062504417728,6.614698865958865e-10,-0.0002340353597042,3.1467140861055e-08,7.817263716758327e-06,3.9369390841381695,36.71173884615234,12.150074840940263,33.698361337808635
0.31,31.22221289105846,131.01039839189684,4.755183729044857,3.9598342215431432,0.0007060286581592,35.396825578217346,0.0010350810412898,2.9297385597941448,394.1656220930212,12.504537499407316,4.6763673222047455,71.99894291513503,3.255120771695107e-07,120.00000366712923,95.72967338626896,15.288,0.0,0.0,0.0367483036680869,7.620720834468404e-10,-0.0002603234137215,3.622454560346964e-08,8.948994505138873e-06,3.9598342843844345,35.934338386209795,12.504648402129598,35.5178635353378
0.32,31.222212681031937,131.01039882363492,4.872689374180126,3.985461429033668,0.0007340760463279,38.52097867048992,0.0010630242168685,2.9235095146848846,421.55939346242695,12.84534566718622,4.809181081594425,71.99878701464397,3.909756427278764e-07,120.0000039606604,101.01782231644016,15.288,0.0,0.0,0.0377499198995686,8.737098716736534e-10,-0.0002884807530145,4.1491545539590986e-08,1.0187112828155184e-05,3.98546149652875,35.21473736963424,12.845460975581933,38.631757748577954
0.33,31.22221246496604,131.01039926777932,4.9934410812554,4.010606629086,0.0007621365968788,38.18822026147908,0.0010905599149574,2.917102431053817,418.5156301991682,13.18247167592885,4.940798912752974,71.99861449732019,4.661299779655886e-07,120.000004270781,106.38859400029033,15.288,0.0,0.0,0.0387407190563976,9.971421990244511e-10,-0.0003185760672934,4.7302669734505256e-08,1.154498667827874e-05,4.010606701382261,34.52805863348922,13.182591392065536,38.299473293007864
0.34,31.222212242662028,131.01039972474007,5.117579377337869,4.019339771238816,0.0007871574969313,29.898022638335373,0.0011220389395318,2.910051232417875,345.46563688075645,13.569536737955724,5.0878303926024735,71.99842423285973,5.519675040347761e-07,120.0000045987411,112.72655675097128,15.288,0.0,0.0,0.0398782837956187,1.1331556132162459e-09,-0.0003507224668667,5.37022358302301e-08,1.308298593306914e-05,4.019339848191799,33.76700548046532,13.5696603843662,30.039310197084795
0.35,31.22221201433324,131.01040019407705,5.2449575244483055,4.033762873683395,0.000813261106463,32.76415525156106,0.0011515840876071,2.902959820469776,370.5765700527033,13.934300103976534,5.227895396154902,71.99821502296155,6.495674834876441e-07,120.000004945438,118.8669740701126,15.288,0.0,0.0,0.040950312688979,1.2825853697215452e-09,-0.0003849609961885,6.072234695821837e-08,1.4746020857580124e-05,4.033762955530055,33.07785186209504,13.934427850732408,32.89250745069162
0.36,31.22221177990305,131.01040067594835,5.375631006350063,4.051723629010647,0.0008401329464575,37.01692984301412,0.0011797030485285,2.8957873473716007,407.8625232777193,14.282998147928636,5.362923567977223,71.9979856440668,7.600645476620651e-07,120.00000531213882,124.88900300695136,15.288,0.0,0.0,0.0419751331662584,1.4462801652534363e-09,-0.0004213876232777,6.84067806399068e-08,1.654507199147348e-05,4.051723715967022,32.44322602189087,14.283130115703262,37.13002398000203
0.37,31.222211539445663,131.01040117020102,5.509550188388412,4.071639898917391,0.0008674922629137,35.12417761390579,0.0012067983861697,2.88849906286036,391.1218908297666,14.620581431527652,5.494447309446232,71.99773482653193,8.846681943540367e-07,120.00000570002652,130.86067091914967,15.288,0.0,0.0,0.0429672939311924,1.6251202388969355e-09,-0.0004600660652957,7.679415042686734e-08,1.849041957573993e-05,4.071639991174516,31.85023865502424,14.620717696893658,35.24274792557624
0.38,31.222211292895075,131.01040167697127,5.646763233102716,4.08264881385344,0.0008930259828975,36.695642158537446,0.0012360471443664,2.880711738179021,404.8187610144602,14.986392916850402,5.634654729559426,71.99746126698146,1.0246533537040716e-06,120.0000061105033,137.4891296153862,15.288,0.0,0.0,0.0440424171304414,1.8200057922063743e-09,-0.0005010869196581,8.592980519823866e-08,2.0642694281337543e-05,4.082648911356968,31.228847973200924,14.986533193043764,36.808540518115166
0.39,31.22221104018777,131.0104021963902,5.787316652586672,4.096641430700089,0.0009192713382325,31.335681548387896,0.0012640110027448,2.872831219844713,357.64062493382744,15.337978856701952,5.770390286512262,71.99716358743511,1.1813915463769678e-06,120.00000654506955,144.01394309468844,15.288,0.0,0.0,0.0450757388736732,2.031886352449547e-09,-0.00054455673306,9.586443829735616e-08,2.295945663566148e-05,4.096641533664766,30.65298398882095,15.338123255506089,31.4670954954126
0.4,31.222210781536543,131.01040272801887,5.931064331106764,4.109028969993624,0.0009451871856381,29.95928076777898,0.0012920492774571,2.8646905607053603,345.465636880754,15.692185018814769,5.906873567965718,71.99684037970908,1.3563276523471372e-06,120.00000700500496,150.74021066990193,15.288,0.0,0.0,0.0461167659598875,2.2617341782092324e-09,-0.0005905037520737,1.0663253249436129e-07,2.5471259834659164e-05,4.1090290785164525,30.09246700352443,15.692333488470696,30.095929256306363
0.41,31.222210517064383,131.01040327160345,6.077922766619747,4.122888296344507,0.0009714525997821,33.78425365340317,0.0013192264430821,2.85640971467756,378.94687077668647,16.03742529732769,6.0405139809190125,71.99649020751959,1.5509747261474075e-06,120.0000074917568,157.44375780268788,15.288,0.0,0.0,0.0471314487675864,2.5105374204052982e-09,-0.0006389770219162,1.1827345344180344e-07,2.816813594418537e-05,4.122888410595805,29.56469007160549,16.037577892745222,33.904791300285986
0.42,31.22221024682894,131.0104038270252,6.227854084363214,4.14444025865494,0.0009995884754813,38.04468161607466,0.0013435485656724,2.8482703202464488,416.2328240017114,16.348862540904037,6.163613566771559,71.99611159893284,1.766920641656551e-06,120.00000800692096,163.6157044470786,15.288,0.0,0.0,0.0480467946810589,2.779304965995011e-09,-0.0006900467934588,1.308321832549104e-07,3.100973487310896e-05,4.144440378988911,29.104646754454564,16.34901955589459,38.15115260238947
0.43,31.222209970843565,131.0104043942566,6.380851271439565,4.1618082623168045,0.0010268052928652,33.45815353250911,0.0013687230309017,2.8397750580998298,375.9031395134336,16.67263197205097,6.290467308135904,71.99570306121484,2.005818691215035e-06,120.00000855220898,170.15779512382937,15.288,0.0,0.0,0.0489983878509763,3.0690566816849196e-09,-0.0007437862329608,1.443552931671376e-07,3.4086145072160934e-05,4.161808388761201,28.640125213458976,16.672793262249197,33.57845085853367
0.44,31.22220968892116,131.01040497368373,6.537047157143216,4.164954087655709,0.0010505545842624,30.86574023822051,0.0013980747538988,2.830419582421933,353.0750125389216,17.050421620730056,6.433992917638883,71.99526304125902,2.269416145406482e-06,120.00000912964636,177.9537948947602,15.288,0.0,0.0,0.050108743779844,3.380847125286677e-09,-0.0008003278134917,1.589055036683518e-07,3.750784460406397e-05,4.164954219916419,28.113519280259386,17.050586641458253,30.99524475496968
0.45,31.22220940081287,131.01040556582012,6.696617751072218,4.165241899529329,0.0010735835484822,35.912216710755274,0.0014280646808282,2.820677244966047,397.2093853562869,17.438293672974723,6.580571293039616,71.99478987454265,2.5595995397253085e-06,120.00000974147088,186.13940823302417,15.288,0.0,0.0,0.0512487363629523,3.7158016249566814e-09,-0.000859850913876,1.745604864109677e-07,4.121350642664912e-05,4.1652420376426775,27.591357195572936,17.43846231108416,36.02281959036367
0.46,31.222209106468902,131.0104061707686,6.859600379555308,4.174585124444534,0.0010989881252456,41.916816790010685,0.0014546917035209,2.811153314474766,449.7140588976434,17.786187321601275,6.714685486378061,71.99428180697711,2.8783880229668832e-06,120.0000103898448,193.6374175079873,15.288,0.0,0.0,0.0522712438446989,4.0751091178509895e-09,-0.0009224765531151,1.9138630415982226e-07,4.50966024037632e-05,4.1745852688465686,27.13985967570823,17.786359950252297,42.01097612387663
0.47,31.22220880579083,131.01040678873238,7.026066274755745,4.1823089530633855,0.0011240727220223,28.37640408484148,0.0014814747534716,2.801325368441072,331.0078106302534,18.138167428286582,6.849989708801916,71.99373704967608,3.2278903746588286e-06,120.00001107707628,201.37401505997488,15.288,0.0,0.0,0.0533057667609836,4.459978104761035e-09,-0.0009883252835099,2.094509673354327e-07,4.927107017839778e-05,4.182309103852639,26.69716826759888,18.13834399721685,28.514342615617974
0.48,31.222208499300592,131.0104074186346,7.195654207463586,4.189479568102716,0.0011490100608361,27.95074823096412,0.0015080719422187,2.7912412472910484,327.2031223011574,18.48995085190441,6.98515976370584,71.99315377257649,3.6103201777021456e-06,120.00001180491516,209.25751230436188,15.288,0.0,0.0,0.0543397174489847,4.8716620260348906e-09,-0.0010573190976925,2.2877013380347535e-07,5.373205427420879e-05,4.189479725385959,26.268461765425428,18.4901313379827,28.089773168283216
0.49,31.222208187201936,131.01040806005494,7.368224738812109,4.202723284133339,0.001175611380853,35.08821363242469,0.0015321405723077,2.781292092003844,389.60000969812296,18.812014261754847,7.111044804193205,71.99253015042137,4.027946338669921e-06,120.0000125755114,216.60722913930897,15.288,0.0,0.0,0.0552863302793499,5.311396446020465e-09,-0.0011294854492155,2.4938633613154685e-07,5.8398320167141767e-05,4.202723448262914,25.88860807032205,18.81219892635871,35.1982716047702
0.5,31.22220786953184,131.01040871291724,7.5437546994244835,4.220815778795054,0.0012036252596423,36.05491615971072,0.0015540388599792,2.7714444106710974,397.97031042210494,19.10875420627192,7.229005658018125,71.99186435180009,4.483102820610566e-06,120.00001339126192,223.4908652241728,15.288,0.0,0.0,0.0561585257949344,5.7804122391526605e-09,-0.0012048912160576,2.713531252030471e-07,6.327866493526626e-05,4.220815950099865,25.54902500917784,19.108943271285572,36.161276053538906
0.51,31.222207546379583,131.0104093770373,7.722184419225251,4.232567510615346,0.0012298790840397,27.54004661432325,0.0015777580800203,2.761017323676155,323.3984349720841,19.430597746636646,7.354673636736509,71.99115452520388,4.978202222778502e-06,120.00001425458936,231.07869697977367,15.288,0.0,0.0,0.0571045034845869,6.2799518101633574e-09,-0.0012835871653678,2.947201005874635e-07,6.854585242460463e-05,4.232567688976395,25.189423168613605,19.430790935591396,27.678103017910345
0.52,31.22220721791495,131.01041005281652,7.903539469623587,-16.82368612359389,21.216537158555777,33.79568268369645,-1.1543072487182606,3.812273636267343,372.0984511843415,19.62672680357549,7.490163356625784,71.99041872754965,0.0001669041307778,120.00018487106549,235.7630708884249,15.288,0.0,10.05716494252575,0.0576810243662583,6.845984728755412e-09,-0.001183386967632,0.0002879786329262,6.383175003875838e-05,26.83371733396105,47.293158845536944,22.883769650376056,34.02960510436938
0.53,31.222206884182853,131.01041074181654,8.087946371099848,-16.49904712120931,20.93933108589972,35.458761579571735,-1.183658285035354,3.830619090988861,386.5562464348624,19.91855868970401,7.629459656196622,71.98981228053847,0.0009844915635804,120.00104493641892,242.82206846291004,15.288,0.0,10.09586308858449,0.0585388114228312,7.517963124327891e-09,-0.0009072538975729,0.0006807469220953,4.9663938120233455e-05,26.426877122318523,46.67789977808851,23.13497154702764,35.68470908264342
0.54,31.22220654505996,131.0104114443647,8.275477289095042,-16.185852667939766,20.670511513208343,31.2013830552154,-1.2133958438905204,3.849059191724144,349.2703242098436,20.20949646761981,7.768300561514824,71.98936570341365,0.0025022016234974,120.0026412066058,249.96286895176607,15.288,0.0,10.134477074823264,0.059393976434453,8.286866796116091e-09,-0.0006246724519175,0.0010836416078654,3.469400434137739e-05,26.03318417956564,46.07989591188985,23.386436625687733,31.461307835079737
0.55,31.2222062008524,131.01041215987402,8.46592591446373,-15.888134221153676,20.415071748775745,33.0384937623119,-1.2431634762850845,3.867325184063,365.2500005919907,20.49426296075877,7.904883377336501,71.98908258140563,0.0047375786836544,120.00499213186843,257.05211491260457,15.288,0.0,10.1729589131689,0.0602310101321649,9.15520575348142e-09,-0.0003360265801175,0.0014962571234772,1.892537858322253e-05,25.65891596945019,45.509192426795686,23.633630260171937,33.287290811815545
0.56,31.222205851571065,131.01041288836515,8.659291571490348,-15.608363416915418,20.17633946642248,30.86827522189927,-1.2726737238181742,3.885208712496443,346.2265619465787,20.768736874188967,8.037829688423638,71.98896638339555,0.0077079421878611,120.00811592421996,263.9785733226521,15.288,0.0,10.211305771725284,0.0610378002966124,1.0125456329832229e-08,-4.1262455718878384e-05,0.001918754835851,2.355026136233884e-06,25.308149310493203,44.97256080444249,23.87293240846188,31.13783808041072
0.57,31.222205497302703,131.0104136297014,8.855520631464508,-15.32995278851422,19.935459287757578,30.526977559270648,-1.3031396992477997,3.903624062527148,343.1828296833023,21.050879203078114,8.173302477731193,71.98902053303094,0.0114306728182385,120.01203085779404,271.1944542232859,15.288,0.0,10.2494988791505,0.0618671329415634,1.120011930785762e-08,0.0002595310255459,0.0023511095450174,-1.5013498840397471e-05,24.95645422928273,44.43262594989479,24.119531908825618,30.80312991891425
0.58,31.22220513803386,131.0104143839523,9.05462929448938,-15.042923148552376,19.68067092384091,40.03788448657804,-1.3354563564056543,3.923224560883666,426.1250058573153,21.35329555145313,8.3155745604377,71.98924844945827,0.015923382779142,120.01675544792786,279.0370327573903,15.288,0.0,10.28753652937071,0.0627560554230646,1.2381726713538088e-08,0.0005664165312188,0.0027934956419556,-3.323647221679972e-05,24.58876966197431,43.86584563523515,24.3842942078684,40.25179907526559
0.59,31.222204773348032,131.010415152021,9.2569148739982,-14.784394149220832,19.455823696099408,32.54721290453579,-1.3665222431406003,3.941711443469636,360.68438819711065,21.63053452924256,8.449197944213505,71.98965378448524,0.0212048999404868,120.02230948616648,286.32422273090214,15.288,0.0,10.3254757698974,0.0635709892277046,1.3672933003138616e-08,0.0008801164651228,0.0032469717903582,-5.23134125616132e-05,24.261167482282023,43.359735710086646,24.628254194452538,32.81349630864957
0.6,31.22220440347956,131.0104159334674,9.462221205293613,-14.50498570833532,19.202513942510645,28.978049781168625,-1.4006163947926242,3.9622324401201503,329.4859594986058,21.944345312841392,8.595126159624009,71.99024020295488,0.0272943830078807,120.02871310851222,294.68652831293053,15.288,0.0,10.363279080481547,0.0644934117851081,1.5076505578567417e-08,0.0012003114213546,0.0037112131915573,-7.237918009387814e-05,23.89897469337549,42.79753933213897,24.90451805463686,29.281195011727057
0.61,31.22220402838713,131.0104167284204,9.670584276792466,-14.229408003592232,18.94997873140112,33.87189564321575,-1.4356881384241036,3.983262878080192,372.0984511843297,22.26450821136388,8.74307532958473,71.99101143049118,0.0342115308810715,120.0359870163712,303.3420023224712,15.288,0.0,10.400951437336577,0.065434509486195,1.659526184360886e-08,0.0015271340718724,0.0041864962653264,-9.3428349372892e-05,23.53955404825251,42.23762370691914,25.187191241392227,34.135507877452206
0.62,31.22220364820153,131.01041753665436,9.881920277788833,-14.003479487850944,18.75426589161381,41.99783677300952,-1.4671372748312694,4.001480661242321,442.86563930529206,22.526140887413185,8.871209503859424,71.99197120749777,0.0419765834364018,120.0441524792726,310.50679930251107,15.288,0.0,10.438491385050026,0.0662035954179213,1.8232116152276325e-08,0.0018605216883095,0.0046728321325057,-0.0001151598584372,23.253786543197567,41.792872699503405,25.419730590502823,42.21353613330499
0.63,31.22220326273841,131.01041835858976,10.096364409536232,-13.770629175672257,18.547216593809694,24.01840861533539,-1.500314103587965,4.020772883750792,286.11251274707894,22.80538597663878,9.005240881428334,71.99312317294748,0.0506091226691245,120.05323006421084,318.24635152595243,15.288,0.0,10.47587178413096,0.0670244498003329,1.9989858601756852e-08,0.0022007421941981,0.0051706931345507,-0.0001379041206844,22.955041878748577,41.32643242487112,25.668160407694035,24.398801392800994
0.64,31.222202872622223,131.01041919298075,10.313488837213784,-13.523722342966984,18.319745721707413,23.58569806750375,-1.5361448372327222,4.041780191010706,282.30782441796754,23.114553649242367,9.149227420067584,71.99447083726865,0.0601290379088433,120.06324066471224,326.9268181072805,15.288,0.0,10.513107034016397,0.0679332521338008,2.1871454940638297e-08,0.0025468510048577,0.0056788791045164,-0.0001617523659123,22.63196665131479,40.819700099995,25.94343037128453,23.978758962983328
0.65,31.222202477841595,131.0104200398897,10.533308222779793,-13.312648069117342,18.1338479022342,41.32727411747241,-1.5691821390825025,4.060615677567536,436.7781447787475,23.378101012658405,9.27787242536982,71.99601755168035,0.0705558563736184,120.07420479044993,334.41736383401263,15.288,0.0,10.55009786994844,0.0687079834226927,2.38797300356108e-08,0.0028989828861442,0.0061976635110167,-0.0001862118464916,22.362571422354748,40.39810479580719,26.1792421084294,41.55592037540774
0.66,31.22220207787287,131.01042090043217,10.756193506740823,-13.099661216820031,17.94291666896044,35.21765327028508,-1.603492582620897,4.080184752269638,383.51251517160017,23.65218612767565,9.410018067101038,71.99776674178706,0.0819093932684445,120.08614324552632,342.29742984221843,15.288,0.0,10.586971983567096,0.0695136913724899,2.6017455370807046e-08,0.0032579853996385,0.006728327185851,-0.0002117208119335,22.088082592962145,39.9673975931744,26.424809927550253,35.48946601375111
0.67,31.222201672919525,131.01042177422923,10.982010004373969,-12.875075096560474,17.734585304221213,24.382897757116943,-1.640341870025163,4.101361935346981,289.1562440103425,23.953551594683223,9.551207680272352,71.99972209478746,0.09421090835324,120.09907834770112,351.0681863466544,15.288,0.0,10.623725212324077,0.0703995827622858,2.82877241249282e-08,0.0036235802703734,0.0072705870276307,-0.0002384742619851,21.79306056694046,39.50237775157926,26.69502411761821,24.779781964522797
0.68,31.222201263167165,131.0104226609382,11.21063548494342,-12.660419104146152,17.536107774100277,30.333580120580525,-1.6771702217529831,4.122336440675549,340.8999924858462,24.24724228335296,9.689780061288754,72.0018871017805,0.1074817490956644,120.11303251063867,359.7218467388557,15.288,0.0,10.660226813443744,0.0712629246633227,3.069365449653117e-08,0.0039955593890373,0.0078242503708378,-0.0002661730734849,21.511596355847004,39.05846570965596,26.95900322900142,30.65832090337849
0.69,31.222200848707416,131.01042356040827,11.442012888701653,-12.466357533176769,17.361427989439125,37.249726259336015,-1.7124860965015103,4.142083256041479,401.0140726853634,24.5136378439686,9.819243332797894,72.00426525859321,0.1217430636453112,120.12802792565184,367.6613624023393,15.288,0.0,10.696584559787327,0.0720460523522245,3.323831509359219e-08,0.0043738180963404,0.008389268315676,-0.0002945662665892,21.260964615345248,38.66397467100949,27.19922273981508,37.51841639416777
0.7,31.22220042940411,131.01042447295447,11.676243269180114,-12.27555372735078,17.188604897898124,31.305355473795977,-1.74842742949198,4.162095969840954,349.27032420985284,24.781390714805443,9.949134657514682,72.00685990422457,0.1370159096202661,120.14408668731409,375.7284166826645,15.288,0.0,10.73280741134566,0.0728331756455676,3.5924712354972675e-08,0.0047586161258465,0.0089661137786285,-0.0003239747072967,21.013703680028208,38.274335895235,27.441053223105868,31.629184666682352
0.71,31.22220000532081,131.01042539848183,11.91328888291814,-12.078595751156744,17.005481064135623,25.7951684734956,-1.7863078848320757,4.18326772913119,301.33126406340574,25.06754865841255,10.085084000124189,72.00967444102075,0.1533219826133056,120.1612315552608,384.4470560823788,15.288,0.0,10.768780941889672,0.0736743985876106,3.8755989623375446e-08,0.0051498790277317,0.0095547862865273,-0.00035465310566,20.754686606351644,37.864869849837056,27.699717332404845,26.19315447457646
0.72,31.22219957646671,131.01042633700715,12.153149858733013,-11.874054902921223,16.809922098358747,31.49006950101864,-1.8265409918599973,4.205865543794612,350.79220534145287,25.37661215864945,10.228536063659469,72.01271226762574,0.1706835645255846,120.1794859029538,393.97629111182937,15.288,0.0,10.804606502121327,0.0745829488072915,4.1735356137505526e-08,0.0055476635738786,0.010155472902357,-0.0003867484914559,20.48136729187121,37.430942094335386,27.97939033159749,31.822162625227218
0.73,31.22219914284576,131.0104272885589,12.395830147904965,-11.701056705314649,16.65356648852862,39.72783810858822,-1.8632390104868224,4.225878303075854,422.320318528234,25.63263954761201,10.35447250496028,72.01597702635408,0.1891238287840547,120.1988740270322,401.9567654269293,15.288,0.0,10.840295680183644,0.0753356305191457,4.4866117110318425e-08,0.0059520703204215,0.0107684222895948,-0.0004191178259721,20.257538672596315,37.07822911527262,28.21189725136021,39.99538508159162
0.74,31.22219870439736,131.010428253294,12.641377962283936,-11.522541726219304,16.487834632865304,25.01424114219277,-1.9018368656567923,4.247010160106014,294.48281347105944,25.90607580837177,10.4861229962378,72.01947193720142,0.2086653706319318,120.2194196222909,410.5685750564553,15.288,0.0,10.87579126263022,0.0761394845155451,4.81515164127148e-08,0.0063631771474194,0.0113938612462317,-0.0004528351747592,20.023052903102343,36.70745155478263,28.46038161436348,25.443394794786805
0.75,31.222198261509472,131.0104292304511,12.889530292535545,-11.341840310229848,16.317053636527728,29.13544788217144,-1.9419272935324257,4.26896952277109,330.24688556441487,26.191157995507275,10.621553045987172,72.0232003495764,0.2293310985261609,120.24114669643696,419.6444586830041,15.288,0.0,10.911063631329627,0.0769775733875026,5.15949743116601e-08,0.0067803580666769,0.0120309840716532,-0.000487822119089,19.78327632950668,36.32739942979853,28.71972937008957,29.510498228502396
0.76,31.2221978140706,131.01043022029023,13.140370628143092,-11.17374758238638,16.161134757206593,31.32993350398996,-1.98105078922299,4.290104694899284,349.27032420986166,26.456877346121487,10.750598799031405,72.02716544392344,0.2511439390867754,120.26407927468448,428.1922457378338,15.288,0.0,10.946174431731851,0.0777587604739514,5.519972735404228e-08,0.0072038843050777,0.0126802926831382,-0.0005235389655367,19.562663439348643,35.97890297711524,28.961934189781037,31.684290963932117
0.77,31.22219736202524,131.01043122295536,13.393943360423291,-11.010919067605885,16.010400743871536,29.31599176486224,-2.0203432060241786,4.311183245070075,331.7687666960708,26.71760488153426,10.877989577534814,72.03137038060457,0.2741272400491888,120.2882418186595,436.66270489021593,15.288,0.0,10.981127363547152,0.0785252830399678,5.896909197391637e-08,0.0076338938180305,0.0133421016069788,-0.0005602434135559,19.349248579117155,35.6421316663202,29.19991149952117,29.70009193252054
0.78,31.22219690544752,131.0104322383248,13.650202970653716,-10.84314683447692,15.851015785094257,24.14279645058696,-2.061620815198411,4.333405486302885,286.8734378128899,26.99572198474824,11.01103239601528,72.0358183645933,0.2983046065659771,120.31365904759248,445.78993726095376,15.288,0.0,11.015865050531428,0.0793429219431073,6.290646931149163e-08,0.0080702625798339,0.0140163402828083,-0.0005984185484651,19.126067884759788,35.288646426125524,29.4539540088408,24.615103167544383
0.79,31.222196444436644,131.01043326622593,13.90908664793878,-10.6740262095943,15.687790146514036,34.146846780349925,-2.104350452395334,4.356404163112356,373.6203323159534,27.28408701303424,11.147368329074135,72.04051244173162,0.3237001385958155,120.34035620300124,455.3532302591124,15.288,0.0,11.050393242929855,0.080190687634947,6.701534761345708e-08,0.0085128629811559,0.0147029296038696,-0.0006379647838292,18.8990364644159,34.928272952985886,29.717644606451024,34.48787748034914
0.8,31.22219597876237,131.01043430715745,14.17075968187518,-10.522585033227498,15.547087226098474,34.588797181930694,-2.144823560712276,4.377741676019291,377.42502064505743,27.537714046229794,11.2723631349314,72.04545582373412,0.3503387517156236,120.3683593700512,463.8466540763838,15.288,0.0,11.08477513351489,0.0809363620523625,7.129912670561663e-08,0.0089622073743517,0.015402750228524,-0.0006778656043187,18.70025930566402,34.615421153380666,29.949986056771216,34.93064243298825
0.81,31.222195508538874,131.01043536091424,14.43514864883908,-10.364524277201724,15.395386808007672,22.65117269025992,-2.1877301366228044,4.400499308924433,273.9374926939919,27.81343455162405,11.40451399145432,72.05065166489163,0.3782454184774235,120.39769468245882,473.16964077444936,15.288,0.0,11.1189929868929,0.0817469787081642,7.576141759875605e-08,0.009418063837751,0.0161155755872226,-0.0007194588305027,18.48885814944201,34.2808641667455,30.20274098060812,23.178140166167534
0.82,31.22219503397221,131.0104364271046,14.702116669902429,-10.205477559863748,15.240437901093989,28.974059956066547,-2.232067000503388,4.424005009400152,328.72500443277005,28.098545895486048,11.539660000479047,72.05610294459719,0.4074453700318992,120.42838854398872,482.9077623242732,15.288,0.0,11.15303130420992,0.0825852034728431,8.040590998550364e-08,0.0098800982407975,0.0168410165397675,-0.0007624715972095,18.274286255160035,33.94055947825255,30.46437767149001,29.394729013135546
0.83,31.22219455504933,131.0104375057819,14.9716783843068,-10.065971482523445,15.111330939772712,36.705662328730725,-2.273305476725501,4.445320353387179,395.68750322465047,28.34000358901904,11.660621565698436,72.06181260589473,0.4379642392986689,120.46046777210104,491.2301948237389,15.288,0.0,11.186851458083236,0.0832951317032971,8.523619705352353e-08,0.0103484240195376,0.0175793595281269,-0.0008054552846535,18.09173818426793,33.65489898517322,30.686262526923443,37.04368283291431
0.84,31.222194071660816,131.01043859719158,15.243914473332472,-9.925318071174567,14.97904574460856,22.8241573026,-2.315803764009697,4.46728034574147,275.4593748256452,28.58946641147288,11.78415810467872,72.06778350335526,0.4698273586448377,120.49395885333348,499.90329295906207,15.288,0.0,11.22048779188178,0.0840285950244344,9.025578320003448e-08,0.0108232189983709,0.0183310005082687,-0.0008498033927353,17.905995188613133,33.36372565403374,30.915658329638774,23.37224202627293
0.85,31.22219358412711,131.0104397007073,15.518608795012652,-9.77349913915838,14.829157119162064,24.844564331521823,-2.362027361860284,4.491454213566691,292.96093233939376,28.874771282366687,11.919224710650235,72.07401832509068,0.5030602445359831,120.52888846267868,509.9170652211332,15.288,0.0,11.253931835432468,0.0848674105167519,9.546848465852894e-08,0.0113038792667591,0.01909513335045,-0.0008963767241386,17.699678659615422,33.03696946087351,31.17821084694779,25.357537558561734
0.86,31.222193092265595,131.0104408167227,15.795892607807533,-9.634046176805446,14.695342391577697,30.998232760864006,-2.4065055004376688,4.514324651266868,346.2265619465587,29.132621671556063,12.045381257787128,72.0805198650019,0.5376894726087464,120.56528437804916,519.0509780481881,15.288,0.0,11.287206613359718,0.0856255405008281,1.0087786120597153e-07,0.0117908528951995,0.0198725664872382,-0.000943317155307,17.51342169634677,32.74461793725933,31.415735497270827,31.417524251241932
0.87,31.222192596106066,131.01044194519912,16.07575029295396,-9.501349642958932,14.569773342430132,28.88768435086117,-2.450395481529773,4.536643110680721,327.964078366998,29.376798052030807,12.167097829874551,72.08729079504131,0.5737416877649951,120.60317443986447,527.7741547161595,15.288,0.0,11.320310416059048,0.0863434874628329,1.0648765151332565e-07,0.0122841018432626,0.02066336735083,-0.0009909896901537,17.337707946090806,32.47045515634886,31.640827285077755,29.344230708685785
0.88,31.22219209569045,131.01044308607192,16.358157678071628,-9.364241745197171,14.436281559221642,25.016331402063223,-2.496505654011296,4.560191365954728,294.4828134710418,29.6389355398918,12.29455256879732,72.09433367904408,0.6112436860995804,120.64258663704966,537.2205645494298,15.288,0.0,11.353235284043762,0.0871142324318186,1.1230164289618245e-07,0.012783508431649,0.0214674806350906,-0.0010404522548145,17.15308875862739,32.18077895976223,31.882664121741843,25.550826260465488
0.89,31.222191591110075,131.0104442391769,16.64305659508228,-9.223072370415103,14.29524942197334,27.3904895991244,-2.5448989251756404,4.584992286281759,315.028134248087,29.91918462667664,12.427762396658512,72.10165103096928,0.6502227225974906,120.6835494300154,547.4129271087073,15.288,0.0,11.385977742169436,0.0879382182448271,1.1832368149805541e-07,0.0132889491654072,0.0222848394155549,-0.0010917872096469,16.960062972506098,31.876309972378102,32.14145263554114,27.887946953556213
0.9,31.222191082287523,131.01044540469005,16.930505119093194,-9.099505816198056,14.178694981134194,30.20566475051621,-2.5896147059496912,4.607290799084848,339.37814235421445,30.151574371482408,12.545571496349668,72.10924541060086,0.6907070164648536,120.72609228149888,555.9343896308883,15.288,0.0,11.418509638162233,0.08862154367414,1.245575702097267e-07,0.013800639274468,0.0231159092227532,-0.0011426015719621,16.79691721136453,31.62403656477749,32.356096361017684,30.664562867472615
0.91,31.22219056930168,131.01044658246883,17.22045320315939,-8.971600105033481,14.054336353753508,23.07274796201153,-2.636596925352012,4.630830277528433,277.7421810230789,30.402038049144068,12.669129537767375,72.11711909646729,0.7327241311517885,120.77024395348222,565.1931049109744,15.288,0.0,11.45086588252302,0.0893579991545356,1.310072010287503e-07,0.0143183953914357,0.0239605358815468,-0.0011952825371325,16.62499671314236,31.356433959046942,32.58761573372561,23.68011678443662
0.92,31.22219005237285,131.01044777208853,17.512753869674615,-8.839721430088778,13.92260081357509,27.385011002601885,-2.6858908577378577,4.655621176777683,315.02813424806214,30.670557884036835,12.79839275841354,72.12527426328185,0.776302095939082,120.8160336881582,575.204954439302,15.288,0.0,11.483031135129108,0.0901475328738388,1.376766656420289e-07,0.0148417681642635,0.0248181333623628,-0.0012498809610408,16.444847199964503,31.07431990432992,32.83605626530851,27.907483689038806
0.93,31.22218953140637,131.0104489737545,17.80747634207161,-8.723326363047363,13.812754142192784,32.49207781539176,-2.7316199122974067,4.678009147855748,359.1625070654728,30.893766596637526,12.913126393963296,72.13371313260333,0.8214693402758085,120.86349112871096,583.5911482967746,15.288,0.0,11.515021967692768,0.0908038944640302,1.4456968987769378e-07,0.0153710365814367,0.0256892760894242,-0.0013038362695608,16.2912980541491,30.83909327563038,33.04251324756617,32.94056219456728
0.94,31.22218900628584,131.010450187711,18.10470404982389,-8.596465758398017,13.685768650220352,23.6787703310826,-2.7816766723445534,4.702889804357577,283.0687504837787,31.15632929247784,13.040361408495446,72.14243761861732,0.868254167384354,120.91264578074828,593.5361110985641,15.288,0.0,11.54683799502558,0.0915759338133823,1.5169006494060317e-07,0.0159063415283493,0.0265743321207922,-0.0013606713216636,16.117896375795944,30.56884829135751,33.28570068681003,24.30100948548339
0.95,31.222188477326053,131.01045141334512,18.404225414330487,-8.473137520506357,13.562761798760937,30.550021385425847,-2.831782215089049,4.7276022722287205,342.4218736174873,31.412322870588028,13.165420286821828,72.1514497367998,0.9166860516439536,120.96352836461998,603.3123122788588,15.288,0.0,11.578466407599008,0.0923286724524225,1.5904212057601881e-07,0.0164471185781177,0.0274725224126865,-0.0014184499818775,15.949753147087884,30.30788576438698,33.52291608925775,31.043083294158354
0.96,31.222187944212447,131.0104526512942,18.706259401999034,-8.358064889685854,13.451080957380553,29.930364391353,-2.880270323218145,4.751129751898859,337.09533515678345,31.64431888127372,13.282788444548068,72.1607513538743,0.9667945786574536,121.01616970488736,612.2389978086184,15.288,0.0,11.609932055911084,0.0930108837271756,1.6662945505113626e-07,0.0169940266138021,0.0283850569712832,-0.0014763985092718,15.795533870301592,30.071729336438665,33.73785452050131,30.44168036842515
0.97,31.22218740696806,131.0104539015223,19.010793633792865,-8.241430810048243,13.335744845414313,19.25626106587588,-2.930371266979657,4.775452887054101,245.02188719299323,31.88621018057415,13.40324348822724,72.17034431857617,1.0186101562694123,121.07060147588352,621.6165823522459,15.288,0.0,11.641231859907004,0.0937221872231501,1.7445620615226046e-07,0.0175470033861377,0.0293119840049901,-0.0015360477394265,15.637475060941718,29.828834768316536,33.9621216042618,20.054815289001805
0.98,31.22218686590588,131.01045516341983,19.317617834738865,-8.115541445394287,13.20471428317874,27.895367906530364,-2.984975348615658,4.802312600790987,319.5937466429581,32.16723965168247,13.536014264017656,72.18023032861836,1.0721633428223123,121.12685549564326,632.6034753791638,15.288,0.0,11.672344615939222,0.0945485361089468,1.825269400305324e-07,0.0181053609194506,0.0302523181620332,-0.0015988474636284,15.461394524761175,29.553697874516576,34.22311842829639,28.462674413839668
0.99,31.222186320867515,131.0104564373106,19.626843708341102,-8.00968581734047,13.103652172533584,30.45009196361429,-3.0333999394020443,4.82522262970252,341.6609485517054,32.378369407143666,13.64657068129796,72.19041106586673,1.1274855975750404,121.18496451454212,640.9158812806909,15.288,0.0,11.703294019021154,0.0951694377233295,1.9084553626953345e-07,0.0186695458621577,0.0312069365294803,-0.0016594412448026,15.321124900410211,29.342834673632435,34.4187899223339,30.97890232418065
1.0,31.22218577185193,131.01045772320103,19.938474557193658,-7.894873073743095,12.987365489644892,27.26890666623152,-3.0862596142810004,4.850616936846524,314.2672081822764,32.627621171242446,13.769114978584058,72.20088784546145,1.1846074131840263,121.24496025267804,650.8020457278852,15.288,0.0,11.734070718679115,0.0959023983280297,1.9941614672045241e-07,0.0192394300214875,0.0321757835644454,-0.0017232082560971,15.163382648805143,29.10070381002952,34.65024685267462,27.868382691616855
1.01,31.22218521905512,131.0104590207128,20.25238006214028,-7.78337011906431,12.875074719196826,28.499976314357166,-3.1389728621857422,4.87571690979888,324.9203161036979,32.8686376647423,13.888964817331305,72.21166204541363,1.2435606598103224,121.306875861654,660.4324454673808,15.288,0.0,11.76467037723676,0.0966111605444993,2.0824324704726602e-07,0.0198146514998781,0.0331584032449624,-0.0017877846425565,15.010796624286325,28.867946618318552,34.874072081217534,29.083920229792902
1.02,31.22218466239499,131.01046033001165,20.568618759074567,-7.675998344887997,12.768177329952769,23.8145428160298,-3.191115885571373,4.900271423357453,284.59063161540416,33.09737767667878,14.004859174557168,72.2227348063034,1.3043769834283014,121.3707442423456,669.6362775494256,15.288,0.0,11.79510053691794,0.0972838458147537,2.173308775425667e-07,0.020395365367644,0.0341552076252678,-0.0018529297078685,14.864977275872231,28.64756238002961,35.08643937539395,24.521996863107134
1.03,31.22218410194529,131.0104616509553,20.887142888923886,-7.56325551700024,12.65149953458514,19.47962758286048,-3.246631131846246,4.9266296442261215,247.30469339049705,33.352508931489005,14.128964798136128,72.23410708757916,1.3670881285378904,121.43659838312936,679.9790520238124,15.288,0.0,11.825355704426292,0.0980341110493287,2.2668336007840105e-07,0.0209813644602416,0.035166004669897,-0.0019208029727311,14.708143444851377,28.407291332673346,35.323692015865184,20.35357914777103
1.04,31.222183537772885,131.01046298341757,21.207909806534644,-7.458430147398578,12.54638659597834,30.869778259881947,-3.299914135074636,4.95144711476464,345.46563688072297,33.5790753448191,14.243985320067164,72.24577986390318,1.4317270650885607,121.504472543039,689.2275058487973,15.288,0.0,11.855440239353644,0.0987004223097521,2.3630506595825586e-07,0.0215725516433153,0.0361907822338499,-0.0019882795799764,14.565267385438982,28.19252578728751,35.53414490402435,31.43802588655109
1.05,31.22218296957032,131.010464327996,21.53112969258815,-7.34963452561807,12.433683204796711,18.66792230018211,-3.3560940524765024,4.977768734000668,240.45625879819983,33.82684433754025,14.365572367133982,72.25775388453945,1.4983266770850687,121.574400874575,699.4144848177507,15.288,0.0,11.885370780430824,0.0994290630275376,2.461997528959841e-07,0.022169533350476,0.0372307420290633,-0.0020583146060652,14.413953986875644,27.96249330532282,35.76462946751822,19.609509730329805
1.06,31.22218239759266,131.0104656841957,21.856632096996133,-7.237828780269497,12.314838513520376,26.527109149356104,-3.4149426784607475,5.0054389610556616,308.17968365593924,34.09292671661631,14.492774748165754,72.27002995561462,1.56692139679103,121.64641913823029,710.4387547465417,15.288,0.0,11.915134619639636,0.1002115413607947,2.5637238895447653e-07,0.0227717336268901,0.0382850647974804,-0.0021307893685288,14.255924179842095,27.72019366063736,36.012477454198454,27.21036149175308
1.07,31.22218182171492,131.01046705226003,22.18450380944813,-7.137694965131275,12.21397730641384,31.20676135994552,-3.469479759240308,5.030352676463691,348.5093681440308,34.31137407638257,14.604959337654984,72.2826088217473,1.6375465927803887,121.7205640602187,719.5494058926604,15.288,0.0,11.944748935648322,0.1008540109370763,2.668272101151719e-07,0.0233794930395524,0.0393545037244853,-0.0022016063275498,14.119244433080867,27.51722557293733,36.21544315348701,31.799429121070276
1.08,31.222181241826927,131.01046843239683,22.51482049503077,-7.036657628567089,12.110559788956843,21.02876259096781,-3.525545731670004,5.05594676869917,261.00157857466235,34.537545233324195,14.71946863996502,72.2954909328161,1.7102372570377853,121.79687195329863,729.0436841470041,15.288,0.0,11.974215642506207,0.101519191293633,2.775685708477799e-07,0.0239929483044387,0.0404394791929341,-0.0022741953662731,13.97998145280166,27.3097153890754,36.42573414361666,21.913487320399355
1.09,31.222180658224328,131.01046982403255,22.847384365369138,-6.926254428884304,11.990404955001257,19.338364427242183,-3.58757433261154,5.084786667616696,246.54375332474407,34.812318627463284,14.8490086655137,72.30867660572558,1.7850289660764476,121.87537972510908,740.6664030828266,15.288,0.0,12.003517341355908,0.1023272404936587,2.886017374058016e-07,0.0246113726832287,0.0415389041994722,-0.002351297592458,13.821713288013738,27.06714594540348,36.68204956808088,20.314971911573288
1.1,31.22218007098836,131.010471227009,23.18214255174716,-6.822717087802928,11.880520030057136,38.71002802705048,-3.6474060592136,5.112107586949981,413.1890617385841,35.059640498479894,14.969842469891924,72.3221660160469,1.8619578754163453,121.9561248725436,751.2036651276086,15.288,0.0,12.032659799420728,0.1030546070721597,2.9993139468400244e-07,0.0252346442005343,0.0426527344308964,-0.0024278927161333,13.675764510677062,26.847441711220885,36.91248391381983,39.216112566091674
1.11,31.222179479682968,131.01047264215413,23.51938926249678,-6.731153085056556,11.789755024558296,28.34730418020897,-3.7019244710961057,5.136128624579251,324.1593910376397,35.25188061233006,15.073446034111376,72.33595923531567,1.941060984081496,122.03914575918468,759.439695917253,15.288,0.0,12.061670908363796,0.1036200736578543,3.115611959806749e-07,0.0258637312587004,0.0437828636116443,-0.0025019823932367,13.552301502254805,26.66981512214724,37.09076978073803,29.04571769337462
1.12,31.222178884372408,131.01047406933176,23.8590813916984,-6.620932023500592,11.666255128867984,10.718158790049529,-3.768017699827408,5.1665872689112495,172.73281794065943,35.54182940785797,15.207272090008654,72.3500560341581,2.022374986667811,122.12448040909987,771.9587571836946,15.288,0.0,12.0905380230049,0.104472755352648,3.2349613271231945e-07,0.0264983247345745,0.0449289533760756,-0.0025843706787812,13.391423573603989,26.42249026676536,37.36172425010222,12.480805632738795
1.13,31.22217828569583,131.0104755073253,24.200792713071536,-6.522696659612246,11.562014857186943,33.3788503874505,-3.828655276726407,5.19365680409482,367.5328077900705,35.7758759952487,15.323581152597828,72.36445639044531,2.1059394121486545,122.21216980030552,782.1334146199991,15.288,0.0,12.11924198568096,0.105161124668754,3.35742630287942e-07,0.0271370666127429,0.0460887584800578,-0.0026640080410001,13.253157581018243,26.217523194059105,37.57973206420747,33.996769337902236
1.14,31.22217768293217,131.01047695748798,24.545005734920924,-6.432931021237844,11.47132438582764,18.487568847191675,-3.8853920418074703,5.218261728386446,239.69531773195544,35.96877869085798,15.427049996982175,72.37915962361403,2.191791381527473,122.3022523648568,790.5645051031901,15.288,0.0,12.14782094961616,0.1057285617163703,3.483034700380401e-07,0.0277815313112731,0.0472653002837598,-0.0027418889843814,13.130841528610205,26.04280858020032,37.75867594738866,19.59889610830507
1.15,31.22217707660509,131.01047841881473,24.89137034758683,-6.324971065459256,11.348088110356995,18.209317000369,-3.9544662012359217,5.24964894579676,237.41251153546767,36.263664710049234,15.561877319886468,72.3941648505879,2.2799683888668354,122.39476690482748,803.5536164438862,15.288,0.0,12.176240223113815,0.1065957821904824,3.611849698633418e-07,0.0284303301061236,0.0484562858003691,-0.0028288318852915,12.971486180935509,25.79837084509783,38.034586618617,19.359128146968544
1.16,31.22217646686284,131.0104798910219,25.239789256187937,-6.238965107760982,11.26199156019958,47.625220791837606,-4.011008809501408,5.273663861082304,490.0437743845894,36.44261743585548,15.660758913474668,72.40947135362796,2.370510683998281,122.48975509320142,811.4767247431527,15.288,0.0,12.204511946425612,0.1071222287101092,3.7439221343838004e-07,0.029083280028009,0.0496615607468547,-0.0029079836300646,12.855121932144677,25.635402963007905,38.20027773198361,48.083899359981864
1.17,31.22217585275276,131.0104813758723,25.59089516787716,-6.143987659660093,11.15923990522666,8.431704666109251,-4.074396348664441,5.30131202763545,153.70937929486794,36.67449640018409,15.775853534894514,72.42507778916962,2.4634563252392305,122.58725628368678,821.808472747451,15.288,0.0,12.232651428468202,0.1078042587026567,3.879274000894946e-07,0.0297423976692213,0.0508850359595587,-0.0029927090595309,12.71999730397959,25.43719733180016,38.41632447478614,10.760959919860817
1.18,31.222175235522503,131.01048287101986,25.94385875641534,-6.0371399364653,11.03439777819804,23.137052536636872,-4.147181991641545,5.333977461243853,280.02501822196746,36.98007259701411,15.913387137708806,72.44098286426554,2.558845499355017,122.687312039473,835.5320055295812,15.288,0.0,12.26059745009254,0.1087029294030243,4.017993323825326e-07,0.0304046338787561,0.0521213273575864,-0.0030847301341521,12.559973773942888,25.191562273169215,38.70265716414745,24.10339465950695
1.19,31.22217461460564,131.01048437750978,26.299056738988856,-5.959519632291215,10.960461309540952,40.42269948021168,-4.20097672137445,5.355719130734527,428.4078130529292,37.11793953821394,15.999269387152305,72.45718518978907,2.6567196904862644,122.78996526444624,841.7448606924627,15.288,0.0,12.288419071886736,0.1091086266679509,4.1601086717308827e-07,0.0310715324157757,0.0533734733315177,-0.0031640355396736,12.458450547321297,25.057998869456508,38.82912347369274,40.99178656863288
1.2,31.222173989508885,131.0104858962245,26.656812916498343,-5.860305330508846,10.84698375881652,4.123888579442079,-4.271202833999808,5.386402176282644,117.1843741360236,37.387944561777296,16.12554214542082,72.4736826396862,2.757117483766242,122.89525579998264,854.0061703304682,15.288,0.0,12.3161197363667,0.1099027533887208,4.305656989354333e-07,0.0317438915177199,0.054643214752609,-0.0032559044523925,12.312135319307778,24.83884731728236,39.08162529332239,8.016418094728044
1.21,31.222173361488974,131.01048742483073,27.016296881253663,-5.763325978991093,10.736386792129524,32.41813735143203,-4.341274525203937,5.4167074870177245,359.92343213200894,37.6500668737135,16.24914943876987,72.49047341928616,2.8600816556694064,123.0032278595262,865.9929073492849,15.288,0.0,12.343652874379892,0.1106737171697693,4.454730277974129e-07,0.0324187398913083,0.0559252042781796,-0.0033483186347334,12.169469207639846,24.62669252825125,39.32668232006396,33.153024203523444
1.22,31.22217272958096,131.01048896508317,27.378144491894137,-5.685910002811399,10.660342015715242,23.44059796920694,-4.397556607120239,5.439095475904557,283.0687504825761,37.79229414712262,16.335991120213677,72.50755515283309,2.9656531891441764,123.11392375527248,872.5177035047824,15.288,0.0,12.371074821658608,0.1110922529911109,4.607341931333176e-07,0.033098451856243,0.0572241219078552,-0.0034313161857353,12.06641204627109,24.491425914692527,39.45717213711509,24.46188661699708
1.23,31.222172094161817,131.01049051625836,27.742104459379814,-5.589099341401808,10.54797574546044,9.041352724974477,-4.4700677497849615,5.470192504023572,159.79687382222795,38.061770171785966,16.461470440356965,72.52492490076924,3.0738713112699765,123.22738393510964,884.9740092929761,15.288,0.0,12.398353720047716,0.1118848502071396,4.763557625305633e-07,0.0337817818374563,0.0585378681437721,-0.0035270056335379,11.922411592724272,24.27703608465601,39.70929914663032,11.47390826249481
