Time,Latitude,Longitude,Altitude,Angle of Attack,Angle of Sideslip,X-Acceleration,Y-Acceleration,Z-Acceleration,Thrust,True Velocity,Ground Velocity,Pitch,Roll,Yaw,Dynamic Pressure,cp,parachute_deploy_gain,Wind Speed,Mach,omega_x,omega_y,omega_z,Cmq,Angle of Attack(total),Angle of Attack(gust),True Velocity(gust),Acceleration
0.0,31.222186000000004,131.010384,3.000000003643237,0.0,0.0,0.0,0.0,0.0,2.2828121974499247,0.0,0.0,69.99999999623421,0.0,113.69999999388332,0.0,15.288,0.0,0.0,0.0,0.0,0.0,0.0,-0.0,0.0,90.0,0.0,0.0
0.01,31.22218600000153,131.01038399999584,2.99999882256592,0.0,0.0,0.0,0.0,0.0,34.24218696174923,7.502283530665459e-11,7.190531319924593e-11,69.99999999623329,-4.83564628150269e-13,113.69999999388072,3.446445726795683e-21,15.288,0.0,0.0,2.204725565824978e-13,-3.659182332138578e-19,7.589415207398531e-19,4.811147140404426e-19,-1.5108918610345807e-31,0.0,89.9999999995224,7.502283530665459e-11,0.0
0.02,31.22218600000288,131.01038399999217,2.999997775701936,0.0,0.0,0.0,0.0,0.0,25.871876237766408,1.5320717031631675e-10,1.4674636035870463e-10,69.99999999623222,-9.67129256300373e-13,113.69999999387804,1.4372842949972735e-20,15.288,0.0,0.0,4.5023593667086093e-13,-7.284483346386986e-19,1.5178830414797062e-18,9.757819552369542e-19,-6.170906918166791e-31,0.0,89.99999999902465,1.5320717031631675e-10,0.0
0.03,31.22218599928065,131.01038400193067,3.000201659671132,18.81500467334555,-0.00012974450181,11.96616230539064,-1.8916256735984712e-05,3.349833086198469,180.34219359854663,0.0882870268161719,0.0553390044312322,69.99999999799445,-4.212591857125379e-12,113.69999999488518,0.0047728553458352,15.288,0.0,0.0,0.0002594525584132,3.2187251995663407e-17,-7.20264389268894e-10,1.2365134327422308e-11,1.6874092354518158e-13,18.815004673776716,89.46786891739345,0.0882666465974854,12.426199017587786
0.04,31.22218599548236,131.0103840121632,3.001799604587872,9.46752327608497,-4.6177622759613696e-05,55.21900012092241,3.931876292165237e-06,3.349616504302861,548.6359724538078,0.3767519978512604,0.1853356633749705,70.00000000507204,-2.4624598767003407e-11,113.70000000019972,0.086915163246288,15.288,0.0,0.0,0.0011071759353184,1.6174128009138757e-15,-1.3693172015529268e-08,2.7753303060112748e-11,1.3689612277852356e-11,9.467523276196548,87.63554493451223,0.3767447442872393,55.32050167054111
0.05,31.222185984749512,131.01038404118162,3.00777936418888,5.376730308971262,-2.257790939128127e-06,80.28807156553681,5.266841443842784e-05,3.348887800834877,761.6984298824644,1.018787885905993,0.4366201147110198,70.00000000894464,-1.1355399380652658e-10,113.70000001523856,0.635552918586145,15.288,0.0,0.0,0.0029939522895272,1.6418815498809788e-14,-9.32122351075408e-08,4.303264669380585e-11,2.5199270302492604e-10,5.3767303089717045,83.57022052969386,1.0187875312530217,80.35788377762394
0.06,31.22218596447235,131.01038409608267,3.0201664202003013,4.296730121134882,2.4863835723705905e-05,60.21296515808257,0.0001057204249726,3.347700952379021,590.4875390737208,1.721098934225416,0.7081674028809783,69.99999995523842,-3.0560354507026086e-10,113.70000004366592,1.8138247671743823,15.288,0.0,0.0,0.0050578622752421,8.328976953118383e-14,-3.2824985336199985e-07,5.923438275930214e-11,1.4991363363716091e-09,4.296730121206683,79.20467073327266,1.7211028398275985,60.305955550063224
0.07,31.22218593493329,131.01038417609837,3.038741944736831,3.8204913578752526,4.8016684030909405e-05,91.4060317508128,0.0001597686613101,3.346072557365335,855.2937749779139,2.4375792548422868,0.9844712334613328,69.99999973536046,-5.939103491363046e-10,113.7000000850886,3.6383156301599167,15.288,0.0,0.0,0.007163413150771,2.709313825263564e-13,-7.906546256197275e-07,7.920022733617308e-11,5.114174483651565e-09,3.820491358176508,74.87999294483174,2.437586797285377,91.46725557277466
0.08,31.222185894468456,131.01038428575305,3.0647976109320942,3.588632851766762,7.220043782492885e-05,19.18449428359557,0.0002119618497595,3.3440615022685813,241.2171988638848,3.1292508166901074,1.2522236515868983,69.99999919480445,-9.914748373602156e-10,113.7000001418522,5.996012698481753,15.288,0.0,0.0,0.0091960591623389,6.80386533246681e-13,-1.5973238302190878e-06,1.0839624626357699e-10,1.3263625118823921e-08,3.58863285249208,70.86684630658345,3.1292621579083604,19.473766155861934
0.09,31.22218584634549,131.01038441616095,3.0957981580345013,3.551302481506045,9.685468678862004e-05,57.102946699906326,0.0002554087225869,3.341892818148368,563.0937377043176,3.701810007254615,1.479132491047967,69.99999812344194,-1.4359264356978275e-09,113.7000002093888,8.390904013834115,15.288,0.0,0.0,0.010878666406854,1.440096519545733e-12,-2.748643691533636e-06,1.5214952332699618e-10,2.6999776649034504e-08,3.5513024828250237,67.68737872952666,3.701825221153239,57.20065357568538
0.1,31.222185790329306,131.01038456796124,3.1319266121977414,3.608446747536112,0.0001234669721807,54.26147302645416,0.0002914860332524,3.3396271157106168,538.7437595981919,4.174070299823608,1.6716491241860567,69.9999963052332,-1.902380107712657e-09,113.70000028805804,10.668380938744466,15.288,0.0,0.0,0.0122665227999911,2.687800116751415e-12,-4.315796035622946e-06,2.1749089204950437e-10,4.7802076800548326e-08,3.608446749645647,65.17160335282355,4.174089693970246,54.36414778470795
0.11,31.222185727066616,131.0103847393952,3.172681775073216,3.633547373470009,0.0001485939126744,42.987553988990406,0.0003293995000288,3.337005588796181,442.8656393052949,4.672024955140527,1.8729475711242067,69.99999349387662,-2.3433348587116544e-09,113.70000037699285,13.365573690709628,15.288,0.0,0.0,0.0137298902182575,4.5789425819531184e-12,-6.340230783164189e-06,3.1157625832417107e-10,7.860218435507205e-08,3.6335473765043056,62.62546922225161,4.672048296217748,43.116880735560244
0.12,31.22218565692512,131.0103849294629,3.2177790417108385,3.650108937861461,0.0001727442530266,46.86777100765684,0.000367618259785,3.334068179146888,475.58594813540446,5.17479364099247,2.0758708919414386,69.99998941286465,-2.702771525550512e-09,113.70000047573096,16.396890189902592,15.288,0.0,0.0,0.0152074069417046,7.288473386564583e-12,-8.86736416607888e-06,4.42271554299792e-10,1.217615295152289e-07,3.6501089419435786,60.16906436414164,5.174820775596283,46.986210423745625
0.13,31.222185580265183,131.0103851371844,3.2669395832841857,3.7280113734654137,0.0001995014041665,51.64515456841877,0.0003986198234033,3.3311573548369657,515.9156326236895,5.579364582999854,2.2451120211463422,69.99998375846928,-2.9114380666036422e-09,113.70000058383452,19.060875702782603,15.288,0.0,0.0,0.0163963474924215,1.100846422415094e-11,-1.1941028436408576e-05,6.179653149059831e-10,1.7678562106638216e-07,3.728011378795934,58.279338776943774,5.579395920607139,51.75247433579817
0.14,31.22218549718016,131.01038536230575,3.320091807147376,3.768719651034081,0.0002242721760019,48.1660778383537,0.0004326225136175,3.32784677779744,486.2390860568404,6.025734265159953,2.428648685938864,69.99997621008868,-2.890941335368725e-09,113.70000070125378,22.232643351545065,15.288,0.0,0.0,0.0177081261985351,1.5941871344608664e-11,-1.560901486259027e-05,8.477542742712431e-10,2.495765160917323e-07,3.7687196576976176,56.27980129251342,6.025769493750979,48.280903250602165
0.15,31.22218540777004,131.01038560455507,3.377159065217065,3.821894709649632,0.000249725644238,46.56959330999435,0.0004643042952466,3.324387732286376,472.54218587214,6.441023336496372,2.6014999612196745,69.99996641132823,-2.546763407193136e-09,113.70000082794672,25.402620271850456,15.288,0.0,0.0,0.0189285691155931,2.2314099732464315e-11,-1.992367942778425e-05,1.1417519574710292e-09,3.4051816697623295e-07,3.821894717796148,54.501255563441134,6.441062563308839,46.68809885900716
0.16,31.22218531193176,131.01038586421257,3.4382223512025254,3.8463320955387794,0.0002733212404609,36.974247749122085,0.0004987816203583,3.3205066466509234,391.1218908297564,6.895451966878468,2.7877331692857847,69.99995397923414,-1.77088415515292e-09,113.70000096417354,29.113317717489338,15.288,0.0,0.0,0.0202640360420561,3.0367358387834494e-11,-2.4945905791363795e-05,1.5114297685186711e-09,4.5643121540033697e-07,3.846332105235269,52.641145594326446,6.895494900078523,37.12304892183151
0.17,31.222185210004127,131.010386140357,3.503019838429153,3.8860314262554336,0.000297865039677,46.520531453299206,0.0005306403365217,3.31650761597812,471.78125980632376,7.314788342774694,2.9619016331667103,69.99993849340957,-4.3039914767238207e-10,113.70000110959404,32.761746921137856,15.288,0.0,0.0,0.0214963781445172,4.0366633128431416e-11,-3.0713078585132897e-05,1.96747427715988e-09,5.961228045584824e-07,3.886031437653654,51.00464968745696,7.314835131305714,46.63860064094784
0.18,31.22218510147516,131.01038643438045,3.571950002194137,3.9107265153396016,0.0003214293682635,38.895647526122765,0.0005639254295027,3.312149448254175,407.10156721191447,7.754626295791602,3.1430587898572058,69.9999195084231,1.6149322372810674e-09,113.70000126508234,36.81988229018681,15.288,0.0,0.0,0.0227889722876034,5.2593391349219385e-11,-3.731786027786564e-05,2.525509173087448e-09,7.6786585232224e-07,3.9107265285284982,49.36615848311875,7.754676785798701,39.036415444581515
0.19,31.222184986476247,131.0103867459258,3.644912152926752,3.920599115663931,0.0003437679584038,43.86258669386953,0.0005989384366483,3.307389681300437,448.9531328318269,8.219206165926856,3.332657190859447,69.99989653019398,4.538529095696477e-09,113.70000143063515,41.36350714675367,15.288,0.0,0.0,0.02415428010977,6.735860419174937e-11,-4.481243905342629e-05,3.199401151670645e-09,9.773118416308382e-07,3.92059913071168,47.71893898797248,8.21926016487149,43.987104227715655
0.2,31.222184864792144,131.01038707557822,3.722074668489528,3.943376465171875,0.000367328732016,40.28070981710589,0.0006315894240138,3.30251450988504,418.51563019916136,8.65238089736321,3.511445117640573,69.99986902534273,8.534090245934178e-09,113.7000016067622,45.83799876721736,15.288,0.0,0.0,0.025427299120469,8.499785987217288e-11,-5.328041996372527e-05,4.006766070954748e-09,1.2232205148646746e-06,3.9433764822533854,46.2587826635041,8.652438597225508,40.41586552155969
0.21,31.22218473678744,131.01038742234647,3.803156063113743,3.9664546506877016,0.000390962054969,38.67679184347145,0.0006636984664108,3.297405915846789,404.8187610144644,9.079179692250786,3.688002035198235,69.99983642883521,1.3827831253856693e-08,113.70000179318536,50.47126980736161,15.288,0.0,0.0,0.0266815841422463,1.0586558589671407e-10,-6.275155280099118e-05,4.961340042512481e-09,1.5117124669161171e-06,3.9664546699249135,44.88773728276958,9.079241104426773,38.817098210937615
0.22,31.2221846022986,131.01038778667507,3.8882846911135607,3.956175711337521,0.0004112685792646,46.713636108302936,0.0007011135033803,3.291572407481395,472.5421858721365,9.580256326712124,3.889976788904857,69.99979815126248,2.0662823443484168e-08,113.70000199039316,56.195522894218605,15.288,0.0,0.0,0.0281541581291438,1.3033127211465288e-10,-7.330053770532661e-05,6.0817207473359025e-09,1.8632831045819008e-06,3.956175732680424,43.35679625546934,9.580320928629488,46.8294591882524
0.23,31.222184460898035,131.01038816972698,3.977794004014759,3.9879066397329104,0.0004360962274406,38.89105719050748,0.0007308686121188,3.286096544282012,406.3406421461021,9.977039034039262,4.056142701351626,69.99975353557706,2.9316661139418326e-08,113.70000219928508,60.9462612310605,15.288,0.0,0.0,0.0293202403623685,1.5880617816859538e-10,-8.505067486192354e-05,7.393319440773217e-09,2.2514912291167663e-06,3.987906663538912,42.20670487756048,9.97710753587448,39.0296395118868
0.24,31.222184313516166,131.01038856897196,4.070963590490852,4.003523997322975,0.000459165577055,40.0792299321398,0.0007630441688766,3.280134925833028,416.2328240017114,10.408422364424831,4.234121060914368,69.99970190737699,4.010976417051318e-08,113.70000241888,66.32994780718496,15.288,0.0,0.0,0.030588009649109,1.91711512587616e-10,-9.795845222523724e-05,8.904557280909524e-09,2.7052895870113487e-06,4.003524023611085,41.011349410369874,10.408494489985014,40.21323112692186
0.25,31.22218416001652,131.01038898478134,4.167901030441617,4.0261356185860135,0.0004830526730531,41.17760020658354,0.0007934613160587,3.2740610008587527,425.36408079150686,10.816813039390448,4.4041629376391525,69.99964258149416,5.3372865854010094e-08,113.70000264972064,71.63651430352668,15.288,0.0,0.0,0.0317882126436337,2.2947426169209347e-10,-0.0001121037688082,1.0637152702866709e-08,3.217380562698304e-06,4.026135647516394,39.93186687113378,10.816888917126896,41.30755663120434
0.26,31.222184000702686,131.0103894163294,4.26837241014618,4.053359329950934,0.000507503069958,44.80261175215926,0.0008224724146494,3.2678597736729302,455.8015834241788,11.207047269494833,4.567925492611352,69.99957484039399,6.947299261165984e-08,113.70000289176392,76.89781807056055,15.288,0.0,0.0,0.0329350617559806,2.7254099134167665e-10,-0.0001275114371842,1.260720913253598e-08,3.7915697709142366e-06,4.053359361668992,38.945390435244384,11.207126987890645,44.921630958721536
0.27,31.22218383516388,131.01038986473338,4.372698316214008,4.0614460923241,0.0005296455772492,41.029837477288126,0.0008548809954683,3.2610328932384265,423.84219965987256,11.645685385842508,4.748226940060522,69.99949794024376,8.879821051920497e-08,113.70000314600205,83.0342688744587,15.288,0.0,0.0,0.0342241635563461,3.2137296827284217e-10,-0.0001442952656441,1.4842505534226832e-08,4.458527942364847e-06,4.061446126801262,37.8838346421185,11.645768582375233,41.15922617924542
0.28,31.222183663504484,131.01039032970942,4.48079961904222,4.081133040992532,0.0005533279247169,47.27661484082626,0.0008845140695959,3.254218495915602,476.3468732012221,12.047344998676092,4.915789434712848,69.99941106884992,1.1178948978424788e-07,113.70000341275257,88.85982357848233,15.288,0.0,0.0,0.0354045979054623,3.764736350660473e-10,-0.0001625146963723,1.7365685655384934e-08,5.194620655212288e-06,4.081133078439725,36.956255322213885,12.047431915223257,47.38848224631549
0.29,31.22218348566054,131.0103908114315,4.592727908358551,4.1001100265020245,0.0005770279952742,37.989969791857405,0.0009138463939581,3.247164755122801,397.97031042211177,12.446314684600782,5.082367374004485,69.99931338876085,1.3891902435864665e-07,113.70000369260468,94.8417675268915,15.288,0.0,0.0,0.0365771315767517,4.3836067907166327e-10,-0.0001822432988888,2.0202163500922312e-08,6.018074062137429e-06,4.100110067036654,36.07377590258778,12.446405323946324,38.12849176886316
0.3,31.222183301933686,131.01039130907952,4.708251093558373,4.112858061667493,0.0005998635114143,35.655053282557844,0.000944131403186,3.2397207148238625,378.1859457108711,12.860033399289696,5.253940723820665,69.99920403105713,1.707002607527005e-07,113.7000039856728,101.2505662360602,15.288,0.0,0.0,0.03779301412572,5.075709863465428e-10,-0.0002035013069687,2.3370674033523645e-08,6.94335970778e-06,4.112858105337573,35.19685285507256,12.860127625629724,35.80193592228613
0.31,31.222183112488807,131.0103918222051,4.827243246502713,4.136140889545823,0.0006242383343011,37.56633644061071,0.0009716215464757,3.232339252743767,394.1656220930212,13.2364445751808,5.4126574282679245,69.99908210036875,2.0768081583188525e-07,113.7000042923011,107.26326115439352,15.288,0.0,0.0,0.0388992619788015,5.846561731689753e-10,-0.0002263323252403,2.6893437641668458e-08,7.948283231812338e-06,4.1361409365698805,34.43286455705216,13.236542630309057,37.70514091683033
0.32,31.22218291741533,131.01039235056504,4.949637017503345,4.1622282001352975,0.0006491019906456,40.83513712643371,0.0009979686925508,3.224840963348891,421.55939346242695,13.59846554462374,5.566374262777002,69.99894668612772,2.504388718903276e-07,113.70000461297312,113.2095365840355,15.288,0.0,0.0,0.0399632243410653,6.701756367872645e-10,-0.00025078340164,3.0793566854276295e-08,9.047716714467492e-06,4.16222825066026,33.72644865222576,13.598567505326,40.96227562489027
0.33,31.222182716732533,131.01039289410716,5.075419569102976,4.187801887681037,0.0006739743721461,40.48743503284469,0.0010239291638211,3.217136801802925,418.5156301991682,13.956637761217308,5.718704299733134,69.99879684673242,2.995902922462564e-07,113.70000494831164,119.25032483364384,15.288,0.0,0.0,0.0410158804634189,7.647061680070125e-10,-0.0002769136723495,3.509664608790402e-08,1.0253455741189656e-05,4.187801941818244,33.053267359159875,13.956743628864118,40.61505097607
0.34,31.222182510255863,131.01039345333336,5.204736257784645,4.19642921746386,0.0006961879027693,31.814592723444047,0.0010535137542081,3.208669900766693,345.46563688075645,14.367047160772364,5.88887983533068,69.99863160305904,3.557915789971256e-07,113.70000529927128,126.36523219087664,15.288,0.0,0.0,0.042222056531773,8.688448410811866e-10,-0.0003048202762282,3.9835373705550826e-08,1.1618525957862828e-05,4.196429275109305,32.30947868183619,14.367156517712404,31.97598901989736
0.35,31.222182298183583,131.0103940277045,5.337435501771672,4.210915783240843,0.0007193441544952,34.813487415034444,0.0010813034848195,3.200164272309822,370.5765700527033,14.754132934586384,6.050986755458457,69.99844991734221,4.1975736284587617e-07,113.70000566632532,133.26448209504355,15.288,0.0,0.0,0.0433596939127697,9.832256819293898e-10,-0.0003345386312107,4.503361101379695e-08,1.309465610343774e-05,4.210915844572415,31.63649055965014,14.75424592890194,34.96026256388454
0.36,31.222182080444604,131.0103946174141,5.4735747500461605,4.22903876037745,0.0007431682866607,39.2632255716727,0.0011077666085529,3.1915717453569297,407.8625232777193,15.124417129017054,6.2072589919251575,69.99825073022951,4.922382611919288e-07,113.70000605036684,140.03566173682628,15.288,0.0,0.0,0.0444479595865755,1.1084921261805627e-09,-0.0003661511460057,5.0723697896912267e-08,1.4691545926915382e-05,4.229038825557203,31.017264542603208,15.124533865618538,39.39272792946638
0.37,31.22218185710795,131.01039522227452,5.613102797925907,4.249164960780052,0.0007674149135003,37.28328237034959,0.001133274451316,3.1828514669894137,391.1218908297666,15.483077353331511,6.359470679857624,69.99803294268581,5.740349991123437e-07,113.70000645214331,146.75405277514704,15.288,0.0,0.0,0.0455020695186381,1.245311285088233e-09,-0.0003997125883071,5.6934243389647934e-08,1.641828325195534e-05,4.2491650299519,30.439178816713017,15.483197898584232,37.418894813348615
0.38,31.2221816281124,131.0103958424523,5.756069531572451,4.260095806433531,0.0007900626414612,38.9278000801764,0.0011607546399008,3.1735466295306622,404.8187610144602,15.87126705947922,6.521735074464384,69.99779542676283,6.659911329739736e-07,113.70000687263192,154.20298254405043,15.288,0.0,0.0,0.0466429667223463,1.3943646956867835e-09,-0.0004353006984059,6.369875435270817e-08,1.8328108041903096e-05,4.260095879559656,29.83470194713067,15.87139116222873,39.05694584372078
0.39,31.22218139339905,131.0103964781077,5.9025231349944285,4.274091258047817,0.0008133283308351,33.320076729592266,0.0011870382950339,3.164143363712209,357.64062493382744,16.24457853509073,6.678818328235205,69.9975369905506,7.690136753559805e-07,113.70000731287368,161.54010621938565,15.288,0.0,0.0,0.0477401448128051,1.5563705124515804e-09,-0.0004730068442167,7.105463478762673e-08,2.0383860516746246e-05,4.274091335289374,29.274934656826048,16.244706292406182,33.46997636540994
0.4,31.22218115316572,131.01039712870306,6.0523126585892895,4.286421841403391,0.0008363022448449,31.88018820767003,0.0012133780841982,3.1544430614236454,345.465636880754,16.62063299903514,6.836764518435374,69.99725641601981,8.840594270905819e-07,113.70000777359816,169.10340080049767,15.288,0.0,0.0,0.0488453895716005,1.7320643186450851e-09,-0.0005128553637434,7.9027539265021e-08,2.2612406375611563e-05,4.286421922834417,28.730746964325096,16.620764365084565,32.03586915718869
0.41,31.22218090752676,131.01039779392735,6.205351877049411,4.30025870409831,0.0008595777771371,35.882550741685804,0.0012389121673015,3.1445895889870297,378.94687077668647,16.987310563534386,6.99141560549392,69.9969524610574,1.0121301778427253e-06,113.70000825570062,176.64448930727934,15.288,0.0,0.0,0.0499230826371405,1.922193031274436e-09,-0.0005548883906878,8.764667734700782e-08,2.5005077415911235e-05,4.300258789847355,28.21875643368965,16.987445585695873,36.020076248499606
0.42,31.222180656535848,131.0103984736348,6.36160173428776,4.322008670726048,0.0008844838439129,40.34064925656127,0.001261804338223,3.134918999355981,416.2328240017114,17.318628721060172,7.133856886815013,69.99662385300175,1.154276942054023e-06,113.70000876021427,183.59942989625057,15.288,0.0,0.0,0.0508968652507098,2.1275184665783874e-09,-0.0005991661829955,9.694534598491077e-08,2.752657757470936e-05,4.322008761057615,27.772396468009568,17.318767655457478,40.462275036947325
0.43,31.222180400205527,131.0103991677914,6.521055075967404,4.339436441324956,0.0009085827200945,35.541853595187746,0.0012854696362701,3.124839917627212,375.9031395134336,17.662848429084132,7.280642039343927,69.99626930133451,1.3115939750280808e-06,113.70000928827632,190.96736675963504,15.288,0.0,0.0,0.0519085689713619,2.3488101247838237e-09,-0.0006457514522491,1.0695800287133593e-07,3.0255957891170616e-05,4.339436536261635,27.322335771349252,17.662991148924057,35.67895714766603
0.44,31.22218013836212,131.0103998768696,6.683849332059896,4.342209064313268,0.0009296474314902,32.82948243168077,0.0013129688908547,3.113754688841357,353.0750125389216,18.063580761318697,7.446730341918701,69.99588746395321,1.4852372182848018e-06,113.7000098413532,199.7278270846888,15.288,0.0,0.0,0.0530863610987301,2.586862292117705e-09,-0.0006947575786514,1.1773083546077225e-07,3.329010177793299e-05,4.342209163639375,26.81344244367223,18.06372678999575,32.9768158972058
0.45,31.22217987077456,131.0104006014978,6.850166573233225,4.3420317510315165,0.0009500780330031,38.11022602597878,0.001341042003417,3.1022288449712887,397.2093853562869,18.47486275310604,7.616350301328129,69.99547690348253,1.6764536248320808e-06,113.70001042108892,208.92306716049887,15.288,0.0,0.0,0.0542951637545535,2.842521175226318e-09,-0.0007463379956615,1.2932090054593452e-07,3.657529369088674e-05,4.342031854775571,26.30944884471334,18.47501199101448,38.23628058998621
0.46,31.22217959739673,131.01040134180155,7.020045503401754,4.351169003849846,0.0009725797783515,44.3937050866137,0.0013660055515545,3.09098240974522,449.7140588976434,18.844323061800488,7.771531995684422,69.99503610583268,1.8865779683531e-06,113.70001102895836,217.3591612614144,15.288,0.0,0.0,0.0553810645782081,3.1166808800591503e-09,-0.000800596194505,1.417768495237597e-07,4.001824400409673e-05,4.351169112337076,25.873596578896564,18.844475834274814,44.50118229261506
0.47,31.22217931813738,131.01040209802923,7.193559875579052,4.358630093683735,0.0009947969928181,30.22514089990685,0.0013910994973101,3.079396422776949,331.0078106302534,19.2180591098146,7.9280875671397615,69.99456352718363,2.1170044481277104e-06,113.70001166656292,226.0625808853568,15.288,0.0,0.0,0.0564795377574197,3.4102493884459798e-09,-0.0008576351980594,1.551487523304888e-07,4.3718862242359527e-05,4.35863020698899,25.44665981168229,19.218215372160817,30.381603425148434
0.48,31.22217903348153,131.01040286886197,7.370336324605091,4.365514409145237,0.001016880998596,29.779838936311712,0.001416009414045,3.067527859335786,327.2031223011574,19.5915905767454,8.084483592791102,69.99405758812365,2.369198154608765e-06,113.70001233476164,234.93171707892955,15.288,0.0,0.0,0.057577416115756,3.7241711041759195e-09,-0.0009173883913609,1.6944871263079066e-07,4.767297940601472e-05,4.365514527349481,25.03354780044292,19.59175030803913,29.937410312943754
0.49,31.22217874361868,131.01040365378466,7.5502307795521535,4.3786401372577615,0.0010404145545081,37.2489281064929,0.0014385799934191,3.0558405437943126,389.60000969812296,19.93403005898306,8.23012235628909,69.99351671352461,2.644660619562788e-06,113.700013034871,243.21198709852868,15.288,0.0,0.0,0.0585839249886784,4.059374595909599e-09,-0.0009798792959512,1.8470833984680338e-07,5.180951737438081e-05,4.378640260624215,24.667474291142685,19.934193486919103,37.37406598941686
0.5,31.22217844858332,131.0104044527036,7.733219389747018,-17.36627229464475,-0.0052115712397303,38.538315545132605,0.0011573441187202,4.21868883467496,397.97031042210494,18.461426408442247,8.36606535597106,69.99293932307316,2.9449363413826395e-06,113.70001376847225,208.60159965779783,15.288,0.0,7.5154709336958545,0.0542562165946954,4.416640996685587e-09,-0.0010584230784109,3.2419929184031423e-05,5.1827323332520274e-05,17.366273052539174,30.913815247307,18.46060777674736,38.76853236684961
0.51,31.222178148357727,131.01040526605456,7.91924040007383,-17.018618751621005,-0.0030028468776658,29.625923090321287,0.0010644403874499,4.236773487584736,323.3984349720841,18.775305106214336,8.524316298976217,69.99238818856662,5.392629990929248e-05,113.7000684455368,215.75127790007963,15.288,0.0,7.545294646897475,0.0551787893096789,4.775604809929047e-09,-0.0008460445032755,3.237804130712192e-05,4.2131476544944944e-05,17.018619008702142,30.42585370134177,18.77483342013001,29.92733816549287
0.52,31.222177842576084,131.01040609438223,8.108289414608194,-16.676390077446044,-0.0029171287603003,35.46096528267368,0.0010858048929432,4.255557151114179,372.0984511843415,19.098607941662365,8.684935372677316,69.99195992243038,0.0001048430278476,113.70012306161728,223.2414907165096,15.288,0.0,7.57501019234069,0.0561290644932006,5.0552840001568715e-09,-0.0006290631934286,3.233827143546127e-05,3.186504774985732e-05,16.67639032534067,29.93785051161699,19.098149720148417,35.715400412488165
0.53,31.222177531104126,131.01040693808787,8.300477786571804,-16.347842745867425,-0.0028340502812998,37.20018227186123,0.0011069293158065,4.274274382262592,386.5562464348624,19.418949235914617,8.844412171001208,69.99165724863757,0.0001556955640131,113.70017761739356,230.78890418790337,15.288,0.0,7.604622415871011,0.0570706420336823,5.254107543645484e-09,-0.0004072567576975,3.229791359976431e-05,2.0975126852347303e-05,16.347842984819206,29.46775247045604,19.41850406433762,37.44493268494226
0.54,31.222177213838066,131.01040779745333,8.495881665700171,-16.03085235730851,-0.0027532171402369,32.74357130113561,0.0011278946269219,4.293014314311892,349.2703242098436,19.737895983591788,9.003323300181634,69.99148295378501,0.0002064839208285,113.70023211302846,238.42787904270887,15.288,0.0,7.634152912124646,0.0580081272986585,5.3704808535496435e-09,-0.0001804738181275,3.225696317450482e-05,9.447512689798775e-06,16.0308525875322,29.01256762996517,19.73746350925488,33.02380103391469
0.55,31.22217689104769,131.01040867174453,8.694287542960963,-15.729416219543747,-0.0026753213613642,34.664945432007094,0.0011484024073791,4.31147433167332,365.2500005919907,20.0495840591891,9.159581801608324,69.99143981666441,0.0002572081779896,113.70028654822652,246.01284555740617,15.288,0.0,7.663567206766565,0.0589242859779221,5.4028490527147194e-09,5.098075542760341e-05,3.221549556974514e-05,-2.710851836239285e-06,15.72941644131378,28.5791689825062,20.04916382069251,34.93203764505494
0.56,31.22217656272896,131.01040956097205,8.895694540561156,-15.445976325558815,-0.0026007274800587,32.392497250013115,0.0011682225054663,4.329418173239841,346.2265619465787,20.34946563665955,9.311591611890757,69.99153053063428,0.0003078685099609,113.70034092318151,253.4222074028829,15.288,0.0,7.692864884984489,0.0598057522566523,5.349711732033178e-09,0.0002871466070936,3.21735263172544e-05,-1.549681494922935e-05,15.44597653917858,28.17201784508284,20.349057115342426,32.68054071118822
0.57,31.222176228948623,131.01041046495402,9.100047029303784,-15.164062805928433,-0.0025267147759342,32.03412207267637,0.0011883773829688,4.347872724677331,343.1828296833023,20.6576224973907,9.46649076509206,69.99175775970677,0.000358465164202,113.70039523806432,261.15046421794665,15.288,0.0,7.722033197626408,0.0607115451316372,5.20960715377479e-09,0.0005279505500609,3.2131090847699705e-05,-2.8923497656125128e-05,15.1640630114974,27.764822942484017,20.65722560196194,32.32783592524197
0.58,31.22217588968044,131.01041138376144,9.30736158481131,-14.873784873908043,-0.0024517084892895,41.98695293015605,0.0012095721330421,4.367566772010124,426.1250058573153,20.988052387499785,9.629228499833497,69.99212417120562,0.0004089984443809,113.70044949323751,269.5664021677955,15.288,0.0,7.751072194843675,0.0616828035268826,4.9810811991758124e-09,0.0007734386143678,3.208820487517262e-05,-4.304934731536557e-05,14.873785071411206,27.34132533569192,20.98766727403097,42.2135032582013
0.59,31.222175544523097,131.01041231848518,9.517945474589135,-14.61192975187954,-0.0023815934904094,34.14625590091212,0.0012292422132471,4.38591262989624,360.68438819711065,21.29017239652444,9.78191285403514,69.99263262358625,0.0004594686267057,113.70050368956625,277.3773901413639,15.288,0.0,7.780018391790055,0.062570867298274,4.662553006391008e-09,0.0010241769185146,3.2044799225764725e-05,-5.7824776315705446e-05,14.611929941741025,26.96203848437626,21.28979829669388,34.426777705133766
0.6,31.222175193679977,131.01041326857177,9.731637035041055,-14.329547186644527,-0.0023085643561547,30.409741106493733,0.0012508537256378,4.406436489208494,329.4859594986058,21.63261729380127,9.948813214064144,69.99328599299493,0.0005098760522651,113.70055782712696,286.36631044421085,15.288,0.0,7.808845495253847,0.0635774508483797,4.252481546590362e-09,0.0012799097246758,3.2000943390136984e-05,-7.34242118988631e-05,14.32954736871186,26.54633400169353,21.63225466536029,30.72733373174506
0.61,31.22217483709831,131.0104142341643,9.948473313050604,-14.05115227679138,-0.0022365727107928,35.53078336632594,0.0012727015009977,4.427424591212094,372.0984511843297,21.98175101196725,10.118019601460276,69.99408721223075,0.0005602211020132,113.70061190640185,295.6782067433017,15.288,0.0,7.837562860397813,0.0646036997850908,3.749291206798686e-09,0.0015407375500912,3.1956648376212546e-05,-8.981167505702899e-05,14.051152451210168,26.13457908261676,21.98139969194747,35.805567398875596
0.62,31.222174474885044,131.0104152149716,10.168367460517564,-13.82213388524698,-0.0021726292074789,44.03476147727719,0.00129118554221,4.445171166643428,442.86563930529206,22.26579534169773,10.264239497656908,69.99503926681686,0.0006105042065314,113.70066592769908,303.3625753237941,15.288,0.0,7.866182674160628,0.0654386597932997,3.1513941851045446e-09,0.0018066063048022,3.191195125187474e-05,-0.0001066680630927,13.82213405267375,25.803516663219305,22.265454065899952,44.2585558590496
0.63,31.222174106855658,131.01041621149503,10.391459128162834,-13.586366846571291,-0.0021079458756734,25.215707283215103,0.0013105431678566,4.464008329541953,286.11251274707894,22.569139753774333,10.41725476121651,69.99614497560654,0.000660725931682,113.70071989188416,311.67809780402814,15.288,0.0,7.894651177830405,0.0663303489755525,2.457322402990704e-09,0.0020777232014481,3.186684850236263e-05,-0.0001243443528283,13.58636700702032,25.459457621518293,22.568808638410548,25.607796974291457
0.64,31.222173733576327,131.01041722219475,10.617305704997364,-13.336856432135995,-0.0020415707707402,24.76185449040066,0.0013314417762247,4.484651423950009,282.30782441796754,22.905289405237887,10.581769480765097,69.99740716263761,0.0007108869194387,113.70077379883878,321.02467963520417,15.288,0.0,7.922997036817758,0.0673184590673486,1.665637947554678e-09,0.0023533388387065,3.182148752292165e-05,-0.0001429335558735,13.336856585562709,25.0900165810329,22.9049687160512,25.164688314597687
0.65,31.22217335502364,131.0104182471341,10.845922178787328,-13.123021990946311,-0.0019809517886225,43.33077756257742,0.0013497241743705,4.502783378437168,436.7781447787475,23.190898329841048,10.7284792378653,69.99882853710935,0.0007609879197248,113.7008276493956,329.07316189191346,15.288,0.0,7.951178309256561,0.0681580371614616,7.74969737806565e-10,0.0026335547240796,3.177588041995849e-05,-0.000161943804348,13.123022137837358,24.779901541066334,23.1905871626618,43.56410614430701
0.66,31.222172970699408,131.01041928766733,11.077692017853195,-12.907378391791507,-0.00192035812542,36.9352314020562,0.0013684787779926,4.521615956549922,383.51251517160017,23.48795429144397,10.879210181586071,70.00041181699513,0.0008110297419668,113.70088144512349,337.5499443326677,15.288,0.0,7.979233392538725,0.0690312649647303,-2.160386778122408e-10,0.002919033950365,3.1729955793061315e-05,-0.0001817938100666,12.907378532221989,24.46523316321822,23.48765264229507,37.21097057931571
0.67,31.2221725807792,131.01042034331678,11.312475770284475,-12.680442674670914,-0.0018584604164803,25.5937299377572,0.0013886096127162,4.542118267676198,289.1562440103425,23.814834508622308,11.040386991870657,70.00215993522608,0.0008610131936209,113.7009351866337,347.00281574878977,15.288,0.0,8.007191913797996,0.0699921536436733,-1.3088553018130115e-09,0.0032095518260417,3.168378064831877e-05,-0.0002026641454352,12.68044280862915,24.12928746586297,23.81454258234279,25.99365023255956
0.68,31.22217218542209,131.0104214136495,11.55014686366364,-12.463512416103384,-0.0017984201620281,31.821798562725256,0.0014082073604407,4.562286505536504,340.8999924858462,24.13307604957813,11.19850049417144,70.00407578419319,0.0009109391737514,113.700988874658,356.33075994474586,15.288,0.0,8.034967338538266,0.0709276604584273,-2.504910183058007e-09,0.0035049394035029,3.163741286287969e-05,-0.0002242684825198,12.463512543801675,23.809215609780747,24.13279355439972,32.147182207906056
0.69,31.222171784700624,131.01042249846805,11.790646131384904,-12.267032561486156,-0.0017416441188964,39.06067578188104,0.0014262122709852,4.5809878204370085,401.0140726853634,24.42115503445694,11.346027880687648,70.00616217271855,0.0009608086868975,113.70104251016303,364.8802212432201,15.288,0.0,8.062608625032905,0.0717745259033,-3.805564801357682e-09,0.0038051089193007,3.1590897941800363e-05,-0.0002463759504023,12.267032683228464,23.52355236434697,24.42088145763853,39.3283847110748
0.7,31.222171378476904,131.010423598147,12.034077937144048,-12.07391849950398,-0.0016856473009522,32.83797046744006,0.0014441801554025,4.599871871385066,349.27032420985284,24.71057952574068,11.49401965859157,70.00842180295452,0.0010106305618266,113.70109610555026,373.571409091297,15.288,0.0,8.09014141371067,0.0726253528424945,-5.212104799887345e-09,0.0041102595156355,3.1544240920581494e-05,-0.0002692818244778,12.073918615424205,23.242540636561877,24.710314744881856,33.1585754781366
0.71,31.222170966798,131.0104247125581,12.280403103642152,-11.874899268120007,-0.0016292000447862,27.069695260779334,0.0014630255158824,4.619917589837722,301.33126406340574,25.02005324053842,11.64900210678833,70.01085754907558,0.0010603905084039,113.70114963992486,382.97811290456826,15.288,0.0,8.117488180304678,0.0735351124643507,-6.725859891730208e-09,0.0044203271014433,3.149748620824491e-05,-0.0002932157073322,11.874899378275831,22.94992886991482,25.01979732639386,27.461100527633533
0.72,31.222170549660543,131.0104258417102,12.529621612262748,-11.668535339576463,-0.0015721538809255,33.03070055912753,0.0014829762361027,4.64140537333921,350.79220534145287,25.354424756408104,11.812652371056982,70.01347222340505,0.0011100974740524,113.70120312562324,393.2734476687983,15.288,0.0,8.144705511220414,0.0745180555867159,-8.348153885651789e-09,0.0047353507236137,3.14506641923976e-05,-0.000318302545928,11.668535444019794,22.642748983930403,25.354177803054004,33.355206871875765
0.73,31.222170127056025,131.0104269856262,12.781737410004403,-11.493418954455002,-0.0015196107369619,41.65379784814479,0.0014999705896253,4.659948499666563,422.320318528234,25.63059346390284,11.955970510213696,70.01626878097153,0.0011597527294562,113.70125656400892,401.8777034903165,15.288,0.0,8.17181370678867,0.07532994494809,-1.0080361604711572e-08,0.0050554040292893,3.14038019063597e-05,-0.0003435090773154,11.49341905356215,22.390296876917287,25.63035476400649,41.91364929761626
0.74,31.222169698917448,131.01042814448795,13.036800233397985,-11.31300727147819,-0.0014666917984451,26.2513716073756,0.0015177750682101,4.67959732550783,294.48281347105944,25.92569117336552,12.10588308311106,70.01924997505255,0.0012093653811058,113.70130996766498,411.1749390420496,15.288,0.0,8.198770477869822,0.0761974751616124,-1.1923725691268065e-08,0.0053805423782015,3.135693071395163e-05,-0.0003698021634729,11.313007365315125,22.12732992735699,25.92546078595659,26.665204756406183
0.75,31.2221692655924,131.0104293173501,13.294537908950767,-11.13057911523104,-0.0014138981602575,30.565475829971824,0.001536076588696,4.7000322821661324,330.24688556441487,26.23338441581999,12.260151627910112,70.02241867138808,0.0012589215288009,113.70136331570812,420.9823104401592,15.288,0.0,8.225549658737878,0.077102031981408,-1.3879538248827028e-08,0.0057102678631098,3.131015511960367e-05,-0.0003971120842672,11.130579203901,21.85965759038335,26.233162321216355,30.924725035568656
0.76,31.222168826967195,131.01043050452145,13.555036671628011,-10.960709303370797,-0.0013630313528853,32.86280746073562,0.001553229328566,4.719454957531018,349.27032420986166,26.519811096976245,12.406991144401944,70.02577756896927,0.00130843046194,113.70141662098172,430.21464350093527,15.288,0.0,8.252201120854785,0.0779440921704448,-1.5948965806562333e-08,0.0060447881947194,3.126348621087636e-05,-0.0004249550049026,10.960709387085071,21.613794682624206,26.519596992512025,33.19996041729667
0.77,31.2221683829804,131.010431706169,13.818342306205746,-10.796158094065712,-0.0013131352158176,30.754671981318744,0.001569996789469,4.738700820819725,331.7687666960708,26.800687652288897,12.551884479656684,70.02932938037871,0.0013579016150592,113.70146989642916,439.3647687123485,15.288,0.0,8.278727785323545,0.0787698474410789,-1.813316910239212e-08,0.006384206021073,3.1216951263413046e-05,-0.0004535584718456,10.796158172976575,21.376736109320145,26.800481385491555,31.11760171691642
0.78,31.2221679336904,131.01043292213356,14.084407615577383,-10.62686139194968,-0.0012630182956466,25.339258692842016,0.0015875518089879,4.7590644500815324,286.8734378128899,27.100418228825287,12.703307888380332,70.03307691659268,0.0014073212370651,113.70152312169418,449.2356821296365,15.288,0.0,8.305078028842773,0.0796510240792326,-2.0433321938447183e-08,0.0067284180656434,3.117060473121119e-05,-0.0004833462097335,10.62686146614285,21.130077116543703,27.10021983437536,25.78229485641494
0.79,31.222167479178644,131.01043415219348,14.35316751996138,-10.45639222163344,-0.0012131461976402,35.81266870845673,0.0016055109420193,4.780147138615272,373.6203323159534,27.41118514741972,12.858528697955336,70.0370228595055,0.0014567066752209,113.7015763207459,459.58587747645294,15.288,0.0,8.331271112761517,0.0805646455433473,-2.285057547571508e-08,0.0070773184691868,3.1124501193991686e-05,-0.0005142267898239,10.456392291224772,20.88023341292549,27.41099458686062,36.130278842906165
0.8,31.22216701922311,131.01043539695235,14.624792870749262,-10.303438829942738,-0.0011656119706578,36.27589111392752,0.001621525190138,4.7993194436463655,377.42502064505743,27.68403986777764,13.000567979764131,70.04117007981885,0.0015060523483085,113.70162948523124,468.7687498065898,15.288,0.0,8.357348569026998,0.0813668465032636,-2.5386048705976552e-08,0.0074313037230301,3.107863699293465e-05,-0.0005453072798856,10.303438895162412,20.66211128893232,27.68385677387745,36.59199018721217
0.81,31.222166553919667,131.01043665614918,14.89920761356009,-10.14411408023096,-0.0011176882017135,23.77888597367426,0.0016385547246185,4.819897258426155,273.9374926939919,27.980824048322607,13.150886820611747,70.04552139861194,0.0015553520836049,113.70168260546404,478.8607880172845,15.288,0.0,8.383297102593925,0.0822393868530668,-2.8040896866040048e-08,0.0077901857555001,3.10330800961064e-05,-0.0005777549656271,10.144114141160223,20.43118310597573,27.980648482270443,24.262457221304853
0.82,31.22216608344862,131.01043792929357,15.176270067569291,-9.983953265320215,-0.0010700489158171,30.39911762091336,0.001655931775143,4.841155463910461,328.72500443277005,28.28769661157904,13.304661819577063,70.05007949592562,0.0016046242128808,113.70173570656834,489.4089308321833,15.288,0.0,8.409102874328692,0.0831415862891848,-3.0816246961166873e-08,0.0081536968926158,3.098790629886998e-05,-0.0006113303616471,9.983953322080886,20.1977284951482,28.287528528688405,30.782188698953576
0.83,31.222165607788902,131.0104392164426,15.455995269364232,-9.84307877770155,-0.0010247989770117,38.49449451117962,0.0016709196957593,4.859950512045536,395.68750322465047,28.54709103880006,13.441952730450373,70.05484716991319,0.0016538626373721,113.70178877905497,498.4123240890907,15.288,0.0,8.434725471838778,0.0839042484186811,-3.3713160919575056e-08,0.0085219206016407,3.094315199207325e-05,-0.0006447799050661,9.843078830523456,20.000200253840084,28.546930063753187,38.80006738966753
0.84,31.222165126831985,131.01044051789117,15.738466589993209,-9.701229682388052,-0.0009797324146792,23.962242790902728,0.0016861847576324,4.879319674648449,275.4593748256452,28.81511190570041,13.582209872495737,70.05982706452185,0.0017030700767139,113.701841826098,507.8013978567183,15.288,0.0,8.460218692225745,0.0846922724872403,-3.673258966579114e-08,0.0088949902876247,3.089885086230655e-05,-0.0006793071061352,9.701229731386208,19.800170472601835,28.8149580096926,24.45397396949625
0.85,31.22216464086408,131.0104418328609,16.023460355776475,-9.548556253934906,-0.0009339406756474,26.07854837480563,0.0017031439788112,4.900927211713501,292.96093233939376,29.121913843177,13.735836992070704,70.06502178745536,0.0017522488383411,113.70189484968236,518.6581536174425,15.288,0.0,8.485562124371585,0.0855942882152228,-3.9875587755800607e-08,0.0092724274252957,3.085510108725802e-05,-0.0007156519150544,9.548556299185432,19.578588459307248,29.12176714011873,26.535066907251068
0.86,31.22216414970958,131.0104431618292,16.311112266573065,-9.408139491645514,-0.000889688649379,32.522505273615586,0.0017185533516998,4.9210293215255145,346.2265619465587,29.398865508038668,13.87910057767818,70.07043405230476,0.0018014012976609,113.70194785251677,528.5554187722116,15.288,0.0,8.510773283555208,0.0864085769952084,-4.3143059001967744e-08,0.0096545776569888,3.081191579704445e-05,-0.0007522121365654,9.408139533333811,19.37983749589911,29.39872575607243,32.89270256164873
0.87,31.22216365338832,131.01044450474183,16.60140609093858,-9.27446904348112,-0.0008463762246832,30.314159823069385,0.0017331233662207,4.94043022206762,327.964078366998,29.660940749520915,14.017188889176309,70.07606651411389,0.0018505299463574,113.70200083715484,538.006002926654,15.288,0.0,8.535850980942222,0.0871791490226453,-4.653594115977428e-08,0.0100414055843654,3.076934974874428e-05,-0.0007893030975956,9.274469081762806,19.193537835417068,29.66080780105444,30.714103268066122
0.88,31.22216315193176,131.01044586151323,16.89431674060855,-9.136598834428,-0.0008029996811378,26.26231568005222,0.0017484559646367,4.9610126994705634,294.4828134710418,29.942392434577474,14.161926553698708,70.08192178209283,0.0018996373926281,113.70205380625777,548.2492645664269,15.288,0.0,8.560789299000966,0.0880066799387,-5.0055147413390815e-08,0.0104328136326745,3.072746438768404e-05,-0.0008278279913065,9.136598869415524,18.99840520124006,29.94226629968252,26.72678197875912
0.89,31.222162645416503,131.01044723193496,17.189783989394908,-8.994826098762482,-0.0007596490703763,28.749695855875355,0.0017645456161939,4.982786181252906,315.028134248087,30.24335494626388,14.313339002481172,70.08800246261396,0.0019487274198055,113.70210676405804,559.3101115625498,15.288,0.0,8.585558293121114,0.0888915653010482,-5.370157842964012e-08,0.0108286999906197,3.068632164304352e-05,-0.0008678529100252,8.994826130576195,18.79492439645518,30.243235620866944,29.178299694242686
0.9,31.22216213376485,131.01044861621813,17.487867838679247,-8.870457669042393,-0.0007180794724112,31.699077422514744,0.0017780744202055,5.001817833152344,339.37814235421445,30.492506874132275,14.446839142117785,70.09431120815732,0.0019978111501105,113.7021597254332,568.5472530198707,15.288,0.0,8.610190316928515,0.0896241765270418,-5.747606587703038e-08,0.011229227624832,3.0645961093625924e-05,-0.0009073407550352,8.870457697874697,18.625177072924693,30.49239407847252,32.09127130912974
0.91,31.222161617043124,131.01045001418242,17.788516469710263,-8.74196036672544,-0.0006764729502518,24.232527082639127,0.0017923555439524,5.0220356428466415,277.7421810230789,30.76113938455307,14.587007319884174,70.100850612941,0.0020468747186718,113.70221266937948,578.5922335379179,15.288,0.0,8.634685785674877,0.0904140532029875,-6.137944307367666e-08,0.011634248052593,3.0606451602466724e-05,-0.0009483215053938,8.74196039269553,18.446702707181117,30.76103312443053,24.747448636604933
0.92,31.222161095446094,131.01045142529793,18.09157777897752,-8.609697228648596,-0.0006349263110455,28.749758342447564,0.0018073755024721,5.043445714158474,315.02813424806214,31.049202579088195,14.733800311699444,70.10762310818033,0.0020959382170092,113.70226562307896,589.4622881422894,15.288,0.0,8.659033192801822,0.0912610491602006,-6.541258686386091e-08,0.0120434056567324,3.056787727093644e-05,-0.0009908364794902,8.609697251883599,18.26006089339573,31.04910284509648,29.18878128129715
0.93,31.222160568881968,131.01045284981427,18.397123328746865,-8.49269476599671,-0.0005948088776424,34.09950850641622,0.0018199836998034,5.06223704552387,359.1625070654728,31.288299315831285,14.86368544685313,70.11463127772959,0.0021449878591899,113.70231856578556,598.5580754273449,15.288,0.0,8.683245162505582,0.0919641288397233,-6.95761471219195e-08,0.0124569136169482,3.0530277386393234e-05,-0.0010327183351312,8.492694786673464,18.1035405572952,31.28820588347127,34.473217540528
0.94,31.22216003724065,131.0104542880308,18.70523939430227,-8.36557722549051,-0.0005542872911401,24.87365625100088,0.001834375561728,5.083504995179957,283.0687504837787,31.56980533059396,15.008101901144634,70.12187743904806,0.0021940452359505,113.70237152715434,609.3591478152173,15.288,0.0,8.707321494753872,0.0927918679531377,-7.387071951116195e-08,0.0128748766000099,3.0493703727401823e-05,-0.0010769402394687,8.365577243722829,17.926057579068505,31.569718263349877,25.38780813094956
0.95,31.222159500802643,131.01045573918464,19.015707055306034,-8.242030692525729,-0.0005143548079506,32.071084837257395,0.001848271680545,5.104483793662553,342.4218736174873,31.844158880643576,15.14998267508059,70.12936415380629,0.0022431026292672,113.70242449447188,619.9778041335626,15.288,0.0,8.731252591342383,0.0935985922798322,-7.82971980359243e-08,0.0132968502935524,3.0458246626802208e-05,-0.0011218692300413,8.24203070846433,17.755212424001925,31.84407808597928,32.474763137772584
0.96,31.22215895927852,131.0104572040628,19.328752809166165,-8.126664988596875,-0.0004752308697801,31.425034306969145,0.0018608189182405,5.124121355667783,337.09533515678345,32.09259656267577,15.282904579836591,70.1370938543858,0.0022921666849824,113.702477476258,629.6703345090317,15.288,0.0,8.755057333251228,0.0943291509944862,-8.285597378183169e-08,0.0137233435906335,3.0423933320687333e-05,-0.0011668510228143,8.126665002398834,17.60059146725062,32.09252191358531,31.840059741219793
0.97,31.222158412685385,131.01045868261875,19.644363826201964,-8.009888275455689,-0.0004363134924343,20.25084193379973,0.0018736776184995,5.144466402573306,245.02188719299323,32.35165107549166,15.419411921523078,70.14506903177578,0.002341241300287,113.70253047663256,639.8574852558024,15.288,0.0,8.778733477646297,0.0950909235804351,-8.754770831401995e-08,0.0141543031601763,3.0390832633960334e-05,-0.0012131720498502,8.009888287261553,17.44260453990276,32.351582539528536,20.89406942425565
0.98,31.222157861302232,131.0104601740937,19.96232254539864,-7.884193679641138,-0.0003972738507182,29.3001828432279,0.0018882567084571,5.167306958239128,319.5937466429581,32.652779243298816,15.570261904587309,70.15329208920221,0.002390336567098,113.70258350811494,651.8045632583684,15.288,0.0,8.802265073209115,0.0959763713005449,-9.237327102066537e-08,0.0145891892725359,3.03590404314538e-05,-0.0012620469193249,7.8841936895869,17.265517192069577,32.65271683966827,29.752340738381687
0.99,31.222157304982066,131.0104616788874,20.282744513136933,-7.778163761530202,-0.0003595367923742,31.978696081106623,0.0018992654008814,5.185978936340487,341.6609485517054,32.87862582474222,15.695234736094386,70.16176558732859,0.0024394406155294,113.70263655250396,660.8319651588178,15.288,0.0,8.825670122787825,0.0966405519689442,-9.733306834085112e-08,0.0150283458166781,3.032860232782514e-05,-0.0013089879914799,7.778163769788683,17.128914211099122,32.878569348834944,32.39647178603189
1.0,31.222156743721943,131.0104631970078,20.60563314602429,-7.663506643581741,-0.0003216882383566,28.650977104646014,0.0019119329275445,5.207085987844096,314.2672081822764,33.14544583952052,15.834171230257883,70.17049169489972,0.0024885763543788,113.70268964086848,671.5803619831045,15.288,0.0,8.848941636706348,0.0974251743085512,-1.0242759954622521e-07,0.0154716686099357,3.0299592486715528e-05,-0.0013584960366949,7.663506650293096,16.97380738366914,33.145395308850205,29.120306268843393
1.01,31.222156177695275,131.0104647279834,20.930853606451112,-7.552189794934621,-0.0002843076790693,29.943798864506544,0.0019240149202676,5.227782246986528,324.9203161036979,33.40335918206977,15.969970275124064,70.17947287368187,0.0025377304963201,113.70274275243588,682.0512026765025,15.288,0.0,8.87207641454732,0.0981836252677258,-1.0765753343070253e-07,0.0159188729324998,3.0272092089224414e-05,-0.0014085953477492,7.552189800255097,16.825251228905667,33.403314523123974,30.396723530041264
1.02,31.222155606826195,131.01046627202047,21.258466466908857,-7.445010848440066,-0.0002473848246632,25.041136579602888,0.0019353196798289,5.247814609922151,284.59063161540416,33.64803635246409,16.10115908519739,70.18871129356639,0.0025869264401385,113.70279591896312,692.0579713057916,15.288,0.0,8.895080239025495,0.0989031787930162,-1.1302318846772425e-07,0.0163700757661992,3.024616555639281e-05,-0.0014590848168545,7.445010852526994,16.685058832072542,33.6479974933467,25.58511448330651
1.03,31.22215503117955,131.01046782894264,21.58842232081838,-7.332708570766307,-0.0002106152753789,20.50559165509413,0.0019476834534998,5.269570572304841,247.30469339049705,33.921018106619144,16.24192954467257,70.19820922495258,0.0026361517031581,113.70284912087872,703.3103684407943,15.288,0.0,8.917949032986037,0.0997059375130293,-1.1852503392367025e-07,0.016825112749372,3.022189065642784e-05,-0.001511761296336,7.332708573774473,16.53342462897158,33.92098502324905,21.17186026156979
1.04,31.222154450813203,131.0104693985926,21.920677063410498,-7.228229937830781,-0.0001743938775631,32.43781225912725,0.0019584934914875,5.289652447214899,345.46563688072297,34.16327775505994,16.372108663815954,70.20796891274183,0.0026854184323408,113.70290237362232,713.3693840897843,15.288,0.0,8.94068616916381,0.1004184012848764,-1.241634882405177e-07,0.017283905203508,3.0199341567118512e-05,-0.0015640257840216,7.2282299399233825,16.398171259959284,34.16325036133371,32.86627589195967
1.05,31.222153865452142,131.01047098171838,22.25544818060715,-7.119994911332485,-0.0001383832662404,19.66426827535529,0.0019700975848663,5.311136087457542,240.45625879819983,34.42825396065765,16.509955928144198,70.21799249218982,0.0027347406710175,113.70295569574236,724.4550329235847,15.288,0.0,8.963304306485385,0.1011976458163896,-1.2993852168115228e-07,0.0177469164633067,3.01785817901634e-05,-0.0016183275928879,7.119994912670314,16.254322670005845,34.42823222346502,20.36888846319118
1.06,31.22215327532301,131.01047257770358,22.59255934795403,-7.008941177856777,-0.0001026752493299,27.89940490854217,0.0019823437530052,5.333870731986187,308.17968365593924,34.712818074399046,16.654373423149313,70.22828235514324,0.0027841059979787,113.70300906736594,736.4565347204301,15.288,0.0,8.985793907026618,0.1020344754113356,-1.3585082427499114e-07,0.0182136969841306,3.01597009527882e-05,-0.001674566708611,7.00894117860508,16.103736702063806,34.71280194620859,28.404699878118983
1.07,31.222152680313435,131.01047418685383,22.932100405678973,-6.90935749305986,-6.74550948902949e-05,32.80514691948295,0.0019921496290322,5.3537339039680525,348.5093681440308,34.94624649544837,16.781263383603626,70.23884080961759,0.0028335283667831,113.70306250656004,746.3701868098493,15.288,0.0,9.008168034913597,0.1027210059271403,-1.419005271945933e-07,0.0186845108021908,3.0142773415896628e-05,-0.0017293487217427,6.909357493387566,15.97789488593182,34.94623589962684,33.23913559483788
1.08,31.222152080326413,131.01047580943307,23.27414967175377,-6.809001871942687,-3.2502135441659266e-05,22.151254592729327,0.0020021016459732,5.374174823177227,261.00157857466235,35.18792444108511,16.910875232639686,70.24967000962123,0.0028830238421021,113.70311603430363,756.7043742897681,15.288,0.0,9.030428208402586,0.1034317933806483,-1.4808778891003152e-07,0.019159462578064,3.012788320675169e-05,-0.0017855129924279,6.809001872019872,15.849997747720034,35.18791933566161,22.793855291950834
1.09,31.22215147562476,131.01047744472655,23.618502552007705,-6.6996455945805815,2.1436022005908284e-06,20.386184063690983,0.0020140709171249,5.397753672278524,246.54375332474407,35.481629569351355,17.058073266672444,70.26077224558792,0.0029325774961625,113.70316962693867,769.3637027152059,15.288,0.0,9.052561336468177,0.1042955189287012,-1.5441332044698928e-07,0.0196379872775953,3.011512081493429e-05,-0.0018453222061566,6.69964559458089,15.701481713477738,35.4816299060676,21.08867585795197
1.1,31.22215086628044,131.0104790925387,23.965104389078263,-6.597075645420953,3.641427406954504e-05,40.67957027602643,0.002024539250551,5.41970956842412,413.1890617385841,35.745863295359634,17.195117510274386,70.27214964741383,0.0029822052665367,113.70322330489726,780.8393650025558,15.288,0.0,9.074571848568825,0.1050726246027697,-1.6087737045608098e-07,0.020119989323646,3.010456933653552e-05,-0.0019046305820306,6.597075645521012,15.567605059577966,35.74586901530043,41.03901428819898
1.11,31.22215025190967,131.01048075391338,24.314259648877503,-6.506251509299887,7.047840981405689e-05,29.832633825477654,0.0020322614507936,5.438278325946271,324.1593910376397,35.95108865861718,17.31201789329377,70.2838043742145,0.0030319213383689,113.70327708668924,789.8045767136742,15.288,0.0,9.096480906148985,0.1056762875056142,-1.674794414054611e-07,0.0206062159105932,3.009631927225837e-05,-0.0019617919311909,6.506251509679922,15.459993966442472,35.95109972933991,30.324262831033124
1.12,31.22214963257263,131.01048242868697,24.665923796659094,-6.397403820983191,0.0001040284607819,11.375294356807911,0.002044185564722,5.463127184849009,172.73281794065943,36.260849438992885,17.46430144066162,70.29573854065949,0.0030817202775922,113.70333096225508,803.4462550499057,15.288,0.0,9.11827901013646,0.1065872356203674,-1.742198783026164e-07,0.0210964255679176,3.00904674687323e-05,-0.0020256986230683,6.397403821825461,15.310789052829245,36.260865779745295,12.619155459877527
1.13,31.222149008831124,131.01048411533162,25.01965587264556,-6.300308770764763,0.0001373721583065,35.1147680071439,0.0020533268117254,5.484520443955479,367.5328077900705,36.51073129290717,17.59611483211194,70.30795447197298,0.003131612451592,113.70338494318447,814.530198992387,15.288,0.0,9.139951733137474,0.1073221811975124,-1.8109983506700217e-07,0.0215895689797755,3.008709135155696e-05,-0.0020872656635536,6.300308772256369,15.187974903125818,36.510752871275336,35.54049663288139
1.14,31.22214838005594,131.01048581555878,25.37595520655405,-6.211545383702894,0.0001706338731692,19.525160313521194,0.0020603769591487,5.503380655679443,239.69531773195544,36.716583365843086,17.7129033484973,70.3204540875754,0.0031816044461449,113.7034390373425,823.7127458547,15.288,0.0,9.16152799498299,0.10792771105585,-1.8811808510504085e-07,0.0220868611502495,3.0086307080966703e-05,-0.002147309392069,6.211545386037432,15.084174107003047,36.7166101689492,20.2859332581758
1.15,31.2221477467099,131.01048752810988,25.734459622352176,-6.10521955038978,0.0002030631013643,19.240387413076903,0.0020717308471972,5.5288203272714656,237.41251153546767,37.03141771941591,17.866465737103063,70.33323925921124,0.0032317030449754,113.70349325125328,837.8706647443116,15.288,0.0,9.182981617361822,0.1088536011609453,-1.9527566498275082e-07,0.0225872287828317,3.008819203732872e-05,-0.0022147091252594,6.105219553754003,14.9388527286938,37.03144961649328,20.019000132589216
1.16,31.22214710892325,131.01048925263063,26.095068519585823,-6.0203109320716575,0.0002358541565615,50.056874404042674,0.0020776706991407,5.546929050881403,490.0437743845894,37.22230204249372,17.977926536115305,70.3463121228266,0.0032819152967451,113.70354759219056,846.5014790902635,15.288,0.0,9.204321841629229,0.1094151496105781,-2.0257267154245946e-07,0.0230905321585419,3.0092834232005323e-05,-0.0022756503405812,6.020310936674624,14.843481197149345,37.222339090378,50.36327135238864
1.17,31.222146465872605,131.0104909913609,26.45843668534824,-5.926823214648096,0.0002680710098309,9.013848992860954,0.002085695080712,5.568498175837419,153.70937929486794,37.46971195494421,18.108412805338272,70.35967442544846,0.0033322483551523,113.70360206888984,857.7620215370789,15.288,0.0,9.225577011547449,0.1101428640012973,-2.100073154848977e-07,0.0235983252819703,3.01003964798856e-05,-0.0023410718349902,5.92682322068892,14.727510023681768,37.46975406343997,10.595171067544358
1.18,31.22214581864652,131.01049274133996,26.823706076449486,-5.8219442380850985,0.0002993445951022,24.423503588704573,0.0020966714938647,5.594880975341915,280.02501822196746,37.79575520578933,18.265281769817086,70.37332809074016,0.0033827096570694,113.70365668767228,872.7240032450502,15.288,0.0,9.246700976417277,0.1111017317473022,-2.1758203919769665e-07,0.0241082578237721,3.0110891667718663e-05,-0.0024123861071031,5.821944245754222,14.583579470317996,37.79580222672837,25.05614146415484
1.19,31.22214516675604,131.01049450389792,27.191266593102448,-5.745473734741287,0.0003317652789851,42.536671268011965,0.0021000542647396,5.610519101873847,428.4078130529292,37.94272388853111,18.361548887312725,70.38727510549765,0.0034333068690856,113.70371145733688,879.4933146133591,15.288,0.0,9.267696109949886,0.1115342131657766,-2.252952768356383e-07,0.0246215223366619,3.012447245896967e-05,-0.0024732387183638,5.745473744287859,14.507939427219338,37.94277600209927,42.9050851480991
1.2,31.22214450978388,131.01049628017003,27.56145341989836,-5.648161239651394,0.0003627344702985,4.524850804860185,0.0021088992931091,5.634753417489045,117.1843741360236,38.23069735043882,18.505274254435484,70.40151698271929,0.0034840477395394,113.7037663866651,892.8623857206486,15.288,0.0,9.288598169187331,0.1123811926308053,-2.331460596976205e-07,0.0251387329342322,3.014129364176235e-05,-0.0025442676137842,5.648161251261337,14.381332122804949,38.23075432863617,7.226667650418453
1.21,31.222143848817414,131.01049806719877,27.933407381651115,-5.553117094755891,0.0003934085925554,34.16941205465517,0.0021171023902027,5.658536942831448,359.92343213200894,38.51018723955489,18.645932582691607,70.41605566578565,0.0035349404075485,113.70382148271509,905.932479741223,15.288,0.0,9.3093719820212,0.1132032434095543,-2.411368492790434e-07,0.0256576048556742,3.016132937335806e-05,-0.0026156727659182,5.553117108647757,14.259592064123373,38.5102490360321,34.63477681429931
1.22,31.22214318303208,131.01049986722722,28.30778657785064,-5.477142092567992,0.0004251604851159,24.774903831600504,0.0021198913535423,5.674578038065555,283.0687504825761,38.66178326330752,18.74339255449464,70.43089276567915,0.0035859931219191,113.70387675536952,913.046118628588,15.288,0.0,9.33006021504907,0.1136493501451605,-2.492649457986213e-07,0.0261799683624742,3.018480795084544e-05,-0.0026793351902574,5.477142109019129,14.184850688612126,38.66185004736035,25.416465141106634
