Time,Latitude,Longitude,Altitude,Angle of Attack,Angle of Sideslip,X-Acceleration,Y-Acceleration,Z-Acceleration,Thrust,True Velocity,Ground Velocity,Pitch,Roll,Yaw,Dynamic Pressure,cp,parachute_deploy_gain,Wind Speed,Mach,omega_x,omega_y,omega_z,Cmq,Angle of Attack(total),Angle of Attack(gust),True Velocity(gust),Acceleration
0.0,31.222216000000007,131.010392,3.000000004412624,0.0,0.0,0.0,0.0,0.0,2.2828121974499247,0.0,0.0,71.99999999612658,-1.0292491154817412e-14,119.99999999354436,0.0,15.288,0,0.0,0.0,0.0,0.0,0.0,-0.0,0.0,90.0,0.0,0.0
0.01,31.22221599999862,131.01039200000284,3.0000009727369523,0.0,0.0,0.0,0.0,0.0,34.24218696174923,5.916279387578309e-11,5.734623670548936e-11,71.99999999613168,-5.86671995824671e-13,119.9999999935449,2.1432944861733093e-21,15.288,0,0.0,1.7386402909615473e-13,-3.4220131069073734e-19,7.115076756936125e-19,5.488773498207866e-19,-1.1574302492039043e-31,0.0,89.99999999962336,5.916279387578309e-11,0.0
0.02,31.22221599999738,131.01039200000537,3.0000018317022668,0.0,0.0,0.0,0.0,0.0,25.871876237766408,1.2265415415436536e-10,1.1895038237325684e-10,71.9999999961369,-1.1836364828043265e-12,119.99999999354544,9.211895886571454e-21,15.288,0,0.0,3.6044858651615574e-13,-6.979551485375437e-19,1.4162390878091906e-18,1.0909784360635388e-18,-4.776231873571785e-31,0.0,89.99999999921916,1.2265415415436536e-10,0.0
0.03,31.22221599921969,131.01039200159065,3.0001883335529382,18.80143492628821,-0.0001350810307892,10.931161642028636,-1.75114298675875e-05,3.026590975169265,180.34219359854663,0.0798232026864394,0.0478175828508887,71.99999999765336,-5.341802909786072e-12,119.99999999436793,0.0039016003969354,15.288,0,0.0,0.0002345795854893,3.788270153300133e-17,-7.771883375645477e-10,1.1422790048099072e-11,1.7057759223764537e-13,18.80143492675591,89.51882325913425,0.079801984207741,11.342422482672777
0.04,31.222215995131297,131.01039200995308,3.001692634342189,9.19442604083399,-4.49173898918486e-05,52.29595764159784,6.445392950801871e-06,3.026413589912948,548.6359724538078,0.3504174083926908,0.1601447499964056,72.00000000319055,-3.111420077280171e-11,119.99999999870242,0.0751892535633216,15.288,0,0.0,0.0010297854387864,2.0082066977226968e-15,-1.520937588847922e-08,2.5623342884322286e-11,1.4654248781413086e-11,9.19442604094277,87.798916624545,0.3504103527855857,52.383455068075136
0.05,31.222215983575865,131.01039203366796,3.0074067499493786,5.158590039700252,1.707592688632746e-06,76.26884281015512,5.843947534199429e-05,3.0258124765658088,761.6984298824644,0.9592973585397016,0.3772700771701255,72.0000000004862,-1.3608731808076822e-10,120.0000000109612,0.5634958029902841,15.288,0,0.0,0.0028191251099456,2.086299069701397e-14,-1.0551247853743037e-07,3.973493515691201e-11,2.783064866637575e-10,5.158590039700515,83.94063169874748,0.959297626767734,76.32884071402438
0.06,31.222215961742712,131.0103920785344,3.019291017943491,4.109521257467909,3.140103977270004e-05,57.06876634333886,0.0001151069734147,3.024834864051463,590.4875390737208,1.6257536642597354,0.6118982818704327,71.99999992547217,-3.5903296759057166e-10,120.00000003412836,1.6184272268450337,15.288,0,0.0,0.0047776672697797,1.0694899894620088e-13,-3.741090980393931e-07,5.521401959501359e-11,1.6723176417636091e-09,4.109521257587776,79.78719176344794,1.6257585967235286,57.148873286519276
0.07,31.222215929936205,131.01039214392435,3.0371334573469446,3.649087515174788,5.707077112564807e-05,86.89643797254193,0.0001728541558773,3.0234947746384675,855.2937749779139,2.3057260079826607,0.8506307413593818,71.99999965378231,-6.907496536790437e-10,120.00000006788592,3.255354923652711,15.288,0,0.0,0.0067759305364855,3.495199904512709e-13,-9.036515915819006e-07,7.594816279105379e-11,5.728932851326001e-09,3.6490875156204896,75.6601668283889,2.305734972638426,86.94902215090157
0.08,31.222215886364623,131.01039223353447,3.0621840248716574,3.4254446680114707,8.413075603463509e-05,17.831756866644035,0.0002285946601282,3.021841001032126,241.2171988638848,2.961944911520492,1.0819695676346892,71.99999900671328,-1.141745983122182e-09,120.00000011415082,5.371998197385977,15.288,0,0.0,0.0087043901031071,8.800530155962314e-13,-1.829098470920821e-06,1.0943386634701918e-10,1.4896287129277132e-08,3.4254446690434226,71.81713637501419,2.9619581267487467,18.085991154451033
0.09,31.22221583454733,131.01039234010327,3.0919888289029,3.389560809024919,0.0001118726864415,54.09031716446879,0.0002748660999733,3.020060228038602,563.0937377043176,3.504225426410036,1.2780161667917422,71.99999774508822,-1.634190085504106e-09,120.00000016921716,7.519080503822694,15.288,0,0.0,0.0102980157586766,1.865782139518716e-12,-3.1503298654458527e-06,1.6284478329871028e-10,3.03536411425607e-08,3.389560810868955,68.76526501308032,3.504242999330529,54.17456206384468
0.1,31.22221577423132,131.0103924641528,3.1267248829165366,3.4447939461814814,0.0001419149103147,51.372195336549765,0.0003131602029306,3.0182021883815127,538.7437595981919,3.950569597142709,1.4443465951180965,71.99999562056465,-2.1287748602259068e-09,120.00000023339832,9.55649523509932,15.288,0,0.0,0.0116097108366932,3.485956000178229e-12,-4.949356763187612e-06,2.4573266549165286e-10,5.3761299442583966e-08,3.444793949101151,66.34639928474206,3.9505918890846927,51.460781166288626
0.11,31.222215706113143,131.01039260424562,3.165907002780892,3.4691423802630394,0.0001702373452339,40.591037561894986,0.0003534470100582,3.016051659024047,442.8656393052949,4.421478635995476,1.6182620895289603,71.99999235067894,-2.5564479031457968e-09,120.00000030601664,11.970509656144712,15.288,0,0.0,0.0129935974697161,5.942887149865172e-12,-7.273722517324353e-06,3.67769289312894e-10,8.842679949465076e-08,3.4691423844348632,63.88798785789768,4.421505376815134,40.70293476011277
0.12,31.222215630588888,131.0103927595646,3.2092596514826863,3.4852659299808075,0.0001974376474727,44.30042894095728,0.000394069215595,3.013641598889868,475.58594813540446,4.896982486381051,1.793579340340896,71.99998761802138,-2.8337988279882726e-09,120.00000038673312,14.683611096353944,15.288,0,0.0,0.0143909889875706,9.464337642181618e-12,-1.017558359402848e-05,5.395790443954697e-10,1.3700793350599625e-07,3.4852659355662303,61.5068242157714,4.897013499814194,44.40281567867803
0.13,31.222215548046687,131.0103929293088,3.256512891171917,3.5606043721293616,0.0002276507019012,48.86766833507025,0.0004268800875964,3.0112558910133567,515.9156326236895,5.278566579338586,1.939796541405244,71.99998107389406,-2.8573058577484587e-09,120.00000047523812,17.061052093156064,15.288,0,0.0,0.0155123760833565,1.4300406003001044e-11,-1.3705268062305584e-05,7.724776992181392e-10,1.989112774124932e-07,3.560604379397528,59.67313531776262,5.27860233862722,48.960358155653
0.14,31.222215458587108,131.01039311327068,3.30759734332425,3.6000732663755977,0.0002555702913645,45.540290862247225,0.0004629468001456,3.0085404980032777,486.2390860568404,5.70011779273801,2.098362647205908,71.99997235012626,-2.508533681468686e-09,120.00000057154703,19.894788765881632,15.288,0,0.0,0.0167512184495524,2.071534240530911e-11,-1.7917736259613292e-05,1.0787346240473087e-09,2.8081526258393346e-07,3.6000732754351943,57.72385750323359,5.700157937625502,45.639559681930805
0.15,31.222215362317904,131.01039331122794,3.3624387479639086,3.651605404442164,0.0002842753491325,44.01308509501,0.0004965057129938,3.005703619811542,472.54218587214,6.091938849578711,2.2476968067377374,71.99996103728932,-1.6446954747148112e-09,120.00000067569304,22.723773683610247,15.288,0,0.0,0.0179026934683374,2.9002783512213203e-11,-2.287326399669318e-05,1.47199345427166e-09,3.831202693354572e-07,3.651605415492516,55.98561718911576,6.091983503446133,44.115597174664394
0.16,31.22221525912812,131.01039352340948,3.421115382839859,3.67540086436193,0.0003108411545024,34.83804992586084,0.0005330990866742,3.002517946501868,391.1218908297564,6.521183188362317,2.4085903880902046,71.99994669525161,-1.0153513453738144e-10,120.00000078796704,26.03872642002185,15.288,0,0.0,0.019164148528834,3.9478358970291335e-11,-2.864207894220033e-05,1.9677461746207517e-09,5.135466997084602e-07,3.6754008774883777,54.15946979122355,6.521232015176687,34.96719658394182
0.17,31.2222151493826,131.01039374906244,3.4833737923187487,3.7139589864597298,0.0003384978477213,43.96471427482637,0.0005668629535037,2.999235483723449,471.78125980632376,6.916861975403744,2.559060925010733,71.99992884100092,2.3206494032971838e-09,120.0000009081849,29.29426197817256,15.288,0,0.0,0.0203269651395979,5.248754693205839e-11,-3.5267097947693114e-05,2.580363454062817e-09,6.706952682968329e-07,3.713959001863866,52.549031795895466,6.916915146521327,44.06689817851128
0.18,31.22221503253009,131.01039398932429,3.549599475912623,3.7380363034619775,0.0003650282082698,36.67395661481795,0.0006021794701355,2.9956556354306425,407.10156721191447,7.332140201215607,2.71556808256092,71.99990696207136,5.837017536380516e-09,120.00000103716444,32.917216366714264,15.288,0,0.0,0.0215473823438242,6.839750892601699e-11,-4.285557247677198e-05,3.331016495775474e-09,8.639362741436378e-07,3.738036321259578,50.93050624815799,7.332197539712479,36.796100973258795
0.19,31.22221490871209,131.01039424390297,3.619694897703461,3.747799769666444,0.0003901520189829,41.42208371271829,0.0006393759928961,2.991742733214697,448.9531328318269,7.771071983754382,2.879366399937307,71.99988049019642,1.0709144790974043e-08,120.00000117502664,36.97605053227239,15.288,0,0.0,0.0228373144884866,8.761416506509219e-11,-5.146771415177372e-05,4.238406957677133e-09,1.0996552116864756e-06,3.747799789945131,49.29705748437159,7.771133268690212,41.529983675580546
0.2,31.22221477769685,131.01039451327668,3.693822889232993,3.7700519460961166,0.0004166800650969,37.99697972290605,0.0006740224661302,2.987733789228414,418.51563019916136,8.179966026035371,3.0338260708461373,71.99984881140107,1.723179577184912e-08,120.0000013223286,40.969302182777255,15.288,0,0.0,0.024038975990988,1.1057590044953188e-10,-6.120032215177249e-05,5.3263847350253015e-09,1.376394225587184e-06,3.7700519690893857,47.8457752505109,8.180031477986942,38.11426270718793
0.21,31.222214639876928,131.01039479663547,3.771710975053407,3.7926098867321474,0.0004432924407074,36.46301043881366,0.0007080907240332,2.983530483977461,404.8187610144644,8.582757448615462,3.1863584283669346,71.99981127559042,2.5745201416596626e-08,120.00000147900325,45.103059028532826,15.288,0,0.0,0.0252227064089584,1.3774582723633048e-10,-7.20875523136271e-05,6.61341033873124e-09,1.7010673350603349e-06,3.792609912601061,46.47936953648762,8.582827080829217,36.584868250565684
0.22,31.22221449507626,131.01039509434258,3.8534832466471007,3.782921298925821,0.0004660920499522,44.14577847155813,0.0007479176313898,2.978724032883548,472.5421858721365,9.056569122268344,3.360845972992861,71.99976720416048,3.661811567390422e-08,120.00000164562512,50.21995530074818,15.288,0,0.0,0.0266151520780326,1.6960703048385348e-10,-8.421592474264931e-05,8.124635526119773e-09,2.0969540034515424e-06,3.7829213275976334,44.9464484092354,9.056642335836344,44.24615863872642
0.23,31.22221434283448,131.01039540734791,3.9394622486964206,3.813874679301352,0.0004940771488601,36.66675459308932,0.000779455230549,2.974212905336642,406.3406421461021,9.430647902846331,3.5044030163419806,71.99971583979395,5.0272885112871524e-08,120.00000182313076,54.45382429059888,15.288,0,0.0,0.0277145095638672,2.0669790509245914e-10,-9.77285871729516e-05,9.894576563683824e-09,2.5339062472561444e-06,3.813874711257219,43.79476959007253,9.430725512303388,36.78718303164376
0.24,31.222214184153326,131.01039573358457,4.028950821673608,3.829256049377765,0.0005200487408944,37.802126339316736,0.0008136255607606,2.9692962675112065,416.2328240017114,9.837806876534357,3.658163422426286,71.9996564062533,6.718950080713476e-08,120.0000020109434,59.25679777340223,15.288,0,0.0,0.0289110855155543,2.4956955046738006e-10,-0.0001125744417092,1.1934277804843484e-08,3.0448209172448607e-06,3.829256084638984,42.59361542722471,9.83788856559955,37.91856374864305
0.25,31.22221401888584,131.01039607335582,4.122052964664892,3.851417709838087,0.0005469594058717,38.85163035360012,0.0008459008130282,2.964283881833675,425.36408079150686,10.22297576958679,3.8050691648373967,71.99958811418384,8.786880969336211e-08,120.00000220974424,63.98709205399403,15.288,0,0.0,0.0300430411774988,2.987811646313829e-10,-0.0001288461362054,1.4273117985167728e-08,3.621333387698252e-06,3.8514177486178034,41.50703126619192,10.223061685769354,38.96455005232871
0.26,31.222213847358866,131.0103964259872,4.218542267117083,3.8780574625554745,0.0005745172425185,42.3164797140743,0.0008766626387865,2.959162938653076,455.8015834241788,10.590779679138215,3.946551912391076,71.99951013710364,1.1286401474734325e-07,120.00000241975916,68.67355887153568,15.288,0,0.0,0.0311239685467471,3.5491769188178554e-10,-0.0001465721578858,1.6932703957058654e-08,4.267712643344226e-06,3.8780575050466,40.51245375834074,10.590869924095635,42.41981967733593
0.27,31.22221366913008,131.0103967923915,4.318728802515264,3.886188503202341,0.0005994342651313,38.70936050721014,0.0009111181036949,2.953518013741325,423.84219965987256,11.004860953238978,4.102320296019413,71.99942161756776,1.4276417094868828e-07,120.0000026420792,74.14786134434608,15.288,0,0.0,0.0323408987462391,4.1858405402174807e-10,-0.0001658847815307,1.995072923688136e-08,5.018832267232506e-06,3.886188549362022,39.43841359495857,11.00495511215316,38.8218734782956
0.28,31.22221348431185,131.01039717233687,4.422535913956003,3.90556090261878,0.0006261175699806,44.68030766832924,0.0009425767186621,2.947879457547137,476.3468732012221,11.38358114165448,4.247086834352694,71.999321619057,1.7823531611327881e-07,120.000002877279,79.33831935330025,15.288,0,0.0,0.033453914386159,4.904408325040897e-10,-0.0001868529238516,2.3357766479368094e-08,5.847713054408178e-06,3.9055609527288775,38.49894431917428,11.383679491972384,44.77744842575601
0.29,31.222213292835256,131.0103975659655,4.530013412817602,3.9242599519377537,0.0006528240665589,35.802573724660256,0.0009737210635801,2.942037024315898,397.97031042211177,11.759725774384751,4.391004157029451,71.99920917567837,2.1999186079018322e-07,120.00000312617878,84.66717879828003,15.288,0,0.0,0.0345593650464213,5.711677680739745e-10,-0.0002095620322847,2.7188189988316943e-08,6.77505090435382e-06,3.9242600061534456,37.60352534239979,11.759828319749328,35.92324968749781
0.3,31.222213095024976,131.0103979726075,4.64093665799555,3.936939025755682,0.0006785438093183,33.570228713727204,0.0010059102294455,2.93586442972183,378.1859457108711,12.149968255527943,4.539237002744259,71.99908328532703,2.6880857935396905e-07,120.00000338923812,90.3787563598417,15.288,0,0.0,0.0357062504417728,6.614698865958865e-10,-0.0002340353597042,3.1467140861055e-08,7.817263716758327e-06,3.9369390841381695,36.71173884615234,12.150074840940263,33.698361337808635
0.31,31.22221289105846,131.01039839189684,4.755183729044857,3.9598342215431432,0.0007060286581592,35.396825578217346,0.0010350810412898,2.9297385597941448,394.1656220930212,12.504537499407316,4.6763673222047455,71.99894291513503,3.255120771695107e-07,120.00000366712923,95.72967338626896,15.288,0,0.0,0.0367483036680869,7.620720834468404e-10,-0.0002603234137215,3.622454560346964e-08,8.948994505138873e-06,3.9598342843844345,35.934338386209795,12.504648402129598,35.5178635353378
0.32,31.222212681031937,131.01039882363492,4.872689374180126,3.985461429033668,0.0007340760463279,38.52097867048992,0.0010630242168685,2.9235095146848846,421.55939346242695,12.84534566718622,4.809181081594425,71.99878701464397,3.909756427278764e-07,120.0000039606604,101.01782231644016,15.288,0,0.0,0.0377499198995686,8.737098716736534e-10,-0.0002884807530145,4.1491545539590986e-08,1.0187112828155184e-05,3.98546149652875,35.21473736963424,12.845460975581933,38.631757748577954
0.33,31.22221246496604,131.01039926777932,4.9934410812554,4.010606629086,0.0007621365968788,38.18822026147908,0.0010905599149574,2.917102431053817,418.5156301991682,13.18247167592885,4.940798912752974,71.99861449732019,4.661299779655886e-07,120.000004270781,106.38859400029033,15.288,0,0.0,0.0387407190563976,9.971421990244511e-10,-0.0003185760672934,4.7302669734505256e-08,1.154498667827874e-05,4.010606701382261,34.52805863348922,13.182591392065536,38.299473293007864
0.34,31.222212242662028,131.01039972474007,5.117579377337869,4.019339771238816,0.0007871574969313,29.898022638335373,0.0011220389395318,2.910051232417875,345.46563688075645,13.569536737955724,5.0878303926024735,71.99842423285973,5.519675040347761e-07,120.0000045987411,112.72655675097128,15.288,0,0.0,0.0398782837956187,1.1331556132162459e-09,-0.0003507224668667,5.37022358302301e-08,1.308298593306914e-05,4.019339848191799,33.76700548046532,13.5696603843662,30.039310197084795
0.35,31.22221201433324,131.01040019407705,5.2449575244483055,4.033762873683395,0.000813261106463,32.76415525156106,0.0011515840876071,2.902959820469776,370.5765700527033,13.934300103976534,5.227895396154902,71.99821502296155,6.495674834876441e-07,120.000004945438,118.8669740701126,15.288,0,0.0,0.040950312688979,1.2825853697215452e-09,-0.0003849609961885,6.072234695821837e-08,1.4746020857580124e-05,4.033762955530055,33.07785186209504,13.934427850732408,32.89250745069162
0.36,31.22221177990305,131.01040067594835,5.375631006350063,4.051723629010647,0.0008401329464575,37.01692984301412,0.0011797030485285,2.8957873473716007,407.8625232777193,14.282998147928636,5.362923567977223,71.9979856440668,7.600645476620651e-07,120.00000531213882,124.88900300695136,15.288,0,0.0,0.0419751331662584,1.4462801652534363e-09,-0.0004213876232777,6.84067806399068e-08,1.654507199147348e-05,4.051723715967022,32.44322602189087,14.283130115703262,37.13002398000203
0.37,31.222211539445663,131.01040117020102,5.509550188388412,4.071639898917391,0.0008674922629137,35.12417761390579,0.0012067983861697,2.88849906286036,391.1218908297666,14.620581431527652,5.494447309446232,71.99773482653193,8.846681943540367e-07,120.00000570002652,130.86067091914967,15.288,0,0.0,0.0429672939311924,1.6251202388969355e-09,-0.0004600660652957,7.679415042686734e-08,1.849041957573993e-05,4.071639991174516,31.85023865502424,14.620717696893658,35.24274792557624
0.38,31.222211292895075,131.01040167697127,5.646763233102716,4.08264881385344,0.0008930259828975,36.695642158537446,0.0012360471443664,2.880711738179021,404.8187610144602,14.986392916850402,5.634654729559426,71.99746126698146,1.0246533537040716e-06,120.0000061105033,137.4891296153862,15.288,0,0.0,0.0440424171304414,1.8200057922063743e-09,-0.0005010869196581,8.592980519823866e-08,2.0642694281337543e-05,4.082648911356968,31.228847973200924,14.986533193043764,36.808540518115166
0.39,31.22221104018777,131.0104021963902,5.787316652586672,4.096641430700089,0.0009192713382325,31.335681548387896,0.0012640110027448,2.872831219844713,357.64062493382744,15.337978856701952,5.770390286512262,71.99716358743511,1.1813915463769678e-06,120.00000654506955,144.01394309468844,15.288,0,0.0,0.0450757388736732,2.031886352449547e-09,-0.00054455673306,9.586443829735616e-08,2.295945663566148e-05,4.096641533664766,30.65298398882095,15.338123255506089,31.4670954954126
0.4,31.222210781536543,131.01040272801887,5.931064331106764,4.109028969993624,0.0009451871856381,29.95928076777898,0.0012920492774571,2.8646905607053603,345.465636880754,15.692185018814769,5.906873567965718,71.99684037970908,1.3563276523471372e-06,120.00000700500496,150.74021066990193,15.288,0,0.0,0.0461167659598875,2.2617341782092324e-09,-0.0005905037520737,1.0663253249436129e-07,2.5471259834659164e-05,4.1090290785164525,30.09246700352443,15.692333488470696,30.095929256306363
0.41,31.222210517064383,131.01040327160345,6.077922766619747,4.122888296344507,0.0009714525997821,33.78425365340317,0.0013192264430821,2.85640971467756,378.94687077668647,16.03742529732769,6.0405139809190125,71.99649020751959,1.5509747261474075e-06,120.0000074917568,157.44375780268788,15.288,0,0.0,0.0471314487675864,2.5105374204052982e-09,-0.0006389770219162,1.1827345344180344e-07,2.816813594418537e-05,4.122888410595805,29.56469007160549,16.037577892745222,33.904791300285986
0.42,31.22221024682894,131.0104038270252,6.227854084363214,4.14444025865494,0.0009995884754813,38.04468161607466,0.0013435485656724,2.8482703202464488,416.2328240017114,16.348862540904037,6.163613566771559,71.99611159893284,1.766920641656551e-06,120.00000800692096,163.6157044470786,15.288,0,0.0,0.0480467946810589,2.779304965995011e-09,-0.0006900467934588,1.308321832549104e-07,3.100973487310896e-05,4.144440378988911,29.104646754454564,16.34901955589459,38.15115260238947
0.43,31.222209970843565,131.0104043942566,6.380851271439565,4.1618082623168045,0.0010268052928652,33.45815353250911,0.0013687230309017,2.8397750580998298,375.9031395134336,16.67263197205097,6.290467308135904,71.99570306121484,2.005818691215035e-06,120.00000855220898,170.15779512382937,15.288,0,0.0,0.0489983878509763,3.0690566816849196e-09,-0.0007437862329608,1.443552931671376e-07,3.4086145072160934e-05,4.161808388761201,28.640125213458976,16.672793262249197,33.57845085853367
0.44,31.22220968892116,131.01040497368373,6.537047157143216,4.164954087655709,0.0010505545842624,30.86574023822051,0.0013980747538988,2.830419582421933,353.0750125389216,17.050421620730056,6.433992917638883,71.99526304125902,2.269416145406482e-06,120.00000912964636,177.9537948947602,15.288,0,0.0,0.050108743779844,3.380847125286677e-09,-0.0008003278134917,1.589055036683518e-07,3.750784460406397e-05,4.164954219916419,28.113519280259386,17.050586641458253,30.99524475496968
0.45,31.22220940081287,131.01040556582012,6.696617751072218,4.165241899529329,0.0010735835484822,35.912216710755274,0.0014280646808282,2.820677244966047,397.2093853562869,17.438293672974723,6.580571293039616,71.99478987454265,2.5595995397253085e-06,120.00000974147088,186.13940823302417,15.288,0,0.0,0.0512487363629523,3.7158016249566814e-09,-0.000859850913876,1.745604864109677e-07,4.121350642664912e-05,4.1652420376426775,27.591357195572936,17.43846231108416,36.02281959036367
0.46,31.222209106468902,131.0104061707686,6.859600379555308,4.174585124444534,0.0010989881252456,41.916816790010685,0.0014546917035209,2.811153314474766,449.7140588976434,17.786187321601275,6.714685486378061,71.99428180697711,2.8783880229668832e-06,120.0000103898448,193.6374175079873,15.288,0,0.0,0.0522712438446989,4.0751091178509895e-09,-0.0009224765531151,1.9138630415982226e-07,4.50966024037632e-05,4.1745852688465686,27.13985967570823,17.786359950252297,42.01097612387663
0.47,31.22220880579083,131.01040678873238,7.026066274755745,4.1823089530633855,0.0011240727220223,28.37640408484148,0.0014814747534716,2.801325368441072,331.0078106302534,18.138167428286582,6.849989708801916,71.99373704967608,3.2278903746588286e-06,120.00001107707628,201.37401505997488,15.288,0,0.0,0.0533057667609836,4.459978104761035e-09,-0.0009883252835099,2.094509673354327e-07,4.927107017839778e-05,4.182309103852639,26.69716826759888,18.13834399721685,28.514342615617974
0.48,31.222208499300592,131.0104074186346,7.195654207463586,4.189479568102716,0.0011490100608361,27.95074823096412,0.0015080719422187,2.7912412472910484,327.2031223011574,18.48995085190441,6.98515976370584,71.99315377257649,3.6103201777021456e-06,120.00001180491516,209.25751230436188,15.288,0,0.0,0.0543397174489847,4.8716620260348906e-09,-0.0010573190976925,2.2877013380347535e-07,5.373205427420879e-05,4.189479725385959,26.268461765425428,18.4901313379827,28.089773168283216
0.49,31.222208187201936,131.01040806005494,7.368224738812109,4.202723284133339,0.001175611380853,35.08821363242469,0.0015321405723077,2.781292092003844,389.60000969812296,18.812014261754847,7.111044804193205,71.99253015042137,4.027946338669921e-06,120.0000125755114,216.60722913930897,15.288,0,0.0,0.0552863302793499,5.311396446020465e-09,-0.0011294854492155,2.4938633613154685e-07,5.8398320167141767e-05,4.202723448262914,25.88860807032205,18.81219892635871,35.1982716047702
0.5,31.22220786953184,131.01040871291724,7.5437546994244835,4.220815778795054,0.0012036252596423,36.05491615971072,0.0015540388599792,2.7714444106710974,397.97031042210494,19.10875420627192,7.229005658018125,71.99186435180009,4.483102820610566e-06,120.00001339126192,223.4908652241728,15.288,0,0.0,0.0561585257949344,5.7804122391526605e-09,-0.0012048912160576,2.713531252030471e-07,6.327866493526626e-05,4.220815950099865,25.54902500917784,19.108943271285572,36.161276053538906
0.51,31.222207546379583,131.0104093770373,7.722184419225251,4.232567510615346,0.0012298790840397,27.54004661432325,0.0015777580800203,2.761017323676155,323.3984349720841,19.430597746636646,7.354673636736509,71.99115452520388,4.978202222778502e-06,120.00001425458936,231.07869697977367,15.288,0,0.0,0.0571045034845869,6.2799518101633574e-09,-0.0012835871653678,2.947201005874635e-07,6.854585242460463e-05,4.232567688976395,25.189423168613605,19.430790935591396,27.678103017910345
0.52,31.222207217712004,131.01041005262877,7.9035258515913025,-14.246511840940572,-0.0017668160953664,33.29289481444429,0.0011116388895523,3.7020890702368505,372.0984511843415,18.328485289787928,7.488638561320793,71.99041965183316,4.072891590123664e-05,120.00005219548348,205.6047653883344,15.288,0,6.285726713450122,0.0538656199281194,6.807478241334829e-09,-0.0011935850052148,3.360030885291797e-05,6.012319093841315e-05,14.246511948231388,29.537927209975155,18.328207758964695,33.49809412258195
0.53,31.22220688302207,131.01041074064017,8.08787532731174,-13.962521233764948,-0.0017011569658512,34.95495356935579,0.0011330201835256,3.716803209230832,386.5562464348624,18.63513550626526,7.625297299508813,71.98979770571947,9.991761299285564e-05,120.00011478821624,212.53842025149635,15.288,0,6.309906165948167,0.0547669487215345,7.259973192623214e-09,-0.0009551319728736,3.357026302168823e-05,4.891593319531936e-05,13.962521335337616,29.08633497090882,18.63486828915397,35.152004301543066
0.54,31.222206542146104,131.0104114413442,8.275304392519697,-13.688525626474997,-0.0016370759705128,30.696580291582343,0.0011542245516745,3.731583368927273,349.2703242098436,18.94029930563753,7.761452090364914,71.98931373006718,0.0001590504172271,120.0001773287654,219.55240429978,15.288,0,6.334027614167902,0.0556639147456632,7.611772455589026e-09,-0.0007114850538426,3.354001200300216e-05,3.7033879386584096e-05,13.688525722498206,28.64900286874109,18.94004215434545,30.922560653494568
0.55,31.22220619537521,131.01041215413994,8.465606715260941,-13.427917087826824,-0.00157498279966,32.532714782306435,0.0011749398974677,3.7462032819158537,365.2500005919907,19.238321771573982,7.895301889210571,71.9889706219462,0.0002181283578341,120.00023981790798,226.51186434981707,15.288,0,6.358061382636901,0.0565398985850662,7.860994306678572e-09,-0.0004629755569253,3.3509630266440465e-05,2.447732193886749e-05,13.427917178495706,28.232677581947957,19.238074373854367,32.747695667280475
0.56,31.222205842705726,131.0104128790348,8.658781599995358,-13.182760907883688,-0.0015150599178302,30.36153862677688,0.0011949262710809,3.7604873541468873,346.2265619465787,19.524828085412,8.025468368285814,71.98877118418858,0.0002771525868333,120.00030225686756,233.30442051163047,15.288,0,6.382005990475521,0.0573820429170145,8.005822969589205e-09,-0.0002095654681083,3.3479147234974215e-05,1.1244432392955545e-05,13.1827609934029,27.841753813548014,19.524590100356647,30.59353353821379
0.57,31.222205484210143,131.01041361587883,8.854775402166334,-12.938997948207897,-0.0014556936147514,30.019346398149608,0.0012152522382042,3.775198336807152,343.1828296833023,19.81921176965032,8.158115328363253,71.98871818566924,0.0003361243617375,120.0003646468966,240.388182182292,15.288,0,6.405849970845211,0.0582473438383674,8.044488856633415e-09,4.866244581309441e-05,3.344860750293855e-05,-2.6503469811754327e-06,12.93899802869705,27.45053832946956,19.818983109832043,30.255797496201737
0.58,31.22220511986092,131.01041436472875,9.053604299073466,-12.688194989269698,-0.001395992434617,39.52944469604556,0.0012366532940101,3.790881386191878,426.1250058573153,20.134969564909223,8.297516186732748,71.9888143962169,0.0003950450320623,120.00042698945197,248.1041452517757,15.288,0,6.429592501516502,0.0591754677071417,7.975230565572266e-09,0.0003117530046076,3.341804157337518e-05,-1.7249470074455845e-05,12.688195064805807,27.04310253139447,20.13475028293039,39.71080182004906
0.59,31.222204749226776,131.010415126474,9.255565594273008,-12.461719775469575,-0.0013393064044948,32.037966718760366,0.0012564503103287,3.8056146513937374,360.68438819711065,20.423315964617327,8.428219828414338,71.98906278740472,0.0004539159731281,120.00048928645204,255.2561154305428,15.288,0,6.453269463157096,0.0600230372329861,7.796128539881531e-09,0.0005803070099173,3.338742026573486e-05,-3.25679020341075e-05,12.461719846301204,26.678715148053875,20.423105586859283,32.26319909627635
0.6,31.222204372527383,131.01041590066103,9.460503109214953,-12.21785092451122,-0.0012812106408338,28.468117561973347,0.0012782630901943,3.822027481810568,329.4859594986058,20.75043425981361,8.571183177556616,71.98946634723251,0.0005127386671294,120.00055153922716,263.4932393470554,15.288,0,6.476857613754436,0.0609845614631387,7.505314366659322e-09,0.0008540461915503,3.3356815383369775e-05,-4.8697393211719456e-05,12.217850990666255,26.27839472966735,20.75023300771678,28.723537616874548
0.61,31.222203989706667,131.01041668740547,9.668452829401565,-11.977465905132476,-0.0012239683889919,33.361338600385444,0.0013003092273896,3.8388446054862593,372.0984511843297,21.08388225484467,8.71612184684584,71.99002812132647,0.0005715146821262,120.00061374949456,272.0242296369353,15.288,0,6.500360256129641,0.0619646949817977,7.100874725244747e-09,0.0011330730009097,3.332625730521786e-05,-6.564429143540246e-05,11.97746596675704,25.881669995387064,21.08368999433973,33.58147767453723
0.62,31.222203600880466,131.0104174864679,9.879330936242576,-11.779168298487091,-0.0011713854691166,41.48661821234057,0.0013188310932458,3.853289319912256,442.86563930529206,21.35452437549292,8.841196853404163,71.99075120888408,0.0006302456832063,120.00067591888843,279.0470504307178,15.288,0,6.523776659864256,0.0627602507622532,6.58088187537262e-09,0.0014173247897352,3.329579531691496e-05,-8.31646919962707e-05,11.779168355908746,25.5638572794945,21.35434037469372,41.6651812790821
0.63,31.22220320585092,131.01041829825644,10.093272624104449,-11.575236006663408,-0.001118591368737,23.506633299071087,0.0013382532764204,3.8686086500276575,286.11251274707894,21.643677165440675,8.97212324129743,71.99163852813768,0.0006889334951861,120.00073804954845,286.64924569021025,15.288,0,6.547090778896429,0.0636102149096338,5.943547947375767e-09,0.0017070172249653,3.3265451985419e-05,-0.000101517222298,11.575236059974522,25.233124480274267,21.643501457519367,23.8228449966621
0.64,31.22220280522808,131.0104191215121,10.309850048294493,-11.359673522463044,-0.0010651620715082,23.07347276305569,0.0013592706918562,3.8853359313788807,282.30782441796754,21.964328784919097,9.112964784402784,71.99269299977482,0.0007475800625155,120.00080014287052,295.19945309641304,15.288,0,6.57030901523207,0.0645527595594322,5.1871362844695525e-09,0.0020013449612337,3.323535138866452e-05,-0.0001207818372307,11.359673571745477,24.877237069732644,21.96416146965217,23.398311530850968
0.65,31.222202398987434,131.01041995628532,10.529077865873845,-11.174470770428128,-0.0010150009811596,40.81460894525436,0.0013775445648978,3.900225311627012,436.7781447787475,22.23624607561188,9.238418316127463,71.9939174188247,0.0008061874659542,120.0008622010766,302.5474360402097,15.288,0,6.593376826630106,0.0653520811208852,4.309978605899279e-09,0.0023004113842966,3.320552558609514e-05,-0.000140546352883,11.174470815939529,24.57942825565748,22.2360866396306,41.000537346882695
0.66,31.222201986593475,131.01042080368066,10.751326999533251,-10.98783102399382,-0.000965048544745,34.70464233792278,0.0013962980748731,3.9157012952330783,383.51251517160017,22.51911044946447,9.36732776057274,71.99531458655987,0.0008647578887706,120.00092422704628,310.2871048862212,15.288,0,6.616363716925103,0.066183582328256,3.3104102194263197e-09,0.0026049184482753,3.317595491116057e-05,-0.0001611716657747,10.987831065852587,24.276988503704604,22.51895885999355,34.92484671958176
0.67,31.22220156823589,131.01042166330663,10.976462770591452,-10.79164154909478,-0.000914681293901,23.869654290608857,0.0014164730945136,3.932493124529065,289.1562440103425,22.830596297277182,9.50524082982317,71.99688753069017,0.0009232935848584,120.00098622295268,318.9234001384494,15.288,0,6.639273653478057,0.0670992085079158,2.1866478481757084e-09,0.0029146211671912,3.3146711206952845e-05,-0.0001828240444958,10.791641587398706,23.953409519485987,22.830452619475523,24.1914220362104
0.68,31.222201144086608,131.0104225348082,11.204362956343648,-10.603989537302573,-0.0008655044654407,29.820180966638176,0.0014360765093502,3.9490885906871247,340.8999924858462,23.13369397744704,9.640493748295826,71.99863923246868,0.0009817969417253,120.00104819112828,327.44046194446287,15.288,0,6.662028371890028,0.0679901885407326,9.369533053129914e-10,0.0032293335994061,3.311785984132644e-05,-0.0002052496078819,10.60398957221988,23.64525898900856,23.13355802432353,30.080533499964073
0.69,31.222200714224407,131.01042341802273,11.434970495133673,-10.433783786334468,-0.0008181519972156,36.7362234907515,0.0014540048637188,3.9646320400971673,401.0140726853634,23.40771566562181,9.76659172958801,72.00057258073505,0.0010402704886964,120.00111013415464,335.23613221509265,15.288,0,6.684685002930862,0.0687957203674702,-4.4033076870061277e-10,0.0035489565592221,3.308945835149012e-05,-0.0002282309500907,10.433783818056282,23.37082772741163,23.407587150606616,36.94953891038341
0.7,31.222200278501536,131.01042431325484,11.668386442564888,-10.266476750048271,-0.0007713864506633,30.791841789452448,0.00147188003981,3.9803694835686896,349.27032420985284,23.682973273999337,9.893075359690148,72.00269038653528,0.0010987168902999,120.00117205499927,343.15906019471856,15.288,0,6.707254833581695,0.0696048909938423,-1.9467862904018864e-09,0.0038736962501509,3.306154097789833e-05,-0.0002520384933993,10.266476778717047,23.10081255211435,23.682852104899016,31.048041229340473
0.71,31.22219983696938,131.01042522039833,11.904573062219072,-10.09419953283218,-0.0007246590359142,25.28176474525417,0.0014906533510512,3.9970447451145046,301.33126406340574,23.97744177102429,10.02557923167286,72.00499548289872,0.0011571468174135,120.00123396739625,351.73765174975034,15.288,0,6.729676955045686,0.0704705295486849,-3.584016158512784e-09,0.0042034784161926,3.303416658938689e-05,-0.0002768897654717,10.094199558574054,22.819212110322606,23.97732794184911,25.59578085448599
0.72,31.222199389625025,131.010426139459,12.1435304929405,-9.915728832392304,-0.0006779516426194,30.976887532121303,0.001510560546617,4.014875280316533,350.79220534145287,24.295771787547803,10.165550843199366,72.0074908719631,0.0012155473885976,120.001295852684,361.1308609657492,15.288,0,6.751994826945344,0.0714063049662665,-5.353655888364874e-09,0.0045383384766615,3.300738659825785e-05,-0.0003029094718057,9.9157288553367,22.523054869134903,24.29566529515281,31.23598544909352
0.73,31.22219893646003,131.01042707045409,12.385262707967994,-9.763819567502194,-0.0006334546269952,39.21492512242321,0.0015273713116042,4.030524633282162,422.320318528234,24.55811637400645,10.28795353842824,72.01017954384884,0.0012739295110062,120.00135772490874,368.96334993785786,15.288,0,6.774225375620743,0.0721775436895263,-7.257382815437459e-09,0.0048783480615171,3.2981251655606335e-05,-0.0003291114756152,9.763819587851442,22.28074356348764,24.558016871186325,39.4215104163909
0.74,31.222198477403023,131.01042801353074,12.629817924212212,-9.607476686152014,-0.0005890301533528,24.501726872938235,0.0015450091130867,4.047076745283823,294.48281347105944,24.83859428773155,10.416033718091812,72.01306434973874,0.0013322963652334,120.00141958749678,377.4304639921485,15.288,0,6.796346180486002,0.0730020838546023,-9.296727021784572e-09,0.0052235594707356,3.295581666325298e-05,-0.0003564171125743,9.607476704039035,22.0279237347323,24.838501763091426,24.833716039395597
0.75,31.22219801282872,131.01042896791563,12.876933165229255,-9.4494318095229,-0.0005449394085345,28.623445361627542,0.001563145387109,4.064282400531109,330.24688556441487,25.131115896888232,10.547859720866404,72.01614809934301,0.0013906592061104,120.00148145445756,386.36356375082846,15.288,0,6.818313414835472,0.0738620279276649,-1.1473227877044373e-08,0.0055734373344753,3.293117403291661e-05,-0.000384759701867,9.449431825093264,21.770298784816667,25.13103029800611,28.910552022484243
0.76,31.22219754261547,131.0104299338596,13.1266919374959,-9.302067898323584,-0.0005018676347921,30.818535826344025,0.0015800675305779,4.080771504819181,349.27032420986166,25.403162299828868,10.6732574284394,72.01943365963503,0.0014490056354875,120.00154330774184,394.76420526394486,15.288,0,6.840177953604371,0.0746618008568794,-1.378834152790284e-08,0.0059281952148273,3.2907368127312144e-05,-0.0004136704960224,9.302067911742862,21.53408410009967,25.403083466645143,31.0875352681876
0.77,31.222197066697845,131.0104309114975,13.379138650317628,-9.159240118481865,-0.000459406345898,28.805308276334905,0.0015965697132291,4.097181799816346,331.7687666960708,25.669834115164743,10.7969599974988,72.02292374680663,0.0015073550078194,120.00160517288496,403.0860762255672,15.288,0,6.8619422163828325,0.0754457842209805,-1.6243492132748443e-08,0.0062879350066622,3.2884453817150145e-05,-0.0004433685110343,9.159240129904935,21.30644119495287,25.66976195178468,29.095234766959166
0.78,31.22219658513937,131.0104319006981,13.63422781886598,-9.01246844473432,-0.0004171420992957,23.632961385678392,0.0016138711439734,4.114511278401411,286.8734378128899,25.95455533839272,10.926284332291209,72.02662122028244,0.0015656954352114,120.00166703224848,412.06736359589496,15.288,0,6.883587603487189,0.0762828231925806,-1.884011064447492e-08,0.0066525399946981,3.28624998774744e-05,-0.0004742683980532,9.012468454308298,21.069194173475903,25.95448981386499,23.988457005852595
0.79,31.22219609802841,131.010432901279,13.891896659180563,-8.8646841415032,-0.000375273225431,33.63798294651539,0.0016315709667531,4.132446819502026,373.6203323159534,26.249822797998306,11.05887136862264,72.03052879339742,0.0016240468024772,120.00172891183244,421.4858885858528,15.288,0,6.905084574593516,0.0771508656753183,-2.1579604599096297e-08,0.0070218908666889,3.284157499141038e-05,-0.0005062823708829,8.86468414938301,20.828629805177837,26.2497638502179,33.89086921411277
0.8,31.22219560512676,131.0104339137316,14.152310491780092,-8.731761198447254,-0.0003344117151546,34.08100629113038,0.0016472271664041,4.14897187048244,377.42502064505743,26.50866083888056,11.180064950215828,72.034649424269,0.0016823968165025,120.00179079367288,429.8282970948896,15.288,0,6.926488821726863,0.0779118455868804,-2.4463378066320423e-08,0.0073963996260165,3.2821725850505e-05,-0.0005385296871539,8.731761204801273,20.61935659813797,26.50860830961118,34.332622389084705
0.81,31.22219510653828,131.01043493784135,14.415395930914638,-8.593466589254263,-0.0002937207719353,22.14459782486288,0.0016639170183982,4.166638655890453,273.9374926939919,26.79042071049036,11.30838951506476,72.0389858447203,0.0017407657979187,120.00185270424832,439.0030330988623,15.288,0,6.94778935615242,0.0787402023028139,-2.7492818907957643e-08,0.0077758591555832,3.280303037158908e-05,-0.0005721612472744,8.593466594236153,20.397261570033358,26.790374572939392,22.533177611741806
0.82,31.22219460245764,131.01043597320657,14.681016154416715,-8.454492716790782,-0.0002534412037532,28.4688288923604,0.0016809435087632,4.184888631637354,328.72500443277005,27.08181411747937,11.439681872245208,72.0435408778506,0.0017991503245863,120.00191463722552,448.5934011946271,15.288,0,6.968976584692982,0.0795968803927114,-3.0669311186546875e-08,0.0081599780500478,3.2785567868645586e-05,-0.0006069405938791,8.454492720561882,20.17252655142321,27.08177430702818,28.77477218306468
0.83,31.22219409286284,131.01043701987248,14.9491858344359,-8.33192424317478,-0.0002140356706702,36.20188959286336,0.0016954645237234,4.2012960512192175,395.68750322465047,27.32761434902074,11.556732523441278,72.04831730549365,0.0018575545437899,120.0019765968644,456.7616475707949,15.288,0,6.990048845871329,0.0803195614118388,-3.3994159735882426e-08,0.0085488363837622,3.276940424809875e-05,-0.0006416186551043,8.331924245904519,19.983365319127103,27.32758072837621,36.44485836820413
0.84,31.222193577637864,131.0104380780784,15.219985696101592,-8.20847810789024,-0.0001749374067788,22.321990323820067,0.0017102503934661,4.218196652787314,275.4593748256452,27.581661716579028,11.67632824958577,72.0533177814543,0.0019159835301893,120.0020385887478,465.2814637896511,15.288,0,7.010984040514172,0.0810664887341378,-3.7468546595351616e-08,0.0089425668915773,3.275460796494892e-05,-0.0006773912582206,8.208478109741625,19.7915826672199,27.58163423747543,22.717051700061326
0.85,31.222193057091246,131.01043914718767,15.49319966116452,-8.075898533349143,-0.0001360580308614,24.34415356162681,0.0017267688494635,4.236888677662336,292.96093233939376,27.87286372365889,11.807447432949008,72.05854491670124,0.0019744419768508,120.0021006174211,475.145568953096,15.288,0,7.031798232233217,0.081922626040084,-4.109372813636852e-08,0.0093406549388124,3.274126445846447e-05,-0.0007149974413129,8.075898534487637,19.578270049680853,27.87284235171338,24.710099985242902
0.86,31.22219253103476,131.01044022758853,15.76895903094462,-7.953697173790831,-9.776155967872311e-05,30.49970751696183,0.0017416522611993,4.254467273681841,346.2265619465587,28.135402321196665,11.929608038994717,72.06400142871804,0.0020329347407215,120.0021626881342,484.12583451115006,15.288,0,7.052505891939981,0.0826945245787516,-4.4870847955313423e-08,0.0097434565184675,3.272943880112254e-05,-0.0007528357722013,7.953697174387768,19.387527440937266,28.13538696484678,30.795010203544347
0.87,31.22219199949048,131.01044131923547,16.04724824543872,-7.837209188472109,-5.98905479436113e-05,28.391186962788183,0.0017556384608585,4.271553695663869,327.964078366998,28.38364455045436,12.04728802228378,72.0696899630104,0.0020914678272976,120.00222480743167,492.6933620117285,15.288,0,7.073106030708254,0.0834244108198892,-4.8801057849407375e-08,0.0101509249467935,3.27192089222982e-05,-0.0007912181391713,7.837209188699545,19.20906149418996,28.38363514286909,28.710723975776016
0.88,31.222191462492862,131.0104424220571,16.32804319102687,-7.717188084625588,-2.235759840953108e-05,24.52201928319253,0.0017703876705481,4.289615876053539,294.4828134710418,28.650431000288627,12.17069067835971,72.07561312065346,0.0021500456002127,120.00228697953004,501.9853001974557,15.288,0,7.0935937511279485,0.0842088088495593,-5.2885473735769335e-08,0.0105629477305094,3.2710654691527326e-05,-0.0008310497777248,7.717188084657799,19.02170149599109,28.65042748836528,24.89438163971199
0.89,31.22219092012501,131.0104435358821,16.611285771313902,-7.593933493035785,1.4765290254859788e-05,26.898521267540065,0.0017858921054795,4.308670159085279,315.028134248087,28.935879371681807,12.299837199038103,72.08177348961783,0.0022086745519483,120.00234921145972,512.0239047032073,15.288,0,7.113967413908556,0.0850480651423226,-5.712519445617761e-08,0.0109794077474983,3.270385612285378e-05,-0.0008723977418411,7.593933493050027,18.825940580001102,28.935881691008177,27.24142228499657
0.9,31.22219037230407,131.0104446608813,16.897034120175125,-7.485384782064957,5.154174173257476e-05,29.71618466800597,0.0017987125906897,4.325631735192053,339.37814235421445,29.171634721398448,12.413514265723515,72.08817370453232,0.0022673677122696,120.0024115193482,520.3870517693414,15.288,0,7.134234965592576,0.0857412714945538,-6.152126641490471e-08,0.0114004666423703,3.2698894069126714e-05,-0.0009132094776582,7.485384782241392,18.663679500748348,29.171642817556307,30.029364368346204
0.91,31.222189819101985,131.0104457969062,17.185238269310297,-7.373319607053552,8.795344480135513e-05,22.58592397318264,0.0018122826180475,4.343570078686995,277.7421810230789,29.426036327924127,12.53292955087086,72.0948163223867,0.002326115670879,120.0024738882622,529.4884133504265,15.288,0,7.154370412234772,0.0864892899706654,-6.6074695977013e-08,0.0118259576337882,3.269585286106875e-05,-0.0009555272564646,7.3733196075752225,18.492607744833016,29.42605014361893,22.999794912894757
0.92,31.22218926072892,131.0104469435231,17.475751325715343,-7.25808511926947,0.0001239233651748,26.90100910803321,0.0018265859740735,4.362495308628382,315.02813424806214,29.699026662611896,12.658045260344077,72.10170373728673,0.0023849395318563,120.00253634498848,539.3432435827722,15.288,0,7.174382936498216,0.0872919519336206,-7.078652466499207e-08,0.0122554957975574,3.269481276166354e-05,-0.0009993922529829,7.258085120321705,18.31328461321848,29.69904612844858,27.252443187441134
0.93,31.222188697086807,131.01044810093435,17.768642581536145,-7.15571873386552,0.0001597490319638,32.011049985884405,0.0018383608522267,4.379407609590615,359.1625070654728,29.92506941185008,12.76856111976121,72.10883843451603,0.0024438396202083,120.00259888802826,547.5690925319026,15.288,0,7.194286219802067,0.0879566318190052,-7.565757285193876e-08,0.0126892943212015,3.2695860583486354e-05,-0.0010426133885783,7.155718735639418,18.16391714739009,29.925094505169344,32.309232977421495
0.94,31.22218812805792,131.0104492693828,18.063995529992336,-7.044840668245225,0.0001950384927286,23.200903294051287,0.001851947969041,4.398324423417609,283.0687504837787,30.19171833707095,12.891596650995035,72.11622277533867,0.0025028191692835,120.00266151984292,557.3550452410191,15.288,0,7.214080084353395,0.088740669807926,-8.068860662825057e-08,0.0131274518995897,3.2699087859065075e-05,-0.0010881947040954,7.04484067093147,17.993532232994937,30.191748973645744,23.614130829299285
0.95,31.22218755394455,131.01045044824482,18.361598711875928,-6.936979237114526,0.0002299992181929,30.075482884222826,0.0018649874211171,4.417061031566648,342.4218736174873,30.45148465992085,13.012430262510474,72.12385919262809,0.0025618878135365,120.00272425115897,566.9709455078305,15.288,0,7.233756587136555,0.0895044856168347,-8.588065500868475e-08,0.0135694902481751,3.270457257306728e-05,-0.001134482843586,6.936979240908768,17.829675001639522,30.45152078811356,30.398110177343966
0.96,31.22218697443614,131.01045163816096,18.66167114741384,-6.836008779618919,0.000264834944838,29.459327661632773,0.0018765964164144,4.434785381309728,337.09533515678345,30.686400501488865,13.125522068287438,72.1317500621472,0.0026210525138278,120.00278708962568,575.735809581643,15.288,0,7.253331316893208,0.0901952670803713,-9.12342778346398e-08,0.0140159313924959,3.271242168013926e-05,-0.0011808135372312,6.836008784724545,17.68193783425411,30.68644210166472,29.79126232933634
0.97,31.22218638955184,131.01045283909193,18.964200546165014,-6.73385696192488,0.0002992886464263,18.78891414941838,0.0018884903634093,4.453119210659319,245.02188719299323,30.93146201969168,13.24169127221854,72.13989781021469,0.0026803184495429,120.00285004001545,584.9511806577132,15.288,0,7.272802406465176,0.0909158766116986,-9.675028327622236e-08,0.0144667066061294,3.272273154681992e-05,-0.0012284879882631,6.733856968545237,17.530748204610166,30.931509031842324,19.309416593593735
0.98,31.222185799592207,131.01045405041742,19.268976762491207,-6.624219340514495,0.0003329908779741,27.43190049304557,0.0019021214848846,4.473483047253412,319.5937466429581,31.21679029441748,13.370213739144416,72.14830474204446,0.0027397012266165,120.00291312104208,595.7753177734385,15.288,0,7.292156662165638,0.0917548486091971,-1.0242965419290017e-07,0.0149212376712806,3.273557609159484e-05,-0.0012787368331003,6.624219348846691,17.360351192576317,31.216842600502275,27.794265934765818
0.99,31.222185204399896,131.0104552724621,19.576111582540296,-6.531108024167991,0.0003671472575563,29.99068034078444,0.0019120289347485,4.490575919699122,341.6609485517054,31.42999983582752,13.47640742474658,72.15697332736109,0.0027991936896232,120.00297632058668,603.923541927508,15.288,0,7.311408944845395,0.0923818510470041,-1.0827294609722856e-07,0.01537987139915,3.275106816118546e-05,-0.0013270043655076,6.531108034442898,17.230382782478543,31.43005750718387,30.32500920114536
1.0,31.222184603972448,131.0104565052312,19.885608402475967,-6.430755744808383,0.000400566349221,26.81375353686223,0.0019236071728484,4.5096540619671455,314.2672081822764,31.682423097564143,13.594626657196368,72.16590562420564,0.0028588214182784,120.00303967124334,613.6448177522979,15.288,0,7.330553463349226,0.0931241211679333,-1.1428075672406153e-07,0.0158424851272516,3.276930549346683e-05,-0.0013778567129501,6.430755757231418,17.081803169460287,31.68248601837914,27.19033582349569
1.01,31.22218399849685,131.01045774833875,20.197337035468045,-6.333211753191201,0.0004337751687197,28.04927616392585,0.0019345404866967,4.5284472857760605,324.9203161036979,31.926293768208826,13.710126083741228,72.17510399573182,0.0029185736079804,120.003103155375,623.1093960290469,15.288,0,7.349587558365832,0.0938412601257295,-1.204538567327024e-07,0.0163087671892879,3.279037285958295e-05,-0.0014292855223295,6.333211767985759,16.939697713812368,31.926361905452996,28.412474934131982
1.02,31.222183387892287,131.01045900195163,20.511356112975385,-6.239140794869326,0.0004668661461771,23.36849616729768,0.0019446308669056,4.54675137483065,284.59063161540416,32.15746999584138,13.821636436181992,72.1845705025276,0.0029784731250406,120.0031668017738,632.1467897861244,15.288,0,7.3685159915042595,0.094521093543929,-1.2679266381622928e-07,0.0167788254549393,3.281438183379609e-05,-0.001481083987881,6.2391408122677054,16.805893623769933,32.157543331004135,23.80671260311091
1.03,31.22218277222909,131.01046026592476,20.8276179933497,-6.14078059482222,0.0004992592625765,19.038443351671926,0.0019557673456289,4.566478664688646,247.30469339049705,32.41572057299939,13.941391603651192,72.19430719281523,0.0030385293915281,120.00323062054372,642.3213511204212,15.288,0,7.387335377372574,0.0952805146505709,-1.3329770473175705e-07,0.0172524735584177,3.284142757208627e-05,-0.0015350768267193,6.140780615039904,16.660526416517442,32.415798996460964,19.578433453034577
1.04,31.22218215157008,131.01046154012852,21.146080155821515,-6.048977013433034,0.0005318018337242,30.43365561333974,0.0019652592816527,4.584905894724961,345.46563688072297,32.644539151918735,14.052002559141812,72.20431627870435,0.003098736893382,120.00329460121898,651.4015659060452,15.288,0,7.406048485829945,0.0959534328836771,-1.3996949191225354e-07,0.0177296148762145,3.287161090507834e-05,-0.0015886185338431,6.04897703672307,16.531512774405165,32.64462268715543,30.77708173165697
1.05,31.22218152562044,131.0104628251713,21.46695285280295,-5.954033053103572,0.0005637138559998,18.23708608478271,0.0019755205060387,4.6045095510920335,240.45625879819983,32.89508106039784,14.169207180555071,72.21459974400427,0.0031591128351911,120.00335876481029,661.4183679909717,15.288,0,7.424665757977278,0.0966902110875239,-1.4680807642343784e-07,0.0182107200312839,3.290508682684961e-05,-0.0016441993603169,5.95403307969294,16.393785022270773,32.895169608363275,18.809381195896748
1.06,31.222180894624422,131.0104641205492,21.79006579237566,-5.856739596530967,0.0005949822149787,26.10174750672464,0.0019863901285956,4.625162439301829,308.17968365593924,33.16434621717021,14.292057975358045,72.22515969034082,0.0032196767283865,120.00342313479192,672.2700007063742,15.288,0,7.443179295809961,0.0974820315026249,-1.5381418505571297e-07,0.0186953046196125,3.294193129107372e-05,-0.0017017153024744,5.856739626647568,16.249195140209398,33.16443967675799,26.508363858233125
1.07,31.22218025846197,131.01046542650997,22.115505873723087,-5.769037552913616,0.0006268410349568,30.78703728311892,0.0019947030157332,4.643535381321152,348.5093681440308,33.384650383569,14.399788787354552,72.23599840532016,0.0032804182985372,120.00348769409976,681.2098840182452,15.288,0,7.461599874197531,0.0981299456523675,-1.6098804967271693e-07,0.0191836265741191,3.2982289332503096e-05,-0.0017577086378467,5.769037586853487,16.129392678832883,33.38474884752852,31.135254768326146
1.08,31.22217961702964,131.01046674326716,22.443348857508948,-5.680690232611128,0.0006583045489647,20.61490378589007,0.0020031136921324,4.662413245666272,261.00157857466235,33.61283148568576,14.509850058273816,72.24711786499444,0.003341357088208,120.00355246645728,690.5319797911573,15.288,0,7.479928728652683,0.0988010205798268,-1.683298787800122e-07,0.0196757765935653,3.302629981216237e-05,-0.0018150669449817,5.680690270629717,16.007448274089317,33.6129348919225,21.135570950114726
1.09,31.222178970610408,131.01046807023693,22.773397129429927,-5.584837482259784,0.0006884864463787,18.930584546666253,0.0020135376549473,4.683872501199367,246.54375332474407,33.89077568304764,14.635047256371136,72.2585200121827,0.0034025151247894,120.0036174784692,701.9769467877971,15.288,0,7.498155025089479,0.0996183763424109,-1.758403769182625e-07,0.020171149418165,3.3074024910679865e-05,-0.0018760916660743,5.5848375245628326,15.864666311329913,33.89088383024574,19.50142807438226
1.1,31.222178319282225,131.01046940725843,23.105597969014983,-5.494653304486634,0.0007189160090117,38.308605860744414,0.0020223671251343,4.704044757843975,413.1890617385841,34.140496117517024,14.751480102200809,72.27020692162333,0.003463883747619,120.00368271481972,712.3372082523506,15.288,0,7.516282403842691,0.1003527795361581,-1.8351983927186337e-07,0.0206696273666065,3.312557614235433e-05,-0.0019365580331152,5.494653351373548,15.736530087605097,34.14060904457964,38.59633822226701
1.11,31.222177662633683,131.01047075518088,23.44024563448234,-5.414255271089984,0.0007502979738696,27.952535069803343,0.0020283299741847,4.721494546672128,324.1593910376397,34.33374289840163,14.850545606442363,72.28218054065145,0.0035254812651825,120.0037481975668,720.4010143047766,15.288,0,7.534328327280224,0.1009211914050085,-1.913678185128153e-07,0.0211719621779517,3.318118390584337e-05,-0.0019947861363693,5.414255322922586,15.63478024776636,34.33386075493176,28.348487291158285
1.12,31.222177000730177,131.01047211386927,23.777297165182045,-5.318855804971704,0.0007792254691194,10.330299482343888,0.0020385278227006,4.744094753989374,172.73281794065943,34.626983534259644,14.980071850920467,72.29444269941658,0.0035873186572253,120.00381393813475,732.7355704527939,15.288,0,7.552284928073695,0.101783535087942,-1.993846366267103e-07,0.0216778815284949,3.3240961105175657e-05,-0.0020598306668076,5.318855861886846,15.491022146805392,34.6271059347101,11.367564672582231
1.13,31.222176334175565,131.0104734820777,24.116326622192457,-5.233242486800696,0.000809109323829,32.99813421321606,0.0020458208783836,4.763904595109133,367.5328077900705,34.86291715406276,15.091951397147351,72.30699551053837,0.0036494074263155,120.00387994791284,742.7305003803334,15.288,0,7.5701402698628835,0.102477437114626,-2.075714353726769e-07,0.0221862801085494,3.330488789580781e-05,-0.0021224335076654,5.233242549174672,15.373785596638182,34.863044248658134,33.34024074193384
1.14,31.22217566229505,131.01047486119873,24.45781650608584,-5.154551110124902,0.0008397444911811,18.11425989094222,0.0020509173828965,4.781676165767194,239.69531773195544,35.05671870948909,15.190877281440669,72.31984063513713,0.0037117591146452,120.00394623970432,750.9864360217338,15.288,0,7.587918221948397,0.1030475021839545,-2.159269970802093e-07,0.022698391660236,3.337329295915085e-05,-0.0021834235057859,5.154551178342995,15.275664331568018,35.056850616245306,18.73474959953098
1.15,31.22217498558617,131.0104762502058,24.801416971708743,-5.061246429919781,0.0008675906803154,17.8436738950706,0.0020603368063216,4.804853006180954,237.41251153546767,35.354752382851125,15.321451974297371,72.33297967365749,0.0037743855750454,120.00401282537266,763.7844831117478,15.288,0,7.605574691949616,0.1039239604939207,-2.2445226802355535e-07,0.0232130862778012,3.344615331163695e-05,-0.0022518423553354,5.061246504086761,15.135525821763204,35.3548886636765,18.479267158889662
1.16,31.22217430418937,131.01047764880914,25.14703091715241,-4.9857084486585,0.0008980580682481,47.267489786150826,0.002064176005976,4.822039405326056,490.0437743845894,35.53421212298413,15.41576238143702,72.34641448587038,0.0038372992039305,120.0040797177311,771.5324457520654,15.288,0,7.623136809453608,0.1044518830221418,-2.331473155518938e-07,0.0237301986369971,3.3523581435491954e-05,-0.0023136142166558,4.985708529336277,15.045762095635396,35.53435318961561,47.512815733980794
1.17,31.22217361722176,131.01047905883104,25.49529099118073,-4.9030541079959935,0.0009269571875337,8.08218793024152,0.0020700674773079,4.842099901564097,153.70937929486794,35.76772498477649,15.526436857939409,72.36014651707522,0.0039005124486593,120.00414693074364,781.6798556716029,15.288,0,7.640629369993638,0.105138701160567,-2.4201032135717096e-07,0.0242513041472718,3.360601847362056e-05,-0.0023798784017189,4.903054195405949,14.935110897792644,35.76787059087101,9.421661078687139
1.18,31.22217292585216,131.01048047785935,25.845368321833742,-4.810980018280093,0.0009535648592071,22.796008050048588,0.0020788868163372,4.866136901394638,280.02501822196746,36.07641822464488,15.659803382247992,72.37417738210641,0.0039640382813451,120.00421447671133,795.2039091427292,15.288,0,7.658013938113955,0.1060465193575271,-2.5104357376926536e-07,0.0247739612112895,3.369318136262348e-05,-0.002452068585838,4.8109801125590685,14.796089433262724,36.0765680102627,23.30959621449426
1.19,31.222172229556566,131.01048190697574,26.197639661304887,-4.742441965119474,0.0009844505788208,40.09039803404105,0.0020799257427852,4.881349146717806,428.4078130529292,36.21383749908805,15.740995225159343,72.38850874516442,0.0040278900990302,120.00428237019791,801.2463817073647,15.288,0,7.675321640638659,0.106450886086406,-2.602454798428207e-07,0.0252993711846474,3.3785449212669086e-05,-0.0025135256797525,4.742442067063634,14.726114074385018,36.21399213622336,40.38647779079152
1.2,31.22217152788813,131.01048334710256,26.55242885941824,-4.656680922877168,0.0010114641721587,3.800642081312153,0.0020864278116338,4.903679541707061,117.1843741360236,36.48608492148348,15.86301463450344,72.4031417699679,0.0040920812725986,120.00435062565188,813.3111241087261,15.288,0,7.692554652471438,0.107251589153213,-2.696149518400742e-07,0.0258281361302364,3.38831300977698e-05,-0.0025852621113125,4.656681032483763,14.6044745976569,36.4862438019041,6.204108125361627
1.21,31.222170822013915,131.01048479583136,26.908905996545588,-4.572806108223557,0.0010383562310387,32.10420660477592,0.0020922028061433,4.9256467884909965,359.92343213200894,36.75019795591354,15.98237675863004,72.41807804755649,0.0041566259703122,120.0044192566148,825.1001707242553,15.288,0,7.709683903112434,0.1080283893969254,-2.7915427629170164e-07,0.0263578893178868,3.398589162771367e-05,-0.0026572945144123,4.572806225863981,14.487671784935763,36.750361060528896,32.479871957635886
1.22,31.22217011105019,131.01048625498623,27.267706871961483,-4.504645318295238,0.001068481157951,23.13628512812912,0.0020924259714958,4.941221305744308,283.0687504825761,36.89201332021896,16.064557395761973,72.43331881154141,0.0042215384487326,120.00448827892286,831.4517585251837,15.288,0,7.726744611124666,0.108445699353837,-2.8886067507345525e-07,0.0268904772848096,3.409430655206605e-05,-0.0027213554877438,4.504645444753439,14.418436333305443,36.89218115684676,23.65805067837747
