Time,Latitude,Longitude,Altitude,Angle of Attack,Angle of Sideslip,X-Acceleration,Y-Acceleration,Z-Acceleration,Thrust,True Velocity,Ground Velocity,Pitch,Roll,Yaw,Dynamic Pressure,cp,parachute_deploy_gain,Wind Speed,Mach,omega_x,omega_y,omega_z,Cmq
0,31.2221860000000042,131.010383999999988,3.00000000364323682,0,0,0,0,0,2.2828121974499247,0,0,69.9999999962342088,0,113.699999993883324,0,15.2880000000000003,0,0,0,0,0,0,-0
0.01,31.2221859999997946,131.010384000000556,3.00000016469923247,0,0,0,0,0,34.2421869617492334,9.11367326775851009e-12,8.66229497295429822e-12,69.9999999962370651,-4.92863947922479589e-13,113.699999993882884,5.08594204168408172e-23,15.2880000000000003,0,0,2.67827100510624443e-14,-3.65918233213857746e-19,7.58941520739853104e-19,4.81114714040442593e-19,-1.83541113936281872e-32
0.02,31.2221859999996028,131.010384000001039,3.00000030885429547,0,0,0,0,0,25.8718762377664078,1.96992978605390895e-11,1.88456988716431921e-11,69.9999999962400494,-1.04152381447771591e-12,113.699999993882386,2.37621641206600858e-22,15.2880000000000003,0,0,5.78911013494094702e-14,-7.28448334638698292e-19,1.51788304147970621e-18,9.75781955236953991e-19,-7.93451985123442364e-32
0.03,31.222185999409362,131.010384001586402,3.00018176030779937,18.6493779029494604,-0.000129237623237530007,10.7928899806483045,-1.97644583900689674e-05,3.34983967390763571,180.342193598546658,0.0785672533977095078,0.0490694047558625918,69.9999999976775626,-4.2497891361524094e-12,113.699999994705607,0.00377978965327356543,15.2880000000000003,0,0,0.000230888677896110966,2.88330015245363835e-17,-7.25223402354589416e-10,1.08188208080271277e-11,1.51197624781400831e-13
0.04,31.2221859959356287,131.010384010943454,3.00162780953569674,9.74253989061216075,-4.88763086122285772e-05,51.6475445943311158,1.54548216767323456e-06,3.34965665682309899,548.635972453807767,0.346420694310776434,0.171860503977579737,70.0000000036447574,-2.28205307288861013e-11,113.699999999565534,0.0734838809649275282,15.2880000000000003,0,0,0.00101804013696402693,1.80009747884589399e-15,-1.58734069119923437e-08,2.61929145365345784e-11,1.45916869803439425e-11
0.05,31.222185985910329,131.010384038045004,3.00715844163023283,5.5769968489095687,-4.21135943534799539e-06,75.3242160169835273,4.73080294831520123e-05,3.34902689347595528,761.698429882464552,0.947854334293939504,0.409211128642743283,70.0000000010935537,-1.04766136577077691e-10,113.700000013612069,0.55013262299765131,15.2880000000000003,0,0,0.00278549703395658196,1.95473045844392346e-14,-1.13584749331540247e-07,4.14067569904437612e-11,2.85688606727574374e-10
0.06,31.222185966868647,131.010384089593572,3.01868664272593046,4.48500474963244322,2.31139019787050305e-05,56.3605563030587007,9.71465785775115924e-05,3.34799244711343214,590.487539073720654,1.60618980149218604,0.665693519146445256,69.9999999197690244,-2.82941102348924619e-10,113.700000040305838,1.57971028663545732,15.2880000000000003,0,0,0.00472017413217633904,1.01936766184118274e-13,-4.07864410983111553e-07,5.76522069423461223e-11,1.73837509686130208e-09
0.07,31.2221859390775336,131.010384164863126,3.03600551209402658,4.00448286551149391,4.63712119495135773e-05,85.8192455386477917,0.000147926970097503541,3.34656708333141317,855.293774977913927,2.27788210706903049,0.926660947343454056,69.9999996219982279,-5.49831570978999292e-10,113.700000079276109,3.1772067926123353,15.2880000000000003,0,0,0.00669410445039518576,3.35900025920073467e-13,-9.92070622953462368e-07,7.83315922772719921e-11,5.99658406989250883e-09
0.08,31.2221859009658012,131.01038426812616,3.06033476575187802,3.77263127792190334,7.06371256062416025e-05,17.6076228145981588,0.000196957592070898702,3.34480227118667583,241.217198863884818,2.92612482887636283,1.17954495655796454,69.9999989088305909,-9.15694670892462832e-10,113.700000132739973,5.24285298735243899,15.2880000000000003,0,0,0.00859912396431777512,8.49635706706491564e-13,-2.01744800413265681e-06,1.10032289818440005e-10,1.56647792516492608e-08
0.09,31.2221858556197738,131.010384390989856,3.0892797608365723,3.74258231141200604,9.5325675231994802e-05,53.4176180048964397,0.000237730218002333866,3.34289666486112669,563.093737704317618,3.46187703891102627,1.39384941462988121,69.9999975134546446,-1.31671842773002699e-09,113.70000019638816,7.33844512707370811,15.2880000000000003,0,0,0.0101735644468633635,1.80613395740032365e-12,-3.4856561047658452e-06,1.59232278560273843e-10,3.20202005890100843e-08
0.1,31.2221858028175774,131.010384534057465,3.12301320909491364,3.81071421019783685,0.000121971080758598364,50.732831688561788,0.000271545837515448313,3.34090447591365036,538.7437595981919,3.9029133825176725,1.57567038389986336,69.999995157830341,-1.72222432289554893e-09,113.700000270567642,9.32732681847184431,15.2880000000000003,0,0,0.0114696609641860067,3.37914451533694905e-12,-5.48904943388414521e-06,2.34452541412924053e-10,5.68476506314615152e-08
0.11,31.2221857431700727,131.010384695667796,3.16106164078641116,3.84323765504598036,0.000147145408783231387,40.0848474374385688,0.000307099758177995722,3.33859717034531034,442.865639305294906,4.36819921201157246,1.76578242121538631,69.9999915253729768,-2.07703942468805025e-09,113.700000354470319,11.6837607126815346,15.2880000000000003,0,0,0.0128370221364947634,5.76365694334259916e-12,-8.08162139954488366e-06,3.4437809457680147e-10,9.36754562129998513e-08
0.12,31.2221856770245907,131.01038487487628,3.20315617196047642,3.86558564807459826,0.000171348089099210797,43.7480799143332604,0.000342946594964391399,3.33600966231316054,475.585948135404465,4.83801864946757032,1.95742650583495204,69.9999862600106582,-2.3147200577597177e-09,113.700000447673773,14.3321420062794882,15.2880000000000003,0,0,0.0142177082532951912,9.17772063248746377e-12,-1.13223702306849879e-05,4.98555567062495836e-10,1.45354343598177095e-07
0.13,31.2221856047215205,131.010385070757366,3.24903338361815308,3.95285669440916232,0.000198169826234992146,48.2585391180499741,0.000371981107240517913,3.33344523512332414,515.915632623689476,5.21512035057569623,2.1172615234944101,69.9999789703044399,-2.35265113573284059e-09,113.700000549782459,16.6533950244453948,15.2880000000000003,0,0,0.0153259223232261182,1.38588880633063252e-11,-1.52681962163171846e-05,7.07166414280215559e-10,2.11287244421402401e-07
0.14,31.2221855263490333,131.010385283071088,3.29862557546706325,3.99981420118284792,0.000223008237377726162,44.9721767850953427,0.000403855591455553264,3.33052592490198407,486.239086056840392,5.63167615200940475,2.29059513099545553,69.9999692426645623,-2.0964169591742506e-09,113.700000660771011,19.4199179783547713,15.2880000000000003,0,0,0.0165500839355928395,2.00553635588333716e-11,-1.99811439493909854e-05,9.81252131659242702e-10,2.9859131057555361e-07
0.15,31.2221854420015994,131.010385511560628,3.35186028506811029,4.05975476911301225,0.000248539990764711958,43.4637160193537753,0.000433543226731567866,3.32747422849243879,472.54218587214001,6.01888316560526437,2.45383766868271946,69.99995661705006,-1.43188768134039915e-09,113.700000780625842,22.182048585914238,15.2880000000000003,0,0,0.0176879988684610287,2.80404916713566325e-11,-2.55291719775422389e-05,1.33309260321839681e-09,4.07727088477750495e-07
0.16,31.2221853515819241,131.010385756490507,3.40881389436676407,4.08854462484130732,0.000272210944932510383,34.4023069357135967,0.000465877824565354701,3.32404684464906053,391.12189082975641,6.44303061809316624,2.62971580822363071,69.9999405987561403,-2.27841984783363582e-10,113.700000909623355,25.4183784408083007,15.2880000000000003,0,0,0.0189344747787753703,3.81042963600432359e-11,-3.19913711614788564e-05,1.77662362644707755e-09,5.46937370926295155e-07
0.17,31.2221852554099399,131.010386016990765,3.46923909377793649,4.13347468842419552,0.00029684158695823977,43.4155809381403728,0.000495744973995866601,3.3205135250562221,471.78125980632376,6.83404379119085981,2.79420112365087148,69.9999206448319882,1.67575894446247236e-09,113.700001047478835,28.5969980778046526,15.2880000000000003,0,0,0.0200835795555658371,5.05622819343119236e-11,-3.94162603380559734e-05,2.32482468580976756e-09,7.14768170397066036e-07
0.18,31.2221851530022434,131.010386294375877,3.53351204963262022,4.16207877285686756,0.000320492787063832857,36.2151660219171347,0.000526966735016640565,3.31665933612355879,407.101567211914528,7.2444022294323478,2.96528531587496236,69.9998961790314524,4.45070668055043651e-09,113.700001195059045,32.1341903991183955,15.2880000000000003,0,0,0.0212895378539265934,6.5741708189353534e-11,-4.79243856484647045e-05,2.99669991322666987e-09,9.21230820748327094e-07
0.19,31.2221850444828668,131.010386588308563,3.60153760019172342,4.17456309251139679,0.000342914278589344943,40.9041800427263027,0.00055982867240863632,3.31244583927210501,448.953132831826849,7.67810673790947895,3.14433961722118216,69.9998665624008964,8.30674092292676784e-09,113.700001352409558,36.0967170721845179,15.2880000000000003,0,0,0.0225641073333706747,8.40032927522686365e-11,-5.75836346763551867e-05,3.80911503044151526e-09,1.17316671380156179e-06
0.2,31.2221849296486234,131.01038689934137,3.67347464118590317,4.20078915399145636,0.000366573034254704516,37.5214898208491761,0.000590466919182690893,3.30812712915434881,418.515630199161365,8.08216006412957277,3.31318683933006453,69.9998311045104487,1.34800080829191884e-08,113.700001520067786,39.9955165273270055,15.2880000000000003,0,0,0.0237515420632470921,1.05728805481567758e-10,-6.85028882131185225e-05,4.78351733027568889e-09,1.4690610466811608e-06
0.21,31.2221848088436893,131.01038722653837,3.74905730552401684,4.22722562033261262,0.000390310433246848657,36.0064697775761644,0.000620601272787201603,3.30359776763142721,404.818761014464428,8.48018829437500621,3.47992805775657654,69.9997890742529592,2.02433263776548733e-08,113.700001697833756,44.0315784885794201,15.2880000000000003,0,0,0.0249212734096428447,1.31320595517854955e-10,-8.07208291683553139e-05,5.93661589182972911e-09,1.81631626331753899e-06
0.22,31.2221846819136672,131.010387570319409,3.82840670130281646,4.2176244726165093,0.000410696285369717819,43.5935627685881499,0.000655758920494764063,3.29841875767922987,472.542185872136486,8.94831461811120121,3.67066782999472752,69.9997397083127737,2.88926538075102191e-08,113.700001886238866,49.0266756129506618,15.2880000000000003,0,0,0.0262970098082033268,1.61186003536399267e-10,-9.43348117723774896e-05,7.29106197993283208e-09,2.23980539128825791e-06
0.23,31.2221845484548304,131.01038793178239,3.91183756115468473,4.25320537954326383,0.0004356497720089569,36.207459360748949,0.000683686922722525747,3.29355466128287455,406.340642146102141,9.31799902525197865,3.82760028360492655,69.9996821549030983,3.9766623706965518e-08,113.70000208621326,53.1608354775167555,15.2880000000000003,0,0,0.0273834518362109196,1.95767624418301473e-10,-0.000109505708778552874,8.87784718088286285e-09,2.70740355927931971e-06
0.24,31.2221844093456014,131.010388308538637,3.99866964940866776,4.27135264557773553,0.00045883378920767232,37.3286080087975947,0.000713911697673520317,3.2882529474867046,416.232824001711379,9.7203332459195213,3.9956861712714935,69.9996155408946805,5.32509871046438109e-08,113.700002296918697,57.8502398901668755,15.2880000000000003,0,0,0.0285658473732890855,2.35534745143307651e-10,-0.00012617657385590063,1.07071802425012536e-08,3.25424194465518317e-06
0.25,31.2221842644570167,131.010388700938847,4.08900446593793809,4.29698686981540234,0.000482848983334858658,38.3649566400252979,0.000742483922667206905,3.28284626589867479,425.364080791506922,10.1009615935159527,4.1562806652626314,69.9995389781877293,6.97479781374676735e-08,113.700002518962805,62.4689963611702623,15.2880000000000003,0,0,0.0296844577155840929,2.80933085873043406e-10,-0.000144451636124542286,1.28055329635332884e-08,3.87142965072796435e-06
0.26,31.2221841140756986,131.010389108203611,4.18262110402873155,4.32755423691547136,0.000507438991606541483,41.7865661614553829,0.000769736419800412888,3.27732087646770287,455.80158342417883,10.4644497354123782,4.31094871887776954,69.9994515368878751,8.97024502886333285e-08,113.700002752408935,67.0452443356678742,15.2880000000000003,0,0,0.0307527002093570291,3.32431765373287754e-10,-0.00016436315770221847,1.51925047864838523e-08,4.56355359993810651e-06
0.27,31.2221839578137299,131.010389531387915,4.27982215321117465,4.33742811840656994,0.000529702335486379188,38.2242911032538473,0.000800211178185602123,3.27123004841987974,423.842199659872563,10.8736118498261902,4.48123226393084195,69.9993522521519935,1.13587393208351198e-07,113.700002998306658,72.3900346549699947,15.2880000000000003,0,0,0.0319551720828357214,3.90484337603431509e-10,-0.000186059811616844751,1.79019946498730075e-08,5.36790267753501075e-06
0.28,31.2221837957695953,131.010389970223883,4.38053283172365671,4.35979025650862262,0.000553527510562852902,44.1207307275094038,0.000828072271385077072,3.26514386100193477,476.346873201222195,11.2478718916014184,4.63949182586423614,69.9992400702920463,1.41938296327408329e-07,113.700003257081931,77.4582454645660761,15.2880000000000003,0,0,0.0330550782151640757,4.55595825375374429e-10,-0.000209619220926101062,2.09616181379585756e-08,6.25569396794615011e-06
0.29,31.2221836278828384,131.010390424876022,4.48480177698289584,4.38135974025744623,0.00057737648726709299,35.3536197607625553,0.000855659611391794222,3.2588361863853601,397.970310422111766,11.6195889013503368,4.79682445966682813,69.9991139044831527,1.7532937395312496e-07,113.700003529427192,82.6616578528940948,15.2880000000000003,0,0,0.0341475147840558241,5.28268525040872464e-10,-0.000235137545717689308,2.44023887909330158e-08,7.24907222782668121e-06
0.3,31.2221834544381096,131.010390894570321,4.59240982688131272,4.39617507281761988,0.000600356665334356751,33.1490797613948018,0.000884158719714270942,3.25217107922164672,378.185945710871067,12.0052186882677852,4.95887519756831807,69.998972627127344,2.14383684192303281e-07,113.700003815596887,88.2385269149682756,15.2880000000000003,0,0,0.0352808420099011907,6.09029939588318471e-10,-0.000262641159892275291,2.82471356422800846e-08,8.36561857411674722e-06
0.31,31.2221832755909574,131.01039137888381,4.7032380575360353,4.42235615181669761,0.000624899913490765827,34.9528590290802086,0.000910025197609511073,3.24555398289468222,394.16562209302117,12.3556398803864607,5.10879227158949156,69.9988150759387651,2.59766173767152649e-07,113.700004116072961,93.4639131761651498,15.2880000000000003,0,0,0.0363107024397255479,6.98403788157463991e-10,-0.000292187019282257228,3.25229566712151178e-08,9.57826248689966157e-06
0.32,31.2221830914257232,131.010391877587324,4.81722282885169673,4.45155794779377789,0.000649944303128982049,38.0379859115142835,0.000934821026682707218,3.23882361682650144,421.559393462426954,12.6924793110791878,5.25399282922068878,69.9986400687318024,3.12179641788393281e-07,113.700004431478234,98.6283237403037703,15.2880000000000003,0,0,0.0373006526995305274,7.96905013945712519e-10,-0.000323836613651358495,3.72580440687311147e-08,1.09050644159405278e-05
0.33,31.22218290196043,131.01039239063175,4.9343519698327194,4.48019701204722054,0.000675004219851668761,37.7093551175013246,0.000959261610436717115,3.23189933669563656,418.515630199168186,13.0256844327599097,5.39788776638052958,69.9984463826819052,3.72372687880250348e-07,113.700004762578004,103.87354288045799,15.2880000000000003,0,0,0.0382799263433428877,9.05047894999210997e-10,-0.000357667290238851605,4.24836225249657193e-08,1.23603484615852587e-05
0.34,31.222182707020778,131.010392918491164,5.05476263450916541,4.49049305198152204,0.000697378143373914754,29.5227085089536203,0.000987142430045659337,3.22427911658814059,345.465636880756449,13.4081741031825317,5.55863100914667463,69.9982327456812641,4.41143957445642244e-07,113.700005110463266,110.062177258613033,15.2880000000000003,0,0,0.0394040418267209702,1.02333461745717641e-09,-0.000393806243978271305,4.82396483202145133e-08,1.40087103268591529e-05
0.35,31.2221825067937928,131.010393460657156,5.17831168393457641,4.50711781535187139,0.000720712543856854714,32.3530371383660977,0.00101333646443235357,3.21661305844837253,370.576570052703289,13.7686530554979374,5.71176159517965232,69.9979978091806316,5.19362042776584697e-07,113.700005475786654,116.058400304168075,15.2880000000000003,0,0,0.0404634764462946869,1.15232390415689195e-09,-0.000432299813734132244,5.45552399130644805e-08,1.57912776608867467e-05
0.36,31.2221823012122108,131.010394017312592,5.30505329869157727,4.52767240178778962,0.000744729708600240731,36.5526511043957356,0.00103828652712813154,3.20885713174522058,407.862523277719447,14.1132764952183631,5.85938873702120233,69.9977401961163537,6.07939829707116331e-07,113.700005859608282,121.939407863977465,15.2880000000000003,0,0,0.0414763190843316643,1.29254043868676357e-09,-0.000473255972436325862,6.14699225552327593e-08,1.77198251922661022e-05
0.37,31.222182090341061,131.010394588280832,5.43493909097431604,4.55039311415752579,0.00076918150115683735,34.6835787828593496,0.00106234372950533948,3.20097384516078431,391.121890829766642,14.446930470491731,6.00318739776240751,69.9974584775585669,7.0785096329375243e-07,113.700006262864989,127.771540530283914,15.2880000000000003,0,0,0.042456928843506235,1.4445318520011827e-09,-0.000516746496826029863,6.90186481791334769e-08,1.98053803654614999e-05
0.38,31.2221818741223878,131.010395173719473,5.56801609611825477,4.56315131642791805,0.000792019287104061913,36.2353933787001239,0.00108827974821363053,3.19255015153205646,404.818761014460279,14.8084413239345949,6.1564787166299757,69.9971511865591651,8.20121521966083772e-07,113.700006686723384,134.244380272309172,15.2880000000000003,0,0,0.0435194095147296359,1.60882660749176723e-09,-0.000562873331420229127,7.72423853301427293e-08,2.21128406351508731e-05
0.39,31.2221816525004634,131.010395773780147,5.704329739781131,4.57922628245169783,0.000815489716137310881,30.9425419640016202,0.00111309493143926189,3.18402316666385765,357.640624933827439,15.1559126959619999,6.30488433186772657,69.9968167722787769,9.45855271408966431e-07,113.700007132429306,140.616382889747683,15.2880000000000003,0,0,0.0445406353688629561,1.78596578656278109e-09,-0.000611756345505213715,8.61868943159197994e-08,2.45968452142520012e-05
0.4,31.2221814256617982,131.010396387955836,5.84373750626454935,4.59349479979191955,0.000838670682925170751,29.5834243852937959,0.00113797512888990423,3.17521289611434332,345.465636880754005,15.505969085398343,6.45410901523083158,69.9964536498379317,1.08621525395706341e-06,113.700007600947828,147.185065961143067,15.2880000000000003,0,0,0.045569462889951777,1.97653506559195414e-09,-0.000663427505461186432,9.58835144134294998e-08,2.72901174189528038e-05
0.41,31.2221811937141673,131.010397015953487,5.98615797249314241,4.60939449845229365,0.000862163931524819621,33.360545626359837,0.00116210409424792778,3.16624854525325983,378.946870776686467,15.8471768437686258,6.60022848408685459,69.9960602026584695,1.24241947051318175e-06,113.700008093413757,153.73182724817184,15.2880000000000003,0,0,0.0465722905345462151,2.18109996727848554e-09,-0.000717942131686907965,1.06367950505874699e-07,3.01820283711074823e-05
0.42,31.2221809567080335,131.010397657635991,6.13155423418529733,4.63387609959193458,0.000887317919769279608,37.5676427387571721,0.001183742077125155,3.15743374731593907,416.232824001711379,16.155026338188506,6.73482947265292431,69.9956347739890248,1.41574639558456e-06,113.700008611107208,159.760443802515937,15.2880000000000003,0,0,0.0474770882933877245,2.400206535531791e-09,-0.00077537935552726017,1.17680930846389008e-07,3.32294321368729263e-05
0.43,31.222180714655078,131.010398312971745,6.27991949833728835,4.65367427313455995,0.000911660169575580258,33.0386483003103493,0.00120612360190941372,3.14823214930187856,375.903139513433644,16.4750454055619109,6.87353555569934649,69.9951756835756242,1.60752723178871754e-06,113.700009155418982,166.15023929888028,15.2880000000000003,0,0,0.0484176551665520677,2.63438237315801404e-09,-0.000835821567166909188,1.29864614855892046e-07,3.65287677570896608e-05
0.44,31.2221804673911407,131.010398982407111,6.43138341412837455,4.65757387742934892,0.000932929976641759203,30.4788052564327749,0.00123214974254881528,3.13809943757763454,353.075012538921555,16.8483715860516412,7.03046484016701978,69.9946811832270441,1.81916859536649675e-06,113.700009728069276,173.762989227436179,15.2880000000000003,0,0,0.0495148886868988364,2.88411342836306464e-09,-0.000899417740154189794,1.42975581697416844e-07,4.01983191819108926e-05
0.45,31.2221802146980103,131.010399666535704,6.58611776122768511,4.65827001030579346,0.000953562143933252499,35.4620561517945134,0.00125873275223327787,3.12754579585638304,397.209385356286873,17.2316459864824161,7.19073264961644831,69.9941493995125938,2.05218870761162579e-06,113.700010330973456,181.755888424112015,15.2880000000000003,0,0,0.0506413642318551335,3.14987863732273609e-09,-0.000966369542842942814,1.57083782729145849e-07,4.41725079750487196e-05
0.46,31.2221799565319174,131.010400365476642,6.74415901717088939,4.66907507286434065,0.00097630283571516251,41.3913707355688842,0.0012823814722795761,3.11722412848720953,449.71405889764344,17.5754687869478978,7.33738035579407555,69.9935783582983362,2.30821229426708146e-06,113.700010965912341,189.078525726536213,15.2880000000000003,0,0,0.0516519027755614896,3.43223060675433133e-09,-0.00103681314204437207,1.7224885851047691e-07,4.83373548649469587e-05
0.47,31.2221796928065203,131.010401079464799,6.90557672428163105,4.67806301106434042,0.000998761260684927557,28.0209900204918974,0.00130616618884544979,3.10657060381263461,331.007810630253402,17.9233234115620377,7.48533101007974988,69.9929660462147325,2.5889364060732201e-06,113.700011634803886,196.634049649816575,15.2880000000000003,0,0,0.0526742959306323727,3.73170463860384924e-09,-0.0011108841623615434,1.88532207060213475e-07,5.28148505664365441e-05
0.48,31.2221794239793269,131.010401807256216,7.07001851744381948,4.68642527483421745,0.00102109091231145262,27.6007969606275125,0.00132978852885184593,3.09563681785184297,327.203122301157407,18.2709832353803314,7.63313726727991071,69.9923104035261474,2.89614261094227829e-06,113.700012338884164,204.33305198470137,15.2880000000000003,0,0,0.0536961221459722679,4.04904859899578719e-09,-0.00118849531779471017,2.05948560519311644e-07,5.75998398329450787e-05
0.49,31.2221791502289392,131.010402548365278,7.23734841566291642,4.70156796398202914,0.00104489945272251677,34.6487244505178253,0.00135120419031512233,3.08484494341801163,389.60000969812296,18.589315545984995,7.7707981814672209,69.9916093757078812,3.23165731652504743e-06,113.700013079832303,211.511801733856089,15.2880000000000003,0,0,0.0546317638991248022,4.38486615800834454e-09,-0.00126967773493266863,2.2453662401782158e-07,6.26054017926546362e-05
0.5,31.2221788715876762,131.010403302704333,7.40754387012007864,4.72212438923579736,0.00106996435823571525,35.6033845714535389,0.00137072557486675028,3.0741588573465477,397.970310422105001,18.8826594549893159,7.8998011517407587,69.9908609011483378,3.5973597360057951e-06,113.700013859590555,218.236320199079358,15.2880000000000003,0,0,0.0554939729313439212,4.73968531279909998e-09,-0.00135450679800636423,2.44344941868023912e-07,6.78409867869358833e-05
0.51,31.2221785881337617,131.010404070060673,7.5805467220577798,4.73558879650721298,0.00109346949398930206,27.1956639286467201,0.00139183542187690463,3.06284319292573448,323.39843497208409,19.200774511812984,8.03722958125224807,69.9900628955037689,3.99519228958782199e-06,113.700014680103109,225.647740475438098,15.2880000000000003,0,0,0.0564289867670437692,5.11403675587933804e-09,-0.00144303978709531136,2.65418546512062939e-07,7.34915902759761199e-05
0.52,31.2221782998839075,131.01040485046758,7.75636900758130832,19.1470462604338429,-0.00157793054377495146,33.1093193647843194,0.00089969574621983977,1.90844402447286421,372.098451184341457,22.8706150682421026,8.17574397603682002,69.9892123481260029,1.00885073862370502e-05,113.700021568590088,320.141408315949832,15.2880000000000003,0,6.26610767645119093,0.0672143821064457303,5.50682656738266563e-09,-0.00159045337307616363,3.62616818990704775e-05,9.64788340095090171e-05
0.53,31.2221780069613786,131.010405643697709,7.93516848500881533,18.9728940909775474,-0.00153517033359358785,34.7564312389923629,0.000917060933639325822,1.86855199312573439,386.55624643486243,23.1995833409517687,8.30522048241528132,69.9881728135350869,6.71031166880714888e-05,113.70008265665858,329.411742532935932,15.2880000000000003,0,6.28994207084495738,0.0681813235000749696,6.00046813411668663e-09,-0.00209330833700775492,3.62187242533765891e-05,0.000128806919033061079
0.54,31.2221777093448623,131.010406449670882,8.11704214621209275,18.8040231202661232,-0.00149317724969084769,30.5576715204428808,0.000934266253612037081,1.82806183392817423,349.270324209843579,23.5268447846761148,8.43377287533946784,69.9868415638278663,0.000124042334038661521,113.700143671163033,338.764970464048929,15.2880000000000003,0,6.31373540578069914,0.069143254977694274,6.65801210501516761e-09,-0.00261024013716536999,3.61756823224393517e-05,0.000162877978453062407
0.55,31.222177407296634,131.010407267650521,8.30179052396413297,18.644511252517848,-0.0014523854133813986,32.3768262351249305,0.000951082121974337327,1.78736917490783886,365.250000591990727,23.8469495483201968,8.55945779439424825,69.9852106275718171,0.000180903553460129912,113.70020460894068,348.039938520253713,15.2880000000000003,0,6.33744852635213718,0.070084159801232393,7.47859295302364833e-09,-0.00314083501364020032,3.61326411114112252e-05,0.000198649955497256852
0.56,31.2221771008261513,131.010408097611531,8.48941464869104223,18.4971308814435815,-0.00141295763128094945,30.2392209086517134,0.000967322517267831384,1.74679541256509507,346.226561946578727,24.1557037454175543,8.68077026978745003,69.9832721000763058,0.000237684198149582703,113.700265467229443,357.104220073602278,15.2880000000000003,0,6.36108108572614483,0.070991712429313486,8.46093966770154293e-09,-0.00368533953700411884,3.60896313777574014e-05,0.000236102123004914167
0.57,31.2221767900092964,131.010408939348025,8.67986386038587909,18.3466776627231418,-0.00137374592916853183,29.9076166276013851,0.000983810641391436817,1.70498242776615583,343.182829683302316,24.4717700094351009,8.80445649767050043,69.9810180361630501,0.000294381676808458913,113.700326243159353,366.50374440912492,15.2880000000000003,0,6.38463181317680029,0.0719207608264265247,9.60370906897864527e-09,-0.00424378402082221159,3.60467016287143769e-05,0.000275431371569772264
0.58,31.2221764748340824,131.010409792893029,8.87315560897459576,18.1835334160396087,-0.00133407820551765415,39.3041479589343297,0.00100111510031204048,1.6609180181589096,426.12500585731533,24.8081310209953259,8.93519093084838723,69.9784403495983014,0.000351001075722785175,113.700386944966937,376.641078142696642,15.2880000000000003,0,6.40809849984105462,0.0729094604761973547,1.0905386914723613e-08,-0.00481643280433874822,3.60038829568170503e-05,0.000316888326574041171
0.59,31.222176154935152,131.010410659240591,9.06958164286637647,18.0434147082234588,-0.00129645636595741485,31.9134910833689638,0.00101716627081023829,1.61807851263264646,360.68438819711065,25.1179034680066593,9.0560500895891618,69.9755305840644013,0.000407524238026007741,113.700447548226876,386.098552312772711,15.2880000000000003,0,6.43151555910116457,0.0738200248407376858,1.23640837695983871e-08,-0.00540458996468095882,3.59611320499696494e-05,0.000360018347925521057
0.6,31.2221758305176778,131.010411537833249,9.26899129020388912,17.8786377827587657,-0.00125755418900568103,28.3950085043403213,0.00103476089274574671,1.57164840371411074,329.48595949860578,25.46471839302286,9.18997047244677212,69.9722800310391904,0.000463956105404277714,113.700508060717056,396.826657467645305,15.2880000000000003,0,6.45485876740480169,0.0748394616417534797,1.39785504806849551e-08,-0.00600794079386205403,3.59185290511412585e-05,0.00040572774131762587
0.61,31.222175501545145,131.01041242877082,9.47142134783710254,17.7130293348612184,-0.00121905952201340406,33.2329164982054834,0.00105252387045441697,1.52392143329479035,372.09845118432969,25.8173914594696079,9.32570954951552622,69.9686797589420308,0.000520301788857472649,113.700568490824537,407.886527826237057,15.2880000000000003,0,6.47813040917702931,0.0758761224219893365,1.57471907340243423e-08,-0.00662687363885711752,3.58761029976085365e-05,0.000453714635777409479
0.62,31.2221751681318977,131.01041333174291,9.67679175018387561,17.5928543481166209,-0.00118399761535417365,41.2623382225297206,0.00106754581633674,1.48010447705056958,442.86563930529212,26.1094582995946958,9.43938639844972549,69.9647207306799004,0.000576542543912892682,113.700628812653463,417.159175007512488,15.2880000000000003,0,6.50132886545551347,0.0767346711728916775,1.76685436868206697e-08,-0.00726146166784210831,3.58339069005162396e-05,0.000502776633318110112
0.63,31.222174830115982,131.010414247190369,9.88523596988158282,17.4621406667358521,-0.00114859192813860419,23.5159386644247128,0.0010832479613951812,1.43414700676961004,286.112512747078938,26.4191088318470335,9.55911597257729895,69.9603939910809913,0.000632691168939018378,113.700689045759233,427.10407205428902,15.2880000000000003,0,6.52445744101637537,0.0776449044943529898,1.97404894499708119e-08,-0.00791233555523430075,3.57919563758228996e-05,0.000554328672755298934
0.64,31.2221744880444803,131.010415173626058,10.0963382848862313,17.3131326401492736,-0.00111244741525351075,23.0949079986269723,0.00110017451293619004,1.38499649353718168,282.307824417967538,26.7588037769040774,9.68940789535341018,69.9556905736389041,0.000688737730252979644,113.70074917621551,438.149146786029974,15.2880000000000003,0,6.54744892163041126,0.0786434442184266586,2.1962333841797025e-08,-0.00857813355389903248,3.57504015553534776e-05,0.000608688612537155354
0.65,31.2221741419070256,131.01041611107857,10.3101145443237865,17.1975639359455919,-0.00107877810623888278,40.6188512774919701,0.00111496002624620694,1.33882076919935966,436.778144778747503,27.0514418739086082,9.80256514554378811,69.9506016141399556,0.000744678463580907197,113.700809199695968,447.775680268811925,15.2880000000000003,0,6.57036834874931852,0.0795036918875483278,2.43319796109817913e-08,-0.00925923484371003747,3.57092728270550286e-05,0.0006641899213629159
0.66,31.2221737912441597,131.010417060797749,10.5269280489343782,17.076551810488116,-0.00104510231579490239,34.5929205735283674,0.00113010083754180564,1.29101989885895185,383.512515171600171,27.354388594877669,9.91917254058179765,69.9451181153254993,0.000800511358521221561,113.70086911503158,457.851506915574589,15.2880000000000003,0,6.59318019019701396,0.080394243391137335,2.68461361393639898e-08,-0.00995723968421513561,3.56685262512096131e-05,0.000722243588147898456
0.67,31.2221734362338346,131.010418022300144,10.746649002352969,16.9397405646196155,-0.00101085013456831871,23.9016998747829952,0.00114633188680901403,1.24012470033644551,289.156244010342505,27.6846604430174068,10.0453343298692417,69.9392305230639266,0.000856232166678273787,113.700928916992126,468.964385844591902,15.2880000000000003,0,6.61590706831764841,0.0813651103614194959,2.95033776444474029e-08,-0.010671876695658479,3.56282417064405189e-05,0.000783409003044672472
0.68,31.2221730770382671,131.010418995145159,10.9691597410804818,16.8101044906801746,-0.000977394739971852809,29.7839526537429791,0.00116210577284241428,1.18903517605541342,340.899992485846269,28.0066776787753042,10.1682945349292897,69.9329292001442866,0.000911847894209035078,113.700988616465111,479.927203187047155,15.2880000000000003,0,6.63855783953547096,0.0823117244018861244,3.23021716603189653e-08,-0.0114029779614299477,3.55884913577515772e-05,0.000846796700143745743
0.69,31.2221727137372973,131.010419979116136,11.1944061143766618,16.6992311584216822,-0.0009453514948613228,36.6196101445003919,0.00117656088149277948,1.13950918279285718,401.014072685363431,28.3005203631097544,10.2809394067458282,69.9262047094340033,0.000967337185947825359,113.701048183896859,490.040110430471941,15.2880000000000003,0,6.66106993690919058,0.0831755404486410888,3.5240699423990426e-08,-0.0121505480024325218,3.55493362604248879e-05,0.000911759236428529257
0.7,31.2221723462110674,131.010420974539471,11.4224881002899412,16.5888049725582754,-0.000913642001209954871,30.7575415482748475,0.00119095829660359888,1.08907858710450101,349.270324209852845,28.5953672715030081,10.3937153385332461,69.9190474748811823,0.00102271587447482675,113.701107643191321,500.293237851379331,15.2880000000000003,0,6.68349123315901483,0.0840423150077490022,3.83163059112070006e-08,-0.0129152232347622617,3.55108016112880401e-05,0.000979214800628189132
0.71,31.2221719745147794,131.010421981265409,11.653370333495813,16.4686923845889339,-0.000881736949220983542,25.3243226887628055,0.0012060416745892017,1.03619249791511625,301.331264063405797,28.9085068764885591,10.5128179275046385,69.9114478111100226,0.00107797049782620965,113.701166976129599,511.299029201734015,15.2880000000000003,0,6.70582964726331276,0.0849628594253124397,4.15270660727881614e-08,-0.0136970712667608841,3.54729477526994291e-05,0.00104984242888111188
0.72,31.2221715986558976,131.010422999274084,11.8870543735353724,16.3367994603073008,-0.00084957464562310334,30.954464625634337,0.00122199771460393251,0.980379578952634501,350.79220534145287,29.2444063927345219,10.6398516873792985,69.9033957446494156,0.00113310089208987588,113.701226183593903,523.238294404359067,15.2880000000000003,0,6.72805159187072643,0.085950303505916037,4.48708662804815888e-08,-0.0144963869843513418,3.54358232637293325e-05,0.00112399293897657974
0.73,31.2221712186373104,131.010424028558191,12.1235455358044852,16.237130474003628,-0.000819365122910237611,39.095510376499611,0.00123551842126782239,0.928488032919643769,422.320318528233997,29.5262778149066492,10.7473223994171097,69.8948809367844746,0.00118810853829422213,113.701285268854164,533.361226891310821,15.2880000000000003,0,6.75016549463650239,0.0867789647201003961,4.83455614285593081e-08,-0.0153135318805724709,3.53994751213300196e-05,0.00119876817397924509
0.74,31.2221708344052686,131.010425069264187,12.3628921705038852,16.1284940256320581,-0.000788995746610874488,24.5759899067453063,0.00124966929329374684,0.874181227453384668,294.482813471059444,29.8254245798715516,10.8607566580141359,69.8858933818705736,0.00124297729755642474,113.701344210026107,544.211011768469348,15.2880000000000003,0,6.77219830162104142,0.0876584062707771866,5.1948793413491575e-08,-0.0161488552027428053,3.53639529524358342e-05,0.00127693716995943359
0.75,31.222170446299284,131.010426120469333,12.6048392483265133,16.0145453650377689,-0.000758694503814319335,28.6528401151385594,0.00126419750843670539,0.817918973655648474,330.246885564414924,30.1359812962546663,10.9780811208489872,69.8764228216901842,0.00129771755710342165,113.701403022630203,555.590281594881731,15.2880000000000003,0,6.79412668485936244,0.0885713896754271729,5.56803337050167265e-08,-0.0170014409520667618,3.53293702120185119e-05,0.00135832011534224345
0.76,31.2221700542209284,131.010427182441731,12.849469472548563,15.9122678915263354,-0.000729238014270141926,30.8275615913687311,0.00127775885417653694,0.762603287117558981,349.270324209861712,30.4266501900942252,11.0880972062160197,69.8664590617003824,0.00135232804521620044,113.701461706126821,566.346271481203303,15.2880000000000003,0,6.81591393135914192,0.0894259291533478357,5.95372775347662421e-08,-0.0178719649180851987,3.52957596752942351e-05,0.0014416084040855565
0.77,31.2221696581209329,131.010428255315674,13.0968273986686707,15.8134690388814914,-0.000700211802997446594,28.8473721080567493,0.00129097449091279421,0.706896592894510678,331.76876669607077,30.7119827389027229,11.1960050103960054,69.8559918322679323,0.00140679114632884911,113.701520236511328,577.004441871314725,15.2880000000000003,0,6.83760038697318429,0.090264792213916506,6.35170899712130107e-08,-0.018760879677171511,3.52631683701935174e-05,0.00152746615997012493
0.78,31.222169258063591,131.010429338916765,13.3468699178734198,15.7062733234300644,-0.00067110664895687303,23.748133072786981,0.00130480306921286569,0.648641764820651612,286.873437812889904,31.0145219014647537,11.3098795701151147,69.8450106610422665,0.00146111214661121284,113.701578622404597,588.414274197899772,15.2880000000000003,0,6.85918903847980932,0.0911542343716869874,6.76181371313223315e-08,-0.0196681673037010403,3.52316668478064277e-05,0.00161707104476767555
0.79,31.2221688541351234,131.010430433010896,13.5995370765241503,15.5947832609793693,-0.000642127778609557728,33.6337418321970603,0.0013189320753855384,0.588455257683214605,373.620332315953419,31.3270493367663114,11.4271470761691649,69.833504890207692,0.00151530001170093387,113.701636877683455,600.318133917724595,15.2880000000000003,0,6.88067528752457225,0.092073040714032009,7.18389425061563038e-08,-0.0205937966772245344,3.52013261335762986e-05,0.00171019443905131739
0.8,31.2221684461329545,131.010431538149248,13.8549911770213736,15.501878342418852,-0.000614165763737324535,34.078796008214276,0.001331435770882954,0.530745641965773229,377.42502064505743,31.6043556592410049,11.5316163298764938,69.8214636923878231,0.0015693333367245944,113.701694973148662,610.978189354396818,15.2880000000000003,0,6.90205340721128113,0.0928883368744948673,7.61756042183077333e-08,-0.021538918855730893,3.51721687746991195e-05,0.00180447040967660608
0.81,31.222168034156411,131.010432654062072,14.1131618567906152,15.3984091198645494,-0.00058605802506973728,22.3015415881210615,0.00134473828644680036,0.469952603158628579,273.937492693991885,31.9035600968156885,11.6437450445413084,69.8088761138586449,0.00162321651373820738,113.701752916114216,622.586007050734338,15.2880000000000003,0,6.92331084424422816,0.0937680015276305123,8.06271486164954925e-08,-0.0225033268923179736,3.51442777749214804e-05,0.00190306680517320407
0.82,31.2221676183853525,131.010433780260797,14.3739169571293353,15.2911390784982455,-0.000558099758302649132,28.5531150760180239,0.00135829380513235467,0.407243869113606716,328.725004432770049,32.2118903919481809,11.7589749232553178,69.7957311650673375,0.00167694667864330292,113.701810703383828,634.662164630683151,15.2880000000000003,0,6.94446317876971708,0.0946744960237384664,8.51931193840910824e-08,-0.0234866033263184601,3.51177429517823939e-05,0.00200536627447484711
0.83,31.22216719880754,131.010434916779019,14.6372718938151927,15.2057135788947608,-0.000531179733602230183,36.1957583748466547,0.00136985433844681462,0.348020039730108699,395.68750322465047,32.4761763206623399,11.8582681659109692,69.7820177216774482,0.00173052097112192131,113.701868332040775,645.102880018968676,15.2880000000000003,0,6.96551585215873903,0.0954515467528199851,8.98711486519287864e-08,-0.0244891645334807326,3.50926214225790326e-05,0.00210807062799145276
0.84,31.2221667753262189,131.010436063880064,14.903306308407128,15.1166645571393996,-0.000504360972709024034,22.5000395157450797,0.00138160647320599117,0.28709129662548033,275.459374825645227,32.7482497361691074,11.960177924961334,69.7677248025805596,0.00178393658898125316,113.701925799352267,655.9402652946751,15.2880000000000003,0,6.98647015460350485,0.0962514934766380836,9.46584425153881436e-08,-0.0255115770896892878,3.50689676861036759e-05,0.00221442309600998217
0.85,31.2221663482215099,131.010437220802743,15.1718107614067712,15.0111892028783345,-0.000477275647638598769,24.5042537746248819,0.00139471776876708294,0.221483429675728927,292.960932339393764,33.0559547052857283,12.0747090948561109,69.7528413921529022,0.00183719076260206618,113.701983102088874,668.307468748066071,15.2880000000000003,0,7.00730902157354141,0.097156173935325621,9.95560450020824034e-08,-0.026552902423094514,3.50468896389336028e-05,0.00232640706140966984
0.86,31.2221659173324291,131.010438387985005,15.4429141374362366,14.9190030558548354,-0.000450866536641351056,30.5894018792352433,0.00140651839204064522,0.157772897939242401,346.226561946558718,33.3358960702126623,12.1791475517201082,69.7373560804443997,0.00189028068230459915,113.702040237607292,679.657110670721977,15.2880000000000003,0,7.0280136208328301,0.0979792613025273068,1.04559941195106498e-07,-0.027614211544991548,3.50264261645454928e-05,0.0024398182579874958
0.87,31.2221654826842077,131.010439565358439,15.7166022265120677,14.8333081198396091,-0.00042487977330523042,28.5156145045343514,0.00141759051429929113,0.0945699376004507236,327.964078366998024,33.6019249719888933,12.2784489371203325,69.7212574680044099,0.00194320358141808025,113.702097203048538,690.529916116084905,15.2880000000000003,0,7.04861605645399969,0.0987614656189472612,1.09668516387292811e-07,-0.0286956561569241611,3.50076504026330289e-05,0.00255553361795084416
0.88,31.2221650443127174,131.010440752825986,15.992852443967994,14.7397338686882424,-0.000398904895487267293,24.7035549098068863,0.00142925377642599306,0.028478411192677279,294.482813471041823,33.8856784840264069,12.3839629075137587,69.7045341354667443,0.00199595673083040369,113.702153995581014,702.222972023141779,15.2880000000000003,0,7.0691129935555308,0.0995957732894529602,1.14880673745838808e-07,-0.0297972363782876663,3.49906408475561556e-05,0.00267597425521768359
0.89,31.2221646022971022,131.010441950172606,16.2716091210364802,14.63856666128558,-0.000372987230695471866,27.05772026603087,0.00144150477941015352,-0.0405802800206351497,315.028134248086985,34.187279812091468,12.4957502728321899,69.6871745214740912,0.00204853741961308995,113.702210612333943,714.759814427430797,15.2880000000000003,0,7.08950262246616525,0.100482546934386338,1.20195450539767871e-07,-0.0309189319302914864,3.49754766873480109e-05,0.0028013486397430341
0.9,31.2221641565684962,131.010443157585826,16.5529297215484306,14.5585583017038953,-0.000347828140194444491,29.8476294698022677,0.00145160201319357402,-0.105382137701638859,339.378142354214447,34.4408633913534885,12.5901750004546535,69.6691667227303952,0.00210094292131705711,113.702267050633026,725.382979491577998,15.2880000000000003,0,7.10979258562888905,0.101228195867175685,1.25609889936005174e-07,-0.0320613802035753029,3.49622206223543241e-05,0.00292632557631797817
0.91,31.2221637071951079,131.010444374880535,16.8367663886890284,14.4707642731824944,-0.000322699084037928873,22.8162365206127511,0.00146228113868523382,-0.173142494445901879,277.742181023078899,34.7122787019251007,12.6908721125576651,69.6504991557576147,0.00215317061365802873,113.702323307721841,736.840875902348444,15.2880000000000003,0,7.12997671359205309,0.102026263420217381,1.31123435955869791e-07,-0.0332244576361177268,3.49509574309032518e-05,0.00305629720464147773
0.92,31.2221632543690717,131.010445601534599,17.1229769872606603,14.3755243245186968,-0.000297650749317764898,27.0844032216575457,0.00147353343431103176,-0.243935738987026474,315.028134248062145,35.0014794915658598,12.7978557725959696,69.6311601044581892,0.00220521790206025352,113.702379380700307,749.149214568706839,15.2880000000000003,0,7.15004531532717014,0.102876614055229895,1.36737374576661032e-07,-0.0344074836895918376,3.49417834894195247e-05,0.00319140511726744621
0.93,31.2221627980063694,131.010446837776641,17.4116296721086492,14.2992864248073914,-0.000273205936796447975,32.1375120193426795,0.00148274844164664795,-0.310579002123783587,359.162507065472823,35.2452916206270643,12.888420109009413,69.6111377348799749,0.00225708222045893159,113.702435267092568,759.601303312027881,15.2880000000000003,0,7.17000860331857925,0.10359356591166119,1.42448067028283791e-07,-0.035611243372620692,3.49347613518174348e-05,0.00332597383469355849
0.94,31.2221623380039048,131.010448083887127,17.7028062842019942,14.2067621115145393,-0.000248663357573371074,23.4477032605904867,0.00149339966071566346,-0.382729405075172779,283.068750483778672,35.5281248875746059,12.992900354414143,69.5904203328612141,0.0023087610757248295,113.702490964528991,771.819795729144403,15.2880000000000003,0,7.18986336024132555,0.104425217384769869,1.4825298732451246e-07,-0.0368362802064025052,3.49299632493866436e-05,0.00346789941384453848
0.95,31.2221618746366332,131.01044933911885,17.9963018767214891,14.117055109729904,-0.000224408594503329537,30.2427310146692072,0.0015035999804816839,-0.455153569687768267,342.421873617487279,35.8041898842237742,13.0948687038344733,69.5689957661784462,0.00236025196669795764,113.702546470098881,783.838879388167015,15.2880000000000003,0,7.20959104258014172,0.105236983530399369,1.54154619816925122e-07,-0.0380816560028055529,3.49274903652515707e-05,0.00361289943511238333
0.96,31.2221614076276168,131.010450604224758,18.2923299952744038,14.0369117279680857,-0.000200506500913984453,29.6425770318929764,0.0015126368116540178,-0.525796890612380219,337.095335156783449,36.0561674280656277,13.188060437138807,69.546851920070651,0.0024115524470545548,113.702601781733776,794.887877413183674,15.2880000000000003,0,7.22922216165130038,0.105977959125980015,1.60146504751494922e-07,-0.0393489801952342649,3.49273988300135836e-05,0.00375929919108885895
0.97,31.222160936995941,131.010451879152981,18.5908792420882278,13.9527010118494044,-0.000176741456157914048,19.1163952949027234,0.00152188773355312295,-0.598637201516242223,245.021887192993233,36.317810747475491,13.2846307014993403,69.523976412740609,0.00246266009251803596,113.702656896971789,806.442894793304276,15.2880000000000003,0,7.24875470042875047,0.106747352900079681,1.66227757802033465e-07,-0.0406383848788259283,3.49297757214235894e-05,0.00391054687276540941
0.98,31.2221604630148875,131.01045316316106,18.8917459172790672,13.8533592900627731,-0.000153024037755559235,27.6571104579082814,0.00153252783020696123,-0.677270478426990064,319.593746642958081,36.6181868751546489,13.3951013060321316,69.5003568731829517,0.00251357254705832523,113.70271181306515,819.814171560944828,15.2880000000000003,0,7.26817549675956087,0.107630600706541749,1.72402557585249044e-07,-0.04194866878796389,3.49347254737457082e-05,0.00406990119532897165
0.99,31.222159985544387,131.010454456629816,19.1950391973953813,13.7807960812998989,-0.00012980458081785775,30.1914138997634431,0.00154015118695890129,-0.74845880456432734,341.660948551705417,36.8488610291326282,13.480352386327132,69.4759806333766932,0.00256428747034432051,113.702766527871148,830.151265985353689,15.2880000000000003,0,7.28749900730425626,0.108308984122713711,1.78665664365941572e-07,-0.0432810086164142765,3.49423200367471901e-05,0.0042254954345674646
1,31.2221595045823896,131.010455759564906,19.5007627379968653,13.6935238819044898,-0.000106635898590957352,27.0630923532065815,0.00154911019550194864,-0.825364713814017992,314.26720818227642,37.1172610654594237,13.5791426719894552,69.4508355010159164,0.0026148026649234035,113.702821039203428,842.263901993658692,15.2880000000000003,0,7.30671935737449818,0.109098262346715089,1.85016849009708218e-07,-0.0446354093782485375,3.49526498294173272e-05,0.004389336603542425
1.01,31.2221590202995252,131.010457071502742,19.8087905314107289,13.6092251643104198,-8.37011373941839244e-05,28.2908898835532767,0.00155753611570007494,-0.902305734692439354,324.920316103697928,37.3772942655975982,13.6748591286763421,69.4249087990650366,0.00266511593181305642,113.702875344632574,854.08130523255727,15.2880000000000003,0,7.32583376462524605,0.10986295626106922,1.91457761611939985e-07,-0.0460113352568868941,3.49658094738537658e-05,0.00455620536223632234
1.02,31.222158532622597,131.010458392642363,20.1191798560351423,13.5292223605957638,-6.09862232102725396e-05,23.6779681438256304,0.00156526644325531315,-0.978747371988562542,284.590631615404163,37.6249609808194663,13.7660459974533431,69.3981880259404988,0.0027152251689962297,113.702929442178757,865.411507498791707,15.2880000000000003,0,7.344846745131135,0.11059130954529614,1.97985545939605205e-07,-0.047409379423310645,3.49818842446515424e-05,0.00472561107959914174
1.03,31.2221580416150317,131.01045972281139,20.4318847283059384,13.4394480440833846,-3.84316330194844582e-05,19.4112151841462364,0.00157383502934053347,-1.05962484116313127,247.30469339049705,37.8986607423096515,13.8666131018163092,69.3706607275514386,0.00276512835777033847,113.702983329758368,878.021664664906666,15.2880000000000003,0,7.36375480453272413,0.111396190225491146,2.04600700713383977e-07,-0.0488293569942952269,3.500096678344577e-05,0.00490240822352786508
1.04,31.2221575473341915,131.010461061854102,20.7468641980502753,13.3597354915589186,-1.61088033098384913e-05,30.6687929990248627,0.00158105732187821188,-1.13792406935418011,345.465636880722968,38.1438328834845493,13.9568144092319599,69.3423140349398892,0.00281482349704353279,113.703037005318194,889.391611231554748,15.2880000000000003,0,7.38256050729232527,0.112117227440305264,2.11302686776872992e-07,-0.0502713023634202075,3.50231483195006699e-05,0.00507967506485796326
1.05,31.2221570495091676,131.010462410506562,21.0643224436080523,13.2722513446124886,6.0378328555120673e-06,18.6360559015252605,0.0015888942200607682,-1.22007806831913301,240.456258798199826,38.4098849582436159,14.05453367356073,69.3131352073137066,0.00286430868061703266,113.70309046737195,901.814341285201294,15.2880000000000003,0,7.40127395275134337,0.112899646126799147,2.18084502365889835e-07,-0.0517368520306705285,3.50485199611628173e-05,0.00526406483025301103
1.06,31.2221565483623067,131.010463768164726,21.3840944387400533,13.1783107752176658,2.79648457550277475e-05,26.4079537218971012,0.00159722105570164578,-1.30583102855236644,308.179683655939243,38.6939300287320762,14.1587722318563145,69.2831109641551564,0.00291358201589088156,113.703143713752297,915.173571031957749,15.2880000000000003,0,7.41988722575216908,0.113734961080889915,2.24950734542616693e-07,-0.0532249946462580656,3.50771810172406288e-05,0.00545535921112324292
1.07,31.2221560437825794,131.010465135130261,21.7062646608967782,13.1005288703491996,4.97316156413356964e-05,31.041185365112316,0.00160345078458206378,-1.38638158024972769,348.509368144030759,38.9305734593566299,14.2457609541333863,69.2522277353336619,0.00296264165431409316,113.703196742813475,926.373128734977513,15.2880000000000003,0,7.43841076050734795,0.114430954700255494,2.31896723366417483e-07,-0.0547367746117911752,3.51092302637447836e-05,0.00564444764060069524
1.08,31.2221555356720373,131.010466511669193,22.0309065732722935,13.0196852443004687,7.13208448528161666e-05,21.0070154755337661,0.00160974948827425279,-1.46907821797222482,261.001578574662346,39.1747293397989722,14.3354374276264842,69.220472206929557,0.00301148587235805986,113.703249553024335,937.999947155538734,15.2880000000000003,0,7.45684561432985582,0.115149038465091974,2.3892001834578165e-07,-0.0562728190043990037,3.51447723199757416e-05,0.00583905517590391394
1.09,31.2221550242885222,131.010467897081014,22.3578286344287847,12.9223886367800702,9.26136719205602907e-05,19.3518781883876017,0.00161769295384352673,-1.55956587018250392,246.543753324744074,39.4668944345803183,14.4426055365109498,69.187830931444239,0.00306011302441916173,113.703302142434481,952.013430976589348,15.2880000000000003,0,7.47518100262686414,0.116008247856460051,2.46027423605386209e-07,-0.0578317605270343357,3.51839042053706306e-05,0.00604538038797931311
1.1,31.2221545097018982,131.01046929117598,22.6869798067917827,12.8340838743354357,0.000113748441325597522,38.4893531305942176,0.00162432462578938463,-1.64750045072550444,413.189061738584087,39.7316920948857231,14.5398287646555211,69.1542903307978634,0.00310852154104386416,113.703354509442505,964.800587630627888,15.2880000000000003,0,7.49342035770815951,0.116787022907248655,2.5321877930966678e-07,-0.059413583228090372,3.5226724961306296e-05,0.00625220690178880829
1.11,31.2221539915282591,131.010470694996883,23.0186451013412992,12.7632222388459891,0.000134876488574022142,28.2735066149114331,0.00162858827778030097,-1.72888066548488495,324.159391037639693,39.9417904901374001,14.6170538655347801,69.119836589101368,0.00315670991532125819,113.703406653158609,975.00009964335834,15.2880000000000003,0,7.51158066983194939,0.117405023889578575,2.60482219306099353e-07,-0.0610208466864417751,3.52733589512210002e-05,0.00645509232332169142
1.12,31.2221534698224801,131.010472108394481,23.3527825971459961,12.6606258236935965,0.000155491501352283588,10.8842592807278731,0.00163633648550038377,-1.82525840270005868,172.73281794065943,40.2485094171392959,14.7295858370982948,69.0844561374140795,0.00320467677625145596,113.703458572216107,990.000160652119348,15.2880000000000003,0,7.52965407277619825,0.11830704055629962,2.67820840110207035e-07,-0.0626531889354906141,3.532391577340615e-05,0.00667845098062422489
1.13,31.2221529451436197,131.010473529850231,23.6889799186551819,12.5756404393695593,0.000176090455446305049,33.26894571124474,0.00164168848294658385,-1.91489715876084632,367.532807790070478,40.4997096314932392,14.8218868169993314,69.0481343527624745,0.00325242073293584288,113.703510264518883,1002.36399206060639,15.2880000000000003,0,7.5476112994682758,0.119045873685992162,2.75248835090594133e-07,-0.064307655289379928,3.53784686574592751e-05,0.00689736677554756306
1.14,31.2221524168577425,131.01047496108589,24.027703793936805,12.5029323950885267,0.000196708939849581273,18.5831895346559328,0.00164521599378866985,-1.99974824961292907,239.695317731955441,40.7100574781117146,14.8991993901193407,69.0108577310871709,0.00329994062394166343,113.703561729900983,1012.77025820731831,15.2880000000000003,0,7.56549106448838238,0.119664632893964507,2.82746204894578768e-07,-0.0659883239701830465,3.54371764044274421e-05,0.00711415657580795682
1.15,31.2221518854226581,131.010476400857783,24.3686152710342974,12.3984651464962177,0.000216635496618862152,18.3230098027405788,0.00165232590262838269,-2.10067204002727115,237.412511535467729,41.0211848898379188,15.0135501454809646,68.9726127458126257,0.00334723540289418031,113.703612966774259,1028.27597242703314,15.2880000000000003,0,7.58327210280696296,0.120579636085263855,2.90329041827692004e-07,-0.0676922156690640819,3.55001098218597452e-05,0.0073533851636587242
1.16,31.2221513509668078,131.010477848817089,24.7116203464986484,12.3289273936529487,0.000236964437682877452,47.376619134459915,0.0016548039788907001,-2.18570503411755723,490.043774384589426,41.2174690059661017,15.0857839013674493,68.9333848505308993,0.00339430401312172019,113.703663974012031,1038.10579982590912,15.2880000000000003,0,7.60096185112390188,0.121157071997568991,2.97997259995771779e-07,-0.0694191351927239964,3.55673702058915094e-05,0.00757681344739932587
1.17,31.2221508126529876,131.010479307237205,25.0573301209121659,12.2427894608644383,0.000256849463764665363,8.70086845826595479,0.0016589819612557791,-2.27977318530986883,153.709379294867944,41.4659942120738236,15.1772050730871015,68.8931605390170034,0.00344114561856667927,113.703714752086498,1050.62739515880503,15.2880000000000003,0,7.6185833711067934,0.12188807725382432,3.05725320543357066e-07,-0.0711744061638927561,3.56391704752877106e-05,0.00781497491718678022
1.18,31.2221502715740087,131.010480773150135,25.4049429087200345,12.1347477784577684,0.00027604182519369206,23.2324373825212724,0.0016656111484007394,-2.38623964039190684,280.025018221967457,41.7872512655389485,15.2955833609730547,68.8519255645774422,0.00348775943580782906,113.703765298797933,1066.93426521960464,15.2880000000000003,0,7.63609891038787847,0.12283288482601705,3.13550702837923906e-07,-0.0729508564092188339,3.57154875893724551e-05,0.00807181781537774125
1.19,31.2221497272313435,131.010482247909664,25.7548225397100587,12.0751770777142902,0.000296148681925504764,40.3117582316661185,0.00166574200992532858,-2.4683531410884072,428.407813052929214,41.9425615652365806,15.352779078327826,68.8096652677918144,0.00353414474104180813,113.703815614266958,1074.84380868647463,15.2880000000000003,0,7.65353882189601986,0.123289903510362439,3.21450637640819167e-07,-0.0747525738208747043,3.57965153331255318e-05,0.00830163542585934423
1.2,31.2221491791906161,131.010483732694865,26.1072808648334735,11.9767678728130313,0.000315182462679317716,4.49428810680729107,0.0016704443621268219,-2.5719814799279237,117.184374136023607,42.2283912341958256,15.4582233530034241,68.7663663390385267,0.00358030107232471797,113.703865698797202,1089.50650360838517,15.2880000000000003,0,7.67090509574946111,0.124130591821656464,3.2941496809274826e-07,-0.0765820120746095734,3.58824373510937015e-05,0.00856247193589573449
1.21,31.2221486285526346,131.010485224516515,26.4615161071220193,11.8804979827975412,0.000334029054042415952,32.4406189682927319,0.00167455179073663246,-2.67566496812366372,359.923432132008998,42.5062862693865924,15.5609318428059904,68.722013871941769,0.00362622794165489261,113.703915550500767,1103.85569209021878,15.2880000000000003,0,7.68816919779632268,0.124947965335417369,3.37481275679547105e-07,-0.078431970397745604,3.59731907684191239e-05,0.00882672024691124463
1.22,31.2221480744691746,131.010486725677538,26.818141355607807,11.8171655799509008,0.000353644348453826304,23.5943627308382595,0.00167399154799503552,-2.76160974036354556,283.068750482576149,42.6655926244007588,15.6197046688604768,68.676593840024168,0.0036719250566408612,113.703965170454978,1112.1072263169051,15.2880000000000003,0,7.70536242053449705,0.125416753894554672,3.45614345826785016e-07,-0.080308800662302518,3.6069057780753167e-05,0.00907150028469222609
1.23,31.2221475172693346,131.010488235284015,27.1769133663702647,11.717866160979769,0.000372039653818970976,9.39584465998343887,0.00167773602927570316,-2.8689229134260863,159.796873822227951,42.9504976386293436,15.7252357927352673,68.6300931015071143,0.00371739234535593864,113.704014558303044,1126.97045504056359,15.2880000000000003,0,7.72243643886710451,0.126254751695953821,3.53831094379292285e-07,-0.082209750291276168,3.61700866997270021e-05,0.00934791506127780232
1.24,31.2221469574176922,131.010489752074363,27.5374948903215433,11.6310817354130887,0.000390607416713785612,39.2047808134246694,0.00167947732205695572,-2.96990711705908694,418.515630199805003,43.1889823279560403,15.8136961160570557,68.5824973163302616,0.00376262975052975941,113.70406371352054,1139.48084471308493,15.2880000000000003,0,7.73941526828186532,0.126956303874235205,3.6214606402874884e-07,-0.0841318467956368582,3.62762985809855955e-05,0.00961925811441689468
1.25,31.2221463941211468,131.010491278201471,27.900453099535774,11.5628501173175344,0.000409660142094846473,19.1275592345619323,0.00167833786232075084,-3.06030565899311569,244.260946125734876,43.3564610592183541,15.8757315339512513,68.533792905730877,0.00380763740234809842,113.704112637561536,1148.29532527826291,15.2880000000000003,0,7.756327224456947,0.127449138554434127,3.7052537400432921e-07,-0.0860810714602505134,3.63880054628070777e-05,0.00987994513447323051
1.26,31.2221458278937583,131.010492812269234,28.2654130131204866,11.4576207820183456,0.000427238759680495625,11.4075823370716201,0.0016817347877593682,-3.17434287978600871,177.298446336408631,43.6588071003530231,15.9883027764018504,68.483966716896731,0.0038524156083489091,113.704161330219335,1164.32560739559722,15.2880000000000003,0,7.77314870646119882,0.128338433031046334,3.78994252660774637e-07,-0.0880532318306568168,3.65051935952048868e-05,0.0101764190547953166
1.27,31.2221452589038186,131.010494353820775,28.6322519969778853,11.3824505118973214,0.00044572432708433774,37.7282248383521761,0.00168070261171591865,-3.27027342587581016,405.579686079964688,43.8464668094577519,16.0581548928949935,68.4330039345411905,0.00389696466403680487,113.704209791775654,1174.31503318743876,15.2880000000000003,0,7.78988775070762962,0.128890606856084222,3.87553314353958291e-07,-0.0900477714031897025,3.66279575608381578e-05,0.0104512944675586826
1.28,31.2221446865115091,131.010495904592176,29.0014211833743971,11.3003861456637971,0.000463814715973384422,12.457471634521827,0.00168015783652828527,-3.37119050785049401,186.429688124688823,44.0569760837739182,16.1366494555085502,68.3808916561512774,0.00394128515012800301,113.704258023952406,1185.57595573420645,15.2880000000000003,0,7.80655890257206941,0.129509957278105992,3.96177846452778934e-07,-0.0920691345419619722,3.67565931716199075e-05,0.0107368245479814422
