Time,Latitude,Longitude,Altitude,Angle of Attack,Angle of Sideslip,X-Acceleration,Y-Acceleration,Z-Acceleration,Thrust,True Velocity,Ground Velocity,Pitch,Roll,Yaw,Dynamic Pressure,cp,parachute_deploy_gain,Wind Speed,Mach,omega_x,omega_y,omega_z,Cmq,Angle of Attack(total),Angle of Attack(gust),True Velocity(gust),Acceleration
0.0,31.222186000000004,131.010384,3.000000003643237,0.0,0.0,0.0,0.0,0.0,2.2828121974499247,0.0,0.0,69.99999999623421,0.0,113.69999999388332,0.0,15.288,0,0.0,0.0,0.0,0.0,0.0,-0.0,0.0,90.0,0.0,0.0
0.01,31.22218600000153,131.01038399999584,2.99999882256592,0.0,0.0,0.0,0.0,0.0,34.24218696174923,7.502283530665459e-11,7.190531319924593e-11,69.99999999623329,-4.83564628150269e-13,113.69999999388072,3.446445726795683e-21,15.288,0,0.0,2.204725565824978e-13,-3.659182332138578e-19,7.589415207398531e-19,4.811147140404426e-19,-1.5108918610345807e-31,0.0,89.9999999995224,7.502283530665459e-11,0.0
0.02,31.22218600000288,131.01038399999217,2.999997775701936,0.0,0.0,0.0,0.0,0.0,25.871876237766408,1.5320717031631675e-10,1.4674636035870463e-10,69.99999999623222,-9.67129256300373e-13,113.69999999387804,1.4372842949972735e-20,15.288,0,0.0,4.5023593667086093e-13,-7.284483346386986e-19,1.5178830414797062e-18,9.757819552369542e-19,-6.170906918166791e-31,0.0,89.99999999902465,1.5320717031631675e-10,0.0
0.03,31.22218599928065,131.01038400193067,3.000201659671132,18.81500467334555,-0.00012974450181,11.96616230539064,-1.8916256735984712e-05,3.349833086198469,180.34219359854663,0.0882870268161719,0.0553390044312322,69.99999999799445,-4.212591857125379e-12,113.69999999488518,0.0047728553458352,15.288,0,0.0,0.0002594525584132,3.2187251995663407e-17,-7.20264389268894e-10,1.2365134327422308e-11,1.6874092354518158e-13,18.815004673776716,89.46786891739345,0.0882666465974854,12.426199017587786
0.04,31.22218599548236,131.0103840121632,3.001799604587872,9.46752327608497,-4.6177622759613696e-05,55.21900012092241,3.931876292165237e-06,3.349616504302861,548.6359724538078,0.3767519978512604,0.1853356633749705,70.00000000507204,-2.4624598767003407e-11,113.70000000019972,0.086915163246288,15.288,0,0.0,0.0011071759353184,1.6174128009138757e-15,-1.3693172015529268e-08,2.7753303060112748e-11,1.3689612277852356e-11,9.467523276196548,87.63554493451223,0.3767447442872393,55.32050167054111
0.05,31.222185984749512,131.01038404118162,3.00777936418888,5.376730308971262,-2.257790939128127e-06,80.28807156553681,5.266841443842784e-05,3.348887800834877,761.6984298824644,1.018787885905993,0.4366201147110198,70.00000000894464,-1.1355399380652658e-10,113.70000001523856,0.635552918586145,15.288,0,0.0,0.0029939522895272,1.6418815498809788e-14,-9.32122351075408e-08,4.303264669380585e-11,2.5199270302492604e-10,5.3767303089717045,83.57022052969386,1.0187875312530217,80.35788377762394
0.06,31.22218596447235,131.01038409608267,3.0201664202003013,4.296730121134882,2.4863835723705905e-05,60.21296515808257,0.0001057204249726,3.347700952379021,590.4875390737208,1.721098934225416,0.7081674028809783,69.99999995523842,-3.0560354507026086e-10,113.70000004366592,1.8138247671743823,15.288,0,0.0,0.0050578622752421,8.328976953118383e-14,-3.2824985336199985e-07,5.923438275930214e-11,1.4991363363716091e-09,4.296730121206683,79.20467073327266,1.7211028398275985,60.305955550063224
0.07,31.22218593493329,131.01038417609837,3.038741944736831,3.8204913578752526,4.8016684030909405e-05,91.4060317508128,0.0001597686613101,3.346072557365335,855.2937749779139,2.4375792548422868,0.9844712334613328,69.99999973536046,-5.939103491363046e-10,113.7000000850886,3.6383156301599167,15.288,0,0.0,0.007163413150771,2.709313825263564e-13,-7.906546256197275e-07,7.920022733617308e-11,5.114174483651565e-09,3.820491358176508,74.87999294483174,2.437586797285377,91.46725557277466
0.08,31.222185894468456,131.01038428575305,3.0647976109320942,3.588632851766762,7.220043782492885e-05,19.18449428359557,0.0002119618497595,3.3440615022685813,241.2171988638848,3.1292508166901074,1.2522236515868983,69.99999919480445,-9.914748373602156e-10,113.7000001418522,5.996012698481753,15.288,0,0.0,0.0091960591623389,6.80386533246681e-13,-1.5973238302190878e-06,1.0839624626357699e-10,1.3263625118823921e-08,3.58863285249208,70.86684630658345,3.1292621579083604,19.473766155861934
0.09,31.22218584634549,131.01038441616095,3.0957981580345013,3.551302481506045,9.685468678862004e-05,57.102946699906326,0.0002554087225869,3.341892818148368,563.0937377043176,3.701810007254615,1.479132491047967,69.99999812344194,-1.4359264356978275e-09,113.7000002093888,8.390904013834115,15.288,0,0.0,0.010878666406854,1.440096519545733e-12,-2.748643691533636e-06,1.5214952332699618e-10,2.6999776649034504e-08,3.5513024828250237,67.68737872952666,3.701825221153239,57.20065357568538
0.1,31.222185790329306,131.01038456796124,3.1319266121977414,3.608446747536112,0.0001234669721807,54.26147302645416,0.0002914860332524,3.3396271157106168,538.7437595981919,4.174070299823608,1.6716491241860567,69.9999963052332,-1.902380107712657e-09,113.70000028805804,10.668380938744466,15.288,0,0.0,0.0122665227999911,2.687800116751415e-12,-4.315796035622946e-06,2.1749089204950437e-10,4.7802076800548326e-08,3.608446749645647,65.17160335282355,4.174089693970246,54.36414778470795
0.11,31.222185727066616,131.0103847393952,3.172681775073216,3.633547373470009,0.0001485939126744,42.987553988990406,0.0003293995000288,3.337005588796181,442.8656393052949,4.672024955140527,1.8729475711242067,69.99999349387662,-2.3433348587116544e-09,113.70000037699285,13.365573690709628,15.288,0,0.0,0.0137298902182575,4.5789425819531184e-12,-6.340230783164189e-06,3.1157625832417107e-10,7.860218435507205e-08,3.6335473765043056,62.62546922225161,4.672048296217748,43.116880735560244
0.12,31.22218565692512,131.0103849294629,3.2177790417108385,3.650108937861461,0.0001727442530266,46.86777100765684,0.000367618259785,3.334068179146888,475.58594813540446,5.17479364099247,2.0758708919414386,69.99998941286465,-2.702771525550512e-09,113.70000047573096,16.396890189902592,15.288,0,0.0,0.0152074069417046,7.288473386564583e-12,-8.86736416607888e-06,4.42271554299792e-10,1.217615295152289e-07,3.6501089419435786,60.16906436414164,5.174820775596283,46.986210423745625
0.13,31.222185580265183,131.0103851371844,3.2669395832841857,3.7280113734654137,0.0001995014041665,51.64515456841877,0.0003986198234033,3.3311573548369657,515.9156326236895,5.579364582999854,2.2451120211463422,69.99998375846928,-2.9114380666036422e-09,113.70000058383452,19.060875702782603,15.288,0,0.0,0.0163963474924215,1.100846422415094e-11,-1.1941028436408576e-05,6.179653149059831e-10,1.7678562106638216e-07,3.728011378795934,58.279338776943774,5.579395920607139,51.75247433579817
0.14,31.22218549718016,131.01038536230575,3.320091807147376,3.768719651034081,0.0002242721760019,48.1660778383537,0.0004326225136175,3.32784677779744,486.2390860568404,6.025734265159953,2.428648685938864,69.99997621008868,-2.890941335368725e-09,113.70000070125378,22.232643351545065,15.288,0,0.0,0.0177081261985351,1.5941871344608664e-11,-1.560901486259027e-05,8.477542742712431e-10,2.495765160917323e-07,3.7687196576976176,56.27980129251342,6.025769493750979,48.280903250602165
0.15,31.22218540777004,131.01038560455507,3.377159065217065,3.821894709649632,0.000249725644238,46.56959330999435,0.0004643042952466,3.324387732286376,472.54218587214,6.441023336496372,2.6014999612196745,69.99996641132823,-2.546763407193136e-09,113.70000082794672,25.402620271850456,15.288,0,0.0,0.0189285691155931,2.2314099732464315e-11,-1.992367942778425e-05,1.1417519574710292e-09,3.4051816697623295e-07,3.821894717796148,54.501255563441134,6.441062563308839,46.68809885900716
0.16,31.22218531193176,131.01038586421257,3.4382223512025254,3.8463320955387794,0.0002733212404609,36.974247749122085,0.0004987816203583,3.3205066466509234,391.1218908297564,6.895451966878468,2.7877331692857847,69.99995397923414,-1.77088415515292e-09,113.70000096417354,29.113317717489338,15.288,0,0.0,0.0202640360420561,3.0367358387834494e-11,-2.4945905791363795e-05,1.5114297685186711e-09,4.5643121540033697e-07,3.846332105235269,52.641145594326446,6.895494900078523,37.12304892183151
0.17,31.222185210004127,131.010386140357,3.503019838429153,3.8860314262554336,0.000297865039677,46.520531453299206,0.0005306403365217,3.31650761597812,471.78125980632376,7.314788342774694,2.9619016331667103,69.99993849340957,-4.3039914767238207e-10,113.70000110959404,32.761746921137856,15.288,0,0.0,0.0214963781445172,4.0366633128431416e-11,-3.0713078585132897e-05,1.96747427715988e-09,5.961228045584824e-07,3.886031437653654,51.00464968745696,7.314835131305714,46.63860064094784
0.18,31.22218510147516,131.01038643438045,3.571950002194137,3.9107265153396016,0.0003214293682635,38.895647526122765,0.0005639254295027,3.312149448254175,407.10156721191447,7.754626295791602,3.1430587898572058,69.9999195084231,1.6149322372810674e-09,113.70000126508234,36.81988229018681,15.288,0,0.0,0.0227889722876034,5.2593391349219385e-11,-3.731786027786564e-05,2.525509173087448e-09,7.6786585232224e-07,3.9107265285284982,49.36615848311875,7.754676785798701,39.036415444581515
0.19,31.222184986476247,131.0103867459258,3.644912152926752,3.920599115663931,0.0003437679584038,43.86258669386953,0.0005989384366483,3.307389681300437,448.9531328318269,8.219206165926856,3.332657190859447,69.99989653019398,4.538529095696477e-09,113.70000143063515,41.36350714675367,15.288,0,0.0,0.02415428010977,6.735860419174937e-11,-4.481243905342629e-05,3.199401151670645e-09,9.773118416308382e-07,3.92059913071168,47.71893898797248,8.21926016487149,43.987104227715655
0.2,31.222184864792144,131.01038707557822,3.722074668489528,3.943376465171875,0.000367328732016,40.28070981710589,0.0006315894240138,3.30251450988504,418.51563019916136,8.65238089736321,3.511445117640573,69.99986902534273,8.534090245934178e-09,113.7000016067622,45.83799876721736,15.288,0,0.0,0.025427299120469,8.499785987217288e-11,-5.328041996372527e-05,4.006766070954748e-09,1.2232205148646746e-06,3.9433764822533854,46.2587826635041,8.652438597225508,40.41586552155969
0.21,31.22218473678744,131.01038742234647,3.803156063113743,3.9664546506877016,0.000390962054969,38.67679184347145,0.0006636984664108,3.297405915846789,404.8187610144644,9.079179692250786,3.688002035198235,69.99983642883521,1.3827831253856693e-08,113.70000179318536,50.47126980736161,15.288,0,0.0,0.0266815841422463,1.0586558589671407e-10,-6.275155280099118e-05,4.961340042512481e-09,1.5117124669161171e-06,3.9664546699249135,44.88773728276958,9.079241104426773,38.817098210937615
0.22,31.2221846022986,131.01038778667507,3.8882846911135607,3.956175711337521,0.0004112685792646,46.713636108302936,0.0007011135033803,3.291572407481395,472.5421858721365,9.580256326712124,3.889976788904857,69.99979815126248,2.0662823443484168e-08,113.70000199039316,56.195522894218605,15.288,0,0.0,0.0281541581291438,1.3033127211465288e-10,-7.330053770532661e-05,6.0817207473359025e-09,1.8632831045819008e-06,3.956175732680424,43.35679625546934,9.580320928629488,46.8294591882524
0.23,31.222184460898035,131.01038816972698,3.977794004014759,3.9879066397329104,0.0004360962274406,38.89105719050748,0.0007308686121188,3.286096544282012,406.3406421461021,9.977039034039262,4.056142701351626,69.99975353557706,2.9316661139418326e-08,113.70000219928508,60.9462612310605,15.288,0,0.0,0.0293202403623685,1.5880617816859538e-10,-8.505067486192354e-05,7.393319440773217e-09,2.2514912291167663e-06,3.987906663538912,42.20670487756048,9.97710753587448,39.0296395118868
0.24,31.222184313516166,131.01038856897196,4.070963590490852,4.003523997322975,0.000459165577055,40.0792299321398,0.0007630441688766,3.280134925833028,416.2328240017114,10.408422364424831,4.234121060914368,69.99970190737699,4.010976417051318e-08,113.70000241888,66.32994780718496,15.288,0,0.0,0.030588009649109,1.91711512587616e-10,-9.795845222523724e-05,8.904557280909524e-09,2.7052895870113487e-06,4.003524023611085,41.011349410369874,10.408494489985014,40.21323112692186
0.25,31.22218416001652,131.01038898478134,4.167901030441617,4.0261356185860135,0.0004830526730531,41.17760020658354,0.0007934613160587,3.2740610008587527,425.36408079150686,10.816813039390448,4.4041629376391525,69.99964258149416,5.3372865854010094e-08,113.70000264972064,71.63651430352668,15.288,0,0.0,0.0317882126436337,2.2947426169209347e-10,-0.0001121037688082,1.0637152702866709e-08,3.217380562698304e-06,4.026135647516394,39.93186687113378,10.816888917126896,41.30755663120434
0.26,31.222184000702686,131.0103894163294,4.26837241014618,4.053359329950934,0.000507503069958,44.80261175215926,0.0008224724146494,3.2678597736729302,455.8015834241788,11.207047269494833,4.567925492611352,69.99957484039399,6.947299261165984e-08,113.70000289176392,76.89781807056055,15.288,0,0.0,0.0329350617559806,2.7254099134167665e-10,-0.0001275114371842,1.260720913253598e-08,3.7915697709142366e-06,4.053359361668992,38.945390435244384,11.207126987890645,44.921630958721536
0.27,31.22218383516388,131.01038986473338,4.372698316214008,4.0614460923241,0.0005296455772492,41.029837477288126,0.0008548809954683,3.2610328932384265,423.84219965987256,11.645685385842508,4.748226940060522,69.99949794024376,8.879821051920497e-08,113.70000314600205,83.0342688744587,15.288,0,0.0,0.0342241635563461,3.2137296827284217e-10,-0.0001442952656441,1.4842505534226832e-08,4.458527942364847e-06,4.061446126801262,37.8838346421185,11.645768582375233,41.15922617924542
0.28,31.222183663504484,131.01039032970942,4.48079961904222,4.081133040992532,0.0005533279247169,47.27661484082626,0.0008845140695959,3.254218495915602,476.3468732012221,12.047344998676092,4.915789434712848,69.99941106884992,1.1178948978424788e-07,113.70000341275257,88.85982357848233,15.288,0,0.0,0.0354045979054623,3.764736350660473e-10,-0.0001625146963723,1.7365685655384934e-08,5.194620655212288e-06,4.081133078439725,36.956255322213885,12.047431915223257,47.38848224631549
0.29,31.22218348566054,131.0103908114315,4.592727908358551,4.1001100265020245,0.0005770279952742,37.989969791857405,0.0009138463939581,3.247164755122801,397.97031042211177,12.446314684600782,5.082367374004485,69.99931338876085,1.3891902435864665e-07,113.70000369260468,94.8417675268915,15.288,0,0.0,0.0365771315767517,4.3836067907166327e-10,-0.0001822432988888,2.0202163500922312e-08,6.018074062137429e-06,4.100110067036654,36.07377590258778,12.446405323946324,38.12849176886316
0.3,31.222183301933686,131.01039130907952,4.708251093558373,4.112858061667493,0.0005998635114143,35.655053282557844,0.000944131403186,3.2397207148238625,378.1859457108711,12.860033399289696,5.253940723820665,69.99920403105713,1.707002607527005e-07,113.7000039856728,101.2505662360602,15.288,0,0.0,0.03779301412572,5.075709863465428e-10,-0.0002035013069687,2.3370674033523645e-08,6.94335970778e-06,4.112858105337573,35.19685285507256,12.860127625629724,35.80193592228613
0.31,31.222183112488807,131.0103918222051,4.827243246502713,4.136140889545823,0.0006242383343011,37.56633644061071,0.0009716215464757,3.232339252743767,394.1656220930212,13.2364445751808,5.4126574282679245,69.99908210036875,2.0768081583188525e-07,113.7000042923011,107.26326115439352,15.288,0,0.0,0.0388992619788015,5.846561731689753e-10,-0.0002263323252403,2.6893437641668458e-08,7.948283231812338e-06,4.1361409365698805,34.43286455705216,13.236542630309057,37.70514091683033
0.32,31.22218291741533,131.01039235056504,4.949637017503345,4.1622282001352975,0.0006491019906456,40.83513712643371,0.0009979686925508,3.224840963348891,421.55939346242695,13.59846554462374,5.566374262777002,69.99894668612772,2.504388718903276e-07,113.70000461297312,113.2095365840355,15.288,0,0.0,0.0399632243410653,6.701756367872645e-10,-0.00025078340164,3.0793566854276295e-08,9.047716714467492e-06,4.16222825066026,33.72644865222576,13.598567505326,40.96227562489027
0.33,31.222182716732533,131.01039289410716,5.075419569102976,4.187801887681037,0.0006739743721461,40.48743503284469,0.0010239291638211,3.217136801802925,418.5156301991682,13.956637761217308,5.718704299733134,69.99879684673242,2.995902922462564e-07,113.70000494831164,119.25032483364384,15.288,0,0.0,0.0410158804634189,7.647061680070125e-10,-0.0002769136723495,3.509664608790402e-08,1.0253455741189656e-05,4.187801941818244,33.053267359159875,13.956743628864118,40.61505097607
0.34,31.222182510255863,131.01039345333336,5.204736257784645,4.19642921746386,0.0006961879027693,31.814592723444047,0.0010535137542081,3.208669900766693,345.46563688075645,14.367047160772364,5.88887983533068,69.99863160305904,3.557915789971256e-07,113.70000529927128,126.36523219087664,15.288,0,0.0,0.042222056531773,8.688448410811866e-10,-0.0003048202762282,3.9835373705550826e-08,1.1618525957862828e-05,4.196429275109305,32.30947868183619,14.367156517712404,31.97598901989736
0.35,31.222182298183583,131.0103940277045,5.337435501771672,4.210915783240843,0.0007193441544952,34.813487415034444,0.0010813034848195,3.200164272309822,370.5765700527033,14.754132934586384,6.050986755458457,69.99844991734221,4.1975736284587617e-07,113.70000566632532,133.26448209504355,15.288,0,0.0,0.0433596939127697,9.832256819293898e-10,-0.0003345386312107,4.503361101379695e-08,1.309465610343774e-05,4.210915844572415,31.63649055965014,14.75424592890194,34.96026256388454
0.36,31.222182080444604,131.0103946174141,5.4735747500461605,4.22903876037745,0.0007431682866607,39.2632255716727,0.0011077666085529,3.1915717453569297,407.8625232777193,15.124417129017054,6.2072589919251575,69.99825073022951,4.922382611919288e-07,113.70000605036684,140.03566173682628,15.288,0,0.0,0.0444479595865755,1.1084921261805627e-09,-0.0003661511460057,5.0723697896912267e-08,1.4691545926915382e-05,4.229038825557203,31.017264542603208,15.124533865618538,39.39272792946638
0.37,31.22218185710795,131.01039522227452,5.613102797925907,4.249164960780052,0.0007674149135003,37.28328237034959,0.001133274451316,3.1828514669894137,391.1218908297666,15.483077353331511,6.359470679857624,69.99803294268581,5.740349991123437e-07,113.70000645214331,146.75405277514704,15.288,0,0.0,0.0455020695186381,1.245311285088233e-09,-0.0003997125883071,5.6934243389647934e-08,1.641828325195534e-05,4.2491650299519,30.439178816713017,15.483197898584232,37.418894813348615
0.38,31.2221816281124,131.0103958424523,5.756069531572451,4.260095806433531,0.0007900626414612,38.9278000801764,0.0011607546399008,3.1735466295306622,404.8187610144602,15.87126705947922,6.521735074464384,69.99779542676283,6.659911329739736e-07,113.70000687263192,154.20298254405043,15.288,0,0.0,0.0466429667223463,1.3943646956867835e-09,-0.0004353006984059,6.369875435270817e-08,1.8328108041903096e-05,4.260095879559656,29.83470194713067,15.87139116222873,39.05694584372078
0.39,31.22218139339905,131.0103964781077,5.9025231349944285,4.274091258047817,0.0008133283308351,33.320076729592266,0.0011870382950339,3.164143363712209,357.64062493382744,16.24457853509073,6.678818328235205,69.9975369905506,7.690136753559805e-07,113.70000731287368,161.54010621938565,15.288,0,0.0,0.0477401448128051,1.5563705124515804e-09,-0.0004730068442167,7.105463478762673e-08,2.0383860516746246e-05,4.274091335289374,29.274934656826048,16.244706292406182,33.46997636540994
0.4,31.22218115316572,131.01039712870306,6.0523126585892895,4.286421841403391,0.0008363022448449,31.88018820767003,0.0012133780841982,3.1544430614236454,345.465636880754,16.62063299903514,6.836764518435374,69.99725641601981,8.840594270905819e-07,113.70000777359816,169.10340080049767,15.288,0,0.0,0.0488453895716005,1.7320643186450851e-09,-0.0005128553637434,7.9027539265021e-08,2.2612406375611563e-05,4.286421922834417,28.730746964325096,16.620764365084565,32.03586915718869
0.41,31.22218090752676,131.01039779392735,6.205351877049411,4.30025870409831,0.0008595777771371,35.882550741685804,0.0012389121673015,3.1445895889870297,378.94687077668647,16.987310563534386,6.99141560549392,69.9969524610574,1.0121301778427253e-06,113.70000825570062,176.64448930727934,15.288,0,0.0,0.0499230826371405,1.922193031274436e-09,-0.0005548883906878,8.764667734700782e-08,2.5005077415911235e-05,4.300258789847355,28.21875643368965,16.987445585695873,36.020076248499606
0.42,31.222180656535848,131.0103984736348,6.36160173428776,4.322008670726048,0.0008844838439129,40.34064925656127,0.001261804338223,3.134918999355981,416.2328240017114,17.318628721060172,7.133856886815013,69.99662385300175,1.154276942054023e-06,113.70000876021427,183.59942989625057,15.288,0,0.0,0.0508968652507098,2.1275184665783874e-09,-0.0005991661829955,9.694534598491077e-08,2.752657757470936e-05,4.322008761057615,27.772396468009568,17.318767655457478,40.462275036947325
0.43,31.222180400205527,131.0103991677914,6.521055075967404,4.339436441324956,0.0009085827200945,35.541853595187746,0.0012854696362701,3.124839917627212,375.9031395134336,17.662848429084132,7.280642039343927,69.99626930133451,1.3115939750280808e-06,113.70000928827632,190.96736675963504,15.288,0,0.0,0.0519085689713619,2.3488101247838237e-09,-0.0006457514522491,1.0695800287133593e-07,3.0255957891170616e-05,4.339436536261635,27.322335771349252,17.662991148924057,35.67895714766603
0.44,31.22218013836212,131.0103998768696,6.683849332059896,4.342209064313268,0.0009296474314902,32.82948243168077,0.0013129688908547,3.113754688841357,353.0750125389216,18.063580761318697,7.446730341918701,69.99588746395321,1.4852372182848018e-06,113.7000098413532,199.7278270846888,15.288,0,0.0,0.0530863610987301,2.586862292117705e-09,-0.0006947575786514,1.1773083546077225e-07,3.329010177793299e-05,4.342209163639375,26.81344244367223,18.06372678999575,32.9768158972058
0.45,31.22217987077456,131.0104006014978,6.850166573233225,4.3420317510315165,0.0009500780330031,38.11022602597878,0.001341042003417,3.1022288449712887,397.2093853562869,18.47486275310604,7.616350301328129,69.99547690348253,1.6764536248320808e-06,113.70001042108892,208.92306716049887,15.288,0,0.0,0.0542951637545535,2.842521175226318e-09,-0.0007463379956615,1.2932090054593452e-07,3.657529369088674e-05,4.342031854775571,26.30944884471334,18.47501199101448,38.23628058998621
0.46,31.22217959739673,131.01040134180155,7.020045503401754,4.351169003849846,0.0009725797783515,44.3937050866137,0.0013660055515545,3.09098240974522,449.7140588976434,18.844323061800488,7.771531995684422,69.99503610583268,1.8865779683531e-06,113.70001102895836,217.3591612614144,15.288,0,0.0,0.0553810645782081,3.1166808800591503e-09,-0.000800596194505,1.417768495237597e-07,4.001824400409673e-05,4.351169112337076,25.873596578896564,18.844475834274814,44.50118229261506
0.47,31.22217931813738,131.01040209802923,7.193559875579052,4.358630093683735,0.0009947969928181,30.22514089990685,0.0013910994973101,3.079396422776949,331.0078106302534,19.2180591098146,7.9280875671397615,69.99456352718363,2.1170044481277104e-06,113.70001166656292,226.0625808853568,15.288,0,0.0,0.0564795377574197,3.4102493884459798e-09,-0.0008576351980594,1.551487523304888e-07,4.3718862242359527e-05,4.35863020698899,25.44665981168229,19.218215372160817,30.381603425148434
0.48,31.22217903348153,131.01040286886197,7.370336324605091,4.365514409145237,0.001016880998596,29.779838936311712,0.001416009414045,3.067527859335786,327.2031223011574,19.5915905767454,8.084483592791102,69.99405758812365,2.369198154608765e-06,113.70001233476164,234.93171707892955,15.288,0,0.0,0.057577416115756,3.7241711041759195e-09,-0.0009173883913609,1.6944871263079066e-07,4.767297940601472e-05,4.365514527349481,25.03354780044292,19.59175030803913,29.937410312943754
0.49,31.22217874361868,131.01040365378466,7.5502307795521535,4.3786401372577615,0.0010404145545081,37.2489281064929,0.0014385799934191,3.0558405437943126,389.60000969812296,19.93403005898306,8.23012235628909,69.99351671352461,2.644660619562788e-06,113.700013034871,243.21198709852868,15.288,0,0.0,0.0585839249886784,4.059374595909599e-09,-0.0009798792959512,1.8470833984680338e-07,5.180951737438081e-05,4.378640260624215,24.667474291142685,19.934193486919103,37.37406598941686
0.5,31.22217844858332,131.0104044527036,7.733219389747018,4.395102937780968,13.894460946559311,38.47588032120569,-0.9245925100465472,3.044052179484381,397.97031042210494,20.860700022683407,8.366189013561664,69.99293932307316,2.9449363413826395e-06,113.70001376847225,266.3452055740788,15.288,0,5.010313955797237,0.0613074327902477,4.416703151082342e-09,-0.0010538516203957,2.098572043595796e-05,5.830993686584464e-05,14.559968066965403,36.87102688580686,23.02190780118046,38.60718186390715
0.51,31.222178148953784,131.01040526566013,7.919255602799566,4.406748020717813,13.698511058917946,29.56635641514437,-0.9468209791866852,3.031770799026071,323.3984349720841,21.197631307862448,8.512476662632483,69.99231883598381,0.0001916516203918,113.70021501636852,275.0135157196599,15.288,0,5.030197704168646,0.0622977696172973,4.868235393837094e-09,-0.0011220017986836,0.0002418702453249,6.308227611163382e-05,14.376962770484006,36.37191800321112,23.328947393572825,29.73646811260214
0.52,31.222177844968968,131.01040609288629,8.108355675480102,4.415310620715484,13.5025418731206,35.40420528501482,-0.9697366833239056,3.0191050440829,372.0984511843415,21.54328432386504,8.66152545356884,69.99165856552438,0.0007317693139678,113.70079025470896,284.0503380223536,15.288,0,5.050013012574639,0.0633137451591753,5.4707723673213995e-09,-0.0011930818121864,0.0004682760876254,6.817116570996133e-05,14.193351260128583,35.87258506916157,23.644680840955225,35.545929954998535
0.53,31.22217753650927,131.01040693477017,8.300631575356,4.424015226935947,13.314244044507044,37.1462763284576,-0.9927595390423184,3.006218036377854,386.5562464348624,21.885513071302327,8.809215577018076,69.9909567870737,0.001632197458985,113.70174895798937,293.1412467804522,15.288,0,5.069762947998841,0.0643196637062435,6.2281625532898885e-09,-0.0012672251191728,0.0007004553785393,7.3556502193918e-05,14.017392848064896,35.3916124465839,23.958138080358427,37.280943703918396
0.54,31.22217722349386,131.01040779157935,8.49616053475572,4.432504551258813,13.13221193934198,32.69256403671094,-1.0159735016270817,2.9930815628096075,349.2703242098436,22.225933905417417,8.956119260084638,69.99021171423689,0.002902065184369,113.7031008455194,302.32589622997546,15.288,0,5.089461820822866,0.0653202756993353,7.144346284882629e-09,-0.0013445500291501,0.0009385996057409,7.925732216186602e-05,13.847624386738266,34.92574878847871,24.27072351188452,32.84500696745374
0.55,31.2221769062152,131.0104086625656,8.69473011033586,4.442016872953537,12.959519909933684,34.616894309674954,-1.0390903903606334,2.979798762165349,365.2500005919907,22.558642276144663,9.10016454053841,69.98942151864986,0.0045505501744221,113.70485568822312,311.43896409364845,15.288,0,5.1090865567554085,0.0662982280064023,8.22330225379078e-09,-0.0014250314572903,0.0011824652776105,8.525729276871475e-05,13.68732602396557,34.4825955313262,24.577005633235892,34.7604413255866
0.56,31.222176584691088,131.01040954772583,8.89634046612902,4.453437309312346,12.79815201467225,32.3474702775206,-1.061878749745553,2.966458760248503,346.2265619465787,22.879084972793056,9.23975545290499,69.98858435603759,0.0065866721592012,113.7070230898158,320.34350733970416,15.288,0,5.128636794756139,0.0672401389866127,9.46891358181832e-09,-0.0015087522077274,0.0014321368421067,9.154661519637149e-05,13.538637786617675,34.067145676526565,24.872738383141417,32.50055841690254
0.57,31.222176259009743,131.01041044686485,9.100937001836568,4.462584422584593,12.636109898537171,31.99214758430952,-1.085324488883706,2.952698500330309,343.1828296833023,23.207540482526618,9.382035634047892,69.98769834798654,0.0090194392083541,113.70961264204216,329.6008514591207,15.288,0,5.148103955527263,0.0682056057381766,1.088505783033674e-08,-0.0015957592689041,0.0016875913463428,9.821406396095722e-05,13.388871415842706,33.65051349425272,25.17636479117248,32.1464440449681
0.58,31.222175929166173,131.0104113600402,9.308537308057447,4.466731413639662,12.465999761811757,41.948030476983895,-1.110143403311104,2.9382392087017952,426.1250058573153,23.558103032698487,9.531955894999482,69.98676157119226,0.0118579332548799,113.71263401596616,339.62688968350074,15.288,0,5.167488000233082,0.0692360507433848,1.2475627879528607e-08,-0.0016861393824392,0.001948920893534,0.000105342184729,13.230150845707604,33.21466755388555,25.500845067522203,42.06546004647325
0.59,31.22217559478124,131.01041228832892,9.519449713000483,4.476081228194458,12.315299570429856,34.11048961822403,-1.1338254562943275,2.9240295190005208,360.68438819711065,23.87983488545797,9.671600436915089,69.98577199257689,0.0151118119050442,113.7160974964748,348.95970227431627,15.288,0,5.186812034705778,0.0701817710655322,1.4244705251369385e-08,-0.0017801607312544,0.0022167246118333,0.0001127327945059,13.091687517282578,32.82646971059912,25.799456379209637,34.25435754452704
0.6,31.22217525608045,131.01041323116357,9.733513603828488,4.477020282025608,12.147382715535723,30.37709422411096,-1.1598113631268403,2.9087486535717955,329.4859594986058,24.241839650829,9.825257577257693,69.98472752398219,0.0187908513507118,113.72001349447925,359.6125668259939,15.288,0,5.206060579430703,0.0712458589994464,1.6196492227803932e-08,-0.0018778139677247,0.0024908071139648,0.0001207171430959,12.934499502944131,32.396666298900726,26.135683574322503,30.538071887861705
0.61,31.222174913033232,131.01041418867328,9.950767081162292,4.476376887740443,11.980578115117249,35.50128812469126,-1.1864434668414967,2.893019470964444,372.0984511843297,24.61024225219005,9.981014605651657,69.98362600881774,0.0229050503253297,113.72439265882474,370.61793232999935,15.288,0,5.225238869144144,0.0723287577215887,1.833524330741403e-08,-0.0019792120987699,0.0027713179265774,0.0001291665248108,12.77807455381615,31.96986011058296,26.47846324647686,35.63872427952121
0.62,31.222174565768995,131.01041516055258,10.1711243575947,4.487770399818661,11.849678678844723,44.00860095572404,-1.2100586953763697,2.878293932588569,442.86563930529206,24.912927937849336,10.113573228159122,69.98246522056209,0.0274646228652239,113.72924586805269,379.78254927858126,15.288,0,5.244353386562635,0.0732185238149211,2.0665317961808392e-08,-0.0020844133695553,0.0030582541662844,0.0001377022960127,12.659655598154144,31.63164925742419,26.76103031176063,44.119222296962434
0.63,31.22217421412375,131.0104161472899,10.394726092838445,4.494955986385044,11.71213755711139,25.192891707572983,-1.2349215117414702,2.862895363326752,286.11251274707894,25.234747527818705,10.252718743183804,69.981242907165,0.0324794082747687,113.73458360593122,389.6494475390538,15.288,0,5.26337209452693,0.0741645312928421,2.3190856350505532e-08,-0.0021935771939042,0.0033518774791743,0.0001467827841307,12.533813172869673,31.277851903022025,27.06170009505369,25.385093925195928
0.64,31.22217385868522,131.01041714733176,10.621130698814692,4.495617841035627,11.562406267317026,24.742361617458208,-1.2617638243226768,2.8465122537258303,282.30782441796754,25.58924342177973,10.4031945620116,69.97995687293233,0.0379593072820391,113.74041641299556,400.6651658431385,15.288,0,5.282311978797754,0.0752065813145463,2.5916182473302192e-08,-0.0023065013016353,0.0036514948782874,0.0001565038200464,12.394539385003744,30.894469028975884,27.39315972567281,24.937504653995553
0.65,31.22217349944987,131.0104181607289,10.850354149409991,4.505163473822366,11.43882622899856,43.31476363767145,-1.2862765810397532,2.8308906856824487,436.7781447787475,25.89274514768727,10.53567540639838,69.97860480613777,0.0439139961550131,113.7467546010732,410.21669277670094,15.288,0,5.301140441167292,0.0760987672459868,2.8845379179701444e-08,-0.0024232976252659,0.0039572544571286,0.0001663753901464,12.283027036366072,30.5763925864487,27.67763928963572,43.42622708116098
0.66,31.222173135937776,131.01041918882396,11.0827808264838,4.512094179990398,11.312462427223387,36.9227230467064,-1.3116639250344428,2.814733379347592,383.51251517160017,26.20750535679004,10.671976037912016,69.97718437899967,0.0503532322033072,113.75360856709788,420.2413750132152,15.288,0,5.3198915755402805,0.0770240493388296,3.1982418543194006e-08,-0.0025443069087623,0.0042698779347398,0.0001768030369944,12.16821488955046,30.25213239800709,27.972940258113237,37.05307900070971
0.67,31.22217276834537,131.010420231126,11.31827229406318,4.5132376680030015,11.17576591044531,25.58471212787812,-1.3389174959806416,2.7976151091455974,289.1562440103425,26.55194530585996,10.818542075082885,69.97569308850505,0.0572874441531394,113.76098942550878,431.35050510730736,15.288,0,5.338581079736567,0.0780365681837926,3.53317529466528e-08,-0.0026695256787474,0.0045891957452808,0.0001879382449442,12.041925525575316,29.902757887142062,28.29632012636305,25.772016704681004
0.68,31.22217239685231,131.01042128718893,11.556702979758205,4.515556193856735,11.045499859848793,31.81634053433617,-1.366022841211191,2.780362803595245,340.8999924858462,26.88747087466909,10.961862649256783,69.97412850271887,0.0647269960065391,113.76890821460552,442.3108405867942,15.288,0,5.357144756659045,0.0790228954619085,3.8897788276313775e-08,-0.0027989682458009,0.0049150901639173,0.0001995366607771,11.922247555415211,29.57008023647589,28.611767079727365,31.966794658194456
0.69,31.222172021550623,131.01042235680282,11.798014683185084,4.5227209927526175,10.930140534431464,39.05889365031472,-1.3918168516461462,2.7634834360041527,401.0140726853634,27.19255520626489,11.094409497534938,69.97248805896217,0.0726821105237988,113.77737583208112,452.39484933764805,15.288,0,5.3756273930529455,0.079919762907391,4.2684849650165566e-08,-0.002932680844914,0.0052475253790364,0.0002114362917257,11.818381350568126,29.27520177756549,28.89906300573217,39.181260419187524
0.7,31.222171642320284,131.01042344033087,12.042312672617566,4.529159824248947,10.81620482975348,32.8399117875859,-1.4179723007907776,2.7462716995745766,349.27032420985284,27.498792380492787,11.227239387963111,69.97076916885293,0.0811628812485893,113.78640303966642,462.6309349325937,15.288,0,5.394040246082022,0.0808200262091856,4.669710625363152e-08,-0.0030708318870226,0.0055867620011382,0.0002238845822734,11.715767775982448,28.984548104343254,29.187724506091502,32.98503387765605
0.71,31.22217125922699,131.01042453763284,12.289558708139731,4.531726247435388,10.696251506459395,27.075368077341096,-1.4455049967845792,2.728273465104864,301.33126406340574,27.824886228756025,11.366895463280692,69.9689692722768,0.0901796188972747,113.79600082286343,473.6569439109288,15.288,0,5.412322997178074,0.0817786568964379,5.09388901954868e-08,-0.0032134814207982,0.0059327918353382,0.0002370573376351,11.60633919567993,28.679643490026347,29.495307189455872,27.250844341407586
0.72,31.222170872285908,131.0104256487056,12.539753702548596,4.529742322419043,10.56901372622518,33.04010171284736,-1.47472584558555,2.709341224532844,350.79220534145287,28.17569162860862,11.515064163586477,69.96708558315035,0.0997428699570232,113.8061804309052,485.6639307310995,15.288,0,5.430529676277442,0.0828099243091962,5.5414608721990527e-08,-0.0033607337964998,0.0062857129907565,0.000251039739975,11.48865798052298,28.35700764136496,29.82646928873422,33.183786212334034
0.73,31.22217048150745,131.01042677355989,12.79290254717584,4.537073578673894,10.46592347701126,41.66710640674968,-1.5010782556477644,2.691488698712864,422.320318528234,28.46806648787684,11.642690024642254,69.96511531884664,0.1098635286699627,113.81695347629572,495.78349508157993,15.288,0,5.448665947500683,0.0836694692405388,6.01287901602545e-08,-0.0035127083508575,0.0066456576060025,0.0002651082753609,11.396974819841605,28.095681139847017,30.10292283174738,41.78091793697546
0.74,31.22217008684152,131.0104279123665,13.049055842353647,4.540805799298288,10.35733911382017,26.268597622368794,-1.5287611752785013,2.6728577674952283,294.48281347105944,28.779190237333463,11.776749277707344,69.96305571490636,0.120552084760939,113.82833114226196,506.6669530828842,15.288,0,5.46669263605716,0.08458412629499,6.508577397029358e-08,-0.0036695232854595,0.0070127460937638,0.0002799630747784,11.299035966153031,27.82131726217394,30.397271028658885,26.448449868039866
0.75,31.222169688655352,131.01042906416765,13.307942396699438,4.542086498676486,10.245943627594489,30.586644365279675,-1.5574641366387478,2.6535749173414542,330.24688556441487,29.10271638825207,11.91502551046898,69.96090382742253,0.1318191264383642,113.84032472690104,518.1096672020286,15.288,0,5.484613217736061,0.0855352429367583,7.029020022049709e-08,-0.0038310430633394,0.0073865151334427,0.0002955645205989,11.197742498454945,27.54053934659169,30.703581288860523,30.74101442547
0.76,31.222169286851187,131.0104302292617,13.569649275170407,4.546392698190889,10.143786398320268,32.8880172467244,-1.585291563602418,2.634500484108832,349.27032420986166,29.404805211707888,12.045698803666852,69.95865679322405,0.1436751191288749,113.85294539121078,528.9082489696278,15.288,0,5.502450801107946,0.0864233616578526,7.574632292367001e-08,-0.0039974511806808,0.0077672403607892,0.0003115963058051,11.106286019649092,27.283758019404683,30.98987664998141,33.03143079800269
0.77,31.22216888138335,131.0104314078052,13.834223102472611,4.551134179320648,10.044971333089755,30.783987279223,-1.6131165951594055,2.6152428683222464,331.7687666960708,29.70118269963389,12.174262359071776,69.95631164027341,0.1561306412575952,113.86620442132688,539.6102353746879,15.288,0,5.520207272881115,0.0872947022706576,8.145848246239522e-08,-0.0041688885280701,0.0081550914852707,0.0003282266318735,11.018236446148675,27.03612300238189,31.27097257774616,30.93696030991494
0.78,31.22216847232664,131.01043259962844,14.101617537334604,4.552473017256156,9.941084968643269,25.37268902020224,-1.6423176964920865,2.5951538409395534,286.8734378128899,30.01621990666663,12.309225843519624,69.95386534175293,0.1691962984164024,113.88011313387705,551.1039668437564,15.288,0,5.537833755088838,0.0882208938102713,8.743113396875027e-08,-0.0043454007077732,0.0085500207669461,0.0003457438528864,10.924363030037364,26.776411701036068,31.56993892397517,25.557882912914476
0.79,31.2221680597792,131.01043380449883,14.3717683538186,4.551725127212017,9.835116619003571,35.8502425396107,-1.6724923933803533,2.574412483498901,373.6203323159534,30.342109321531385,12.447860010413509,69.95131479732667,0.1828828143225846,113.894682973239,563.1211129003412,15.288,0,5.5553708686844585,0.0891789896129188,9.366879455114288e-08,-0.0045270300244791,0.0089519757316659,0.0003640965087331,10.82791502577228,26.51200806448196,31.87943014000208,35.98144967326946
0.8,31.22216764353239,131.01043502301096,14.644847163696369,4.556432851649141,9.742919779314851,36.317746084519285,-1.700812641004172,2.5543521883072646,377.42502064505743,30.62997757486684,12.573111125263557,69.94865679713324,0.1972012107686183,113.90992570403633,573.8418808273152,15.288,0,5.5728327759227465,0.0900253452727963,1.0017578680568372e-07,-0.0047140667191656,0.0093614439514573,0.000382726369101,10.74639421717991,26.28332250051885,32.153027003360414,36.44716942920706
0.81,31.22216722369816,131.01043625489336,14.920778749521787,4.557050883806273,9.644269244717288,23.82502005127484,-1.7308393517081533,2.533290764282833,273.9374926939919,30.94158893409372,12.70652878064902,69.94588805651726,0.2121624244757862,113.92585300467492,585.5616143195061,15.288,0,5.590210557639481,0.0909414932566856,1.0695676480592673e-07,-0.0049065192102744,0.0097782901577928,0.0004023931590491,10.657488452569188,26.03882276446592,32.449363621836085,24.021759873112345
0.82,31.22216680047388,131.01043749964438,15.199422303194275,4.555783362241968,9.543808075067089,30.449557984000943,-1.7618036817318652,2.5115765312512863,328.72500443277005,31.263110019025408,12.843289741527077,69.94300535239456,0.2277773571174919,113.94247650947172,597.7782529624252,15.288,0,5.607476741782832,0.0918867758653452,1.1401642759715618e-07,-0.0051043501408367,0.0102022873312916,0.000422956290346,10.56631636402524,25.79035267510504,32.75532501959236,30.603717916395905
0.83,31.222166373852847,131.01043875731165,15.4807936435469,4.561226938331645,9.459054676926804,38.54940391235844,-1.7902955702096008,2.4908588707250447,395.68750322465047,31.537082915706545,12.963360774360892,69.9400052289272,0.2440570104210664,113.95980797448256,608.2849311332773,15.288,0,5.624639655229288,0.0926923158694852,1.213592737065773e-07,-0.005307699016105,0.0106335875822305,0.0004436484038157,10.492333842576432,25.58281954113604,33.01616751995403,38.671256485156235
0.84,31.22216594373808,131.0104400281822,15.764976820474288,4.564923496773841,9.372549899804325,24.021653582868343,-1.819601652400392,2.469558519433315,275.4593748256452,31.819529148650133,13.086274032872227,69.93688437848475,0.2610120753773669,113.97785881547028,619.2124260855168,15.288,0,5.641717936905126,0.0935227684680654,1.289896055251395e-07,-0.0055167394874344,0.0110724059661716,0.0004652383300881,10.416186180612993,25.371485989717225,33.28520868748077,24.216719643867034
0.85,31.22216551043313,131.0104413114663,16.051749049915344,4.562527237558004,9.275640077991612,26.14242302059471,-1.851569142184656,2.446752321070454,292.96093233939376,32.14052441720642,13.222516254833932,69.93363928009133,0.2786532186137455,113.99664043688524,631.7512670349815,15.288,0,5.658697928034119,0.0944665313978317,1.3691223189462722e-07,-0.0057313205252665,0.0115182822517122,0.000488196833414,10.3282089762616,25.134017152484223,33.59118252410863,26.321876578174933
0.86,31.222165073772818,131.0104426076342,16.341246665827782,4.56410988866512,9.188511340828228,32.590963686797814,-1.8820864554101768,2.424459267878404,346.2265619465587,32.43159953881095,13.348218503773635,69.9302664198384,0.2969914560977384,114.01616460814634,643.2278906162961,15.288,0,5.675591236464122,0.0953223626226023,1.451314137770528e-07,-0.0059517267709323,0.0119716615710568,0.0005115482250969,10.250896364631403,24.922344665950916,33.86874877909781,32.73516711735888
0.87,31.22216463378967,131.01044391662307,16.633454151396236,4.567410446580055,9.10645022951437,30.387287656863737,-1.912026084723624,2.402258751449821,327.964078366998,32.70770458497674,13.46859437948107,69.92676217470617,0.3160376981300933,114.03644299398142,654.2083383157894,15.288,0,5.69239700920227,0.0961342024637975,1.5365168809218597e-07,-0.006178045400245,0.0124325735079078,0.0005355058284521,10.179029608351703,24.724406444656367,34.132127628600735,30.54200291399639
0.88,31.222164190527348,131.01044523833912,16.928347128011193,4.567520323274208,9.019747745160387,26.340117667036804,-1.943476452153444,2.3790986211326537,294.4828134710418,33.00299903911552,13.595549033888506,69.92312288520912,0.3358027684580788,114.0574871690598,666.0555565877077,15.288,0,5.709091874549065,0.0970024521264694,1.624776254657616e-07,-0.0064103302520714,0.0129009793343414,0.0005606406083241,10.101752041291316,24.51516562216638,34.41397291896791,26.51865399454683
0.89,31.222163744075583,131.01044657256494,17.22586608709156,4.56450757673651,8.928668769224707,28.832179326221343,-1.9764793289301943,2.354942801734328,315.028134248087,33.317607218557754,13.729124369030892,69.91934479387238,0.3562975570250184,114.0793087832653,678.7953222251035,15.288,0,5.725688304140907,0.0979274775817983,1.7161384207591302e-07,-0.0066486309819311,0.0133768333171947,0.0005870084646775,10.019324198370386,24.295179306507247,34.71444958041099,28.995633996112485
0.9,31.22216329436668,131.01044791950477,17.526071657145938,4.568365552720634,8.852359301981064,31.786413958155528,-2.0066176193068985,2.332042634434724,339.37814235421445,33.58043272845069,13.844551693134386,69.915424097586,0.3775332404288107,114.10191978923632,689.527017837658,15.288,0,5.74219975589846,0.0987003115379678,1.810647811821179e-07,-0.0068931475043493,0.0138603868289737,0.0006133800823377,9.953282419274752,24.114145328666115,34.96543244226239,31.93495028081551
0.91,31.222162841478344,131.01044927897038,17.828912687314464,4.569077722200533,8.771509042892106,24.32472164013033,-2.0382952331437227,2.308153967495288,277.7421810230789,33.86255672300795,13.966595029168284,69.91135687448357,0.3995205284998897,114.12533165692858,701.1413342602889,15.288,0,5.758621354873068,0.0995298763932715,1.908350465370175e-07,-0.0071439082147969,0.0143515464195506,0.0006410158811534,9.88192407313882,23.921947749055008,35.23500641254299,24.51885611248913
0.92,31.222162385620308,131.01045065042203,18.134237862275143,4.566735238504895,8.686384454341871,28.84687022370661,-2.071532111319097,2.283248407799073,315.02813424806214,34.163921473871255,14.09523753974401,69.90713925771004,0.4222701475541145,114.14955586707669,713.6557583110633,15.288,0,5.774945379529939,0.1004160029543257,2.0092950653376561e-07,-0.0074008133209981,0.014849975941104,0.0006699580456675,9.805521533487948,23.71919406604634,35.52315470117806,29.01114251944094
0.93,31.22216192670816,131.01045203410388,18.442119271000298,4.570675302365976,8.614398196308828,34.201747371276404,-2.101995987279013,2.25958113840902,359.1625070654728,34.4163679278292,14.206738587989022,69.90276726892392,0.4457928498634379,114.17460393508838,724.2201002786276,15.288,0,5.791180176868222,0.1011583553746025,2.1135234503260106e-07,-0.0076640958985831,0.0153559835701095,0.0006988976281564,9.743778038430577,23.55135960902181,35.76442221041119,34.340699138197564
0.94,31.222161464636656,131.01045343031134,18.752643638924816,4.568444449422161,8.53232438045951,24.98099252284077,-2.135496562615121,2.234116296177948,283.0687504837787,34.71096023557557,14.332812208376316,69.89823686952045,0.4700991286714067,114.20048710760337,736.6493436636193,15.288,0,5.807325553543391,0.102024593683876,2.2210779984983925e-07,-0.0079339371047937,0.0158697667930571,0.0007296759454517,9.670401852149784,23.357754319069382,36.04626645360686,25.171444309375957
0.95,31.22216099970376,131.01045483827016,19.06559292336904,4.566811736704321,8.452726245852809,32.1835843456042,-2.168892059397381,2.208489514692333,342.4218736174873,34.99830692774268,14.456262797020852,69.89354384939125,0.4951998561809672,114.2272170401217,748.8736808541133,15.288,0,5.823375062535879,0.1028695440449157,2.332009880202733e-07,-0.0082101774178299,0.0163908819366313,0.0007613093650212,9.599622990950923,23.171193662914497,36.321246997388464,32.33209891164573
0.96,31.222160531618872,131.01045625876696,19.381193860117666,4.568217499999539,8.379952480280304,31.542799145177977,-2.200960958708468,2.18335769528278,337.09533515678345,35.25972439904468,14.570578365948032,69.88868408346357,0.5211057287735004,114.2548051959332,760.0797445641794,15.288,0,5.839341214795953,0.1036382901732283,2.446356447894452e-07,-0.0084932497197339,0.0169199952187083,0.0007934165169799,9.536411104264872,23.003160360481868,36.57135630069152,31.694785973095794
0.97,31.22216006040692,131.01045769174948,19.69943415811652,4.567793864486808,8.305105424260292,20.37390328509389,-2.234063465811083,2.1574635550450965,245.02188719299323,35.53161104223201,14.688434981654364,69.8836531991753,0.5478276569176052,114.28326328044616,771.8232494073421,15.288,0,5.855222459536916,0.104437816851576,2.564164072632432e-07,-0.0087832459986677,0.0174571254744157,0.0008268088217262,9.470645224694032,22.83028258290348,36.83161040437037,20.609260627955074
0.98,31.222159586363848,131.0104591364478,20.02009712107616,4.561509550024333,8.221060275013889,29.42851122887201,-2.270300897880885,2.129654498700956,319.5937466429581,35.84529288983101,14.820747869757817,69.87844675911192,0.575376409084757,114.31260285318112,785.4869045732713,15.288,0,5.871008123253971,0.1053602009480207,2.685486321545804e-07,-0.0090799426079892,0.0180017160195257,0.0008622575724963,9.394155209993992,22.63366709485307,37.13222752499127,29.59268435945955
0.99,31.22215910934481,131.01046059325924,20.343298632172846,4.5646027805849005,8.154848975196758,32.11248413647917,-2.3019009202518936,2.1041403961888414,341.6609485517054,36.08388827140006,14.926813528619888,69.87306033993895,0.6037629364447364,114.34283566295768,795.9537984225021,15.288,0,5.8867028200635225,0.1060618920352117,2.810363313133812e-07,-0.0093836795850925,0.01855424484056,0.0008970048642231,9.337891519392766,22.484782495486243,37.360528480612864,32.26356756574134
1.0,31.222158629351483,131.01046206218803,20.66904253031461,4.561992475485196,8.079716583030716,28.79019689365469,-2.3365756933670063,2.0767338407103564,314.2672081822764,36.363187263223935,15.04695266268996,69.86748945572,0.6329975221089603,114.37397276135056,808.2979884946219,15.288,0,5.902310277254821,0.1068832324519334,2.938840288482111e-07,-0.0096945199380265,0.0191146745302578,0.0009338625545603,9.271213505965797,22.31286648605613,37.62814394531891,28.959417235009916
1.01,31.222158146570223,131.01046354275385,20.99719470839024,4.560135922877691,8.007042310425929,30.088515819368947,-2.371002278441277,2.0492392140770845,324.9203161036979,36.633512886822,15.16387117423654,69.86172947885963,0.6630908688778021,114.4060256493606,820.334652678939,15.288,0,5.917828837326463,0.10767820609007,3.070967104719559e-07,-0.0100123975370186,0.019682742201216,0.0009716227473222,9.207168904448288,22.14801947567556,37.88716622403664,30.25127794611825
1.02,31.222157660926733,131.01046503516093,21.327816042875703,4.5595475975315845,7.937644190435543,25.19142351238497,-2.404875176289195,2.021829549894915,284.59063161540416,36.89055907932753,15.276068035198817,69.8557757663431,0.6940533322320291,114.43900546396964,831.860700601126,15.288,0,5.9332622451437205,0.1084341557829328,3.206785467502316e-07,-0.0103375184190259,0.0202586685649782,0.0010101799974722,9.146717470397547,21.992457656955384,38.13341674302841,25.38659169567082
1.03,31.22215717249243,131.01046653922805,21.660857622062256,4.5550140901536365,7.862560860007545,20.66144298667195,-2.4410339103622296,1.9929194321141013,247.30469339049705,37.17568736860616,15.397949566500436,69.84962362739215,0.7258950692337329,114.47292313633996,844.7423267124062,15.288,0,5.94860776992456,0.1092726574383273,3.346341662765196e-07,-0.0106699013093014,0.020842339364964,0.0010506855239058,9.079513156179836,21.822272354000354,38.40686290605829,20.900373219297588
1.04,31.22215668133241,131.01046805479237,21.996275846983146,4.553923331057876,7.794390390332927,32.59927573463341,-2.475448434518219,1.9647559075113017,345.46563688072297,37.43013074490233,15.509051722761887,69.84326820715458,0.7586265680330583,114.50778995625885,856.3177328150009,15.288,0,5.96386757595027,0.1100209740621473,3.489681752101902e-07,-0.0110096189963384,0.0214337385467089,0.0010915232259842,9.020121860020284,21.671094841377737,38.65069788812293,32.75211274331349
1.05,31.222156187160543,131.01046958260756,22.33428805815928,4.549617725245509,7.721827932793622,19.831296964414257,-2.5117896299739,1.93527667941831,240.45625879819983,37.70709507932258,15.627898094533084,69.83670462136767,0.7922580171223843,114.54361690098408,869.0090542893485,15.288,0,5.979049923758954,0.1108354972582201,3.636840373044398e-07,-0.0113571407035167,0.022033526081845,0.0011342723086854,8.955452117083912,21.50869838644662,38.91636846804492,20.083195021259215
1.06,31.22215569021816,131.01047112204725,22.67471869045617,4.5425631876940304,7.64573634177893,28.07199702457873,-2.549897966909643,1.9045505779796783,308.17968365593924,38.00346161598756,15.753410360733447,69.82992778489431,0.8268000700145743,114.58041544885766,882.6941782997922,15.288,0,5.994148500641256,0.1117070603892095,3.7878726092957173e-07,-0.0117122849030715,0.0226412388067043,0.0011788969155564,8.88647765887231,21.337297304446693,39.20088988634326,28.251837276426638
1.07,31.2221551903902,131.01047267341758,23.01765772303532,4.541332000009069,7.580318582988739,32.983459349423015,-2.5847865853443595,1.8754231626716888,348.5093681440308,38.24883489150187,15.861065370653758,69.8229324732289,0.8622635480919691,114.618197264288,894.0999358444132,15.288,0,6.009171835338179,0.1124287436553145,3.942819394744219e-07,-0.0120753811309951,0.0232572880473573,0.0012232516163623,8.829745464802514,21.195146773411047,39.43607794149009,33.13769642545936
1.08,31.22215468757497,131.01047423698407,23.36318354519804,4.538674405489195,7.5134721203427235,22.33530976571752,-2.6206192877905403,1.8455226224911607,261.00157857466235,38.502331739743006,15.971452280325776,69.81571345988444,0.8986588162243087,114.65697353230892,905.960561266145,15.288,0,6.024120873771837,0.1131743143597777,4.1017235994256313e-07,-0.0124466589066744,0.0238819016341021,0.0012691768639042,8.771178070599387,21.049712608581444,39.67916552859721,22.56412332735803
1.09,31.222154182051646,131.01047581202107,23.71109237179819,4.529439065873144,7.4368623213372445,20.575902837318395,-2.6605457802770487,1.813006468962843,246.54375332474407,38.80752025130948,16.09975984598307,69.80826541510957,0.93599622515025,114.69675542958817,920.3489077887466,15.288,0,6.038984446017164,0.1140718377678257,4.264643692106554e-07,-0.0128258457820292,0.024514469143926,0.001318164830215,8.700997004174539,20.878340199682327,39.972422473470765,20.82626404029821
1.1,31.222153673898266,131.01047739832822,24.061329985646324,4.523364429095283,7.366364384992012,40.87505695798769,-2.6987608981225084,1.7812236391810776,413.1890617385841,39.08328527867975,16.217731339946273,69.80058290565198,0.9742861011747292,114.73755411450696,933.443918424976,15.288,0,6.053760967139681,0.1148828827474351,4.431626896194048e-07,-0.0132130093615419,0.0251549561439064,0.0013675588001472,8.637779966710161,20.723992784279897,40.23720598355157,41.00276026509374
1.11,31.22215316270657,131.0104789969628,24.414200211137675,4.523782823748532,7.30716762030953,30.03406023196849,-2.733057976988343,1.7514922121224707,324.1593910376397,39.30024113979093,16.315112717183176,69.79266036540908,1.013538861804365,114.7793808510376,943.8040029936764,15.288,0,6.068469881272774,0.1155210710075195,4.602700966311357e-07,-0.0136088776815005,0.0258044031227691,0.0014163024565614,8.587676704631773,20.60094975396353,40.44493936947419,30.2089739132632
1.12,31.22215264853776,131.01048060775955,24.76965877275564,4.511628854383209,7.228828312682162,11.582459793418836,-2.7753871453548915,1.7167834248393592,172.73281794065943,39.62114621872585,16.448627469882084,69.78449221973902,1.053764470273852,114.8222464264878,959.2473912162056,15.288,0,6.083104824154417,0.1164648224387861,4.777917434560842e-07,-0.0140134370902657,0.0264626176652047,0.0014702641156571,8.514845349096484,20.426209022308683,40.75363781128092,12.0334323449533
1.13,31.222152131994594,131.01048222916464,25.127266382694906,4.506074932915651,7.161870400033612,35.32784257158617,-2.813720619057372,1.684165923006936,367.5328077900705,39.88237554903924,16.56126808651341,69.77607253889096,1.0949738864458716,114.86616269781356,971.9046840833016,15.288,0,6.097656165645447,0.1172331690346512,4.957351299649594e-07,-0.0144260031524126,0.0271283442843202,0.0015234765622915,8.455246561617,20.282982849595648,41.00443224629775,35.479711094386076
1.14,31.22215161239945,131.0104838629175,25.48752086420824,4.505115432421777,7.102923607800427,19.74427906727053,-2.849153995501898,1.6530276995722315,239.69531773195544,40.09971231157828,16.658511588181412,69.76739561599622,1.137176628011274,114.91113999547562,982.4922260795764,15.288,0,6.112143073780424,0.1178725038131417,5.14101331833531e-07,-0.0148477120270146,0.0278032476668466,0.0015765019040531,8.40496678349493,20.162295560864823,41.21258131855869,20.017161011289655
1.15,31.222151090245514,131.01048550774016,25.850061336440973,4.491410804307593,7.024978296441541,19.465332961380017,-2.893114128868767,1.6165197360125472,237.41251153546767,40.42541529105892,16.793458887756124,69.7584556606458,1.1803820553124071,114.95718848943577,998.4825168524312,15.288,0,6.126548108735544,0.1188303890245908,5.328976939066035e-07,-0.0152778678759965,0.0284860541868402,0.0016352939223026,8.331978322978932,19.98982354461721,41.526133613200685,19.745440808373093
1.16,31.22215056567367,131.01048716327068,26.214787785245026,4.491297177058868,6.968858984471591,50.2879608754445,-2.928144019051156,1.5851159311676288,490.0437743845894,40.62769994613341,16.885294503448684,69.74924652882379,1.2246004628520135,115.00431935489452,1008.464794676334,15.288,0,6.140877369721076,0.1194254957374794,5.521291262399138e-07,-0.0157164993686801,0.0291766651056845,0.0016906021725709,8.284753169408475,19.877984271937702,41.71966871712209,50.39807167860476
1.17,31.22215003778624,131.0104888317925,26.58235256069027,4.484391219720653,6.9030660391505725,9.250977612793156,-2.967806107833,1.5506586572233845,153.70937929486794,40.88615867933408,16.996620314461424,69.7397622801781,1.2698407947270471,115.05254233858425,1021.3005232737252,15.288,0,6.15514963407338,0.1201857360975393,5.717954846960708e-07,-0.01616509563439,0.0298772394290141,0.0017498572486488,8.225852466063264,19.739998070979123,41.96786835144789,9.83834346611831
1.18,31.222149507759408,131.01049051029085,26.951900939922744,4.468482551114329,6.824441840657179,24.666520149371863,-3.013899300617916,1.5119925241689258,280.02501822196746,41.22277976992441,17.135153148564935,69.72999668782487,1.3161126172441706,115.10186785738058,1038.1498990040852,15.288,0,6.169334369911057,0.1211757463504436,5.919082397923156e-07,-0.0166218417143817,0.0305847925441445,0.0018140490768895,8.151428704037425,19.56675425367756,42.29222769532506,24.89592188826869
1.19,31.22214897505984,131.01049220012126,27.323821445931127,4.4718366067151765,6.775653216200168,42.78601727203232,-3.046605907189064,1.4812464649044343,428.4078130529292,41.38113993758911,17.21140915548021,69.71994332878052,1.363425733429975,115.15230659291646,1046.104094225626,15.288,0,6.183456260537814,0.1216417619613109,6.124681100570006e-07,-0.0170879116711905,0.0313009896546488,0.0018720116198458,8.11254920755605,19.47700564223564,42.44297807499371,42.919915804276215
1.2,31.22214843922113,131.01049390244768,27.698447703168263,4.459344930029812,6.703817569762547,4.780227251651165,-3.0905907318515515,1.44329876737642,117.1843741360236,41.67972874632959,17.33650914495567,69.70959606939932,1.4117882631856071,115.20386744279706,1061.2168575892124,15.288,0,6.197517003131958,0.1225199954907299,6.334774681652613e-07,-0.0175640550406547,0.0320267926182901,0.0019379882681695,8.045872437694838,19.32353479025662,42.73036094504332,5.872430074606717
1.21,31.22214790142975,131.01049561425123,28.07492426637271,4.447487385759596,6.633731056323881,34.43085890520305,-3.13433273769952,1.4051923951507534,359.92343213200894,41.96980057673745,17.458587790130426,69.69894824235772,1.461209858380768,115.25656094632087,1076.0005099935927,15.288,0,6.211485246892074,0.1233732027641523,6.54948164479586e-07,-0.018048420381499,0.0327592364598353,0.0020052192606722,7.981104700205267,19.17528241803188,43.00949809939553,34.6017723870903
1.22,31.2221473607742,131.0104973378264,28.453906319811665,4.448890448571706,6.583855056380926,25.042737316346543,-3.1683600459805854,1.3728540489793517,283.0687504825761,42.13255338929924,17.536129315653117,69.6879933403686,1.5116989863651784,115.31039639373545,1084.322362000465,15.288,0,6.225379015127342,0.123852155927357,6.768781293680163e-07,-0.0185428199489471,0.0335008948965334,0.0020680618056596,7.940563329901288,19.084383556962525,43.16446846783087,25.279674165548506
1.23,31.22214681760924,131.01049907225308,28.83513493364781,4.4354168333905095,6.512847380036927,9.975209845410475,-3.21347939118596,1.3332998043099091,159.79687382222795,42.43019826472932,17.66070869515894,69.67672501692702,1.5632629467565795,115.36538183964376,1099.656566612657,15.288,0,6.239199215155283,0.1247276445216817,6.992746757572992e-07,-0.0190465975550283,0.0342506087133651,0.0021391759843501,7.874342211235957,18.93447958098832,43.45103225235599,10.564513695656975
