Time,Latitude,Longitude,Altitude,Angle of Attack,Angle of Sideslip,X-Acceleration,Y-Acceleration,Z-Acceleration,Thrust,True Velocity,Ground Velocity,Pitch,Roll,Yaw,Dynamic Pressure,cp,parachute_deploy_gain,Wind Speed,Mach,omega_x,omega_y,omega_z,Cmq,Angle of Attack(total),Angle of Attack(gust),True Velocity(gust),Acceleration
0.0,31.222186000000004,131.010384,3.000000003643237,0.0,0.0,0.0,0.0,0.0,2.2828121974499247,0.0,0.0,69.99999999623421,0.0,113.69999999388332,0.0,15.288,0.0,0.0,0.0,0.0,0.0,0.0,-0.0,0.0,90.0,0.0,0.0
0.01,31.22218600000153,131.01038399999584,2.99999882256592,0.0,0.0,0.0,0.0,0.0,34.24218696174923,7.502283530665459e-11,7.190531319924593e-11,69.99999999623329,-4.83564628150269e-13,113.69999999388072,3.446445726795683e-21,15.288,0.0,0.0,2.204725565824978e-13,-3.659182332138578e-19,7.589415207398531e-19,4.811147140404426e-19,-1.5108918610345807e-31,0.0,89.9999999995224,7.502283530665459e-11,0.0
0.02,31.22218600000288,131.01038399999217,2.999997775701936,0.0,0.0,0.0,0.0,0.0,25.871876237766408,1.5320717031631675e-10,1.4674636035870463e-10,69.99999999623222,-9.67129256300373e-13,113.69999999387804,1.4372842949972735e-20,15.288,0.0,0.0,4.5023593667086093e-13,-7.284483346386986e-19,1.5178830414797062e-18,9.757819552369542e-19,-6.170906918166791e-31,0.0,89.99999999902465,1.5320717031631675e-10,0.0
0.03,31.22218599928065,131.01038400193067,3.000201659671132,18.81500467334555,-0.00012974450181,11.96616230539064,-1.8916256735984712e-05,3.349833086198469,180.34219359854663,0.0882870268161719,0.0553390044312322,69.99999999799445,-4.212591857125379e-12,113.69999999488518,0.0047728553458352,15.288,0.0,0.0,0.0002594525584132,3.2187251995663407e-17,-7.20264389268894e-10,1.2365134327422308e-11,1.6874092354518158e-13,18.815004673776716,89.46786891739345,0.0882666465974854,12.426199017587786
0.04,31.22218599548236,131.0103840121632,3.001799604587872,9.46752327608497,-4.6177622759613696e-05,55.21900012092241,3.931876292165237e-06,3.349616504302861,548.6359724538078,0.3767519978512604,0.1853356633749705,70.00000000507204,-2.4624598767003407e-11,113.70000000019972,0.086915163246288,15.288,0.0,0.0,0.0011071759353184,1.6174128009138757e-15,-1.3693172015529268e-08,2.7753303060112748e-11,1.3689612277852356e-11,9.467523276196548,87.63554493451223,0.3767447442872393,55.32050167054111
0.05,31.222185984749512,131.01038404118162,3.00777936418888,5.376730308971262,-2.257790939128127e-06,80.28807156553681,5.266841443842784e-05,3.348887800834877,761.6984298824644,1.018787885905993,0.4366201147110198,70.00000000894464,-1.1355399380652658e-10,113.70000001523856,0.635552918586145,15.288,0.0,0.0,0.0029939522895272,1.6418815498809788e-14,-9.32122351075408e-08,4.303264669380585e-11,2.5199270302492604e-10,5.3767303089717045,83.57022052969386,1.0187875312530217,80.35788377762394
0.06,31.22218596447235,131.01038409608267,3.0201664202003013,4.296730121134882,2.4863835723705905e-05,60.21296515808257,0.0001057204249726,3.347700952379021,590.4875390737208,1.721098934225416,0.7081674028809783,69.99999995523842,-3.0560354507026086e-10,113.70000004366592,1.8138247671743823,15.288,0.0,0.0,0.0050578622752421,8.328976953118383e-14,-3.2824985336199985e-07,5.923438275930214e-11,1.4991363363716091e-09,4.296730121206683,79.20467073327266,1.7211028398275985,60.305955550063224
0.07,31.22218593493329,131.01038417609837,3.038741944736831,3.8204913578752526,4.8016684030909405e-05,91.4060317508128,0.0001597686613101,3.346072557365335,855.2937749779139,2.4375792548422868,0.9844712334613328,69.99999973536046,-5.939103491363046e-10,113.7000000850886,3.6383156301599167,15.288,0.0,0.0,0.007163413150771,2.709313825263564e-13,-7.906546256197275e-07,7.920022733617308e-11,5.114174483651565e-09,3.820491358176508,74.87999294483174,2.437586797285377,91.46725557277466
0.08,31.222185894468456,131.01038428575305,3.0647976109320942,3.588632851766762,7.220043782492885e-05,19.18449428359557,0.0002119618497595,3.3440615022685813,241.2171988638848,3.1292508166901074,1.2522236515868983,69.99999919480445,-9.914748373602156e-10,113.7000001418522,5.996012698481753,15.288,0.0,0.0,0.0091960591623389,6.80386533246681e-13,-1.5973238302190878e-06,1.0839624626357699e-10,1.3263625118823921e-08,3.58863285249208,70.86684630658345,3.1292621579083604,19.473766155861934
0.09,31.22218584634549,131.01038441616095,3.0957981580345013,3.551302481506045,9.685468678862004e-05,57.102946699906326,0.0002554087225869,3.341892818148368,563.0937377043176,3.701810007254615,1.479132491047967,69.99999812344194,-1.4359264356978275e-09,113.7000002093888,8.390904013834115,15.288,0.0,0.0,0.010878666406854,1.440096519545733e-12,-2.748643691533636e-06,1.5214952332699618e-10,2.6999776649034504e-08,3.5513024828250237,67.68737872952666,3.701825221153239,57.20065357568538
0.1,31.222185790329306,131.01038456796124,3.1319266121977414,3.608446747536112,0.0001234669721807,54.26147302645416,0.0002914860332524,3.3396271157106168,538.7437595981919,4.174070299823608,1.6716491241860567,69.9999963052332,-1.902380107712657e-09,113.70000028805804,10.668380938744466,15.288,0.0,0.0,0.0122665227999911,2.687800116751415e-12,-4.315796035622946e-06,2.1749089204950437e-10,4.7802076800548326e-08,3.608446749645647,65.17160335282355,4.174089693970246,54.36414778470795
0.11,31.222185727066616,131.0103847393952,3.172681775073216,3.633547373470009,0.0001485939126744,42.987553988990406,0.0003293995000288,3.337005588796181,442.8656393052949,4.672024955140527,1.8729475711242067,69.99999349387662,-2.3433348587116544e-09,113.70000037699285,13.365573690709628,15.288,0.0,0.0,0.0137298902182575,4.5789425819531184e-12,-6.340230783164189e-06,3.1157625832417107e-10,7.860218435507205e-08,3.6335473765043056,62.62546922225161,4.672048296217748,43.116880735560244
0.12,31.22218565692512,131.0103849294629,3.2177790417108385,3.650108937861461,0.0001727442530266,46.86777100765684,0.000367618259785,3.334068179146888,475.58594813540446,5.17479364099247,2.0758708919414386,69.99998941286465,-2.702771525550512e-09,113.70000047573096,16.396890189902592,15.288,0.0,0.0,0.0152074069417046,7.288473386564583e-12,-8.86736416607888e-06,4.42271554299792e-10,1.217615295152289e-07,3.6501089419435786,60.16906436414164,5.174820775596283,46.986210423745625
0.13,31.222185580265183,131.0103851371844,3.2669395832841857,3.7280113734654137,0.0001995014041665,51.64515456841877,0.0003986198234033,3.3311573548369657,515.9156326236895,5.579364582999854,2.2451120211463422,69.99998375846928,-2.9114380666036422e-09,113.70000058383452,19.060875702782603,15.288,0.0,0.0,0.0163963474924215,1.100846422415094e-11,-1.1941028436408576e-05,6.179653149059831e-10,1.7678562106638216e-07,3.728011378795934,58.279338776943774,5.579395920607139,51.75247433579817
0.14,31.22218549718016,131.01038536230575,3.320091807147376,3.768719651034081,0.0002242721760019,48.1660778383537,0.0004326225136175,3.32784677779744,486.2390860568404,6.025734265159953,2.428648685938864,69.99997621008868,-2.890941335368725e-09,113.70000070125378,22.232643351545065,15.288,0.0,0.0,0.0177081261985351,1.5941871344608664e-11,-1.560901486259027e-05,8.477542742712431e-10,2.495765160917323e-07,3.7687196576976176,56.27980129251342,6.025769493750979,48.280903250602165
0.15,31.22218540777004,131.01038560455507,3.377159065217065,3.821894709649632,0.000249725644238,46.56959330999435,0.0004643042952466,3.324387732286376,472.54218587214,6.441023336496372,2.6014999612196745,69.99996641132823,-2.546763407193136e-09,113.70000082794672,25.402620271850456,15.288,0.0,0.0,0.0189285691155931,2.2314099732464315e-11,-1.992367942778425e-05,1.1417519574710292e-09,3.4051816697623295e-07,3.821894717796148,54.501255563441134,6.441062563308839,46.68809885900716
0.16,31.22218531193176,131.01038586421257,3.4382223512025254,3.8463320955387794,0.0002733212404609,36.974247749122085,0.0004987816203583,3.3205066466509234,391.1218908297564,6.895451966878468,2.7877331692857847,69.99995397923414,-1.77088415515292e-09,113.70000096417354,29.113317717489338,15.288,0.0,0.0,0.0202640360420561,3.0367358387834494e-11,-2.4945905791363795e-05,1.5114297685186711e-09,4.5643121540033697e-07,3.846332105235269,52.641145594326446,6.895494900078523,37.12304892183151
0.17,31.222185210004127,131.010386140357,3.503019838429153,3.8860314262554336,0.000297865039677,46.520531453299206,0.0005306403365217,3.31650761597812,471.78125980632376,7.314788342774694,2.9619016331667103,69.99993849340957,-4.3039914767238207e-10,113.70000110959404,32.761746921137856,15.288,0.0,0.0,0.0214963781445172,4.0366633128431416e-11,-3.0713078585132897e-05,1.96747427715988e-09,5.961228045584824e-07,3.886031437653654,51.00464968745696,7.314835131305714,46.63860064094784
0.18,31.22218510147516,131.01038643438045,3.571950002194137,3.9107265153396016,0.0003214293682635,38.895647526122765,0.0005639254295027,3.312149448254175,407.10156721191447,7.754626295791602,3.1430587898572058,69.9999195084231,1.6149322372810674e-09,113.70000126508234,36.81988229018681,15.288,0.0,0.0,0.0227889722876034,5.2593391349219385e-11,-3.731786027786564e-05,2.525509173087448e-09,7.6786585232224e-07,3.9107265285284982,49.36615848311875,7.754676785798701,39.036415444581515
0.19,31.222184986476247,131.0103867459258,3.644912152926752,3.920599115663931,0.0003437679584038,43.86258669386953,0.0005989384366483,3.307389681300437,448.9531328318269,8.219206165926856,3.332657190859447,69.99989653019398,4.538529095696477e-09,113.70000143063515,41.36350714675367,15.288,0.0,0.0,0.02415428010977,6.735860419174937e-11,-4.481243905342629e-05,3.199401151670645e-09,9.773118416308382e-07,3.92059913071168,47.71893898797248,8.21926016487149,43.987104227715655
0.2,31.222184864792144,131.01038707557822,3.722074668489528,3.943376465171875,0.000367328732016,40.28070981710589,0.0006315894240138,3.30251450988504,418.51563019916136,8.65238089736321,3.511445117640573,69.99986902534273,8.534090245934178e-09,113.7000016067622,45.83799876721736,15.288,0.0,0.0,0.025427299120469,8.499785987217288e-11,-5.328041996372527e-05,4.006766070954748e-09,1.2232205148646746e-06,3.9433764822533854,46.2587826635041,8.652438597225508,40.41586552155969
0.21,31.22218473678744,131.01038742234647,3.803156063113743,3.9664546506877016,0.000390962054969,38.67679184347145,0.0006636984664108,3.297405915846789,404.8187610144644,9.079179692250786,3.688002035198235,69.99983642883521,1.3827831253856693e-08,113.70000179318536,50.47126980736161,15.288,0.0,0.0,0.0266815841422463,1.0586558589671407e-10,-6.275155280099118e-05,4.961340042512481e-09,1.5117124669161171e-06,3.9664546699249135,44.88773728276958,9.079241104426773,38.817098210937615
0.22,31.2221846022986,131.01038778667507,3.8882846911135607,3.956175711337521,0.0004112685792646,46.713636108302936,0.0007011135033803,3.291572407481395,472.5421858721365,9.580256326712124,3.889976788904857,69.99979815126248,2.0662823443484168e-08,113.70000199039316,56.195522894218605,15.288,0.0,0.0,0.0281541581291438,1.3033127211465288e-10,-7.330053770532661e-05,6.0817207473359025e-09,1.8632831045819008e-06,3.956175732680424,43.35679625546934,9.580320928629488,46.8294591882524
0.23,31.222184460898035,131.01038816972698,3.977794004014759,3.9879066397329104,0.0004360962274406,38.89105719050748,0.0007308686121188,3.286096544282012,406.3406421461021,9.977039034039262,4.056142701351626,69.99975353557706,2.9316661139418326e-08,113.70000219928508,60.9462612310605,15.288,0.0,0.0,0.0293202403623685,1.5880617816859538e-10,-8.505067486192354e-05,7.393319440773217e-09,2.2514912291167663e-06,3.987906663538912,42.20670487756048,9.97710753587448,39.0296395118868
0.24,31.222184313516166,131.01038856897196,4.070963590490852,4.003523997322975,0.000459165577055,40.0792299321398,0.0007630441688766,3.280134925833028,416.2328240017114,10.408422364424831,4.234121060914368,69.99970190737699,4.010976417051318e-08,113.70000241888,66.32994780718496,15.288,0.0,0.0,0.030588009649109,1.91711512587616e-10,-9.795845222523724e-05,8.904557280909524e-09,2.7052895870113487e-06,4.003524023611085,41.011349410369874,10.408494489985014,40.21323112692186
0.25,31.22218416001652,131.01038898478134,4.167901030441617,4.0261356185860135,0.0004830526730531,41.17760020658354,0.0007934613160587,3.2740610008587527,425.36408079150686,10.816813039390448,4.4041629376391525,69.99964258149416,5.3372865854010094e-08,113.70000264972064,71.63651430352668,15.288,0.0,0.0,0.0317882126436337,2.2947426169209347e-10,-0.0001121037688082,1.0637152702866709e-08,3.217380562698304e-06,4.026135647516394,39.93186687113378,10.816888917126896,41.30755663120434
0.26,31.222184000702686,131.0103894163294,4.26837241014618,4.053359329950934,0.000507503069958,44.80261175215926,0.0008224724146494,3.2678597736729302,455.8015834241788,11.207047269494833,4.567925492611352,69.99957484039399,6.947299261165984e-08,113.70000289176392,76.89781807056055,15.288,0.0,0.0,0.0329350617559806,2.7254099134167665e-10,-0.0001275114371842,1.260720913253598e-08,3.7915697709142366e-06,4.053359361668992,38.945390435244384,11.207126987890645,44.921630958721536
0.27,31.22218383516388,131.01038986473338,4.372698316214008,4.0614460923241,0.0005296455772492,41.029837477288126,0.0008548809954683,3.2610328932384265,423.84219965987256,11.645685385842508,4.748226940060522,69.99949794024376,8.879821051920497e-08,113.70000314600205,83.0342688744587,15.288,0.0,0.0,0.0342241635563461,3.2137296827284217e-10,-0.0001442952656441,1.4842505534226832e-08,4.458527942364847e-06,4.061446126801262,37.8838346421185,11.645768582375233,41.15922617924542
0.28,31.222183663504484,131.01039032970942,4.48079961904222,4.081133040992532,0.0005533279247169,47.27661484082626,0.0008845140695959,3.254218495915602,476.3468732012221,12.047344998676092,4.915789434712848,69.99941106884992,1.1178948978424788e-07,113.70000341275257,88.85982357848233,15.288,0.0,0.0,0.0354045979054623,3.764736350660473e-10,-0.0001625146963723,1.7365685655384934e-08,5.194620655212288e-06,4.081133078439725,36.956255322213885,12.047431915223257,47.38848224631549
0.29,31.22218348566054,131.0103908114315,4.592727908358551,4.1001100265020245,0.0005770279952742,37.989969791857405,0.0009138463939581,3.247164755122801,397.97031042211177,12.446314684600782,5.082367374004485,69.99931338876085,1.3891902435864665e-07,113.70000369260468,94.8417675268915,15.288,0.0,0.0,0.0365771315767517,4.3836067907166327e-10,-0.0001822432988888,2.0202163500922312e-08,6.018074062137429e-06,4.100110067036654,36.07377590258778,12.446405323946324,38.12849176886316
0.3,31.222183301933686,131.01039130907952,4.708251093558373,4.112858061667493,0.0005998635114143,35.655053282557844,0.000944131403186,3.2397207148238625,378.1859457108711,12.860033399289696,5.253940723820665,69.99920403105713,1.707002607527005e-07,113.7000039856728,101.2505662360602,15.288,0.0,0.0,0.03779301412572,5.075709863465428e-10,-0.0002035013069687,2.3370674033523645e-08,6.94335970778e-06,4.112858105337573,35.19685285507256,12.860127625629724,35.80193592228613
0.31,31.222183112488807,131.0103918222051,4.827243246502713,4.136140889545823,0.0006242383343011,37.56633644061071,0.0009716215464757,3.232339252743767,394.1656220930212,13.2364445751808,5.4126574282679245,69.99908210036875,2.0768081583188525e-07,113.7000042923011,107.26326115439352,15.288,0.0,0.0,0.0388992619788015,5.846561731689753e-10,-0.0002263323252403,2.6893437641668458e-08,7.948283231812338e-06,4.1361409365698805,34.43286455705216,13.236542630309057,37.70514091683033
0.32,31.22218291741533,131.01039235056504,4.949637017503345,4.1622282001352975,0.0006491019906456,40.83513712643371,0.0009979686925508,3.224840963348891,421.55939346242695,13.59846554462374,5.566374262777002,69.99894668612772,2.504388718903276e-07,113.70000461297312,113.2095365840355,15.288,0.0,0.0,0.0399632243410653,6.701756367872645e-10,-0.00025078340164,3.0793566854276295e-08,9.047716714467492e-06,4.16222825066026,33.72644865222576,13.598567505326,40.96227562489027
0.33,31.222182716732533,131.01039289410716,5.075419569102976,4.187801887681037,0.0006739743721461,40.48743503284469,0.0010239291638211,3.217136801802925,418.5156301991682,13.956637761217308,5.718704299733134,69.99879684673242,2.995902922462564e-07,113.70000494831164,119.25032483364384,15.288,0.0,0.0,0.0410158804634189,7.647061680070125e-10,-0.0002769136723495,3.509664608790402e-08,1.0253455741189656e-05,4.187801941818244,33.053267359159875,13.956743628864118,40.61505097607
0.34,31.222182510255863,131.01039345333336,5.204736257784645,4.19642921746386,0.0006961879027693,31.814592723444047,0.0010535137542081,3.208669900766693,345.46563688075645,14.367047160772364,5.88887983533068,69.99863160305904,3.557915789971256e-07,113.70000529927128,126.36523219087664,15.288,0.0,0.0,0.042222056531773,8.688448410811866e-10,-0.0003048202762282,3.9835373705550826e-08,1.1618525957862828e-05,4.196429275109305,32.30947868183619,14.367156517712404,31.97598901989736
0.35,31.222182298183583,131.0103940277045,5.337435501771672,4.210915783240843,0.0007193441544952,34.813487415034444,0.0010813034848195,3.200164272309822,370.5765700527033,14.754132934586384,6.050986755458457,69.99844991734221,4.1975736284587617e-07,113.70000566632532,133.26448209504355,15.288,0.0,0.0,0.0433596939127697,9.832256819293898e-10,-0.0003345386312107,4.503361101379695e-08,1.309465610343774e-05,4.210915844572415,31.63649055965014,14.75424592890194,34.96026256388454
0.36,31.222182080444604,131.0103946174141,5.4735747500461605,4.22903876037745,0.0007431682866607,39.2632255716727,0.0011077666085529,3.1915717453569297,407.8625232777193,15.124417129017054,6.2072589919251575,69.99825073022951,4.922382611919288e-07,113.70000605036684,140.03566173682628,15.288,0.0,0.0,0.0444479595865755,1.1084921261805627e-09,-0.0003661511460057,5.0723697896912267e-08,1.4691545926915382e-05,4.229038825557203,31.017264542603208,15.124533865618538,39.39272792946638
0.37,31.22218185710795,131.01039522227452,5.613102797925907,4.249164960780052,0.0007674149135003,37.28328237034959,0.001133274451316,3.1828514669894137,391.1218908297666,15.483077353331511,6.359470679857624,69.99803294268581,5.740349991123437e-07,113.70000645214331,146.75405277514704,15.288,0.0,0.0,0.0455020695186381,1.245311285088233e-09,-0.0003997125883071,5.6934243389647934e-08,1.641828325195534e-05,4.2491650299519,30.439178816713017,15.483197898584232,37.418894813348615
0.38,31.2221816281124,131.0103958424523,5.756069531572451,4.260095806433531,0.0007900626414612,38.9278000801764,0.0011607546399008,3.1735466295306622,404.8187610144602,15.87126705947922,6.521735074464384,69.99779542676283,6.659911329739736e-07,113.70000687263192,154.20298254405043,15.288,0.0,0.0,0.0466429667223463,1.3943646956867835e-09,-0.0004353006984059,6.369875435270817e-08,1.8328108041903096e-05,4.260095879559656,29.83470194713067,15.87139116222873,39.05694584372078
0.39,31.22218139339905,131.0103964781077,5.9025231349944285,4.274091258047817,0.0008133283308351,33.320076729592266,0.0011870382950339,3.164143363712209,357.64062493382744,16.24457853509073,6.678818328235205,69.9975369905506,7.690136753559805e-07,113.70000731287368,161.54010621938565,15.288,0.0,0.0,0.0477401448128051,1.5563705124515804e-09,-0.0004730068442167,7.105463478762673e-08,2.0383860516746246e-05,4.274091335289374,29.274934656826048,16.244706292406182,33.46997636540994
0.4,31.22218115316572,131.01039712870306,6.0523126585892895,4.286421841403391,0.0008363022448449,31.88018820767003,0.0012133780841982,3.1544430614236454,345.465636880754,16.62063299903514,6.836764518435374,69.99725641601981,8.840594270905819e-07,113.70000777359816,169.10340080049767,15.288,0.0,0.0,0.0488453895716005,1.7320643186450851e-09,-0.0005128553637434,7.9027539265021e-08,2.2612406375611563e-05,4.286421922834417,28.730746964325096,16.620764365084565,32.03586915718869
0.41,31.22218090752676,131.01039779392735,6.205351877049411,4.30025870409831,0.0008595777771371,35.882550741685804,0.0012389121673015,3.1445895889870297,378.94687077668647,16.987310563534386,6.99141560549392,69.9969524610574,1.0121301778427253e-06,113.70000825570062,176.64448930727934,15.288,0.0,0.0,0.0499230826371405,1.922193031274436e-09,-0.0005548883906878,8.764667734700782e-08,2.5005077415911235e-05,4.300258789847355,28.21875643368965,16.987445585695873,36.020076248499606
0.42,31.222180656535848,131.0103984736348,6.36160173428776,4.322008670726048,0.0008844838439129,40.34064925656127,0.001261804338223,3.134918999355981,416.2328240017114,17.318628721060172,7.133856886815013,69.99662385300175,1.154276942054023e-06,113.70000876021427,183.59942989625057,15.288,0.0,0.0,0.0508968652507098,2.1275184665783874e-09,-0.0005991661829955,9.694534598491077e-08,2.752657757470936e-05,4.322008761057615,27.772396468009568,17.318767655457478,40.462275036947325
0.43,31.222180400205527,131.0103991677914,6.521055075967404,4.339436441324956,0.0009085827200945,35.541853595187746,0.0012854696362701,3.124839917627212,375.9031395134336,17.662848429084132,7.280642039343927,69.99626930133451,1.3115939750280808e-06,113.70000928827632,190.96736675963504,15.288,0.0,0.0,0.0519085689713619,2.3488101247838237e-09,-0.0006457514522491,1.0695800287133593e-07,3.0255957891170616e-05,4.339436536261635,27.322335771349252,17.662991148924057,35.67895714766603
0.44,31.22218013836212,131.0103998768696,6.683849332059896,4.342209064313268,0.0009296474314902,32.82948243168077,0.0013129688908547,3.113754688841357,353.0750125389216,18.063580761318697,7.446730341918701,69.99588746395321,1.4852372182848018e-06,113.7000098413532,199.7278270846888,15.288,0.0,0.0,0.0530863610987301,2.586862292117705e-09,-0.0006947575786514,1.1773083546077225e-07,3.329010177793299e-05,4.342209163639375,26.81344244367223,18.06372678999575,32.9768158972058
0.45,31.22217987077456,131.0104006014978,6.850166573233225,4.3420317510315165,0.0009500780330031,38.11022602597878,0.001341042003417,3.1022288449712887,397.2093853562869,18.47486275310604,7.616350301328129,69.99547690348253,1.6764536248320808e-06,113.70001042108892,208.92306716049887,15.288,0.0,0.0,0.0542951637545535,2.842521175226318e-09,-0.0007463379956615,1.2932090054593452e-07,3.657529369088674e-05,4.342031854775571,26.30944884471334,18.47501199101448,38.23628058998621
0.46,31.22217959739673,131.01040134180155,7.020045503401754,4.351169003849846,0.0009725797783515,44.3937050866137,0.0013660055515545,3.09098240974522,449.7140588976434,18.844323061800488,7.771531995684422,69.99503610583268,1.8865779683531e-06,113.70001102895836,217.3591612614144,15.288,0.0,0.0,0.0553810645782081,3.1166808800591503e-09,-0.000800596194505,1.417768495237597e-07,4.001824400409673e-05,4.351169112337076,25.873596578896564,18.844475834274814,44.50118229261506
0.47,31.22217931813738,131.01040209802923,7.193559875579052,4.358630093683735,0.0009947969928181,30.22514089990685,0.0013910994973101,3.079396422776949,331.0078106302534,19.2180591098146,7.9280875671397615,69.99456352718363,2.1170044481277104e-06,113.70001166656292,226.0625808853568,15.288,0.0,0.0,0.0564795377574197,3.4102493884459798e-09,-0.0008576351980594,1.551487523304888e-07,4.3718862242359527e-05,4.35863020698899,25.44665981168229,19.218215372160817,30.381603425148434
0.48,31.22217903348153,131.01040286886197,7.370336324605091,4.365514409145237,0.001016880998596,29.779838936311712,0.001416009414045,3.067527859335786,327.2031223011574,19.5915905767454,8.084483592791102,69.99405758812365,2.369198154608765e-06,113.70001233476164,234.93171707892955,15.288,0.0,0.0,0.057577416115756,3.7241711041759195e-09,-0.0009173883913609,1.6944871263079066e-07,4.767297940601472e-05,4.365514527349481,25.03354780044292,19.59175030803913,29.937410312943754
0.49,31.22217874361868,131.01040365378466,7.5502307795521535,4.3786401372577615,0.0010404145545081,37.2489281064929,0.0014385799934191,3.0558405437943126,389.60000969812296,19.93403005898306,8.23012235628909,69.99351671352461,2.644660619562788e-06,113.700013034871,243.21198709852868,15.288,0.0,0.0,0.0585839249886784,4.059374595909599e-09,-0.0009798792959512,1.8470833984680338e-07,5.180951737438081e-05,4.378640260624215,24.667474291142685,19.934193486919103,37.37406598941686
0.5,31.22217844858332,131.0104044527036,7.733219389747018,18.41664029716061,-0.0031432326957824,38.68220895636729,0.0012693824718905,1.7993710109256855,397.97031042210494,23.539299054699544,8.366120773869401,69.99293932307316,2.9449363413826395e-06,113.70001376847225,339.1362240998435,15.288,0.0,6.262892444746544,0.0691795574048956,4.416673716856832e-09,-0.0010561207172611,2.6601108099191817e-05,6.593884171267398e-05,18.41664055609186,27.595826116373853,23.53880531686251,38.724036816819
0.51,31.222178148777257,131.01040526486955,7.919291368774705,18.24131145959183,-0.0017268547400005,29.775874260623382,0.0011704875226674,1.7589620625118876,323.3984349720841,23.88787811577004,8.500785360162805,69.9922413528947,4.477140480664686e-05,113.70005870201328,349.2484739684125,15.288,0.0,6.287751004376151,0.0702041424576885,4.8627600837852804e-09,-0.0014210400174515,2.6561825377194405e-05,9.003478851702893e-05,18.241311538549613,27.28081911307123,23.88760686206183,29.82778296977251
0.52,31.22217784424169,131.010406089824,8.108490237250598,18.06434952422232,-0.0016748726617213,35.616958897745455,0.0011910090340703,1.717234067039475,372.0984511843415,24.2450262308504,8.638532194986276,69.99133177250499,8.65362481776629e-05,113.7001035765214,359.7632476400043,15.288,0.0,6.312532170299936,0.07125391799185,5.441868285993713e-09,-0.0017959183594837,2.6525344171500247e-05,0.0001154855973025,18.06434959927701,26.96392355950523,24.24476314246795,35.65833220136905
0.53,31.22217753485293,131.0104069279336,8.300928940916178,17.894062313980513,-0.0016241646964605,37.3622777100575,0.0012112245851072,1.675140286752693,386.5562464348624,24.59874162775722,8.774710506609866,69.99020472152289,0.000128238610179,113.70014839123976,370.3302900027384,15.288,0.0,6.337239267766975,0.0722936121829534,6.157253843325363e-09,-0.0021811963325005,2.648886060458174e-05,0.0001423043582484,17.89406238527743,26.65828284218001,24.59848650456333,37.399811391647766
0.54,31.222177220522664,131.01040777943922,8.496685726059242,17.728923179734544,-0.0015745480238481,32.911822123410545,0.0012312199272233,1.6325533982946447,349.2703242098436,24.95061695098364,8.90988927795487,69.98885417641142,0.0001698771494453,113.7001931448317,380.9937643478209,15.288,0.0,6.3618899003927485,0.0733279058013144,7.012248202372751e-09,-0.0025772237875131,2.645239016853236e-05,0.000170543749925,17.72892324740834,26.361754374983427,24.950369621558448,32.952287744513306
0.55,31.22217690153596,131.0104086435661,8.695549153349917,17.57279210905396,-0.0015263456611321,34.839429068019506,0.0012506777693203,1.5899146716600516,365.2500005919907,25.29484983490388,9.042009424347826,69.98727405051967,0.0002114505431709,113.7002378354492,391.571620253562,15.288,0.0,6.386454927997592,0.0743397460143493,8.010219034993132e-09,-0.0029836816689679,2.641600988191017e-05,0.0002001606426239,17.572792173250335,26.079619715868866,25.29461007708812,34.875688495181244
0.56,31.22217657790353,131.0104095202859,8.89752036895852,17.428267914660996,-0.0014797180167956,32.573308635790994,0.0012693517907379,1.5475861145923289,346.2265619465787,25.626969354613184,9.169475271030707,69.98545831032276,0.0002529575080302,113.70028246167392,401.9139437364428,15.288,0.0,6.410933622672983,0.0753159930213702,9.154454970266932e-09,-0.0034007544193757,2.637975070321972e-05,0.00023113099724,17.428267975528044,25.815411207407323,25.62673692105066,32.61005151599471
0.57,31.222176249706568,131.01041040937824,9.102545736824844,17.280982971643844,-0.001433449340225,32.221275482997605,0.0012883367933352,1.5040493562460528,343.1828296833023,25.966871121713528,9.29943599878342,69.98340089339112,0.0002943967842519,113.70032702201097,412.63804708811546,15.288,0.0,6.435315006586574,0.0763151186769483,1.0448242451035113e-08,-0.0038284615743128,2.6343658707414547e-05,0.0002636459093927,17.280983029282027,25.54939006077315,25.966645956017725,32.25635999112514
0.58,31.22217591693313,131.0104113108762,9.310643803828526,17.121881594296642,-0.0013868376419962,42.18040636940605,0.0013083867657954,1.458183877546278,426.1250058573153,26.32839744375237,9.436845037544527,69.98109565985713,0.000335767121041,113.70037151510552,424.19954352786897,15.288,0.0,6.459598795773413,0.0773778050888061,1.1894880497852828e-08,-0.0042670010583136,2.6307765268396247e-05,0.0002979309490971,17.12188164878025,25.26909592706578,26.328179599805,42.2056036969126
0.59,31.22217557919683,131.01041222583112,9.522123866382614,16.984598827461834,-0.0013424892148999,34.346169559196404,0.0013267535417475,1.413885176189771,360.68438819711065,26.66155253905305,9.56376483896839,69.97853606921663,0.0003770749952377,113.70041595119538,434.9941313439005,15.288,0.0,6.4838110501246735,0.0783571177092079,1.3497822173073285e-08,-0.0047173627353299,2.62720395074386e-05,0.0003335372413223,16.98459887895478,25.020635190177742,26.66134166134032,34.37525907452617
0.6,31.222175236715955,131.01041315364992,9.736826276868817,16.824235919750635,-0.0012969379409385,30.615998023106823,0.0013471479522495,1.3657913680423353,329.4859594986058,27.03418510871074,9.704503762934191,69.97571558581147,0.0004183035268726,113.70046030628356,447.2291880423769,15.288,0.0,6.50793693046649,0.0794524607101896,1.5260613288564477e-08,-0.0051793027931241,2.6236554716540887e-05,0.0003713088118986,16.82423596829441,24.742375499632367,27.033981386175387,30.646447148514742
0.61,31.222174889452656,131.0104140944362,9.954790100127006,16.663246395547826,-0.0012519446686833,35.74340266620451,0.0013677443399599,1.3164696561827571,372.0984511843297,27.413045927398304,9.847146107946864,69.97262739597302,0.0004594592008901,113.7005045901184,459.8424612544124,15.288,0.0,6.531980669972977,0.0805661166177633,1.7186856029482875e-08,-0.0056531131734659,2.6201341258657484e-05,0.0004109477010549,16.66324644124494,24.465079626388324,27.41284927238963,35.76763800399476
0.62,31.222174537529007,131.01041504785854,10.17593052191272,16.545150915119542,-0.0012106144488733,44.25405430003434,0.0013846909723258,1.2716801394807076,442.86563930529206,27.727288654768024,9.966382666079362,69.96926452124586,0.000500548561499,113.70054881230682,470.43548009288577,15.288,0.0,6.555946729672565,0.0814898698311477,1.9280241915828724e-08,-0.0061388453261922,2.616644956204628e-05,0.0004513635182663,16.54515095817208,24.248408856251903,27.72709849189509,44.272321988855595
0.63,31.222174180774267,131.01041601438183,10.400389092579095,16.41721606166332,-0.001169042713189,25.44163846286304,0.0014025207488821,1.2247366138561495,286.11251274707894,28.06024601463336,10.092008531335257,69.96562027470246,0.0005415546702553,113.700592949287,481.7911845111333,15.288,0.0,6.579803309511441,0.0824686327571532,2.154425959298263e-08,-0.0066369757232188,2.613189938589478e-05,0.000493838223926,16.417216102140735,24.02003347980403,28.0600623818334,25.47110027885361
0.64,31.222173819769125,131.01041699242768,10.627725175333916,16.272310952536312,-0.0011268423468038,24.99433389363781,0.0014219529595175,1.1744615462734964,282.30782441796754,28.425251431760653,10.22880376728515,69.96168772989127,0.0005824920636975,113.700637021397,494.39611531857776,15.288,0.0,6.6035669226418365,0.083541592339963,2.3982601264761322e-08,-0.0071464640852453,2.6097821211890296e-05,0.0005386529569473,16.272310990498024,23.77006657464585,28.425074427778743,25.021912171780098
0.65,31.22217345450349,131.010417982024,10.857955615808889,16.158857389033734,-0.001087282073348,43.57005675828422,0.0014385376095789,1.1276763516592347,436.7781447787475,28.74005047550729,10.34741543787454,69.95746017648409,0.0006233514574483,113.70068101575198,505.39608282741744,15.288,0.0,6.6271868223828045,0.0844670036667108,2.659871963083202e-08,-0.0076675966235602,2.6064246373937263e-05,0.0005843199312487,16.158857424638732,23.56494772207205,28.7398796856386,43.5846475486907
0.66,31.22217308449141,131.0104189844928,11.091465612918446,16.040461920562702,-0.0010478208039403,37.181306363871165,0.0014555755957006,1.0793097950201065,383.51251517160017,29.065847724114526,10.469656495705388,69.95293080865518,0.0006641242808781,113.7007249211532,516.9077790869757,15.288,0.0,6.6507238580872565,0.0854247467681774,2.9395971889696284e-08,-0.008201585791526,2.6031146267886693e-05,0.0006320843013557,16.040461953887593,23.35469441456852,29.06568313280754,37.19696835329962
0.67,31.222172709922425,131.0104199993191,11.328117621314812,15.907390059717883,-0.0010078954423838,25.84651780900423,0.0014740360630196,1.0277685702552153,289.1562440103425,29.42076699568675,10.601995054820112,69.94809228073764,0.000704825031268,113.7007687584313,529.5966043132797,15.288,0.0,6.674184969405029,0.0864680880531359,3.237813848280539e-08,-0.0087482222281572,2.599859372771516e-05,0.0006824299930705,15.907390090823474,23.125914917531627,29.42060867584089,25.866944026265635
0.68,31.22217233096946,131.01042102603344,11.567786961217728,15.781069024651211,-0.0009688899604409,32.08137559851523,0.0014918759750151,0.9762548280977912,340.8999924858462,29.76683276061013,10.730913252246552,69.94293734025298,0.0007454444167934,113.70081251442312,542.1163060213661,15.288,0.0,6.6974877870021245,0.0874854172258246,3.5548959479933275e-08,-0.009307374221073,2.5966655046340983e-05,0.0007345715715319,15.781069053638086,22.90803865327129,29.766680567731044,32.09622619573969
0.69,31.22217194771809,131.01042206440357,11.810416265198237,15.672562345866924,-0.0009314015298681,39.32720930905055,0.0015079621192369,0.9266439237857172,401.0140726853634,30.082898998860127,10.848873225161896,69.93745874580345,0.0007859817003925,113.70085618829611,553.676980584419,15.288,0.0,6.720702320860399,0.088414585304705,3.891210180842044e-08,-0.0098790410739283,2.5935387376486887e-05,0.0007879500208314,15.672562372849242,22.716079923487086,30.082752694649944,39.33812480626538
0.7,31.22217156004237,131.01042311477255,12.056111594709847,15.564593903930025,-0.0008943489714681,33.111491607412084,0.0015239582108778,0.8762651641144784,349.27032420985284,30.40002716517177,10.966943596201045,69.93164929007446,0.0008264355996916,113.70089977871991,565.39868405831,15.288,0.0,6.7438204164268045,0.0893468826101332,4.2471099070930855e-08,-0.010463704337936,2.59048194025468e-05,0.0008433607389217,15.564593928989693,22.526357878728987,30.399886681163853,33.123084388806696
0.71,31.222171168001807,131.01042417697903,12.304835511962368,15.447578951612396,-0.0008572161808514,27.350157930681643,0.0015408429821982,0.8234604832146571,301.33126406340574,30.736604287775723,11.091687960029509,69.92550154156476,0.0008668125469938,113.70094329512996,577.9739287983876,15.288,0.0,6.766789685190292,0.0903363495818845,4.6229645427290376e-08,-0.0110614113862182,2.587500811963364e-05,0.0009013843330298,15.447578974817604,22.32578598544661,30.736469636572917,27.36255156915819
0.72,31.222170771605448,131.01042525099896,12.556589721931136,15.319710669813515,-0.0008199508086533,33.3180399222833,0.0015588603603901,0.7677115836618129,350.79220534145287,31.09744471693636,11.224804442336534,69.91900800769824,0.0009070964273841,113.70098671478335,591.6098365146149,15.288,0.0,6.789670669709679,0.0913971364502611,5.019146224777377e-08,-0.0116723823672011,2.5846001325478223e-05,0.0009623150671355,15.31971069123103,22.11179416610559,31.09731591936453,33.32688355920184
0.73,31.222170370857416,131.01042633682167,12.811379916074332,15.222186083425347,-0.0007846857814869,41.94829448085542,0.0015736616271664,0.7164187864593295,422.320318528234,31.400722060146386,11.337164406847092,69.91216078326933,0.0009473011543522,113.7010300578902,603.190677584597,15.288,0.0,6.81246610355095,0.0922887508835234,5.4360405640037694e-08,-0.012296889749154,2.58178457530294e-05,0.001023663841835,15.22218610317204,21.94072584082248,31.400598801992064,41.95441178477619
0.74,31.222169965701937,131.01042743459942,13.06925742425866,15.11628464921526,-0.0007493715602838,26.55297356054992,0.0015892785750419,0.6627728170738406,294.48281347105944,31.72235933472032,11.45581081952827,69.90495225863734,0.0009874187688774,113.70107331343117,615.5956705347204,15.288,0.0,6.835108896085488,0.0932343348706648,5.874016411985978e-08,-0.0129351955236539,2.5790590671043983e-05,0.0010878027996745,15.116284667356863,21.7596500019934,31.722241623710893,26.561243857171327
0.75,31.222169556499807,131.01042854335157,13.329951885055255,15.00553789796878,-0.0007142373359292,30.87416899782559,0.0016053788096259,0.6072505764340762,330.24688556441487,32.056145279191746,11.578546326700629,69.89737469835711,0.0010274479671542,113.70111647929976,628.602811330921,15.288,0.0,6.857642033520124,0.0942156332886101,6.333468278825406e-08,-0.0135865997640723,2.576433446758501e-05,0.0011545769989652,15.005537914576568,21.573291724808207,32.05603308705337,30.8801403355962
0.76,31.222169143147905,131.01042966335908,13.59355104224456,14.905897372061576,-0.000680011016118,33.17871345679921,0.0016201989961846,0.5529620442410779,349.27032420986166,32.36876120440814,11.693508138231374,69.88942036629511,0.0010673893582882,113.70115955676674,640.90681158755,15.288,0.0,6.880074913928797,0.0951347199961368,6.81475854503102e-08,-0.0142516134054346,2.5739113156418336e-05,0.0012228690110538,14.905897387221202,21.403434843041445,32.36865438852751,33.18332105585282
0.77,31.22216872559525,131.01043079476105,13.860102205317018,14.80959941333134,-0.0006462923945073,31.077841570007475,0.0016345556180632,0.4984917770414314,331.7687666960708,32.675672559647744,11.806204241242396,69.88108139823402,0.0011072463827342,113.70120255107076,653.1015037987257,15.288,0.0,6.902383417440703,0.0960370490722711,7.318256916568491e-08,-0.0149305782201454,2.571497428654977e-05,0.0012932422170308,14.809599427118004,21.23946741019433,32.67557104027581,31.081839285570517
0.78,31.222168303911143,131.01043193736953,14.129559720768032,14.705524644020247,-0.000612611134378,25.669640744101663,0.001649705241047,0.4415467499141618,286.8734378128899,33.00088787939286,11.92518557578921,69.87234994062482,0.0011470056815251,113.70124544321878,666.1493737985096,15.288,0.0,6.9245560640457535,0.0969931840895301,7.844342301905531e-08,-0.0156234773030641,2.569198347744712e-05,0.0013666924591902,14.705524656499064,21.066178957594783,33.0007916506609,25.673438067098285
0.79,31.22216787818815,131.01043309093336,14.401860065336024,14.597562201834164,-0.0005791635534346,36.15024770196384,0.0016652376992136,0.382784583965087,373.6203323159534,33.33673443428539,12.047724462279009,69.86321786951072,0.0011866842178865,113.70128825757556,679.7592541472438,15.288,0.0,6.946621123393744,0.097980574510557,8.393401168231638e-08,-0.0163302843213704,2.567020655564509e-05,0.0014430218842464,14.597562213073768,20.888824068396676,33.33664345948716,36.15227428148995
0.8,31.222167448213025,131.0104342560327,14.677175422221133,14.507110748352364,-0.0005467435753119,36.62085428295072,0.0016786343300788,0.3268937572379806,377.42502064505743,33.6350620448456,12.156676284456656,69.85367698719742,0.0012262647310205,113.70133096994196,691.9616116688313,15.288,0.0,6.968595058981162,0.0988577014433805,8.965799781190581e-08,-0.0170518710690017,2.5649674120437563e-05,0.0015202286279144,14.507110758434088,20.736606668017917,33.63497616256562,36.622313290662625
0.81,31.22216701409228,131.01043543237853,14.955431237871858,14.406925979742589,-0.0005143030298817,24.13115200925732,0.0016930674628775,0.2679761198705922,273.9374926939919,33.95671546905878,12.273701548523256,69.84371898247838,0.001265753498113,113.70137358933916,705.2405591371254,15.288,0.0,6.990453977165129,0.0998033948669129,9.561935498652244e-08,-0.0177880786846769,2.56304617489689e-05,0.0016009867782721,14.406925988728164,20.57231321533071,33.95663468252776,24.132639958387934
0.82,31.222166576017624,131.01043661945,15.236487406856044,14.303264371641877,-0.0004821156533824,30.75876647374571,0.0017078218235607,0.2073150465501474,328.72500443277005,34.28805899269386,12.393972186752944,69.83333547892798,0.0013051595680599,113.70141612862646,719.0515212619543,15.288,0.0,7.012164840335694,0.1007775780201029,1.018221165254787e-07,-0.0185385857224162,2.5612649485775428e-05,0.001684770719133,14.30326437959763,20.404489089874904,34.287983262144124,30.75946516816579
0.83,31.222166133977424,131.01043781727927,15.52036034627402,14.22010773679752,-0.0004509403021124,38.86176750406062,0.0017199654722525,0.1505758690290516,395.68750322465047,34.57247608520899,12.497337184708064,69.82251813708295,0.0013444637532674,113.70145856048752,731.0100329461619,15.288,0.0,7.033770935701302,0.101613846558162,1.0827009658742269e-07,-0.0193037000400556,2.5596294109594067e-05,0.001768807256025,14.220107743800089,20.265797536150323,34.572405251671974,38.862059255658046
0.84,31.22216568787064,131.01043902614137,15.807134609832664,14.133684274772913,-0.0004199559826934,24.33712652720333,0.001732355017272,0.0922867468083145,275.4593748256452,34.865180541381534,12.603435559548444,69.81125856114213,0.0013836821100462,113.70150090819352,743.4200054993522,15.288,0.0,7.055273568304468,0.1024744817284109,1.1496699156950257e-07,-0.0200838493376059,2.55814511530722e-05,0.001855822253569,14.13368428088496,20.12377703153542,34.86511457485003,24.337301564589993
0.85,31.22216523799508,131.0104402452272,16.09658812210054,14.03206246975798,-0.0003888737496953,26.460915883592936,0.0017465115980973,0.0293292307482439,292.96093233939376,35.195830850503654,12.722851872565474,69.79954845887198,0.0014228036771355,113.7015431557178,757.5665282777591,15.288,0.0,7.076655548950512,0.103446655040176,1.2191690717614566e-07,-0.0208783207168103,2.556821270524397e-05,0.0019474764679339,14.032062475038272,19.96212873502224,35.19576976635789,26.460932195458646
0.86,31.222164784181786,131.0104414749964,16.38885766416793,13.942996618567744,-0.0003584678301745,32.91249298030676,0.0017589562421149,-0.0313982375566273,346.2265619465587,35.49691919252822,12.831549030352448,69.78737917289013,0.0014618315800457,113.70158530787592,770.561786507312,15.288,0.0,7.0979312508130175,0.1043319499825299,1.291234885682463e-07,-0.0216879252228762,2.55566240433144e-05,0.0020402430684435,13.94299662308446,19.818698735802933,35.49686288453313,32.91250800413105
0.87,31.222164326458888,131.01044271537296,16.68392824986914,13.86004859563378,-0.0003285151084228,30.711837507706488,0.0017704503583126,-0.0913363762192472,327.964078366998,35.78315935503273,12.93477254750562,69.77474207094828,0.0015007654903818,113.7016273642299,783.0170194144749,15.288,0.0,7.119062513984191,0.1051736124244838,1.3659061871592172e-07,-0.0225127774002432,2.5546754387527624e-05,0.0021348565315432,13.86004859945082,19.68472119253855,35.78310775200017,30.711973374693496
0.88,31.222163864865795,131.0104439662501,16.981776002410914,13.769876810536273,-0.0002986938993603,26.66762379550825,0.0017827118761005,-0.1540364763843314,294.4828134710418,36.08826898192624,13.044527890547691,69.76162850607575,0.0015396051401605,113.70166932438934,796.4041527650791,15.288,0.0,7.140082882440711,0.1060707449784308,1.4432221687846777e-07,-0.0233528764349374,2.5538676590331028e-05,0.0022333405133952,13.769876813713273,19.541944724011884,36.088222063198245,26.668068721091828
0.89,31.222163399487687,131.0104452273966,17.282341951812107,13.672755608551444,-0.0002690540053525,29.16257543648736,0.0017957357906473,-0.2195806891795558,315.028134248087,36.41237765575982,13.160875326707272,69.74802972377837,0.0015783503100841,113.70171118795,810.7499939121118,15.288,0.0,7.160990878456642,0.107023729087509,1.5232224118027392e-07,-0.0242082079491599,2.55324638779174e-05,0.0023358645459036,13.67275561114825,19.39072501943784,36.41233539285549,29.16340215051295
0.9,31.22216293025327,131.0104464990068,17.585687134929962,13.595460866525256,-0.0002400935660757,32.119742091352734,0.0018059620972312,-0.2804652973034703,339.37814235421445,36.68533452504635,13.258819462900636,69.73393670815028,0.0016170008089686,113.70175295475876,822.9267733462369,15.288,0.0,7.181794215503202,0.1078263764907441,1.605945049578344e-07,-0.025079261930731,2.5528179888930544e-05,0.0024379823525443,13.595460868605327,19.26755385714065,36.68529681123718,32.120966611537504
0.91,31.22216245723624,131.01044778088055,17.89176086493444,13.511035571779816,-0.0002112828048678,24.660908685144776,0.001816945596122,-0.3441654114789995,277.7421810230789,36.97727237259888,13.363353581704969,69.7193406828374,0.0016555565446907,113.7017946245614,836.0518319682521,15.288,0.0,7.202486687741112,0.1086848222533768,1.6914295813362368e-07,-0.0259659467567837,2.5525902213870528e-05,0.0025441902899582,13.511035573401076,19.135661014756813,36.9772391843735,24.663310205825958
0.92,31.22216198064128,131.01044907246185,18.200412412823955,13.41980306401852,-0.0001826775745725,29.185789041732622,0.0018286741803526,-0.4107495444339813,315.02813424806214,37.28814079671415,13.474488146590888,69.70423277011876,0.0016940174793605,113.70183619697517,850.1431185886194,15.288,0.0,7.223058540264007,0.1095989187035934,1.779718019258624e-07,-0.0268677475120071,2.5525714075242096e-05,0.0026546035472676,13.41980306523905,18.995465149916686,37.28811210178784,29.188679321285196
0.93,31.22216150038116,131.01045037398816,18.51171417350972,13.346375424996427,-0.0001545902241715,34.54338193353831,0.0018377654534679,-0.4728052077275379,359.1625070654728,37.5506610434302,13.568224225062435,69.68860400237733,0.0017323836274461,113.70187767208604,862.1300304319008,15.288,0.0,7.243520080273463,0.110370917270307,1.8708463757269374e-07,-0.0277852609198104,2.552768051400363e-05,0.0027645010785709,13.346375425875486,18.880505286588317,37.55063676045457,34.54661754134748
0.94,31.22216101634862,131.01045168575135,18.825753074966386,13.257919271892012,-0.000126597460956,25.32520793517981,0.0018487213569542,-0.5402710131999887,283.0687504837787,37.85472680814422,13.676620823718997,69.67244550187284,0.0017706550811831,113.70191905009057,876.1222972374444,15.288,0.0,7.26387059425469,0.1112650379422577,1.964851193938437e-07,-0.0287189010443211,2.553187356643189e-05,0.0028804446353079,13.257919272485616,18.746017339848684,37.85470692226156,25.330970236956368
0.95,31.222160528835808,131.0104530069576,19.14231172644924,13.172201402938004,-9.8934218786184e-05,32.53034022355577,0.0018590980374061,-0.607762577962602,342.4218736174873,38.151570436785136,13.782315064734648,69.65574807243027,0.0018088319690853,113.70196033065716,889.8896089822275,15.288,0.0,7.284082711181917,0.112137940300329,2.061776643031516e-07,-0.0296679588644695,2.55383784120906e-05,0.0029988758182499,13.172201403302983,18.616210212592037,38.15155489623439,32.536017178931225
0.96,31.22216003755188,131.01045433839775,19.461616834617388,13.095500727085268,-7.159833690024989e-05,31.892089725071312,0.0018679757970248,-0.6731714085077206,337.09533515678345,38.42275163149903,13.878691391646848,69.63850253007963,0.0018469144849811,113.70200151434952,902.5575525476028,15.288,0.0,7.304193438131778,0.1129354231871186,2.161655043618728e-07,-0.0306336572096986,2.5547261964288675e-05,0.0031184040621803,13.095500727277582,18.49962524957365,38.42274038485857,31.89919356765254
0.97,31.222159542518824,131.01045568001234,19.783656398442528,13.015141696656192,-4.449143287254573e-05,20.725648967612045,0.0018771377764003,-0.7405673330842696,245.02188719299323,38.704213551307134,13.978588925235316,69.6206994865025,0.0018849028757167,113.70204260134388,915.8008437664944,15.288,0.0,7.3242007593026415,0.1137631334236039,2.2645264362565975e-07,-0.0316160994565219,2.5558606340174574e-05,0.003241889286012,13.015141696730938,18.37896998978403,38.7042065626092,20.73887578021422
0.98,31.22215904402699,131.0104570310125,20.10821433280252,12.920845941307247,-1.763518361942755e-05,29.782572849495647,0.001888100906896,-0.8136122675358582,319.5937466429581,39.02690638814248,14.093111112565817,69.60232955940528,0.0019227974652579,113.70208359151768,931.1062892119222,15.288,0.0,7.344091423032768,0.1147120432397112,2.3704371972061786e-07,-0.0326143787826008,2.55724972324433e-05,0.0033720293200564,12.920845941319076,18.240198774671,39.02690361801432,29.793684129733354
0.99,31.22215854193024,131.0104583917956,20.43540659514345,12.851565286108375,8.923005982209022e-06,32.468944441601394,0.001895179664404,-0.8788206389382358,341.6609485517054,39.27536760393482,14.18096015391428,69.58338313936692,0.0019605986241551,113.70212448541608,942.9699993402788,15.288,0.0,7.363880022838665,0.11544277314715,2.479422135251777e-07,-0.0336293912755278,2.5589012375577226e-05,0.0034989982194541,12.851565286111404,18.13642948052884,39.27536900555732,32.48083561823692
1.0,31.22215803622833,131.0104597623626,20.76523718912549,12.768742327154044,3.523324247531492e-05,29.14891120248964,0.0019039922290527,-0.949580494945685,314.2672081822764,39.563986049746745,14.283049242201926,69.56385097486628,0.0019983068337873,113.70216528349494,956.849602081464,15.288,0.0,7.38356065620129,0.1162915471965822,2.591520544127811e-07,-0.0346611457087616,2.560823588627677e-05,0.0036327344508599,12.768742327201847,18.015067025109765,39.56399158417153,29.164374346661265
1.01,31.22215752710316,131.0104611422194,21.097572452761664,12.68881117641794,6.128388949234163e-05,30.449434129658435,0.0019121292232662,-1.0201196763910596,324.9203161036979,39.843682805592046,14.381842007064014,69.5437234439289,0.0020359226180314,113.70220598599694,970.3953030288668,15.288,0.0,7.403130537271933,0.1171141070014746,2.706775752305652e-07,-0.0357092413491943,2.5630250500775e-05,0.0037689201232771,12.6888111765635,17.898505949012186,39.84369243204289,30.466517467981244
1.02,31.222157014479382,131.0104625315709,21.43247330399003,12.612999361354834,8.710755196820476e-05,25.554500679907143,0.001919383570214,-1.0898979217337343,284.59063161540416,40.11019962117904,14.475804475069088,69.52299105444689,0.0020734465858182,113.70224659361946,983.3891551530704,15.288,0.0,7.422594241094162,0.1178979359275837,2.825224075269104e-07,-0.0367741338283137,2.5655141095384363e-05,0.0039071505106756,12.612999361650754,17.788418839002933,40.110213304001306,25.57773223261217
1.03,31.22215649842589,131.01046393023012,21.76989104059292,12.528242718130423,0.0001126130389059,21.026551465771565,0.0019277305708071,-1.1638928387582332,247.30469339049705,40.40441990340467,14.57960449823534,69.50164434659625,0.0021108794264212,113.70228710694084,997.8366344256196,15.288,0.0,7.441948265417691,0.1187632046594375,2.946905899092268e-07,-0.0378556897765079,2.568299202658255e-05,0.0040514345800305,12.52824271862846,17.66695985374346,40.40443759261946,21.05873967736432
1.04,31.22215597900505,131.01046533802776,22.109782293968223,12.452961623150337,0.0001379453764863,32.966403006636234,0.0019343607444884,-1.2350413108196845,345.46563688072297,40.66825396181317,14.672419789110243,69.47967354210708,0.0021482218811624,113.70232752660388,1010.8775889067535,15.288,0.0,7.461195218083507,0.1195391668759148,3.07186139751032e-07,-0.0389539424747077,2.5713888379989377e-05,0.0041960587283745,12.452961623902294,17.559264305081204,40.66827563022224,32.98952952039688
1.05,31.22215545593341,131.01046675573423,22.45236397184669,12.370596595506312,0.0001629658037287,20.20031676571869,0.0019417971376103,-1.3097890789408817,240.45625879819983,40.95430285980388,14.7731036118238,69.45706895568111,0.0021854747731996,113.7023678538286,1025.1143170867508,15.288,0.0,7.4803453085284675,0.1203804366509707,3.200120874988014e-07,-0.0400701404997442,2.5747930872316244e-05,0.0043465104155255,12.370596596563006,17.442726766962277,40.95432845841247,20.24273570042509
1.06,31.22215492944739,131.0104681827073,22.7974609800628,12.28237271289764,0.0001876389631363,28.44279334352393,0.0019498784323982,-1.387879822292552,308.17968365593924,41.25949146551918,14.880595521247669,69.43382048781929,0.002222638982328,113.7024080891586,1040.4149161699452,15.288,0.0,7.499390576673523,0.121277975549442,3.3317324267204417e-07,-0.0412035260795574,2.578520212571157e-05,0.0045026084323162,12.282372714308886,17.318988365783955,41.25952093977859,28.476634411137177
1.07,31.222154399432075,131.01046961925937,23.14516314635043,12.20928402768258,0.0002122959127937,33.35604787458828,0.0019552860807279,-1.460499655356286,348.5093681440308,41.51420210948265,14.969856555769969,69.40991781445229,0.0022597154531907,113.7024482337046,1053.2651493658025,15.288,0.0,7.518341570924312,0.1220271497415628,3.466731832345386e-07,-0.0423549002359594,2.5825804329226897e-05,0.0046568449701086,12.209284029500282,17.216750253929142,41.514235456846656,33.388006722148965
1.08,31.222153865786588,131.01047106566455,23.495548631038343,12.133488379661182,0.0002366957944459,22.709585948365984,0.0019608027569286,-1.5349982206610606,261.00157857466235,41.77689526098562,15.061892329813825,69.38535080002015,0.0022967052276169,113.70248828866085,1066.6011065180392,15.288,0.0,7.537199383679018,0.1227997974662874,3.605156678141913e-07,-0.0435247488839367,2.5869841293733374e-05,0.0048155870810283,12.133488381935264,17.111626596595368,41.77693244107407,22.761404115923995
1.09,31.22215332878468,131.0104725211794,23.848414160711467,12.042560616898916,0.0002605455013652,20.95167518549811,0.0019684479693949,-1.6169886135225355,246.54375332474407,42.09067854299892,15.172279059756072,69.36010920134908,0.0023336094302212,113.70252825477915,1082.6469114640247,15.288,0.0,7.555953160281746,0.1237226306570929,3.7470581839312564e-07,-0.0447120469038078,2.5917390097124656e-05,0.004983937234861,12.042560619675788,16.98657810432741,42.09071946939057,21.013979849844393
1.1,31.222152788501955,131.0104739855983,24.203705672977843,11.960117312122582,0.0002843010261323,41.25229487773274,0.0019744331590508,-1.6961768026276325,413.1890617385841,42.37531237083203,15.272130643817496,69.33418266972032,0.0023704292633532,113.7025681331752,1097.301545953386,15.288,0.0,7.5746063878007455,0.1245597914691647,3.8924778251782043e-07,-0.045916794050462,2.5968542953606503e-05,0.0051526629388734,11.96011731545239,16.87391050519369,42.37535702873278,41.28715117713467
1.11,31.22215224453683,131.01047546001263,24.56172602355044,11.893999971011194,0.0003082382802069,30.412780030687525,0.0019774115954934,-1.7685934390710367,324.1593910376397,42.60170574521195,15.35088319517939,69.30756066915058,0.0024071660025426,113.70260792571932,1109.019562916424,15.288,0.0,7.593176235046771,0.1252257677058339,4.041440156690546e-07,-0.0471409438794934,2.602344149918604e-05,0.0053181133629899,11.89399997494775,16.784412196875493,42.60175416316778,30.464161171085404
1.12,31.22215169694962,131.0104769442585,24.92243087994596,11.798576113870045,0.0003311983017539,11.962354400734547,0.0019848723279512,-1.85557603656732,172.73281794065943,42.9309265252369,15.466705914145576,69.28023284290892,0.0024438210247405,113.7026476337356,1126.1875083334392,15.288,0.0,7.611654793051834,0.1261940108312906,4.193990547437482e-07,-0.0483842367681389,2.6082184866876505e-05,0.0055003640780432,11.79857611845269,16.655524356920647,42.93097854974448,12.10541569612437
1.13,31.22215114633032,131.01047843673305,25.285382327079205,11.719655609500828,0.0003543319472123,35.708934041426325,0.0019892937859841,-1.9356542633865563,367.5328077900705,43.20104603435342,15.561183301449176,69.25218802641359,0.002480395768467,113.70268725786448,1140.364179101735,15.288,0.0,7.630030147020881,0.126988538161039,4.350194699863346e-07,-0.0496444465345977,2.6144811960117413e-05,0.0056789373235798,11.719655614782337,16.550003757955686,43.20110169268553,35.76135808046993
1.14,31.22215059201508,131.01047993923987,25.651076349580965,11.652272078705828,0.0003776206007586,20.1265447794372,0.0019914130874672,-2.010743949150975,239.69531773195544,43.42766874381337,15.639846714496484,69.2234158951999,0.0025168917851053,113.7027268006433,1152.3192547352992,15.288,0.0,7.648325798244941,0.1276552175294615,4.51006265738521e-07,-0.0509246820959668,2.621151240497166e-05,0.0058557392103584,11.652272084740083,16.461114250031944,43.42772806031863,20.226737254274703
1.15,31.22215003448749,131.01048145046508,26.01915304959228,11.5555668458747,0.0003997242261099,19.848449138373105,0.0019981355502494,-2.1013850133188017,237.41251153546767,43.76153639905823,15.757353988966134,69.19390609767714,0.0025533107255167,113.70276626309024,1170.0638252101414,15.288,0.0,7.666520227276819,0.1286371526567061,4.673659086333769e-07,-0.0522227018167524,2.6282322967309265e-05,0.0060509480787052,11.555566852694223,16.332684340626574,43.76159918759284,19.95937764974977
1.16,31.22214947388469,131.01048297003635,26.389512669168816,11.491401624502576,0.0004226931032073,50.67206642497111,0.0019989764384714,-2.1761804051166327,490.0437743845894,43.973152342171005,15.830554084638464,69.16364749867692,0.0025896543039786,113.70280564678391,1181.3652192132208,15.288,0.0,7.6846050483072466,0.1292597385483394,4.841027391967658e-07,-0.0535383749764576,2.6357336586106228e-05,0.0062331684431496,11.49140163217212,16.249736439642476,43.97321873864839,50.71877444229312
1.17,31.22214890933052,131.0104845003336,26.762804775259777,11.411976370475692,0.0004449446791808,9.63583076928142,0.0020020201732409,-2.259532992679356,153.70937929486794,44.24034634048887,15.92383920195116,69.13262974169142,0.0026259243384965,113.7028449548492,1195.722614528696,15.288,0.0,7.702612648501096,0.1300457071573113,5.012167229363982e-07,-0.0548757609815416,2.643680704834268e-05,0.0064274629013993,11.411976379034696,16.146602057205065,44.24041623223564,9.897208089523119
1.18,31.222148341974485,131.01048603823415,27.13817766018848,11.3123733709056,0.0004661262170203,25.051853084798072,0.0020082192002748,-2.3547648772952274,280.02501822196746,44.58492288315543,16.045330494623723,69.10084189596789,0.0026621227466509,113.70288418764912,1214.3777070852454,15.288,0.0,7.720509826618584,0.1310591545308013,5.187179264189407e-07,-0.0562294393262868,2.6520640794817328e-05,0.0066370733508972,11.31237338038384,16.016361043310447,44.58499610209038,25.162278605933015
1.19,31.222147771295887,131.01048758515265,27.51601810476597,11.257899226407387,0.0004889301749564,43.17206887127423,0.00200617418041,-2.42598594512034,428.4078130529292,44.75288237655944,16.102565338791308,69.06827270583156,0.0026982515189551,113.70292334799264,1223.5000943010907,15.288,0.0,7.738327252496657,0.131553439114755,5.366070661544592e-07,-0.0576025326346187,2.660906121329968e-05,0.0068245131014962,11.257899236887493,15.949079825781444,44.75295917753173,43.240177410097445
1.2,31.22214719684236,131.0104891423175,27.8966578361917,11.167535844505464,0.0005100270911252,5.166576566463418,0.0020099892717217,-2.5178780113869443,117.1843741360236,45.05971707868164,16.210333228189878,69.0349119269773,0.002734312755818,113.70296243870916,1240.28937768321,15.288,0.0,7.756066967629135,0.1324559647836202,5.548863222139646e-07,-0.0589969291488916,2.670226653440016e-05,0.0070373810697611,11.167535856004235,15.833066336644167,45.05979719354977,5.747453970012431
1.21,31.222146619770257,131.01049070658777,28.27924480614617,11.079307173766448,0.000530924622848,34.81740523008368,0.002013082111834,-2.6095971311830874,359.92343213200894,45.35808702010537,16.31514240159284,69.0007480884895,0.0027703086547783,113.70300146045616,1256.723109957335,15.288,0.0,7.77370018754316,0.1333336183186428,5.735661040569078e-07,-0.0604071867669023,2.6800125242024143e-05,0.0072530484764942,11.07930718632854,15.720659494431189,45.358170417550106,34.915064201508166
1.22,31.222146039193408,131.0104922803704,28.664430916695245,11.021808444505297,0.0005530967879953,25.429602485647347,0.0020102794068228,-2.6838535189308423,283.0687504825761,45.5302515398004,16.373848544864668,68.96577037344404,0.0028062414957603,113.7030404168735,1266.234583705658,15.288,0.0,7.791261596534298,0.1338402911239635,5.926447364604351e-07,-0.0618381536098774,2.6902967719809865e-05,0.0074527702456153,11.021808458211463,15.651514558270932,45.5303384200407,25.57083800602441
