Time,Latitude,Longitude,Altitude,Angle of Attack,Angle of Sideslip,X-Acceleration,Y-Acceleration,Z-Acceleration,Thrust,True Velocity,Ground Velocity,Pitch,Roll,Yaw,Dynamic Pressure,cp,parachute_deploy_gain,Wind Speed,Mach,omega_x,omega_y,omega_z,Cmq,Angle of Attack(total),Angle of Attack(gust),True Velocity(gust),Acceleration
0.0,31.222216000000007,131.010392,3.000000004412624,0.0,0.0,0.0,0.0,0.0,2.2828121974499247,0.0,0.0,71.99999999612658,-1.0292491154817412e-14,119.99999999354436,0.0,15.288,0,0.0,0.0,0.0,0.0,0.0,-0.0,0.0,90.0,0.0,0.0
0.01,31.22221599999862,131.01039200000284,3.0000009727369523,0.0,0.0,0.0,0.0,0.0,34.24218696174923,5.916279387578309e-11,5.734623670548936e-11,71.99999999613168,-5.86671995824671e-13,119.9999999935449,2.1432944861733093e-21,15.288,0,0.0,1.7386402909615473e-13,-3.4220131069073734e-19,7.115076756936125e-19,5.488773498207866e-19,-1.1574302492039043e-31,0.0,89.99999999962336,5.916279387578309e-11,0.0
0.02,31.22221599999738,131.01039200000537,3.0000018317022668,0.0,0.0,0.0,0.0,0.0,25.871876237766408,1.2265415415436536e-10,1.1895038237325684e-10,71.9999999961369,-1.1836364828043265e-12,119.99999999354544,9.211895886571454e-21,15.288,0,0.0,3.6044858651615574e-13,-6.979551485375437e-19,1.4162390878091906e-18,1.0909784360635388e-18,-4.776231873571785e-31,0.0,89.99999999921916,1.2265415415436536e-10,0.0
0.03,31.22221599921969,131.01039200159065,3.0001883335529382,18.80143492628821,-0.0001350810307892,10.931161642028636,-1.75114298675875e-05,3.026590975169265,180.34219359854663,0.0798232026864394,0.0478175828508887,71.99999999765336,-5.341802909786072e-12,119.99999999436793,0.0039016003969354,15.288,0,0.0,0.0002345795854893,3.788270153300133e-17,-7.771883375645477e-10,1.1422790048099072e-11,1.7057759223764537e-13,18.80143492675591,89.51882325913425,0.079801984207741,11.342422482672777
0.04,31.222215995131297,131.01039200995308,3.001692634342189,9.19442604083399,-4.49173898918486e-05,52.29595764159784,6.445392950801871e-06,3.026413589912948,548.6359724538078,0.3504174083926908,0.1601447499964056,72.00000000319055,-3.111420077280171e-11,119.99999999870242,0.0751892535633216,15.288,0,0.0,0.0010297854387864,2.0082066977226968e-15,-1.520937588847922e-08,2.5623342884322286e-11,1.4654248781413086e-11,9.19442604094277,87.798916624545,0.3504103527855857,52.383455068075136
0.05,31.222215983575865,131.01039203366796,3.0074067499493786,5.158590039700252,1.707592688632746e-06,76.26884281015512,5.843947534199429e-05,3.0258124765658088,761.6984298824644,0.9592973585397016,0.3772700771701255,72.0000000004862,-1.3608731808076822e-10,120.0000000109612,0.5634958029902841,15.288,0,0.0,0.0028191251099456,2.086299069701397e-14,-1.0551247853743037e-07,3.973493515691201e-11,2.783064866637575e-10,5.158590039700515,83.94063169874748,0.959297626767734,76.32884071402438
0.06,31.222215961742712,131.0103920785344,3.019291017943491,4.109521257467909,3.140103977270004e-05,57.06876634333886,0.0001151069734147,3.024834864051463,590.4875390737208,1.6257536642597354,0.6118982818704327,71.99999992547217,-3.5903296759057166e-10,120.00000003412836,1.6184272268450337,15.288,0,0.0,0.0047776672697797,1.0694899894620088e-13,-3.741090980393931e-07,5.521401959501359e-11,1.6723176417636091e-09,4.109521257587776,79.78719176344794,1.6257585967235286,57.148873286519276
0.07,31.222215929936205,131.01039214392435,3.0371334573469446,3.649087515174788,5.707077112564807e-05,86.89643797254193,0.0001728541558773,3.0234947746384675,855.2937749779139,2.3057260079826607,0.8506307413593818,71.99999965378231,-6.907496536790437e-10,120.00000006788592,3.255354923652711,15.288,0,0.0,0.0067759305364855,3.495199904512709e-13,-9.036515915819006e-07,7.594816279105379e-11,5.728932851326001e-09,3.6490875156204896,75.6601668283889,2.305734972638426,86.94902215090157
0.08,31.222215886364623,131.01039223353447,3.0621840248716574,3.4254446680114707,8.413075603463509e-05,17.831756866644035,0.0002285946601282,3.021841001032126,241.2171988638848,2.961944911520492,1.0819695676346892,71.99999900671328,-1.141745983122182e-09,120.00000011415082,5.371998197385977,15.288,0,0.0,0.0087043901031071,8.800530155962314e-13,-1.829098470920821e-06,1.0943386634701918e-10,1.4896287129277132e-08,3.4254446690434226,71.81713637501419,2.9619581267487467,18.085991154451033
0.09,31.22221583454733,131.01039234010327,3.0919888289029,3.389560809024919,0.0001118726864415,54.09031716446879,0.0002748660999733,3.020060228038602,563.0937377043176,3.504225426410036,1.2780161667917422,71.99999774508822,-1.634190085504106e-09,120.00000016921716,7.519080503822694,15.288,0,0.0,0.0102980157586766,1.865782139518716e-12,-3.1503298654458527e-06,1.6284478329871028e-10,3.03536411425607e-08,3.389560810868955,68.76526501308032,3.504242999330529,54.17456206384468
0.1,31.22221577423132,131.0103924641528,3.1267248829165366,3.4447939461814814,0.0001419149103147,51.372195336549765,0.0003131602029306,3.0182021883815127,538.7437595981919,3.950569597142709,1.4443465951180965,71.99999562056465,-2.1287748602259068e-09,120.00000023339832,9.55649523509932,15.288,0,0.0,0.0116097108366932,3.485956000178229e-12,-4.949356763187612e-06,2.4573266549165286e-10,5.3761299442583966e-08,3.444793949101151,66.34639928474206,3.9505918890846927,51.460781166288626
0.11,31.222215706113143,131.01039260424562,3.165907002780892,3.4691423802630394,0.0001702373452339,40.591037561894986,0.0003534470100582,3.016051659024047,442.8656393052949,4.421478635995476,1.6182620895289603,71.99999235067894,-2.5564479031457968e-09,120.00000030601664,11.970509656144712,15.288,0,0.0,0.0129935974697161,5.942887149865172e-12,-7.273722517324353e-06,3.67769289312894e-10,8.842679949465076e-08,3.4691423844348632,63.88798785789768,4.421505376815134,40.70293476011277
0.12,31.222215630588888,131.0103927595646,3.2092596514826863,3.4852659299808075,0.0001974376474727,44.30042894095728,0.000394069215595,3.013641598889868,475.58594813540446,4.896982486381051,1.793579340340896,71.99998761802138,-2.8337988279882726e-09,120.00000038673312,14.683611096353944,15.288,0,0.0,0.0143909889875706,9.464337642181618e-12,-1.017558359402848e-05,5.395790443954697e-10,1.3700793350599625e-07,3.4852659355662303,61.5068242157714,4.897013499814194,44.40281567867803
0.13,31.222215548046687,131.0103929293088,3.256512891171917,3.5606043721293616,0.0002276507019012,48.86766833507025,0.0004268800875964,3.0112558910133567,515.9156326236895,5.278566579338586,1.939796541405244,71.99998107389406,-2.8573058577484587e-09,120.00000047523812,17.061052093156064,15.288,0,0.0,0.0155123760833565,1.4300406003001044e-11,-1.3705268062305584e-05,7.724776992181392e-10,1.989112774124932e-07,3.560604379397528,59.67313531776262,5.27860233862722,48.960358155653
0.14,31.222215458587108,131.01039311327068,3.30759734332425,3.6000732663755977,0.0002555702913645,45.540290862247225,0.0004629468001456,3.0085404980032777,486.2390860568404,5.70011779273801,2.098362647205908,71.99997235012626,-2.508533681468686e-09,120.00000057154703,19.894788765881632,15.288,0,0.0,0.0167512184495524,2.071534240530911e-11,-1.7917736259613292e-05,1.0787346240473087e-09,2.8081526258393346e-07,3.6000732754351943,57.72385750323359,5.700157937625502,45.639559681930805
0.15,31.222215362317904,131.01039331122794,3.3624387479639086,3.651605404442164,0.0002842753491325,44.01308509501,0.0004965057129938,3.005703619811542,472.54218587214,6.091938849578711,2.2476968067377374,71.99996103728932,-1.6446954747148112e-09,120.00000067569304,22.723773683610247,15.288,0,0.0,0.0179026934683374,2.9002783512213203e-11,-2.287326399669318e-05,1.47199345427166e-09,3.831202693354572e-07,3.651605415492516,55.98561718911576,6.091983503446133,44.115597174664394
0.16,31.22221525912812,131.01039352340948,3.421115382839859,3.67540086436193,0.0003108411545024,34.83804992586084,0.0005330990866742,3.002517946501868,391.1218908297564,6.521183188362317,2.4085903880902046,71.99994669525161,-1.0153513453738144e-10,120.00000078796704,26.03872642002185,15.288,0,0.0,0.019164148528834,3.9478358970291335e-11,-2.864207894220033e-05,1.9677461746207517e-09,5.135466997084602e-07,3.6754008774883777,54.15946979122355,6.521232015176687,34.96719658394182
0.17,31.2222151493826,131.01039374906244,3.4833737923187487,3.7139589864597298,0.0003384978477213,43.96471427482637,0.0005668629535037,2.999235483723449,471.78125980632376,6.916861975403744,2.559060925010733,71.99992884100092,2.3206494032971838e-09,120.0000009081849,29.29426197817256,15.288,0,0.0,0.0203269651395979,5.248754693205839e-11,-3.5267097947693114e-05,2.580363454062817e-09,6.706952682968329e-07,3.713959001863866,52.549031795895466,6.916915146521327,44.06689817851128
0.18,31.22221503253009,131.01039398932429,3.549599475912623,3.7380363034619775,0.0003650282082698,36.67395661481795,0.0006021794701355,2.9956556354306425,407.10156721191447,7.332140201215607,2.71556808256092,71.99990696207136,5.837017536380516e-09,120.00000103716444,32.917216366714264,15.288,0,0.0,0.0215473823438242,6.839750892601699e-11,-4.285557247677198e-05,3.331016495775474e-09,8.639362741436378e-07,3.738036321259578,50.93050624815799,7.332197539712479,36.796100973258795
0.19,31.22221490871209,131.01039424390297,3.619694897703461,3.747799769666444,0.0003901520189829,41.42208371271829,0.0006393759928961,2.991742733214697,448.9531328318269,7.771071983754382,2.879366399937307,71.99988049019642,1.0709144790974043e-08,120.00000117502664,36.97605053227239,15.288,0,0.0,0.0228373144884866,8.761416506509219e-11,-5.146771415177372e-05,4.238406957677133e-09,1.0996552116864756e-06,3.747799789945131,49.29705748437159,7.771133268690212,41.529983675580546
0.2,31.22221477769685,131.01039451327668,3.693822889232993,3.7700519460961166,0.0004166800650969,37.99697972290605,0.0006740224661302,2.987733789228414,418.51563019916136,8.179966026035371,3.0338260708461373,71.99984881140107,1.723179577184912e-08,120.0000013223286,40.969302182777255,15.288,0,0.0,0.024038975990988,1.1057590044953188e-10,-6.120032215177249e-05,5.3263847350253015e-09,1.376394225587184e-06,3.7700519690893857,47.8457752505109,8.180031477986942,38.11426270718793
0.21,31.222214639876928,131.01039479663547,3.771710975053407,3.7926098867321474,0.0004432924407074,36.46301043881366,0.0007080907240332,2.983530483977461,404.8187610144644,8.582757448615462,3.1863584283669346,71.99981127559042,2.5745201416596626e-08,120.00000147900325,45.103059028532826,15.288,0,0.0,0.0252227064089584,1.3774582723633048e-10,-7.20875523136271e-05,6.61341033873124e-09,1.7010673350603349e-06,3.792609912601061,46.47936953648762,8.582827080829217,36.584868250565684
0.22,31.22221449507626,131.01039509434258,3.8534832466471007,3.782921298925821,0.0004660920499522,44.14577847155813,0.0007479176313898,2.978724032883548,472.5421858721365,9.056569122268344,3.360845972992861,71.99976720416048,3.661811567390422e-08,120.00000164562512,50.21995530074818,15.288,0,0.0,0.0266151520780326,1.6960703048385348e-10,-8.421592474264931e-05,8.124635526119773e-09,2.0969540034515424e-06,3.7829213275976334,44.9464484092354,9.056642335836344,44.24615863872642
0.23,31.22221434283448,131.01039540734791,3.9394622486964206,3.813874679301352,0.0004940771488601,36.66675459308932,0.000779455230549,2.974212905336642,406.3406421461021,9.430647902846331,3.5044030163419806,71.99971583979395,5.0272885112871524e-08,120.00000182313076,54.45382429059888,15.288,0,0.0,0.0277145095638672,2.0669790509245914e-10,-9.77285871729516e-05,9.894576563683824e-09,2.5339062472561444e-06,3.813874711257219,43.79476959007253,9.430725512303388,36.78718303164376
0.24,31.222214184153326,131.01039573358457,4.028950821673608,3.829256049377765,0.0005200487408944,37.802126339316736,0.0008136255607606,2.9692962675112065,416.2328240017114,9.837806876534357,3.658163422426286,71.9996564062533,6.718950080713476e-08,120.0000020109434,59.25679777340223,15.288,0,0.0,0.0289110855155543,2.4956955046738006e-10,-0.0001125744417092,1.1934277804843484e-08,3.0448209172448607e-06,3.829256084638984,42.59361542722471,9.83788856559955,37.91856374864305
0.25,31.22221401888584,131.01039607335582,4.122052964664892,3.851417709838087,0.0005469594058717,38.85163035360012,0.0008459008130282,2.964283881833675,425.36408079150686,10.22297576958679,3.8050691648373967,71.99958811418384,8.786880969336211e-08,120.00000220974424,63.98709205399403,15.288,0,0.0,0.0300430411774988,2.987811646313829e-10,-0.0001288461362054,1.4273117985167728e-08,3.621333387698252e-06,3.8514177486178034,41.50703126619192,10.223061685769354,38.96455005232871
0.26,31.222213847358866,131.0103964259872,4.218542267117083,3.8780574625554745,0.0005745172425185,42.3164797140743,0.0008766626387865,2.959162938653076,455.8015834241788,10.590779679138215,3.946551912391076,71.99951013710364,1.1286401474734325e-07,120.00000241975916,68.67355887153568,15.288,0,0.0,0.0311239685467471,3.5491769188178554e-10,-0.0001465721578858,1.6932703957058654e-08,4.267712643344226e-06,3.8780575050466,40.51245375834074,10.590869924095635,42.41981967733593
0.27,31.22221366913008,131.0103967923915,4.318728802515264,3.886188503202341,0.0005994342651313,38.70936050721014,0.0009111181036949,2.953518013741325,423.84219965987256,11.004860953238978,4.102320296019413,71.99942161756776,1.4276417094868828e-07,120.0000026420792,74.14786134434608,15.288,0,0.0,0.0323408987462391,4.1858405402174807e-10,-0.0001658847815307,1.995072923688136e-08,5.018832267232506e-06,3.886188549362022,39.43841359495857,11.00495511215316,38.8218734782956
0.28,31.22221348431185,131.01039717233687,4.422535913956003,3.90556090261878,0.0006261175699806,44.68030766832924,0.0009425767186621,2.947879457547137,476.3468732012221,11.38358114165448,4.247086834352694,71.999321619057,1.7823531611327881e-07,120.000002877279,79.33831935330025,15.288,0,0.0,0.033453914386159,4.904408325040897e-10,-0.0001868529238516,2.3357766479368094e-08,5.847713054408178e-06,3.9055609527288775,38.49894431917428,11.383679491972384,44.77744842575601
0.29,31.222213292835256,131.0103975659655,4.530013412817602,3.9242599519377537,0.0006528240665589,35.802573724660256,0.0009737210635801,2.942037024315898,397.97031042211177,11.759725774384751,4.391004157029451,71.99920917567837,2.1999186079018322e-07,120.00000312617878,84.66717879828003,15.288,0,0.0,0.0345593650464213,5.711677680739745e-10,-0.0002095620322847,2.7188189988316943e-08,6.77505090435382e-06,3.9242600061534456,37.60352534239979,11.759828319749328,35.92324968749781
0.3,31.222213095024976,131.0103979726075,4.64093665799555,3.936939025755682,0.0006785438093183,33.570228713727204,0.0010059102294455,2.93586442972183,378.1859457108711,12.149968255527943,4.539237002744259,71.99908328532703,2.6880857935396905e-07,120.00000338923812,90.3787563598417,15.288,0,0.0,0.0357062504417728,6.614698865958865e-10,-0.0002340353597042,3.1467140861055e-08,7.817263716758327e-06,3.9369390841381695,36.71173884615234,12.150074840940263,33.698361337808635
0.31,31.22221289105846,131.01039839189684,4.755183729044857,3.9598342215431432,0.0007060286581592,35.396825578217346,0.0010350810412898,2.9297385597941448,394.1656220930212,12.504537499407316,4.6763673222047455,71.99894291513503,3.255120771695107e-07,120.00000366712923,95.72967338626896,15.288,0,0.0,0.0367483036680869,7.620720834468404e-10,-0.0002603234137215,3.622454560346964e-08,8.948994505138873e-06,3.9598342843844345,35.934338386209795,12.504648402129598,35.5178635353378
0.32,31.222212681031937,131.01039882363492,4.872689374180126,3.985461429033668,0.0007340760463279,38.52097867048992,0.0010630242168685,2.9235095146848846,421.55939346242695,12.84534566718622,4.809181081594425,71.99878701464397,3.909756427278764e-07,120.0000039606604,101.01782231644016,15.288,0,0.0,0.0377499198995686,8.737098716736534e-10,-0.0002884807530145,4.1491545539590986e-08,1.0187112828155184e-05,3.98546149652875,35.21473736963424,12.845460975581933,38.631757748577954
0.33,31.22221246496604,131.01039926777932,4.9934410812554,4.010606629086,0.0007621365968788,38.18822026147908,0.0010905599149574,2.917102431053817,418.5156301991682,13.18247167592885,4.940798912752974,71.99861449732019,4.661299779655886e-07,120.000004270781,106.38859400029033,15.288,0,0.0,0.0387407190563976,9.971421990244511e-10,-0.0003185760672934,4.7302669734505256e-08,1.154498667827874e-05,4.010606701382261,34.52805863348922,13.182591392065536,38.299473293007864
0.34,31.222212242662028,131.01039972474007,5.117579377337869,4.019339771238816,0.0007871574969313,29.898022638335373,0.0011220389395318,2.910051232417875,345.46563688075645,13.569536737955724,5.0878303926024735,71.99842423285973,5.519675040347761e-07,120.0000045987411,112.72655675097128,15.288,0,0.0,0.0398782837956187,1.1331556132162459e-09,-0.0003507224668667,5.37022358302301e-08,1.308298593306914e-05,4.019339848191799,33.76700548046532,13.5696603843662,30.039310197084795
0.35,31.22221201433324,131.01040019407705,5.2449575244483055,4.033762873683395,0.000813261106463,32.76415525156106,0.0011515840876071,2.902959820469776,370.5765700527033,13.934300103976534,5.227895396154902,71.99821502296155,6.495674834876441e-07,120.000004945438,118.8669740701126,15.288,0,0.0,0.040950312688979,1.2825853697215452e-09,-0.0003849609961885,6.072234695821837e-08,1.4746020857580124e-05,4.033762955530055,33.07785186209504,13.934427850732408,32.89250745069162
0.36,31.22221177990305,131.01040067594835,5.375631006350063,4.051723629010647,0.0008401329464575,37.01692984301412,0.0011797030485285,2.8957873473716007,407.8625232777193,14.282998147928636,5.362923567977223,71.9979856440668,7.600645476620651e-07,120.00000531213882,124.88900300695136,15.288,0,0.0,0.0419751331662584,1.4462801652534363e-09,-0.0004213876232777,6.84067806399068e-08,1.654507199147348e-05,4.051723715967022,32.44322602189087,14.283130115703262,37.13002398000203
0.37,31.222211539445663,131.01040117020102,5.509550188388412,4.071639898917391,0.0008674922629137,35.12417761390579,0.0012067983861697,2.88849906286036,391.1218908297666,14.620581431527652,5.494447309446232,71.99773482653193,8.846681943540367e-07,120.00000570002652,130.86067091914967,15.288,0,0.0,0.0429672939311924,1.6251202388969355e-09,-0.0004600660652957,7.679415042686734e-08,1.849041957573993e-05,4.071639991174516,31.85023865502424,14.620717696893658,35.24274792557624
0.38,31.222211292895075,131.01040167697127,5.646763233102716,4.08264881385344,0.0008930259828975,36.695642158537446,0.0012360471443664,2.880711738179021,404.8187610144602,14.986392916850402,5.634654729559426,71.99746126698146,1.0246533537040716e-06,120.0000061105033,137.4891296153862,15.288,0,0.0,0.0440424171304414,1.8200057922063743e-09,-0.0005010869196581,8.592980519823866e-08,2.0642694281337543e-05,4.082648911356968,31.228847973200924,14.986533193043764,36.808540518115166
0.39,31.22221104018777,131.0104021963902,5.787316652586672,4.096641430700089,0.0009192713382325,31.335681548387896,0.0012640110027448,2.872831219844713,357.64062493382744,15.337978856701952,5.770390286512262,71.99716358743511,1.1813915463769678e-06,120.00000654506955,144.01394309468844,15.288,0,0.0,0.0450757388736732,2.031886352449547e-09,-0.00054455673306,9.586443829735616e-08,2.295945663566148e-05,4.096641533664766,30.65298398882095,15.338123255506089,31.4670954954126
0.4,31.222210781536543,131.01040272801887,5.931064331106764,4.109028969993624,0.0009451871856381,29.95928076777898,0.0012920492774571,2.8646905607053603,345.465636880754,15.692185018814769,5.906873567965718,71.99684037970908,1.3563276523471372e-06,120.00000700500496,150.74021066990193,15.288,0,0.0,0.0461167659598875,2.2617341782092324e-09,-0.0005905037520737,1.0663253249436129e-07,2.5471259834659164e-05,4.1090290785164525,30.09246700352443,15.692333488470696,30.095929256306363
0.41,31.222210517064383,131.01040327160345,6.077922766619747,4.122888296344507,0.0009714525997821,33.78425365340317,0.0013192264430821,2.85640971467756,378.94687077668647,16.03742529732769,6.0405139809190125,71.99649020751959,1.5509747261474075e-06,120.0000074917568,157.44375780268788,15.288,0,0.0,0.0471314487675864,2.5105374204052982e-09,-0.0006389770219162,1.1827345344180344e-07,2.816813594418537e-05,4.122888410595805,29.56469007160549,16.037577892745222,33.904791300285986
0.42,31.22221024682894,131.0104038270252,6.227854084363214,4.14444025865494,0.0009995884754813,38.04468161607466,0.0013435485656724,2.8482703202464488,416.2328240017114,16.348862540904037,6.163613566771559,71.99611159893284,1.766920641656551e-06,120.00000800692096,163.6157044470786,15.288,0,0.0,0.0480467946810589,2.779304965995011e-09,-0.0006900467934588,1.308321832549104e-07,3.100973487310896e-05,4.144440378988911,29.104646754454564,16.34901955589459,38.15115260238947
0.43,31.222209970843565,131.0104043942566,6.380851271439565,4.1618082623168045,0.0010268052928652,33.45815353250911,0.0013687230309017,2.8397750580998298,375.9031395134336,16.67263197205097,6.290467308135904,71.99570306121484,2.005818691215035e-06,120.00000855220898,170.15779512382937,15.288,0,0.0,0.0489983878509763,3.0690566816849196e-09,-0.0007437862329608,1.443552931671376e-07,3.4086145072160934e-05,4.161808388761201,28.640125213458976,16.672793262249197,33.57845085853367
0.44,31.22220968892116,131.01040497368373,6.537047157143216,4.164954087655709,0.0010505545842624,30.86574023822051,0.0013980747538988,2.830419582421933,353.0750125389216,17.050421620730056,6.433992917638883,71.99526304125902,2.269416145406482e-06,120.00000912964636,177.9537948947602,15.288,0,0.0,0.050108743779844,3.380847125286677e-09,-0.0008003278134917,1.589055036683518e-07,3.750784460406397e-05,4.164954219916419,28.113519280259386,17.050586641458253,30.99524475496968
0.45,31.22220940081287,131.01040556582012,6.696617751072218,4.165241899529329,0.0010735835484822,35.912216710755274,0.0014280646808282,2.820677244966047,397.2093853562869,17.438293672974723,6.580571293039616,71.99478987454265,2.5595995397253085e-06,120.00000974147088,186.13940823302417,15.288,0,0.0,0.0512487363629523,3.7158016249566814e-09,-0.000859850913876,1.745604864109677e-07,4.121350642664912e-05,4.1652420376426775,27.591357195572936,17.43846231108416,36.02281959036367
0.46,31.222209106468902,131.0104061707686,6.859600379555308,4.174585124444534,0.0010989881252456,41.916816790010685,0.0014546917035209,2.811153314474766,449.7140588976434,17.786187321601275,6.714685486378061,71.99428180697711,2.8783880229668832e-06,120.0000103898448,193.6374175079873,15.288,0,0.0,0.0522712438446989,4.0751091178509895e-09,-0.0009224765531151,1.9138630415982226e-07,4.50966024037632e-05,4.1745852688465686,27.13985967570823,17.786359950252297,42.01097612387663
0.47,31.22220880579083,131.01040678873238,7.026066274755745,4.1823089530633855,0.0011240727220223,28.37640408484148,0.0014814747534716,2.801325368441072,331.0078106302534,18.138167428286582,6.849989708801916,71.99373704967608,3.2278903746588286e-06,120.00001107707628,201.37401505997488,15.288,0,0.0,0.0533057667609836,4.459978104761035e-09,-0.0009883252835099,2.094509673354327e-07,4.927107017839778e-05,4.182309103852639,26.69716826759888,18.13834399721685,28.514342615617974
0.48,31.222208499300592,131.0104074186346,7.195654207463586,4.189479568102716,0.0011490100608361,27.95074823096412,0.0015080719422187,2.7912412472910484,327.2031223011574,18.48995085190441,6.98515976370584,71.99315377257649,3.6103201777021456e-06,120.00001180491516,209.25751230436188,15.288,0,0.0,0.0543397174489847,4.8716620260348906e-09,-0.0010573190976925,2.2877013380347535e-07,5.373205427420879e-05,4.189479725385959,26.268461765425428,18.4901313379827,28.089773168283216
0.49,31.222208187201936,131.01040806005494,7.368224738812109,4.202723284133339,0.001175611380853,35.08821363242469,0.0015321405723077,2.781292092003844,389.60000969812296,18.812014261754847,7.111044804193205,71.99253015042137,4.027946338669921e-06,120.0000125755114,216.60722913930897,15.288,0,0.0,0.0552863302793499,5.311396446020465e-09,-0.0011294854492155,2.4938633613154685e-07,5.8398320167141767e-05,4.202723448262914,25.88860807032205,18.81219892635871,35.1982716047702
0.5,31.22220786953184,131.01040871291724,7.5437546994244835,4.220815778795054,0.0012036252596423,36.05491615971072,0.0015540388599792,2.7714444106710974,397.97031042210494,19.10875420627192,7.229005658018125,71.99186435180009,4.483102820610566e-06,120.00001339126192,223.4908652241728,15.288,0,0.0,0.0561585257949344,5.7804122391526605e-09,-0.0012048912160576,2.713531252030471e-07,6.327866493526626e-05,4.220815950099865,25.54902500917784,19.108943271285572,36.161276053538906
0.51,31.222207546379583,131.0104093770373,7.722184419225251,4.232567510615346,0.0012298790840397,27.54004661432325,0.0015777580800203,2.761017323676155,323.3984349720841,19.430597746636646,7.354673636736509,71.99115452520388,4.978202222778502e-06,120.00001425458936,231.07869697977367,15.288,0,0.0,0.0571045034845869,6.2799518101633574e-09,-0.0012835871653678,2.947201005874635e-07,6.854585242460463e-05,4.232567688976395,25.189423168613605,19.430790935591396,27.678103017910345
0.52,31.222207217641685,131.01041005249124,7.90352635066077,-5.880877230171508,-10.75220946498528,33.24853235576709,0.5808214353273831,3.3096920483834404,372.0984511843415,19.041192825630294,7.4862182887551985,71.99040976398466,-1.774229703168952e-05,119.99999071188608,221.90563348797787,15.288,0,5.0285813911061386,0.05596019744745,6.7964489559735734e-09,-0.0012682147196588,-8.945356585049423e-05,6.636651809492583e-05,12.238770263198466,15.21596768502484,17.362135531650797,33.41790416539253
0.53,31.222206882614973,131.01041073974568,8.087883281600057,-5.721075056686657,-10.598792283319591,34.91143558004482,0.5960169981772236,3.3135724720753528,386.5562464348624,19.35599924990675,7.618990082808125,71.98971077836828,-0.0003310553446823,119.99966161072248,229.2997234472808,15.288,0,5.04792564776574,0.0568855009459104,7.1900851522643805e-09,-0.0011633678039111,-0.0002866590075859,6.188523461124216e-05,12.028743035709727,14.9842907278106,17.700623565157045,35.07339922290725
0.54,31.22220654112097,131.0104114390256,8.275327970050304,-5.56689466979988,-10.45070220258508,30.65392921529829,0.6113905146966127,3.317389449203238,349.2703242098436,19.66914190056478,7.751185706665011,71.9890722500998,-0.0009960033392932,119.99896276145132,236.77472889614788,15.288,0,5.067224305640491,0.0578059206191489,7.431545067989323e-09,-0.0010570674992324,-0.0004890978765479,5.713927445465188e-05,11.82636191028306,14.75937540011616,18.036636788563065,30.838972866417976
0.55,31.22220619344557,131.01041214971752,8.465654396213445,-5.419578307436047,-10.310577963178208,32.49095709756287,0.6267552259435096,3.321051690267,365.2500005919907,19.974934126602744,7.8810092364944735,71.98849496425224,-0.0020216222890258,119.99788465978403,244.1896743176009,15.288,0,5.086453607905288,0.0587047437805991,7.517827436951165e-09,-0.0009494924756187,-0.0006965533858818,5.212133538924837e-05,11.634514183029328,14.544197600965711,18.3640794117593,32.666259344442
0.56,31.222205839580056,131.01041287181673,8.658862164774733,-5.279812558360909,-10.18011621944212,30.32070435765534,0.6419618421006507,3.324491456726341,346.2265619465787,20.268987566729542,8.007082490593907,71.98797964234488,-0.0034168068768607,119.99641795065942,251.4274203639959,15.288,0,5.105612354483329,0.0595690733054164,7.446026690840086e-09,-0.0008406634335031,-0.0009091043604711,4.682575703025553e-05,11.455001497812503,14.340729814318973,18.67829897426875,30.509170280374708
0.57,31.222205479592,131.0104136051614,8.854897931402164,-5.141938231854854,-10.048999529558328,29.979454078526583,0.6576480075401256,3.3280100392841385,343.1828296833023,20.57083480561488,8.135571177435066,71.98752696782249,-0.0051904594661197,119.99455327118778,258.96685650553354,15.288,0,5.124691357475589,0.0604563139819698,7.213292527918419e-09,-0.0007306523198514,-0.0011267326133266,4.130333338989084e-05,11.276086016215416,14.1379593797937,19.000421883052187,30.170777559915187
0.58,31.22220511344895,131.01041434979655,9.053778170636535,-5.002668945259,-9.910888783809122,39.49050447731424,0.674280553622983,3.33181499807586,426.1250058573153,20.894049199108,8.270749310524515,71.98713760059427,-0.0073515774637285,119.99228115900053,267.16359832671566,15.288,0,5.143689945933494,0.0614063573372982,6.816780522258463e-09,-0.0006194778354288,-0.0013495237849951,3.5568251004512445e-05,11.090634669402052,13.928946206048591,19.34500238748583,39.63654360964353
0.59,31.222204740714588,131.0104151065993,9.255800493215917,-4.874172877267256,-9.789390150443168,32.00002025194521,0.6902364224536577,3.3351588002723487,360.68438819711065,21.1895606849753,8.39715798922334,71.98681225950945,-0.0099097614641288,119.98959151826828,274.7688770724386,15.288,0,5.162636813092536,0.0622749897968927,6.2534203871053435e-09,-0.0005069312131318,-0.0015780217262611,2.95173038331136e-05,10.925107804975246,13.739378416161216,19.6593174909383,32.18075522213267
0.6,31.222204361603527,131.01041587510403,9.460809023794733,-4.740273652038492,-9.653071251512197,28.43116490333604,0.7077513928611642,3.33905322406928,329.4859594986058,21.523930031354105,8.53576047877483,71.98655164351845,-0.0128747558261721,119.98647410169312,283.50337097382766,15.288,0,5.181513354999449,0.0632578297890136,5.520179793574818e-09,-0.000393168138743,-0.0018120524053337,2.3253966312924323e-05,10.744248460311312,13.534925471116644,20.014792286078997,28.635316066492987
0.61,31.22220397605461,131.01041665541393,9.668840057043496,-4.609050981339393,-9.517666518836537,33.325400507177726,0.7257517325740975,3.342999973563141,372.0984511843297,21.864524006884874,8.676271697458128,71.98635644832349,-0.016256554370675,119.98291840038702,292.54081221176307,15.288,0,5.20032220564724,0.064258970456732,4.6139614798874245e-09,-0.0002781878196914,-0.0020517540077091,1.6713469502162765e-05,10.565674886191657,13.332729719617843,20.37635863264999,33.50051765815536
0.62,31.222203584178622,131.0104174472773,9.879810083539477,-4.494963098019944,-9.41294847352408,41.45176055607976,0.7418446126657356,3.345953013956396,442.86563930529206,22.14188642077048,8.79685070343749,71.98622736323944,-0.0200653952317406,119.978913648833,300.00386361155046,15.288,0,5.21906277191944,0.065074282488969,3.5316302563712662e-09,-0.0001620568558556,-0.0022971278396424,9.859654679799538e-06,10.422385226947936,13.165918324202432,20.669946168122333,41.59319882143612
0.63,31.222203185773,131.01041825109093,10.093854583949708,-4.379838283420629,-9.3025060102693,23.472871257177783,0.7588176795242381,3.349142291358728,286.11251274707894,22.437745217909765,8.923213817779626,71.98616497729907,-0.0243111571311507,119.97444946028126,308.0683685726707,15.288,0,5.237722095801328,0.0659439610866301,2.270258331289265e-09,-4.4732559213058975e-05,-0.0025484122601244,2.7578694799971007e-06,10.273786111124162,12.994295490825849,20.98292236035573,23.722736844946226
0.64,31.22220278144289,131.010419065584,10.31054602473597,-4.261529086819146,-9.18157801815864,23.040811508135928,0.7771483215798327,3.352756542313492,282.30782441796754,22.76513137556062,9.059438416917512,71.98616985186689,-0.0290038329867273,119.96951532755077,317.11732491043085,15.288,0,5.256305706521451,0.0669063042150812,8.26942805410343e-10,7.342422146634294e-05,-0.0028049837827285,-4.59273328711876e-06,10.114654132375744,12.81232592373721,21.32905725477941,23.29643601281555
0.65,31.22220237115932,131.010419890796,10.529899337328462,-4.155472225950099,-9.082941221997483,40.78310733915299,0.7940110431231754,3.355592572320641,436.7781447787475,23.043476035202104,9.180213905247143,71.98624247093228,-0.0341531947568205,119.96410097704027,324.9125471965598,15.288,0,5.27476883580275,0.0677245216658946,-8.010921394828191e-10,0.0001924150263758,-0.0030669800986016,-1.2182587594339304e-05,9.981123398057957,12.65689001372749,21.622699353749816,40.928624448970794
0.66,31.22220195438272,131.01042072782167,10.752285717791372,-4.049890604996593,-8.981888889507317,34.67432096282388,0.8115153140564157,3.358549802947479,383.51251517160017,23.3327223861058,9.304380760747042,71.98638329309432,-0.0397691352967842,119.95819600914612,333.1133614182232,15.288,0,5.293168683515777,0.0685747855427477,-2.6166015379194547e-09,0.0003124698104278,-0.0033350560826011,-2.0031652139396485e-05,9.84587838891327,12.50021701221847,21.92762213234385,34.84604637712511
0.67,31.222201531298108,131.010421576258,10.977570777717144,-3.941893292925631,-8.871952582063374,23.84052173490725,0.8303147349590912,3.361884918582407,289.1562440103425,23.65060151965972,9.437494261754006,71.98659279414176,-0.045862246260487,119.9517892918396,342.244290523162,15.288,0,5.3115076697811086,0.0695092078138794,-4.622564480144048e-09,0.0004334489367505,-0.00360906133722,-2.8165277186368505e-05,9.701836877066194,12.33489743279418,22.26256084277133,24.090707116177953
0.68,31.222201102072777,131.01042243573883,11.20563258566807,-3.8379708016414527,-8.767462360089235,29.792271393720128,0.8490843414367261,3.3650429037244685,340.8999924858462,23.959962579634944,9.5678897896658,71.98687152207913,-0.0524431359393178,119.944869668557,351.2485901771036,15.288,0,5.329721892895518,0.0704186023269866,-6.8219178997237665e-09,0.000555237327882,-0.0038888928718069,-3.655015109441068e-05,9.564686715113751,12.177276651597031,22.58814111060316,29.993730890968767
0.69,31.222200666781102,131.01042330609073,11.436414365289036,-3.7412070298697113,-8.67564951574397,36.70958447858239,0.8670543066766314,3.367725330926415,401.0140726853634,24.24006773045249,9.68907027660422,71.98721983757783,-0.0595222589500473,119.937426152796,359.50120651122074,15.288,0,5.34785945209256,0.071242020035571,-9.217469129590537e-09,0.0006777535804229,-0.0041745217298772,-4.5135723736549925e-05,9.44226459433636,12.035481316749925,22.88250142569899,36.8739332003716
0.7,31.222200225271447,131.0104241876087,11.67001742666414,-3.646361636421088,-8.584995530078473,30.76650130951061,0.8853301944150809,3.370378565446422,349.27032420985284,24.5213356832476,9.810579009879415,71.9876380812885,-0.0671099845940871,119.92944784614032,367.88425182834686,15.288,0,5.3659282339555325,0.0720688618323024,-1.1811914098704173e-08,0.0008010299355285,-0.0044661865226924,-5.396322393881204e-05,9.321932371013675,11.896439927755791,23.1778480349518,30.963217921522336
0.71,31.222199777591072,131.0104250801765,11.906404316685888,-3.550662858420747,-8.48917460693613,25.25773979351516,0.9045896320347198,3.373255775680362,301.33126406340574,24.82178600521172,9.938057027668302,71.98812658512571,-0.0752169661572811,119.92092355206384,376.9460075189296,15.288,0,5.383877741550809,0.0729520879239006,-1.4608013897601648e-08,0.0009249924994471,-0.0047638828769106,-6.30763273839337e-05,9.19678638567145,11.753037209023956,23.493183099583863,25.49805005108165
0.72,31.222199323732976,131.01042598378987,12.145575433648224,-3.4537740496873592,-8.387086370960036,30.95419145662936,0.9250410944707876,3.3764251630789763,350.79220534145287,25.14607598154041,10.072955553123572,71.98868562528644,-0.083854098929246,119.91184182295378,386.85085927301895,15.288,0,5.401746068401522,0.0739053868043378,-1.7608555738553712e-08,0.0010496077758702,-0.0050677026845823,-7.250741942280184e-05,9.065673151058943,11.603808238961951,23.833335465231062,31.15153152963749
0.73,31.222198863684564,131.01042689845588,12.387535027139334,-3.3668476808468006,-8.305532930419956,39.19362547137533,0.9436559414437172,3.37873826140492,422.320318528234,25.41416542673928,10.190216151496884,71.98931560483695,-0.0930327226054965,119.90219073696522,395.134302077788,15.288,0,5.419545158081943,0.0746935169827774,-2.081643986068108e-08,0.0011748548658584,-0.0053777696999315,-8.202290888285581e-05,8.957567294242807,11.479575369203618,24.11409961636019,39.35030668705575
0.74,31.222198397370825,131.0104278243126,12.632331571528963,-3.279223227496035,-8.219279509789219,24.48184217268142,0.9632329529268836,3.3812554059492994,294.48281347105944,25.70036109778816,10.313104903932542,71.99001666538962,-0.1027637809114243,119.89195879981048,404.0743371995516,15.288,0,5.437254765240415,0.0755348691406356,-2.4234328266753256e-08,0.0013007031666103,-0.0056941956256239,-9.182951873748913e-05,8.845110482431451,11.35137891017889,24.41370331070072,24.733000263007888
0.75,31.22219792516201,131.01042876057585,12.87970237169269,-3.1918428241034382,-8.130558350461964,28.60499827052771,0.9835587078745242,3.3838827758667245,330.24688556441487,25.99855026736701,10.43969785912406,71.99078907471825,-0.113058372877843,119.8811343439697,413.49547829783984,15.288,0,5.454844210087305,0.0764114778588124,-2.7864972037180272e-08,0.0014269131696643,-0.0060165643817422,-0.0001019063499353,8.730712983375605,11.221786916576876,24.72568715343426,28.821241757244547
0.76,31.22219744693313,131.0104297074881,13.12973117466373,-3.108806788121896,-8.049656896649372,30.801571054465107,1.0033714776418587,3.386161281435072,349.27032420986166,26.276154371914835,10.5598073347587,71.99163292107791,-0.1239275220125472,119.8697057904636,422.36282250489046,15.288,0,5.472352075945631,0.0772275927349135,-3.1710924530199725e-08,0.0015535130334536,-0.0063451291226325,-0.0001121297481727,8.625425870935679,11.102627215086011,25.015872757482416,31.003380815151402
0.77,31.22219696261538,131.01043066517585,13.382462634279667,-3.0280159284872727,-7.971552501360992,28.789860722766065,1.023255079217685,3.3883067322022367,331.7687666960708,26.54831080073247,10.678170751524387,71.99254826036103,-0.135382409689828,119.85766139514531,431.14695201652967,15.288,0,5.489780285090404,0.0780277034215562,-3.5774742337733005e-08,0.0016804886961064,-0.0066800467240231,-0.0001225479608791,8.523806735607772,10.9880951935975,25.300178081578807,29.00661569202619
0.78,31.222196472268795,131.0104316334992,13.637851508255396,-2.9466956367164863,-7.889134730650254,23.619050111648782,1.0441420218976178,3.390642561756233,286.8734378128899,26.838483129906884,10.802118230774004,71.99353518630468,-0.1474343150787055,119.8449893066846,440.61250164216887,15.288,0,5.507110835155249,0.0788807714239266,-4.005899625866328e-08,0.0018077490537856,-0.0070212771772846,-0.0001332659067296,8.418224832652585,10.869924197868588,25.603172752705053,23.884015946236126
0.79,31.22219597597808,131.01043261226675,13.895835271079516,-2.8658169210934528,-7.8048582574195535,33.62563295883304,1.065754384123058,3.393057828488862,373.6203323159534,27.13914840869391,10.92929183300397,71.99459375897345,-0.1600946933417504,119.83167748968567,450.5287959897621,15.288,0,5.524326073011092,0.079764686511476,-4.4566267329974495e-08,0.0019352029667952,-0.0073687765027072,-0.0001442563457478,8.311308442833585,10.750970992550435,25.916952188517044,33.81319070594944
0.8,31.22219547350242,131.0104336019631,14.156579450020814,-2.790388244194009,-7.732252830218575,34.07027518730071,1.0861954985151272,3.394904756891768,377.42502064505743,27.40327094046632,11.045005826881155,71.99572390498517,-0.1733753362744812,119.81771356383052,459.32920251983614,15.288,0,5.541467647301076,0.080541206132535,-4.9299060604191225e-08,0.0020629378481833,-0.0077229904444048,-0.0001552708259387,8.217461080751976,10.647025377200489,26.192374881779397,34.25622352664927
0.81,31.22219496494224,131.01043460236525,14.420010901869832,-2.713985648654291,-7.654113760299366,22.13550235329615,1.1078658524927338,3.3970020377311214,273.9374926939919,27.69028799830372,11.16782016394622,71.99692561360227,-0.1872880272513013,119.80308515047224,468.9895937068807,15.288,0,5.558526754739107,0.081385022501076,-5.4259960284293134e-08,0.0021908297652796,-0.0080837991062668,-0.0001666197326195,8.118331123580662,10.53789724536698,26.49155551793272,22.422030550872243
0.82,31.22219445048847,131.0104356130622,14.68599306489386,-2.6381035910003487,-7.574422760262083,28.46139455685819,1.1302508787726215,3.3991629103285645,328.72500443277005,27.986888994480257,11.293571062288178,71.99819877908767,-0.2018445931202348,119.787779828977,479.07820973200313,15.288,0,5.575495708528769,0.082257014662432,-5.9451532153586534e-08,0.0023187291978964,-0.008451000244182,-0.0001782312653291,8.018159055908196,10.428220024641384,26.800563971056047,28.685933062410164
0.83,31.22219393011615,131.01043663409172,14.954540835885602,-2.567904912307942,-7.508049476533432,36.19618098908635,1.1510395985448183,3.400628075511644,395.68750322465047,28.237790715172338,11.405011000404992,71.9995432553791,-0.2170569935313724,119.77178504021184,487.693982784248,15.288,0,5.592368903662999,0.0829946980935607,-6.487621728132975e-08,0.0024466094834652,-0.0088247363845618,-0.0001897419693059,7.932663516405889,10.3356180284881,27.06180140516469,36.37379113675219
0.84,31.222193403707102,131.01043766568756,15.225735131808769,-2.4980577824215167,-7.440109916460142,22.318036192860937,1.1724548774524353,3.4021303120622006,275.4593748256452,28.49689426076068,11.518960519194367,72.00095881421204,-0.2329369715757609,119.755088453944,496.67204654465866,15.288,0,5.609136910265947,0.0837564948458687,-7.053627983595927e-08,0.0025744574520205,-0.0092052052435796,-0.0002014837254857,7.846044186244434,10.242540144326446,27.331486200596338,22.60627967193552
0.85,31.222192871565944,131.01043870720335,15.499360134847098,-2.426150881741871,-7.3632841843804,24.34196063593519,1.1957557209245528,3.404058775634448,292.96093233939376,28.793130264950847,11.644431035390443,72.00244516977982,-0.2494962805318749,119.73767772988144,507.038582649344,15.288,0,5.625808558069179,0.0846274365834661,-7.64341541272987e-08,0.0027020536244267,-0.0095919922253911,-0.0002136624265241,7.750594652601881,10.14016207975707,27.63968940522904,24.60789498298292
0.86,31.22219233350263,131.01043975902255,15.775547331193204,-2.3579655550335805,-7.29472776465644,30.4993296477454,1.2181502193746108,3.4055231696120174,346.2265619465587,29.060626389007176,11.760885381707586,72.00400202554539,-0.2667471308578724,119.71954004870469,516.4897017465776,15.288,0,5.642395405952298,0.0854139149816741,-8.257205518307666e-08,0.0028294556341766,-0.0099855053756654,-0.0002258092097559,7.66439671333996,10.048883553066132,27.917866364521707,30.713036108101853
0.87,31.22219178953668,131.0104408210932,16.054281358641166,-2.292049244251562,-7.230433796198424,28.392668282353338,1.2402298513205747,3.406717503300667,327.964078366998,29.313767502629464,11.87281174833326,72.00562901312773,-0.2847016844519965,119.70066264344436,525.5128945034764,15.288,0,5.658896647905741,0.0861582089125405,-8.895225260218656e-08,0.0029565909743155,-0.0103857749992531,-0.000238004435855,7.583188146714293,9.96396742621124,28.181025726276744,28.62319874547838
0.88,31.2221912397002,131.01044189333777,16.335538307332353,-2.2257262546129946,-7.162183082989472,24.52538078991864,1.2634257551639756,3.4080769491307694,294.4828134710418,29.585415262798097,11.990446473317604,72.00732566996767,-0.3033720879141154,119.68103276639656,535.2833153747871,15.288,0,5.675308352421376,0.0869569043921858,-9.557697340196944e-08,0.0030833665448481,-0.0107927689014227,-0.0002505031896221,7.498325913730901,9.875562011606062,28.46330983264188,24.79325585760205
0.89,31.222190684073585,131.010442975578,16.619260293579774,-2.159126576611419,-7.090181966830736,26.903783838911604,1.2877686795398304,3.4095956435426515,315.028134248087,29.875683226580207,12.113817313461382,72.00909159812916,-0.3227706529412139,119.66063749025771,545.8234950089036,15.288,0,5.691629193488129,0.087810335715328,-1.0244844943703933e-07,0.0032096884522498,-0.0112064491249827,-0.0002633172595662,7.410039493465359,9.783851668117736,28.764800339498752,27.14953545597696
0.9,31.22219012257225,131.0104440679802,16.905505620221632,-2.0972130321568287,-7.030674379880489,29.723418059976048,1.3102272344400463,3.4103743534284607,339.37814235421445,30.11619053049869,12.22163568970698,72.01092622279783,-0.3429100541869241,119.63946351712212,554.6316731648627,15.288,0,5.707862028564816,0.0885175184777386,-1.0956881161682148e-07,0.0033355455241045,-0.0116270484835626,-0.0002758376665125,7.335297197694413,9.708439082605151,29.014584191971355,29.947102193776637
0.91,31.22218955526593,131.0104451703901,17.19422451575754,-2.0348810720522126,-6.967245679610761,22.59515011918804,1.3338214056885993,3.4113045688747894,277.7421810230789,30.37530426803315,12.335185239652864,72.01282896816174,-0.363802562517911,119.61749796805766,564.2009673904582,15.288,0,5.723990117345691,0.0892793965141516,-1.169401577749822e-07,0.003460826635775,-0.012054484529998,-0.0002886523522495,7.256915454290496,9.629560532213278,29.283587042626475,22.89010457190055
0.92,31.22218898236149,131.01044628236585,17.48527032474404,-1.9722787600783755,-6.900146491064687,26.912249236881568,1.3585760144519798,3.412379364469529,315.02813424806214,30.652963962101182,12.454438283223752,72.01479918414981,-0.3854605769286025,119.59472783190388,574.5467367531328,15.288,0,5.740022811751595,0.090095792518434,-1.2456469835964097e-07,0.003585360198779,-0.0124884556060524,-0.0003017642221734,7.175171066762577,9.54740753079245,29.571709568489347,27.16172344867192
0.93,31.222188403759866,131.0104474041067,17.778712478462655,-1.9136508721738048,-6.84416034130471,32.024372582818614,1.3815031702553509,3.4127529338736338,359.1625070654728,30.883624256174773,12.559007896166124,72.01683615852019,-0.4078966061332119,119.57113998414724,583.2096395184924,15.288,0,5.755968429925591,0.0907740543287466,-1.324442468507129e-07,0.0037091465372154,-0.0129292495260382,-0.000314523059597,7.105431339178368,9.47997294170658,29.81110096451593,32.23532027016752
0.94,31.22218781934296,131.01044853585418,18.074634587395987,-1.8533360328255537,-6.779569980585561,23.2163145504066,1.406614927268282,3.413548735961081,283.0687504837787,31.154853062297416,12.676128713610284,72.01893908716407,-0.4311229783812755,119.54672149190792,593.4815812356471,15.288,0,5.771826814312229,0.091571563749328,-1.4058055911919984e-07,0.0038321487430793,-0.0133770487252767,-0.0003277977455155,7.027188414243629,9.40322760389022,30.092403980491746,23.508044194058694
0.95,31.222187229408988,131.0104496769746,18.3728254587256,-1.7943619113227027,-6.717040515970628,30.093022367662368,1.4317359906140728,3.4141509154298766,342.4218736174873,31.419154537278743,12.791024141654232,72.02110715814692,-0.4551525075611476,119.52145891140192,603.576582173815,15.288,0,5.787591599145647,0.0923487197099436,-1.4897586440252645e-07,0.0039541718480044,-0.013831454033203,-0.0003410951103137,6.951518026529404,9.33014392516628,30.366459512120095,30.319899235333512
0.96,31.222186633648924,131.0104508281114,18.67350414145778,-1.7376658638033653,-6.660263632942356,29.479048978125903,1.4560206473222963,3.4143368920442634,337.09533515678345,31.65856601895245,12.89811811383726,72.02333947723363,-0.479997949364597,119.49533886252358,612.7923431890625,15.288,0,5.803275233199231,0.0930527253784128,-1.5763159819953432e-07,0.0040752924390948,-0.014293074910824,-0.0003542117276565,6.882222090542566,9.26529999518088,30.614728783766832,29.71181618805133
0.97,31.222186032080685,131.0104519892218,18.976658497208337,-1.6811896400533954,-6.601687173113223,18.810845824500404,1.481109228181431,3.4145452126345432,245.02188719299323,31.90808328915209,13.008284865232456,72.02563504665588,-0.5056723429652858,119.46834767171376,622.4717411460264,15.288,0,5.818876208665336,0.0937864420755836,-1.6654963419140942e-07,0.0041954227853763,-0.0147619312800591,-0.000367516398972,6.811472135810102,9.1994073460459,30.87338567098511,19.17552409161361
0.98,31.222185425000863,131.0104531596757,19.282078646726426,-1.6234362518119227,-6.535264397092469,27.456048292742995,1.508467280098194,3.4151396929457944,319.5937466429581,32.19781826782331,13.130865450768752,72.02799293818339,-0.5321887119619318,119.44047167357924,633.8089334132327,15.288,0,5.834383961865512,0.0946383772837253,-1.757322016841825e-07,0.0043143439143994,-0.0152375194793422,-0.0003813543808833,6.733036899301475,9.124898069371795,31.17348582623077,27.70872137993553
0.99,31.2221848122526,131.01045433979834,19.58987645066911,-1.5701663750222528,-6.483945974369253,30.01713244276976,1.532675523248883,3.4147263712403446,341.6609485517054,32.41541186259123,13.2309747860863,72.03041199033551,-0.5595603676801068,119.411696913804,642.3854798659454,15.288,0,5.8498103595401885,0.0952782765218149,-1.851807566957127e-07,0.0044320782383072,-0.0157202797257302,-0.0003943970491286,6.670565476027787,9.07028418357325,31.399088528850186,30.249589923448408
1.0,31.222184193833105,131.0104555295934,19.900055414506063,-1.5156768434849648,-6.42501580047083,26.84251717975957,1.5591180957814184,3.414679204425149,314.2672081822764,32.67217140855398,13.343169094554645,72.03289110503657,-0.587800050597488,119.38201002769516,652.5828965987647,15.288,0,5.865150756658672,0.0960333032513084,-1.9489693212497205e-07,0.0045485224746852,-0.0162101792427335,-0.0004079529708681,6.600641369677063,9.00732157202926,31.665046130484058,27.103719520601125
1.01,31.22218356992652,131.0104567286679,20.21248556907725,-1.4623412043025636,-6.368129385962534,28.08039294848064,1.585471306080028,3.414403157043888,324.9203161036979,32.920343110440825,13.452620833871627,72.03542898153236,-0.6169210215486127,119.35139711534276,662.5144625600615,15.288,0,5.880403012687503,0.0967630953894357,-2.0488259832021413e-07,0.0046635292912956,-0.0167069827916189,-0.0004214322686083,6.533199868300869,8.948013677740152,31.922097900682445,28.33161372605372
1.02,31.22218294045261,131.0104579371893,20.52722561537884,-1.410274504832579,-6.31398124853665,23.40201107579619,1.6115206968188966,3.413848283197076,284.59063161540416,33.155789333952754,13.558048960232645,72.03802439366771,-0.6469363291169683,119.3198444908857,672.0046399981544,15.288,0,5.895570919219983,0.0974554909562575,-2.1513911325479745e-07,0.0047770533615337,-0.017210894441235,-0.0004347654853913,6.468939293380699,8.893259085147402,32.165997656938885,23.704545586208795
1.03,31.22218230548073,131.01045915500978,20.84422804194455,-1.357752274465504,-6.254967123377246,19.074371992039485,1.6392633461599426,3.413486955276172,247.30469339049705,33.418261240296886,13.671777591252752,72.04067590399607,-0.6778589074722761,119.2873385980032,682.6655778933682,15.288,0,5.910651755522792,0.0982273313755199,-2.256680113891637e-07,0.0048889767507774,-0.0177218124360958,-0.0004484604971719,6.400060566449202,8.833442169415388,32.43768377384301,19.446612671686665
1.04,31.222181665072537,131.01046038199635,21.163450482045537,-1.307135396539931,-6.2017769471825535,30.472054913655672,1.6658604303601092,3.412642305168759,345.46563688072297,33.65128011946245,13.776294172340524,72.04338201785448,-0.7097021530054263,119.2538653964154,692.1977275701465,15.288,0,5.925647721471252,0.0989126072901511,-2.3647079649807202e-07,0.0049992043419679,-0.0182397261654544,-0.0004617549238066,6.337504399760718,8.782079195415584,32.67900842896088,30.70777343177642
1.05,31.22218101893764,131.01046161876698,21.485103079672506,-1.2563375575398628,-6.144819375173226,18.277976424084656,1.693909066363304,3.4119179451189083,240.45625879819983,33.905976494875645,13.88744955855172,72.04614130530304,-0.7424793044580549,119.21941100331053,702.6937416305004,15.288,0,5.940567148014432,0.0996616086718586,-2.475482657849173e-07,0.005107764792856,-0.0187652383391838,-0.0004753382753138,6.271453807047483,8.727002966322733,32.942599797249656,18.670697205748017
1.06,31.2221803673168,131.0104628648092,21.80901579039915,-1.2055665417761967,-6.084826445346812,26.14521039878663,1.7232892898192376,3.411267324159858,308.17968365593924,34.17934923417545,14.004303530581902,72.04895214005207,-0.7762041824850431,119.183960934535,714.0483829015263,15.288,0,5.955403708499534,0.1004655146659838,-2.589023520973532e-07,0.0052144709039318,-0.0192979293990692,-0.0004891658899939,6.202663561998993,8.669058981276963,33.225342586787086,26.42306752688088
1.07,31.222179710091872,131.0104641203744,22.13527552329223,-1.1572117218106863,-6.033848282856774,30.833171967749408,1.750475952870091,3.409905363190613,348.5093681440308,34.403759957320936,14.105909985552952,72.05181283844813,-0.8108909111162377,119.14750038810708,723.4329219474467,15.288,0,5.9701660016029,0.1011255115515668,-2.705341377299254e-07,0.0053192985722394,-0.0198381743876766,-0.0005022602340175,6.143411900932711,8.623752260586423,33.457716202946735,31.070502317154457
1.08,31.22217904716181,131.0104653856812,22.46395803498034,-1.1091769943922358,-5.9816175169983135,20.66374627611737,1.7784212215878867,3.4084905378002275,261.00157857466235,34.63601243094564,14.209863778632776,72.05472171158942,-0.8465532888614516,119.11001489903563,733.2102268620888,15.288,0,5.9848550003415335,0.1018085660026876,-2.82444739861246e-07,0.0054221808199998,-0.0203861815203098,-0.0005154145688831,6.083218615409755,8.577918559809724,33.69812800548145,21.018349125262485
1.09,31.222178378805594,131.0104666601358,22.79486599145772,-1.0601991693023796,-5.921065664249968,18.98215622420207,1.8093662941183744,3.407481894605428,246.54375332474407,34.9179593515691,14.329107018197714,72.05767691213374,-0.8832052211538238,119.07148989567176,745.1722037869846,15.288,0,5.999462033663345,0.1026376997400933,-2.9463611936858295e-07,0.0055229083727066,-0.0209413966930502,-0.0005292461366789,6.014901210424597,8.522279508393925,33.989535124592415,19.370260560156872
1.1,31.22217770510028,131.01046794357487,23.127946802430287,-1.0127803772009971,-5.865666218885085,38.36290887761204,1.8391849894947527,3.405992641502181,413.1890617385841,35.171671405289565,14.4395193118479,72.06067653035991,-0.9208607313930416,119.0319106824738,756.0161205396473,15.288,0,6.0139899983694844,0.1033838484497302,-3.071095371176903e-07,0.0056213763589886,-0.0215037926566601,-0.0005425787475153,5.95215744706475,8.474321884985066,34.25190330927341,38.55769916438888
1.11,31.222177025642903,131.01046923686627,23.46349445762988,-0.9675636419635874,-5.819814637362492,28.00959728326169,1.866303454069305,3.403720648883037,324.1593910376397,35.36892686716285,14.532386535661727,72.06371857902441,-0.9595340810379026,118.99126231531004,764.495283620184,15.288,0,6.028452835036978,0.103964056152968,-3.198650649665167e-07,0.0057176427568491,-0.0220743195597432,-0.000554947642826,5.899423689676579,8.439969299815623,34.45632370467815,28.277304376634003
1.12,31.22217634049944,131.0104705398761,23.80146605400944,-0.9201968288648305,-5.757685945728721,10.390087089196296,1.899255150496289,3.402381778841588,172.73281794065943,35.66606216055547,14.656045941642896,72.06680096345283,-0.9992392034494983,118.9495301954376,777.3690933533197,15.288,0,6.042844243246302,0.1048378607940782,-3.329040799211627e-07,0.0058115587002175,-0.0226528009542567,-0.0005687832565166,5.83051090229275,8.38515885411745,34.763168383167205,11.096723913694685
1.13,31.22217565026225,131.01047185133083,24.14143625505229,-0.8749833761766493,-5.705171341640304,33.06072135434911,1.9294353071002697,3.400238789099132,367.5328077900705,35.90590850963072,14.761895568584547,72.06992155105303,-1.0399912305462324,118.90669846476176,787.8337893937324,15.288,0,6.057154674650406,0.1055432770504895,-3.462293415250086e-07,0.0059028362843387,-0.0232380992932796,-0.0005815827121229,5.771658682017381,8.344009272215379,35.01122246955671,33.29107449297926
1.14,31.222174954272223,131.01047317265886,24.48388695582188,-0.8313239783161541,-5.659413032245145,18.179712660860407,1.957630768433052,3.3974757391195274,239.69531773195544,36.10363453977729,14.85464445754647,72.07307805138198,-1.0818039296904796,118.8627527018021,796.508337885411,15.288,0,6.071403186441508,0.1061248910509396,-3.598397001447757e-07,0.0059915996648443,-0.0238317321947106,-0.0005935594949552,5.719948106654298,8.312947447304783,35.21610087916303,18.597771695955128
1.15,31.22217425301841,131.0104745028134,24.828468774387,-0.7858253103011082,-5.597496163265073,17.911954235565283,1.992039541012648,3.395630436242369,237.41251153546767,36.405460847374336,14.97944864152972,72.0762680798269,-1.1246910598270978,118.81767849348724,809.854815477983,15.288,0,6.085568656995417,0.1070125110452991,-3.7373763437730347e-07,0.0060775563572375,-0.0244325382393509,-0.0006070880684085,5.652213623434757,8.26115809966787,35.52760617506311,18.339482875192488
1.16,31.222173546638967,131.01047584149848,25.17508480562144,-0.7434590881325946,-5.554032591832961,47.33871420499759,2.0201041386492102,3.392350883546518,490.0437743845894,36.588801565691206,15.067565730100783,72.07948919969485,-1.1686675213648372,118.77146022825812,818.005102272705,15.288,0,6.099644824776664,0.1075518550343238,-3.879241770806596e-07,0.0061605919332826,-0.0250404345023041,-0.0006184610272451,5.603416553609106,8.235272338227063,35.71774183255639,47.503081245646875
1.17,31.2221728342744,131.0104771905905,25.524366735876328,-0.7004637755747846,-5.502324575540077,8.156355321158065,2.051610693561463,3.389449478271884,153.70937929486794,36.82611702880194,15.172257718271704,72.08273882657043,-1.2137469492913375,118.72408362641104,828.6228969897667,15.288,0,6.113665288520014,0.1082498645163545,-4.023972479368841e-07,0.0062408477072613,-0.0256573846529303,-0.000630560341129,5.54659498784872,8.19928516128585,35.96314179440611,9.067723326650233
1.18,31.222172117067675,131.0104785476163,25.875486934842705,-0.6566486839437657,-5.439692426397128,22.873097043117333,2.087845896092533,3.387101137081582,280.02501822196746,37.138505514132206,15.300001564189802,72.0860143058587,-1.2599438050455476,118.6755335380324,842.712179472557,15.288,0,6.127599335158206,0.1091685587537227,-4.17161615296798e-07,0.0063178503666346,-0.0262806714421446,-0.0006437337066822,5.479064232594005,8.14918427657001,36.28532369682564,23.216591544464766
1.19,31.222171394509136,131.01047991369026,26.228821604877663,-0.6164028016674609,-5.402322028489222,40.17056390408038,2.1144868347660584,3.382832359878187,428.4078130529292,37.27977542613304,15.374862956272388,72.08931289121244,-1.3072729639894338,118.62579438068502,849.1066819606428,15.288,0,6.141471816779394,0.1095842583330151,-4.322156200619345e-07,0.0063916822925478,-0.0269118186598155,-0.000653711639093,5.437270369873421,8.134836435855384,36.43243748232395,40.36816584539411
1.2,31.22217066616765,131.010481289771,26.584693971411184,-0.5743679999450709,-5.345364804249221,3.88382473471036,2.149400290874801,3.3797007072076286,117.1843741360236,37.55570438428981,15.491156077672995,72.0926316827575,-1.3557476886364428,118.5748522673578,861.6931904445509,15.288,0,6.155284456501394,0.1103957975303393,-4.475584598733341e-07,0.0064623067453754,-0.0275516959232872,-0.0006658039764611,5.376045554368694,8.094425595609,36.717273937119536,5.579103247893914
1.21,31.22216993318081,131.01048267338035,26.942275526462545,-0.5330494387492706,-5.289858624460304,32.19044184284516,2.184221020287283,3.376258002841039,359.92343213200894,37.823479924375896,15.604817276384289,72.09596768499803,-1.405383033941472,118.52269142853456,873.9948749339113,15.288,0,6.169014028121672,0.1111833781493866,-4.631949541998602e-07,0.0065293102094627,-0.0281976069141116,-0.0006774804573003,5.316572031572066,8.056819302573585,36.99373084334477,32.44063016657984
1.22,31.22216919469216,131.01048406640558,27.302200924964104,-0.4939189386297486,-5.251471718134326,23.22569372159087,2.21207626054432,3.371430793097288,283.0687504825761,37.96907317913177,15.680732161140703,72.09931788622335,-1.4561929923359378,118.4692972061506,880.7058801047193,15.288,0,6.182688646123007,0.1116118077353772,-4.79121553145438e-07,0.0065928195392466,-0.0288518992386456,-0.0006866796147929,5.274583168597831,8.044297545350313,37.14532840429292,23.573134620246282
1.23,31.222168451053697,131.01048546809332,27.66421950420504,-0.4535310049057749,-5.195122603736492,8.83948149890852,2.248097541912234,3.3676068303626363,159.79687382222795,38.24417429663256,15.796438094761708,72.10267902189113,-1.5081904666460244,118.41465609360536,893.483173376807,15.288,0,6.196292421491411,0.1124209392253575,-4.953401873345885e-07,0.0066525941881616,-0.0295135108432142,-0.0006979015905157,5.214827441093551,8.007353855393783,37.42924406429534,9.722713175415747
