Time,Latitude,Longitude,Altitude,Angle of Attack,Angle of Sideslip,X-Acceleration,Y-Acceleration,Z-Acceleration,Thrust,True Velocity,Ground Velocity,Pitch,Roll,Yaw,Dynamic Pressure,cp,cg,parachute_deploy_gain,Wind Speed,Wind Direction,Mach,omega_x,omega_y,omega_z,Cmq,Angle of Attack(total),Angle of Attack(gust),True Velocity(gust),Acceleration
0.0,31.222216000000007,131.010392,3.000000004412624,0.0,0.0,0.0,0.0,0.0,2.2828121974499247,0.0,0.0,69.99999999623412,0.0,119.9999999935444,0.0,1.274,1.0271675151847728,0.0,0.0,0.0,0.0,0.0,0.0,0.0,-0.0,0.0,90.0,0.0,0.0
0.01,31.22221599999084,131.01039200000497,3.000002745347096,0.0,0.0,0.0,0.0,0.0,34.242186961749226,3.465174813755316e-14,2.8705476994166025e-14,69.9999999962611,-2.1713911667908447e-11,119.99999999352175,7.352495975525499e-28,1.274,1.0271659134330349,0.0,0.0,0.0,1.0183245502395064e-16,-3.3305335486039093e-18,7.169286865560398e-18,5.624298769768554e-18,-7.715917190115602e-34,0.0,89.99999999999979,3.465174813755316e-14,0.0
0.02,31.222215999994315,131.0103920000094,3.0000030495639742,0.0,0.0,0.0,0.0,0.0,25.871876237766216,3.8197434737535036e-11,2.4171837235633357e-11,69.99999999628672,-1.1921727947863515e-11,119.99999999353136,8.93414285188691e-22,1.274,1.027164492361118,0.0,0.0,0.0,1.1225230367947217e-13,-6.657678965418802e-18,1.4338573731120796e-17,1.1241821275959074e-17,-1.7010872994127372e-30,0.0,89.99999999975682,3.8197434737535036e-11,0.0
0.03,31.222215999994315,131.0103920000094,3.0000030495639742,0.0,0.0,9.81877837424427,-2.5122800045972096e-05,3.3498614629347925,180.34219359854663,1.2659015405517447e-10,1.1364406173918436e-10,69.99999999631459,-1.6431898037347223e-11,119.99999999352724,9.812605835254651e-21,1.274,1.0271551940870716,0.0,0.0,0.0,3.720154642239108e-13,-9.991600645811728e-18,2.150108433310316e-17,1.6859343782149594e-17,-8.453698244545225e-30,0.0,89.99999999919412,1.2659015405517447e-10,10.374487003414373
0.04,31.222215999994315,131.0103920000094,3.0000030495639742,18.83801224594347,-0.0001111777826462,48.68248476615645,-1.016330065874988e-05,3.3497854396877287,548.635972453808,0.1556173050466994,0.0975908358443652,69.99999999633813,-2.0932768807056278e-11,119.99999999352085,0.0148286043323172,1.274,1.027133720825283,0.0,0.0,0.0,0.0004573186944143,-1.3322134194415637e-17,-1.04744143520903e-11,1.336824254131964e-11,5.0626055458604615e-15,18.83801224625964,89.06236267790787,0.1555998412814392,48.79759610369246
0.05,31.22221599164764,131.01039201704114,3.002326315126219,5.772385609593056,-4.395076213712875e-06,71.20344550265034,4.905512691849684e-05,3.349217396035405,761.6984298824663,0.8326471944351852,0.3620326097059287,70.00000001316391,-1.0866255162484559e-10,120.00000000231074,0.4245281043148827,1.274,1.027093426565204,0.0,0.0,0.0,0.0024469331205246,-5.0245994431125096e-18,-7.32924164976824e-07,2.217344936947165e-11,1.895424184525467e-09,5.772385609594774,84.74112356985832,0.8326465040582279,71.28217104309611
0.06,31.22221596664444,131.01039206837547,3.015081730143309,4.056581213689704,3.169093567502233e-05,53.16249142470188,0.0001203825427859,3.3481235983850643,590.4875390737236,1.657216205300742,0.6755452977614796,69.99999964391398,-3.9285905645317736e-10,120.0000000287861,1.6816755551786196,1.274,1.027050317124926,0.0,0.0,0.0,0.0048701272653724,3.095757869075056e-13,-7.483541766772344e-06,3.074135420506017e-11,3.8518749565858254e-08,4.056581213813337,79.59316473687034,1.657221183301277,53.26781792157489
0.07,31.22221592883117,131.0103921460222,3.034593611434361,4.115662018628709,6.450869598349036e-05,81.18203554989698,0.0001593212642178,3.347059402768047,855.2937749779172,2.099899704220947,0.8579771146174259,69.99999543281565,-8.233801910783518e-10,120.00000006883089,2.700101932075157,1.274,1.027003201295312,0.0,0.0,0.0,0.006171060252819,3.4704292086287e-12,-2.6327204536316785e-05,1.9541142932033486e-10,1.7170712165327165e-07,4.115662019133419,76.90111966094352,2.099909837223217,81.2510043180746
0.08,31.22221588914193,131.01039222747755,3.0542761843835606,3.459696193892355,8.037433511260004e-05,16.298214211652088,0.0002413456836072,3.344878926597744,241.2171988638792,3.051964775152957,1.2149999716613011,69.99998042886442,-1.0128995578004475e-09,120.00000011111383,5.703497661025892,1.274,1.0269597189470347,0.0,0.0,0.0,0.0089689344021769,1.458982438104473e-11,-5.702803872814215e-05,7.043261397829576e-10,5.405702492731987e-07,3.459696194824858,71.30331929508368,3.051977400323993,16.63790856991177
0.09,31.2222158241468,131.01039236098703,3.0886872184095737,4.313676956300389,0.0001337561018991,50.35975918308536,0.0002293282821279,3.344215841840564,563.0937377043203,2.893161298572128,1.191209213966114,69.99994788602814,-7.098432023887522e-10,120.00000018106356,5.125380275808925,1.274,1.026918932011013,0.0,0.0,0.0,0.0085022553945842,3.8672912027154325e-11,-0.0001115933708951,2.016054215232918e-09,1.0027525988343615e-06,4.313676958370176,72.2316578138625,2.893182308931483,50.47067588835877
0.1,31.2222157788302,131.01039245392113,3.109877853389092,4.035124630954496,0.0001457499816535,47.804664812504015,0.0002878217657545,3.341734392237128,538.7437595981891,3.5677148583138303,1.4531247507621967,69.99988403958329,1.9248461973355822e-09,120.0000002323013,7.7939962029572305,1.274,1.0268846934974103,0.0,0.0,0.0,0.0104845969583028,8.579678749070606e-11,-0.0001726817043215,3.984565639703107e-09,1.913455350430327e-06,4.0351246335824245,68.43243098813296,3.567737752667411,47.92132267234452
0.11,31.222215703308,131.01039260899836,3.148841432727305,4.043401107254707,0.0001752764476999,37.67622367577205,0.0003286462930162,3.3392563999062723,442.86563930529127,4.034183355956686,1.6436552022667772,69.99978525353545,7.302513231814865e-09,120.00000031883242,9.96528118825134,1.274,1.026848594915519,0.0,0.0,0.0,0.0118554331868328,1.5870341853361987e-10,-0.0002596204409236,7.232030302688121e-09,3.252930323390323e-06,4.04340111104746,65.92012987243639,4.034210888316708,37.82391391539392
0.12,31.222215627491828,131.01039276462643,3.186995101203875,4.17874459224363,0.0002066711490009,41.15991989399172,0.0003576945202315,3.336766085769504,475.58594813540793,4.361857560629481,1.7865750500940407,69.99963665601238,1.781774420198147e-08,120.00000041104812,11.649831899889556,1.274,1.0268114448194128,0.0,0.0,0.0,0.0128183893919737,2.682972478760441e-10,-0.0003710216542429,1.2215991071490164e-08,5.026311388647148e-06,4.178744597345269,64.21681651392016,4.361890024457652,41.29495143136631
0.13,31.22221554594398,131.01039293200228,3.2277173449026786,4.202734874672792,0.0002327160860324,45.44886120763352,0.0003953741266062,3.333578629398489,515.9156326236897,4.792165672014363,1.9646716520715424,69.99942424225341,3.613383418913551e-08,120.00000051758742,14.061726603124043,1.274,1.026779572895131,0.0,0.0,0.0,0.0140829618979635,4.248908088871395e-10,-0.0005056103199642,1.908859219307828e-08,7.5253154423526356e-06,4.202734881104192,62.048594618540655,4.792202226971676,45.570952718869485
0.14,31.222215454191247,131.01039312033683,3.2737880595608355,4.184830647080848,0.000257138757548,42.32232525579263,0.0004369426767266,3.329727443445437,486.2390860568421,5.269261304374574,2.158791628597544,69.99913473613935,6.515851355725497e-08,120.00000064630268,17.000925061330125,1.274,1.0267449573927567,0.0,0.0,0.0,0.0154850332441425,6.382432869666793e-10,-0.0006690086306358,2.8426433029675884e-08,1.0948547100483978e-05,4.184830654966803,59.74181173116622,5.269301695636157,42.45310707234106
0.15,31.222215353826755,131.0103933263496,3.3242182719560263,4.21963947489699,0.0002846467688673,40.886944113003565,0.0004726792395108,3.325585650885676,472.5421858721398,5.6781946837482895,2.329510773545807,69.99875162806286,1.0876776246115984e-07,120.00000079954532,19.742017654108928,1.274,1.0267115958081523,0.0,0.0,0.0,0.0166867950518804,9.204756288136623e-10,-0.000865746478554,4.08948221429571e-08,1.526771148078443e-05,4.219639484480408,57.84996018384879,5.678239395958187,41.02196629910223
0.16,31.222215247130432,131.01039354534575,3.3775922280208457,4.253495568077899,0.0003118339050386,32.26872905470846,0.0005078415214353,3.32090791922544,391.1218908297597,6.081244877834229,2.4981889727471702,69.99825581174558,1.7187028096464329e-07,120.0000009800088,22.644030778355887,1.274,1.026675762255412,0.0,0.0,0.0,0.0178712695992133,1.2856146928958252e-09,-0.0010961187242953,5.6923362293832417e-08,2.0702404729358337e-05,4.253495579487569,56.06022383757386,6.081293860589489,32.43916312841722
0.17,31.22221513260033,131.01039378041813,3.4348437275053194,4.364838523348639,0.0003448792023946,40.840448242802736,0.0005326487904353,3.3162727284953744,471.78125980632416,6.362544479165355,2.6250789114832647,69.99762801982864,2.5997588617291615e-07,120.00000119506798,24.78723182122683,1.274,1.0266409836796937,0.0,0.0,0.0,0.0186979513961862,1.747791994374917e-09,-0.0013624931601664,7.706724512977917e-08,2.6923621797558364e-05,4.364838536947241,54.85936171416122,6.362598652663785,40.97486885600156
0.18,31.222215014088988,131.01039402363364,3.4935801365785646,4.353948305387995,0.0003681615230806,33.992183768165326,0.0005718025428208,3.310131992647221,407.1015672119096,6.81502088160835,2.810667639293692,69.99684761766231,3.794979223522764e-07,120.00000144728236,28.437950785509614,1.274,1.0266048342046536,0.0,0.0,0.0,0.020027681385988,2.3221419748804155e-09,-0.0016616990447559,1.0147209890543081e-07,3.517105786247627e-05,4.353948320923495,52.99157233768714,6.815078712285162,34.152972512863755
0.19,31.22221488419521,131.01039429023237,3.558399965607869,4.432620772533925,0.0003996774584738,38.45149959021069,0.0005986099513107,3.304145139297767,448.95313283182486,7.1223367465208405,2.946425726785696,69.99589577323147,5.440084577183829e-07,120.00000176148238,31.060341085698347,1.274,1.026566130444714,0.0,0.0,0.0,0.0209308229359413,3.022391489754689e-09,-0.0020041563310821,1.3135864879722746e-07,4.433199397898183e-05,4.432620790516937,51.77883352025967,7.122399527709208,38.59320142454953
0.2,31.222214751373183,131.01039456280608,3.624052454705669,4.443889400961181,0.0004246617145652,35.23432408779927,0.0006337972852267,3.2968110145188256,418.5156301991588,7.530482904611057,3.1167566004785483,69.99474776398331,7.478025600151903e-07,120.00000211715036,34.72195181863731,1.274,1.026529240027363,0.0,0.0,0.0,0.0221302820454282,3.866698391504749e-09,-0.0023849544920781,1.668144671071589e-07,5.57780533277244e-05,4.443889421210987,50.22448880200342,7.530549610317194,35.38822625098952
0.21,31.222214608673173,131.01039485566503,3.6948551453492566,4.493351735844891,0.0004538195602194,33.79371564104691,0.0006629296043866,3.2891790438445727,404.8187610144608,7.868284042829251,3.2629204975089228,69.99338155599101,1.0150082652278477e-06,120.00000255293388,37.906665490338085,1.274,1.0264923657015164,0.0,0.0,0.0,0.0231230169900677,4.871073773182836e-09,-0.0028117605859743,2.089322918608601e-07,6.870935089180403e-05,4.493351758715364,48.992529909481824,7.868355328639073,33.95340801819282
0.22,31.22221446109996,131.01039515850383,3.767700382407304,4.5412639153933885,0.000482649303782,41.008966751568416,0.0006914639179131,3.2808061382386606,472.5421858721387,8.20057841132235,3.4071691679735228,69.9917708347139,1.3454961520984431e-06,120.00000305929996,41.175744234065135,1.274,1.0264494137127138,0.0,0.0,0.0,0.0240995709751246,6.054779813287368e-09,-0.0032829112061357,2.580881224843564e-07,8.3609968899004e-05,4.54126394098788,47.82515604752711,8.2006542256977,41.13999323561041
0.23,31.22221430675399,131.0103954752338,3.843768625625224,4.52371495179584,0.0005047555656171,33.98493478127787,0.0007294889663961,3.2705214710765107,406.340642146096,8.647938096586296,3.5908865300848416,69.98989017772566,1.7539876018835507e-06,120.00000365514876,45.79040229326471,1.274,1.0264133390858623,0.0,0.0,0.0,0.0254142776666487,7.436335125872812e-09,-0.0038001790077148,3.1489825108822685e-07,0.0001020628978177,4.523714979897577,46.31461705147579,8.648017383405135,34.14194053232237
0.24,31.222214142622448,131.0103958120587,3.92493179063287,4.57837522350066,0.0005351929930195,35.051650311058864,0.0007555049947555,3.26053011385611,416.2328240017099,8.954297884844461,3.72617527247482,69.98771316795013,2.25257161141768e-06,120.0000043564586,49.09180568115741,1.274,1.0263750048312463,0.0,0.0,0.0,0.0263146218848643,9.034877387788232e-09,-0.0043732521010013,3.809642748985157e-07,0.00012161410144,4.578375254714954,45.32798984252032,8.954381952763216,35.20297212911011
0.25,31.22221397517227,131.0103961556623,4.0071748888306855,4.6034117733065,0.0005618935542827,36.03738579534623,0.000785606492708,3.249069743648399,425.3640807915084,9.311611941121669,3.8789349536029696,69.98520781816889,2.8559738498748624e-06,120.00000517181904,53.08749562138344,1.274,1.0263373768840591,0.0,0.0,0.0,0.0273647110956883,1.0873791100894836e-08,-0.0049950711786164,4.5609738277273444e-07,0.0001444478241125,4.603411807525074,44.2165428352526,9.311700203154778,36.183554686886296
0.26,31.22221379934012,131.01039651647062,4.09364247475714,4.621386912291471,0.0005881033207375,39.29107511182762,0.0008162761165496,3.236407051295005,455.80158342417656,9.67833954512075,4.034902068846398,69.98234620927953,3.5784678110229355e-06,120.00000612171208,57.350948423913096,1.274,1.0263006300381676,0.0,0.0,0.0,0.0284424679130479,1.2973286442992724e-08,-0.0056712051373577,5.414206381221602e-07,0.0001704578711045,4.621386949630312,43.12063533194282,9.678431924174348,39.42414126789902
0.27,31.222213616776543,131.01039689108487,4.183310605341074,4.617158109135719,0.0006115457810536,35.90419462403674,0.0008503454714941,3.221982799915672,423.8421996598744,10.088790784535757,4.205862468567124,69.97909721779352,4.436165972465058e-06,120.000007221354,62.31798301949865,1.274,1.026260090595354,0.0,0.0,0.0,0.0296487219805601,1.5355910600537293e-08,-0.0064045199323113,6.379142666348734e-07,0.0002006609239367,4.617158149547818,41.94410287616451,10.08888684592241,36.048472443180565
0.28,31.22221342607797,131.0103972823952,4.277051150896916,4.642105655370123,0.0006389739579882,41.51133203546672,0.0008785747638736,3.2071101123224945,476.3468732012228,10.432377224420517,4.35383399240675,69.97542808435722,5.446665372087172e-06,120.00000849080963,66.63429581008447,1.274,1.0262212716723291,0.0,0.0,0.0,0.0306584788590473,1.8045308789081613e-08,-0.0072006835403936,7.469524967369969e-07,0.0002332868227611,4.642105699250441,41.0023231023774,10.432477594215127,41.63503624837164
0.29,31.22221323001776,131.01039768469093,4.373143569786686,4.62134615173668,0.0006600657405645,33.17552944492765,0.0009148746278066,3.1894209319791806,397.9703104221098,10.876662296046485,4.536381530986506,69.9713027936179,6.629751536885327e-06,120.00000994797426,72.43000748232016,1.274,1.026183007522519,0.0,0.0,0.0,0.0319641703260467,2.1067646517035105e-08,-0.0080566154554079,8.688043379161898e-07,0.000272130659453,4.621346198772975,39.83162628795024,10.876765978930557,33.32848872465723
0.3,31.22221302403368,131.01039810736614,4.4744193758467325,4.664362353358112,0.0006905183788532,31.08096762732793,0.0009381960428197,3.172549142946348,378.1859457108735,11.168362145070317,4.66647911311536,69.96668711012893,8.005507138509574e-06,120.00001161892672,76.36634300732833,1.274,1.0261430389738484,0.0,0.0,0.0,0.0328214509167604,2.4447409007156216e-08,-0.0089829108229115,1.0056222251461646e-06,0.0003115527202986,4.664362404357781,39.09908960432563,11.168470611443622,31.242464973103964
0.31,31.22221281503337,131.01039853619727,4.576593712520673,4.700143580504286,0.0007196683316923,32.79732593144512,0.0009620705970519,3.154230688182399,394.1656220930229,11.470279728974068,4.800072153432283,69.96154070456518,9.597499105113692e-06,120.00001352112182,80.55022837857167,1.274,1.0261054058068628,0.0,0.0,0.0,0.0337087616009043,2.8214060606649844e-08,-0.0099686353219717,1.1565909895184251e-06,0.0003550834484269,4.700143635477137,38.36463422765983,11.47039277421126,32.94865339301887
0.32,31.222212598991007,131.01039897947376,4.68216432480395,4.718667719113184,0.0007464384342556,35.7316568886908,0.0009885845337584,3.133859770838664,421.5593934624264,11.808280530415894,4.946054328851105,69.95582953472353,1.14278227255889e-05,120.00001568218067,85.36654007972253,1.274,1.026068246703101,0.0,0.0,0.0,0.0347021168382987,3.2392058795580455e-08,-0.0110163301561155,1.3226102501723267e-06,0.0004039614423012,4.718667778018562,37.5686120062341,11.808397780690962,35.8688218659563
0.33,31.222212376029034,131.0103994369436,4.791055524254013,4.72141404831576,0.0007708346814671,35.42013590291081,0.0010176135371143,3.1111955852784385,418.5156301991632,12.181577273013426,5.104163223586657,69.94951809396906,1.351997394754887e-05,120.00001812674968,90.84831229869296,1.274,1.0260310883392356,0.0,0.0,0.0,0.0357992034445943,3.700677535501642e-08,-0.0121310534481307,1.5051409581878843e-06,0.0004588955105349,4.721414111097893,36.7208578211118,12.181698355442045,35.55651229220977
0.34,31.222212145785647,131.0103999093516,4.903491659547144,4.73024573449122,0.0007962944975467,27.63851074646407,0.0010446307681611,3.0871492806781062,345.4656368807584,12.53557620048282,5.2556261014174765,69.94256797855994,1.5899658158227497e-05,120.000020882338,96.20413272674828,1.274,1.0259901535019136,0.0,0.0,0.0,0.0368395817555172,4.208561016221623e-08,-0.0133180771902383,1.7057647550599631e-06,0.0005184333231541,4.730245801363397,35.94841996438923,12.535701282129995,27.810389570354005
0.35,31.222211909310875,131.01040039453565,5.018822212845608,4.780248518778662,0.0008286678570753,30.332092807652543,0.0010618579815451,3.063967690608957,370.5765700527057,12.774786382148209,5.367579971644358,69.93493776125636,1.8594985713558667e-05,120.00002397748868,99.9096898192772,1.274,1.025950003202184,0.0,0.0,0.0,0.0375426220587071,4.7658312175989686e-08,-0.0145774693288123,1.9252724355785177e-06,0.0005782798420984,4.780248590437683,35.44790728185619,12.774916548990808,30.486451961956565
0.36,31.22221166933814,131.0104008868675,5.135354490370708,4.798132156899578,0.0008554457330409,34.32674769697476,0.0010851169437774,3.0374319611165923,407.8625232777224,13.09301701329486,5.506730645516068,69.92658597246795,2.163521613217148e-05,120.0000274401514,104.94818266210537,1.274,1.0259105142325406,0.0,0.0,0.0,0.0384778908056978,5.3755109608570216e-08,-0.0158991451700967,2.162609490834569e-06,0.0006464142451675,4.798132232978766,34.796094028187134,13.09315138639638,34.46087058603792
0.37,31.222211421355144,131.01040139563804,5.255882891363927,4.797392186816851,0.0008791822061288,32.551601855236584,0.00111162791192,3.0078619428913056,391.1218908297639,13.457513730739372,5.661815946371007,69.91747693543164,2.5047738471809164e-05,120.0000313040604,110.87154396328836,1.274,1.025872170958032,0.0,0.0,0.0,0.0395491312153729,6.040098808671168e-08,-0.0172926678053148,2.420031948898497e-06,0.0007226353721561,4.797392267189059,34.07332166419882,13.457651832357364,32.69027405888565
0.38,31.22221116634284,131.01040191882743,5.379799334000849,4.811698494594017,0.0009057112478668,34.02947987649063,0.0011338447913587,2.9774881690446744,404.81876101445977,13.77554886562956,5.800899861213392,69.90756948297444,2.886339581486796e-05,120.00003560072224,116.17243393848278,1.274,1.02583050512925,0.0,0.0,0.0,0.0404838339452728,6.762496638941508e-08,-0.0187646375218858,2.69955777313946e-06,0.0008026686661094,4.8116985796350695,33.46655348088405,13.775691134419684,34.15949264475229
0.39,31.222210906095896,131.01040245274032,5.505993307722699,4.813508003664984,0.000929862892873,29.00025983045028,0.0011579891265804,2.9442136901860865,357.6406249338268,14.124492165837273,5.950648592462506,69.8968186645841,3.311602501056718e-05,120.00004036395212,122.13093644173792,1.274,1.02579027384009,0.0,0.0,0.0,0.0415093739609825,7.545934774906889e-08,-0.020311592409804,3.0013532510753577e-06,0.0008908380763632,4.813508093268025,32.821616487639595,14.124638228358922,29.149330452482886
0.4,31.222210638473225,131.0104030017851,5.635788650457906,4.841647069358873,0.0009592124397379,27.71178845184976,0.0011749448424961,2.91135549588368,345.4656368807565,14.390874239274588,6.07193451174791,69.8851815212744,3.783947407715338e-05,120.00004563180136,126.77947425345651,1.274,1.0257493418632293,0.0,0.0,0.0,0.0422922854866381,8.39343718693383e-08,-0.021938519432511,3.3271332720311508e-06,0.0009803271643914,4.841647164150728,32.348088166612904,14.391024912012275,27.864299944624147
0.41,31.22221036681104,131.01040355909262,5.767123077463226,4.86553909860892,0.0009876699832274,31.306062598221665,0.0011918093836199,2.876450850006428,378.9468707766882,14.663028799871563,6.195223154320929,69.87261222561014,4.307011032901644e-05,120.0000514391194,131.6183642808765,1.274,1.025708445186429,0.0,0.0,0.0,0.0430921644173401,9.308325447883581e-08,-0.0236371933433427,3.6760977501392174e-06,0.0010761942383903,4.865539198612839,31.87689439156756,14.663183942709727,31.437931330109585
0.42,31.22221008906472,131.01040412887247,5.901259531771367,4.867510642114694,0.0010118258958528,35.308283402190774,0.0012128114559048,2.8374461227958245,416.23282400171047,14.9952917972178,6.33928625560071,69.85906967380902,4.884273094936628e-05,120.00005782486392,137.64909586091787,1.274,1.0256701057426505,0.0,0.0,0.0,0.0440686959134695,1.0293499639582845e-07,-0.0254093547296826,4.049238334851429e-06,0.0011830797791891,4.867510747027452,31.315270489291198,14.995450734457847,35.422111438762386
0.43,31.222209804115888,131.01040471342728,6.038886819939341,4.854590670645608,0.0010330089741511,31.00586934514032,0.0012363751872706,2.794478603999558,375.90313951343126,15.369430568701889,6.497852263156962,69.8445117629242,5.519340856908871e-05,120.00006482835984,144.60167924299955,1.274,1.0256308158337524,0.0,0.0,0.0,0.0451682983415116,1.135186446762958e-07,-0.0272634397889413,4.449073329427772e-06,0.0013010625065656,4.854590780289497,30.70250814963406,15.369592833372094,31.13154422839874
0.44,31.22220951192321,131.01040531284193,6.180028459770617,4.866912332640401,0.0010595850174406,28.57707721036899,0.0012525768202179,2.752165534925872,353.07501253892326,15.659290812546615,6.627318538707029,69.82889155423543,6.216182865383864e-05,120.00007249162944,150.1053167542629,1.274,1.025586171750536,0.0,0.0,0.0,0.0460202245100907,1.2486676023179565e-07,-0.0292060158163984,4.8779154055816594e-06,0.001420032405556,4.866912447705031,30.24619499837236,15.659457251771938,28.709297424144207
0.45,31.222209215425703,131.01040592106523,6.322872201489905,4.881836476567178,0.0010866574689855,33.31904824532484,0.0012669045761511,2.7082028218433374,397.2093853562887,15.934249290371609,6.751662050993672,69.81215834018458,6.97909417564726e-05,120.00008085697964,155.42080512416243,1.274,1.0255397023523487,0.0,0.0,0.0,0.0468283602442113,1.3701614206272197e-07,-0.0312276295846745,5.334643585560923e-06,0.0015449645531859,4.8818365972149325,29.82567893138932,15.934419982127675,33.428929688274074
0.46,31.22220891307435,131.0104065412864,6.468371919199588,4.869610441729251,0.0011078049156487,38.95909776354321,0.0012868374716666,2.6582856015412624,449.7140588976424,16.292139278621757,6.904766425053949,69.79426683863348,7.812149592850748e-05,120.00008996920153,162.4785746623087,1.274,1.02549635315424,0.0,0.0,0.0,0.0478802236363867,1.499987870203256e-07,-0.0333272350234362,5.819761874615242e-06,0.0016858511402973,4.869610567434908,29.29014635640275,16.292313292210977,39.04968351401366
0.47,31.22220860266524,131.01040717804253,6.6178810515614845,4.838450928223533,0.0011247917292402,26.253747818137555,0.0013104398935566,2.6026193242279367,331.0078106302504,16.710658191447514,7.078951441335346,69.77517236812905,8.719457259907165e-05,120.0000998741591,170.9309671061642,1.274,1.025453319323251,0.0,0.0,0.0,0.0491102725711187,1.6384464803343264e-07,-0.0355167087264168,6.3368207228363735e-06,0.0018427306558807,4.838451058652396,28.68386015667837,16.710834873319172,26.382435512333956
0.48,31.222208284201663,131.0104078313267,6.771393590864176,4.869339340099417,0.0011561785713505,25.860860976019296,0.0013165328518772,2.5543454292827983,327.20312230115803,16.911139899671,7.177575416403102,69.75482343794755,9.70562828082882e-05,120.00011062072316,175.0543877818846,1.274,1.0254092882449153,0.0,0.0,0.0,0.0496995461609974,1.7858865391586845e-07,-0.0378054080201581,6.88909442277235e-06,0.0019849793891693,4.869339477030596,28.40887970825325,16.911321511776286,25.986704537635287
0.49,31.22220796480208,131.01040848648364,6.924537656029012,4.881367714530694,0.0011829003785372,32.565703383222065,0.0013261973190012,2.5011623511055703,389.6000096981238,17.169005224738054,7.296160258358563,69.73316318155707,0.0001077573203115,120.000122255028,180.4309832312717,1.274,1.025367445590036,0.0,0.0,0.0,0.05045746454003,1.942747077649401e-07,-0.0401641298712614,7.47069711110948e-06,0.002140948887153,4.881367857509675,28.058569663954906,17.169191034294997,32.66161128464712
0.5,31.222207637929923,131.01040915697027,7.081324512896956,4.862566137860805,0.001202418260511,33.47759680712428,0.0013425340759632,2.4399894027711366,397.970310422106,17.52898693231981,7.450304424940405,69.71015149227495,0.0001193385310595,120.0001348274002,188.0736471953394,1.274,1.0253278572281015,0.0,0.0,0.0,0.0515154948878309,2.109295159784217e-07,-0.0426011733481599,8.084173008518589e-06,0.0023184335011768,4.862566286171007,27.57768313050809,17.529175807738486,33.56639745442473
0.51,31.22220730314019,131.01040984370235,7.24202048914867,4.8479762258125,0.001223054804074,25.49162310288008,0.0013562860883156,2.3767006597692686,323.39843497208153,17.86914397471067,7.597652147346554,69.68574349602717,0.0001318441288964,120.00014838524436,195.4407439266201,1.274,1.025286455263166,0.0,0.0,0.0,0.0525152689856776,2.2858192086249162e-07,-0.0451315948093539,8.734206149830708e-06,0.002503767471626,4.847976379721193,27.13799345359824,17.86933609171003,25.602178740977283
0.52,31.222206962738102,131.01041054193402,7.405210501673173,4.865306299521403,0.0012516517170965,30.733671928447727,0.0013599291289974,2.317711624364424,372.098451184342,18.08534843773428,7.701914987606457,69.65988568649581,0.0001453248538387,120.00016298000436,200.19561780583155,1.274,1.0252426840672306,0.0,0.0,0.0,0.0531507657929359,2.4726951523704535e-07,-0.0477531686556663,9.421346966092632e-06,0.0026812161964639,4.865306460134566,26.8699055233151,18.085545046726228,30.820940596104087
0.53,31.222206619320115,131.01041124632013,7.569307468221277,4.848802699234936,0.0012715119568563,32.301199055744725,0.0013711327835325,2.2490252325653923,386.55624643486095,18.41963113311156,7.8474319110539055,69.6325258319474,0.0001598315062727,120.0001786629144,207.6614205945027,1.274,1.0251993415311351,0.0,0.0,0.0,0.0541332845214831,2.67031759303889e-07,-0.0504479325599339,1.0141887756417996e-05,0.0028848299490111,4.848802865552398,26.45837260670532,18.419830861742675,32.37940050117613
0.54,31.22220626697288,131.01041196903336,7.737918664599091,4.831496690588052,0.0012913635058467,28.31291960103712,0.0013809098107221,2.177242866245296,349.2703242098436,18.75116898748492,7.992112829440902,69.60362200959217,0.0001754082864028,120.00019548734956,215.20067397992847,1.274,1.0251561018460285,0.0,0.0,0.0,0.0551077428911958,2.878941684235108e-07,-0.0532336286085667,1.090122304443916e-05,0.003098869611663,4.831496862756785,26.061835558272342,18.751371834390056,28.396510432451375
0.55,31.222205908994248,131.01041270328463,7.909026079894722,9.733191319765169,9.297818225662493,30.185670857136675,-0.5263022773373187,1.815646682234368,365.2500005919912,20.15488583947672,8.113323699629928,69.57312211246325,0.0001921068626005,120.00021350480982,248.62252994758688,1.274,1.025112921033824,0.0,3.7596053489187766,0.0,0.0592332356177263,3.0989272306468813e-07,-0.0561100530405476,1.1700476995263424e-05,0.0035107731766435,13.429437566264813,34.42032336603195,21.608982020748854,30.244806034379348
0.56,31.222205546564343,131.01041344664463,8.081909946161325,-2.756065971868402,-8.29692990531666,28.0745573476106,0.2782277016437189,2.347278947359425,346.22656194657776,18.541572143664304,8.247294810559758,69.54097415464405,0.0002099796112633,120.00023276987916,210.4096710488353,1.274,1.0250709539098009,0.0,3.773321678167647,165.0000707061107,0.0544919709401361,3.3302698971832e-07,-0.0625881051614596,0.0063968696062511,0.003602573906966,8.739666395639453,17.5558120729903,17.242843534684223,28.173886834708394
0.57,31.222205178420328,131.01041420495483,8.258296221886255,-2.660474468664296,-8.187413235178518,27.7558816761756,0.377747602151706,2.3667545778569696,343.1828296833045,18.8030356886022,8.377877942199635,69.50511423405666,0.0100165048196521,120.01070091644786,216.38202059543977,1.274,1.0250279191823897,0.0,3.786930847216913,165.0000707061107,0.0552604981484631,3.623687547359116e-07,-0.0609747336096676,0.0015584590028199,0.0035591399606942,8.606021710276217,17.34888783707106,17.521332226942775,27.859167038958628
0.58,31.222204802720366,131.01041497296353,8.43648279607512,-2.576349269781274,-8.089138016897376,36.682578696668045,0.4816049380939861,2.3868480419949063,426.12500585731766,19.07118839710116,8.50757629704232,69.47017887100468,0.0123851536518237,120.01323008310224,222.593928048076,1.274,1.024981594484354,0.0,3.800559440921576,165.0000707061107,0.0560486884669351,3.883570162545389e-07,-0.059371887149035,-0.0033520675628637,0.0035149436236295,8.486905436009405,17.13106179766422,17.804766507157968,36.76330462198979
0.59,31.222204421771448,131.01041575319783,8.617357841691746,-2.476520903998092,-7.934978146101321,29.65286194240886,0.5932843094254777,2.400552701454211,360.68438819710633,19.473524963209183,8.68499484438817,69.43616238598887,0.0072457517764725,120.0077416931078,232.0809005761764,1.274,1.0249386802161349,0.0,3.8140877977382415,165.0000707061107,0.0572312400455571,4.109615317435097e-07,-0.0577741237930249,-0.0083433101617018,0.0034924496245185,8.310100347052089,16.827805009465422,18.231082069752592,29.75578701563495
0.6,31.22220403051281,131.01041655327853,8.803086632356033,-2.3982710734420327,-7.842803297459706,26.30554935516225,0.7055518722122032,2.42283820342314,329.4859594986072,19.727507829421853,8.810006387686727,69.40306111512228,-0.0054865411130828,119.99414159096996,238.1699477459281,1.274,1.024891335813742,0.0,3.827582181171021,165.0000707061107,0.0579777982563643,4.301399478065758e-07,-0.0561713666332026,-0.0134490312364042,0.0034397880283689,8.199103339066264,16.636688009746642,18.499406699868302,26.42631028504028
0.61,31.22220363636365,131.01041735832885,8.989310121640262,-2.3234598463583613,-7.755961014004295,30.89969758006845,0.8207994856218168,2.446271156933426,372.0984511843332,19.96666845576369,8.929875870825553,69.37087597475448,-0.0259494214741876,119.97227921331805,243.97535567785795,1.274,1.0248423929069768,0.0,3.841196547677259,165.0000707061107,0.0586807982813339,4.458403877995552e-07,-0.0545775694253913,-0.0186280838535131,0.0033826455868393,8.094465930077305,16.46195877470952,18.75208228873261,31.007245361504292
0.62,31.222203235793096,131.0104181756269,9.178160427768349,-2.239988193064354,-7.635288995355992,38.524204944875805,0.9432577171094088,2.4659914173348905,442.86563930529206,20.290770150531404,9.0800778771364,69.33959867777642,-0.0542192115880012,119.94206963813048,251.95555258182887,1.274,1.0247996097896497,0.0,3.854609748755448,165.0000707061107,0.0596334400755543,4.580341702356801e-07,-0.0529949412589342,-0.0238748117613405,0.0033378112261393,7.955214992573945,16.238570292379396,19.09496837576751,38.614572578575164
0.63,31.22220282689167,131.01041900910235,9.3707755512281,-2.1490293178174635,-7.481850604087329,21.652571021832863,1.075076499731394,2.482238257902916,286.11251274707456,20.705571131730707,9.26275107838917,69.30921839896843,-0.0903652073541778,119.90343553928366,262.35736920082303,1.274,1.024756158874558,0.0,3.86797119405518,165.0000707061107,0.0608526492181597,4.666923201158328e-07,-0.0514181603153057,-0.0292092251476987,0.0033046429302965,7.782681588532656,15.966435741850376,19.53366197123496,21.82088742706831
0.64,31.22220240879441,131.01041986054753,9.567666043289114,-2.089900973759929,-7.433357880780835,21.249693335048303,1.1966680482878052,2.5122739745557223,282.3078244179702,20.831982889866904,9.342813658893917,69.27972601909508,-0.1344886242792099,119.85626555944393,265.56561839509914,1.274,1.024708534665538,0.0,3.881366982583131,165.0000707061107,0.061224303111337,4.717728246169738e-07,-0.0498416234051675,-0.0346529755485134,0.0032228149591235,7.719971550477014,15.884219030731808,19.66762651556529,21.431122270534953
0.65,31.2222019915358,131.0104207092469,9.762803292225946,-2.023438181836388,-7.3549315401714175,37.89713739523602,1.324519523738675,2.538673582995574,436.7781447787504,21.03607036497125,9.450623547736337,69.25111416417342,-0.1867248686748957,119.8004118466464,270.7894372425648,1.274,1.0246641738210605,0.0,3.894826352216689,165.0000707061107,0.0618242435365678,4.732396854157888e-07,-0.0482891454122511,-0.0401270860354039,0.0031529608480489,7.626716488941813,15.75793026988386,19.883930728118067,38.00516067961246
0.66,31.222201566144857,131.0104215737555,9.961580614328469,-1.934165143590256,-7.188761549385332,32.16197482354991,1.4719724119150912,2.5547227865562294,383.5125151715984,21.489865143398344,9.64773924523465,69.22336053046892,-0.2470911692591173,119.73585301017404,282.5931176373358,1.274,1.0246195561629028,0.0,3.907940094740496,165.0000707061107,0.0631580714693818,4.710917287562296e-07,-0.0467557256209558,-0.0456497202913702,0.0031186356948071,7.443093101357482,15.487013798498175,20.363617474534458,32.2968409577198
0.67,31.222201128614003,131.01042246242332,10.166397049234604,-1.8624071147234345,-7.08038217708124,21.996368069677228,1.613928884838364,2.578528661554297,289.15624401033847,21.77600058316684,9.785108666739692,69.19644422690504,-0.3156339422668812,119.66253655637732,290.1629098784507,1.274,1.024572383541697,0.0,3.9210765619705983,165.0000707061107,0.0639991628538698,4.65307472970773e-07,-0.0452247144854034,-0.0512836318647973,0.003056620810232,7.320020262150525,15.325963549656672,20.66664528847076,22.205715137335446
0.68,31.222200688713063,131.0104233549965,10.37138446645726,-1.8023230813797664,-7.010957232374057,27.580903179816527,1.7501479048320243,2.6073435558757203,340.89999248584934,21.93942438617256,9.878648400359667,69.17035216694212,-0.3924958380395031,119.58030712724828,294.52866458715624,1.274,1.0245245285832842,0.0,3.934383745259173,165.0000707061107,0.0644796107499117,4.558467789073705e-07,-0.0437100686449969,-0.0569812800301333,0.0029763622061757,7.237793856086723,15.24231913774017,20.840891986808035,27.759097217337022
0.69,31.222200244996124,131.01042425447295,10.577415981520984,-1.731635015919522,-6.896628839468699,34.06830954930233,1.8994993372272329,2.6308570627971446,401.0140726853658,22.236515172998004,10.020114917850035,69.1450618082459,-0.4777489581398715,119.48908491590264,302.5533544162641,1.274,1.024479631064582,0.0,3.9474740345307504,165.0000707061107,0.0653529076339384,4.426992599841549e-07,-0.0422215603715859,-0.0627074641794472,0.0029138787613187,7.109680202292855,15.087064011439542,21.155809330733472,34.22249584942747
0.7,31.22219979198995,131.01042517232335,10.787786454026568,-1.6569154050040589,-6.760485687412854,28.488684712983343,2.059143468621136,2.6520954467502795,349.270324209851,22.6026408530496,10.186448350084868,69.12054359921498,-0.5714137197118007,119.38884551600916,312.5921829928551,1.274,1.0244351749185203,0.0,3.9604263749915343,165.0000707061107,0.0664291051991561,4.258654162875486e-07,-0.040751537226317,-0.0684936432723611,0.0028586756232151,6.959653887780507,14.900376928356566,21.54316862258669,28.68586479015073
0.71,31.222199331229973,131.01042610541217,11.001578307372768,-1.5921552307064069,-6.658717876253465,23.318337709122865,2.2128914008786524,2.6777535306024607,301.3312640634036,22.8536395067234,10.311588628813452,69.0967706207115,-0.673559279456503,119.2795124498824,319.5667411451973,1.274,1.0243880468141104,0.0,3.973446630817151,165.0000707061107,0.0671669516186782,4.05329778523781e-07,-0.039297230245443,-0.0743538545997242,0.0027872125972921,6.84558679255102,14.784823294655652,21.81004344018582,23.57566808893097
0.72,31.222198866738363,131.01042704531156,11.21637110963028,-1.531459576357316,-6.569567359694105,28.660955705193697,2.3647220520113086,2.7049457805318218,350.7922053414578,23.055464180988448,10.419121973472524,69.07371573907642,-0.7842770304000017,119.16098550884084,325.22926063476285,1.274,1.024337302174265,0.0,3.986439860550436,165.0000707061107,0.0677602794628083,3.8107746885239683e-07,-0.0378677520911848,-0.0802542672661018,0.0027094879265151,6.744945959380061,14.701592625166104,22.025778639720983,28.885273479646347
0.73,31.222198397150223,131.01042799491427,11.432992942278103,-1.4643601949612943,-6.448523423095064,36.38598171650169,2.53006914367567,2.7284045859615604,422.3203185282354,23.36270383377617,10.56458929522642,69.05134511607598,-0.9036085009970508,119.03321793876847,333.948151606472,1.274,1.024292465384646,0.0,3.999291325473928,165.0000707061107,0.068663428207935,3.531128443716726e-07,-0.0364676323548054,-0.0861783491933951,0.0026440244189751,6.612015038895163,14.56712966517101,22.35190926429636,36.575744789820355
0.74,31.222197919075576,131.0104289614887,11.653507741798313,-1.3931016242108916,-6.302710929864475,22.578359220667675,2.7094444392932178,2.749143113968115,294.4828134710563,23.758709654671943,10.742072421974404,69.02962080549491,-1.0315713726535551,118.89618859761336,345.3578571460158,1.274,1.0242470321640116,0.0,4.01205437759383,165.0000707061107,0.0698274705182966,3.214453375184381e-07,-0.0350920720383698,-0.0921487686611849,0.0025873635544995,6.454228266489515,14.393102367578308,22.770677595708445,22.905920241898254
0.75,31.22219743240857,131.01042994538116,11.877997848260463,-1.3372229125507522,-6.221308490810747,26.443682995535102,2.864983986969482,2.777360524706587,330.24688556441737,23.910703292511776,10.831815107535792,69.00850570948734,-1.1682182076490517,118.74983905713934,349.7832259954227,1.274,1.0241984712898409,0.0,4.024849269483646,165.0000707061107,0.0702743617856261,2.8607233950550697e-07,-0.0337377238092318,-0.0981833429357289,0.0025033660639405,6.362846148615223,14.352450282957726,22.93538160602747,26.743040872311852
0.76,31.222196945527127,131.01043092865677,12.101367277550583,-1.2748229211227966,-6.104821705191806,28.49865187713516,3.037339115753793,2.801290059543601,349.2703242098581,24.189068342127204,10.9670803872093,68.98796261659497,-1.3136289041275913,118.59408164995295,357.9672090358986,1.274,1.0241522053390697,0.0,4.037646451845678,165.0000707061107,0.0710926651915983,2.469924080226157e-07,-0.0324203598572747,-0.1042153325068745,0.0024335702561467,6.236013679639132,14.251402467957409,23.231938600202117,28.796628513003483
0.77,31.222196449140515,131.01043193135925,12.329296424545468,-1.2123333329250383,-5.983790423626892,26.605050959009606,3.2142526822818605,2.82457280070816,331.76876669606884,24.479073597303834,11.106584476737725,68.96794437084934,-1.4677837642003162,118.4289354522475,366.594050829732,1.274,1.0241065975906936,0.0,4.050187653581075,165.0000707061107,0.0719451875517593,2.0423439635460403e-07,-0.0311342542188054,-0.1102721111279808,0.0023649984228744,6.104928528643246,14.150626704369786,23.54084971149323,26.946954713725155
0.78,31.222195947096456,131.01043294530655,12.559453383706224,-1.1526808439171163,-5.87098149761972,21.74848950712316,3.3890458965720303,2.848527319383454,286.8734378128874,24.730783844988377,11.232326815118716,68.9484050783811,-1.630704495892492,118.25437521622396,374.1636738253574,1.274,1.0240588105546735,0.0,4.062793573047888,165.0000707061107,0.0726851649453311,1.5781478383384924e-07,-0.0298808773559373,-0.1163510162230855,0.0022930791104317,5.982678603647774,14.074449742781788,23.81018520235499,22.194515895143823
0.79,31.222195439967365,131.0104339693054,12.791497615021695,-1.0963761338620404,-5.771200101399277,31.129431318193884,3.55712197147092,2.8735089199671022,373.6203323159581,24.91963441405959,11.335406874245484,68.92929633141325,-1.8024089283995348,118.07037987920825,379.8914452157207,1.274,1.0240083170932772,0.0,4.075332786069746,165.0000707061107,0.073240399130438,1.0775377655847517e-07,-0.0286637642860287,-0.1224374529099241,0.0022164249194929,5.874072110390569,14.034263868990724,24.014628572568864,31.46349733305568
0.8,31.22219492875154,131.01043500120915,13.024821971731004,-1.0335494837381591,-5.631598895974266,31.536802164151887,3.7507347913234206,2.893725363284068,377.42502064505805,25.27280710698346,11.497820184719776,68.91056626117357,-1.982892971772468,117.87695188047988,390.7269927089879,1.274,1.0239625010683884,0.0,4.087782372187856,165.0000707061107,0.0742785917905666,5.4081219322198416e-08,-0.0274876267594173,-0.1285108316909806,0.0021555551097285,5.725354867631702,13.918878711969615,24.389621288996672,31.890618505977784
0.81,31.22219440771105,131.01043605386198,13.263016340910031,-0.973335400264874,-5.50033395696948,20.332795631052267,3.9418602978274175,2.9145015731044346,273.9374926939922,25.58562835627181,11.645699492401096,68.89215913379722,-2.172121472466155,117.67412696549428,400.4503612855585,1.274,1.0239149950770308,0.0,4.100097350893626,165.0000707061107,0.0751981979511677,-3.161888741435946e-09,-0.0263463798881271,-0.1346052406277873,0.0020915849375668,5.585529813868814,13.829406126966228,24.72296436727183,20.915428759682513
0.82,31.222193881753142,131.01043711649606,13.503051915040253,-0.9202333733137356,-5.404184884746954,26.25958173681268,4.108658955625535,2.9384474176664765,328.725004432774,25.72934567195381,11.732489595224829,68.87402040211543,-2.370109703202212,117.46188681040812,404.95240984197375,1.274,1.0238644186635044,0.0,4.112485292150891,165.0000707061107,0.0756207993712855,-6.395195326001733e-08,-0.0252440244637812,-0.1407044093813082,0.0020152818420273,5.481745246430172,13.82509829515257,24.8817164115758,26.74100193770568
0.83,31.22219335389029,131.01043818231602,13.743037057624328,-0.8623664913180449,-5.275309063817272,33.503561505853376,4.299224925439543,2.958178119453504,395.6875032246518,26.01751391783309,11.871480351163802,68.85609191985522,-2.576847809335108,117.24023999633248,414.06458468592496,1.274,1.0238188483711983,0.0,4.1247870118742,165.0000707061107,0.0764679581167524,-1.2825596075050213e-07,-0.0241893586732589,-0.1467626050946929,0.0019526688514581,5.345134146399598,13.756965628982732,25.190040569558075,33.907562376591365
0.84,31.222192816949303,131.0104392677034,13.98752106832191,-0.8027105046257365,-5.129333772910888,20.47367393661913,4.505437494276614,2.9754821390610964,275.45937482564227,26.384620681908075,12.03903078756028,68.83831020249067,-2.7922566828919235,117.00926932495696,425.82191490448025,1.274,1.0237739661568126,0.0,4.136908500816955,165.0000707061107,0.0775471338583618,-1.9601125656740413e-07,-0.0231779518969365,-0.1528076514569791,0.0018973793267543,5.191597711586685,13.657913433816525,25.57998261862315,21.173657819037846
0.85,31.22219227267187,131.01044036895783,14.235453353808596,-0.7508192037006873,-5.027443574703625,22.36320220256428,4.673790815137576,2.996614693110032,292.9609323393965,26.521235655209345,12.123201971736062,68.82061225774505,-3.0162974852174864,116.76901436255584,430.23275074298056,1.274,1.0237227741398531,0.0,4.149080160998484,165.0000707061107,0.0779488774640386,-2.6716985817669053e-07,-0.0222089024134008,-0.1588504949818941,0.0018274216339193,5.08305723424918,13.669790098378368,25.7325396379873,23.042066594717653
0.86,31.222191728197284,131.01044146959083,14.482274275718096,-0.6966620629626207,-4.905423248078857,28.12647973986724,4.858279983513112,3.014640968295748,346.2265619465616,26.75116855560921,12.24111540002908,68.80293384195379,-3.248946100644231,116.51949880457148,437.71474805318417,1.274,1.023674789281455,0.0,4.161246510250921,165.0000707061107,0.0786248949227436,-3.416966899094091e-07,-0.0212923281994016,-0.1648324272274684,0.0017671504558118,4.954526095240838,13.64278492731574,25.981567482377468,28.701738747384166
0.87,31.22219117598769,131.01044258722635,14.732844016706348,-0.6409299824849943,-4.767444076265512,26.136355634926275,5.05770091665043,3.030055198077415,327.9640783669946,27.058083481201127,12.386879790967043,68.78520552277051,-3.4900891924348807,116.2608419642549,447.8053503232002,1.274,1.0236288969245204,0.0,4.173172738122991,165.0000707061107,0.0795271795519763,-4.195139480304765e-07,-0.0204262430487306,-0.1707683281794369,0.001714678468813,4.810235522167504,13.585655423823964,26.31007894998022,26.793108422522106
0.88,31.22219061719631,131.01044371945582,14.986476706828698,-0.5873918919595918,-4.638710265034463,22.495686709650425,5.247216204033418,3.0453852434442896,294.4828134710421,27.30678373404416,12.511554700913884,68.76735755172464,-3.739633582096831,115.99314143047675,456.0639418389828,1.274,1.0235805388426191,0.0,4.185106641656045,165.0000707061107,0.0802583711798216,-5.005508022635424e-07,-0.0196101865398506,-0.1766677332460151,0.0016612648041755,4.67567192760963,13.559265743243737,26.578932572401843,23.299432819525926
0.89,31.222190054377275,131.01044486032177,15.241531076374066,-0.5353580704650694,-4.515870163459076,24.713110683863828,5.428057666212402,3.060150113213469,315.02813424808807,27.51121533171856,12.620166557034034,68.74931909546947,-3.9974979155062615,115.7164819887722,462.9067883192028,1.274,1.0235293752791452,0.0,4.197017369268807,165.0000707061107,0.0808594562872307,-5.847467351602073e-07,-0.0188476029170807,-0.1825109287919544,0.0016085769836603,4.547427610070075,13.556622416589969,26.802598302556174,25.48658801048175
0.9,31.22218948720072,131.01044601068287,15.498238967628808,-0.4828085311723375,-4.382668651649576,27.341551858831256,5.618703772950097,3.0725867186689704,339.3781423542166,27.76720573168972,12.747428188715109,68.73101718933975,-4.263568973970324,115.43098247959044,471.5498885640177,1.274,1.0234837388140003,0.0,4.208828461630208,165.0000707061107,0.0816120856193777,-6.720295591526343e-07,-0.0181412100189419,-0.1882817588903303,0.0015626570408647,4.409130727896783,13.53514657804616,27.07944888833589,28.081507781475402
0.91,31.22218891384867,131.01044717516447,15.757848196727094,-0.4304439390114916,-4.243595304702497,20.639552667273207,5.815162326059494,3.083101443552896,277.7421810230785,28.05172658965264,12.885004142808068,68.71237731063707,-4.53770678922762,115.13679030372283,481.2510136473008,1.274,1.023436404813438,0.0,4.220552310428732,165.0000707061107,0.0824485776551942,-7.623113450394585e-07,-0.0174912775648261,-0.1939835899034442,0.0015220732202096,4.265330488527055,13.505381800400253,27.38575346280026,21.663627620848825
0.92,31.222188334853456,131.01044835269943,16.020053138838843,-0.3803904155687442,-4.12038530947846,24.67310521941261,5.9871117472912525,3.0938631323262182,315.0281342480675,28.22316350146284,12.981546989884691,68.69332412531138,-4.819773349595784,114.83405060263512,487.1390107123657,1.274,1.0233859136578225,0.0,4.23224624186733,165.0000707061107,0.0829527039750638,-8.55506022824389e-07,-0.0168988514217831,-0.1996145095995563,0.0014794706675226,4.137876561570823,13.528676279152297,27.57649262125134,25.576935260588318
0.93,31.222187753464368,131.0104495352433,16.282672803996483,-0.3296428866072818,-3.981560809532055,29.448571257639863,6.177769369230908,3.1014594078717,359.16250706547066,28.488630082713208,13.112148625548503,68.6737813468924,-5.1096245155522135,114.52291491688244,496.3336326798505,1.274,1.0233407575091376,0.0,4.243896064225824,165.0000707061107,0.0837332037664419,-9.515382788022464e-07,-0.0163677779084946,-0.2051449615931691,0.0014464179937649,3.99516156628837,13.514703858471632,27.86371121720657,30.249003850612606
0.94,31.22218716504985,131.01045073470507,16.548909987921327,-0.2790305359910957,-3.834372615882109,21.16888437131156,6.379183678263174,3.1065771185130964,283.06875048378083,28.80574409494147,13.261449942666916,68.65367176728412,-5.407069052187036,114.20358516805686,507.4317817264375,1.274,1.0232914783978162,0.0,4.255406488327899,165.0000707061107,0.0846655131712465,-1.050297318431392e-06,-0.0158976172337225,-0.2105856901045222,0.0014204716035931,3.844496733068672,13.48266025997681,28.20389173151671,22.326362697946283
0.95,31.222186570718225,131.01045194860583,16.818075614179847,-0.2305671443113362,-3.706032630410777,27.60005887476116,6.546001193238749,3.1121175786610342,342.421873617488,28.97541382022828,13.357218280941265,68.63291790721516,-5.7119279739737685,113.87624993220412,513.4137977796038,1.274,1.0232418269359267,0.0,4.2669190497828176,165.0000707061107,0.0851644631305442,-1.1516799810019317e-06,-0.0154893172421423,-0.2159379840851709,0.0013921053965562,3.713187970723478,13.5171326311283,28.39367742097081,28.53591872247285
0.96,31.222185974666928,131.01045316606815,17.087253545805805,-0.1817390435043041,-3.5583982880930187,27.00269385168483,6.742373579016498,3.1137185516252868,337.09533515678265,29.282938998113085,13.50297275383857,68.61144173863939,-6.024020305947832,113.54109971223004,524.3561183846297,1.274,1.0231951201821403,0.0,4.2784026612337565,165.0000707061107,0.0860686017619361,-1.2556068700886943e-06,-0.0151463356612451,-0.2211671844190853,0.0013756919869549,3.5630303085868125,13.496366593154,28.724346357467404,28.005362342693818
0.97,31.222185370587137,131.0104544039976,17.3609452622416,-0.1338853758840592,-3.4149134547784072,16.977540289253785,6.927606250502425,3.1139579986707475,245.0218871929888,29.549762673529507,13.633911250252666,68.58916564488935,-6.34311026643476,113.1983836734863,533.9413966547525,1.274,1.0231476260761452,0.0,4.289734294661017,165.0000707061107,0.0868531198296847,-1.3619444113873972e-06,-0.0148682849876998,-0.2262897515573471,0.001362706809799,3.4175339013542687,13.49658058992336,29.0136668528339,18.59906817700073
0.98,31.22218476281345,131.01045565112452,17.636131668894187,-0.0873443845066534,-3.287436633686386,25.06634125777523,7.074595775950694,3.114275212347254,319.593746642963,29.669752981444454,13.711491067747186,68.56601182108301,-6.668982206706895,112.84832913831129,538.2722387753072,1.274,1.0230935628253934,0.0,4.301104697029045,165.0000707061107,0.0872060679751247,-1.4705899708757291e-06,-0.0146572729398288,-0.2312898375482668,0.0013487864047604,3.288595488712561,13.561249453230236,29.153646927872654,26.231089941948362
0.99,31.22218415352333,131.01045690145884,17.911230071898512,-0.0409058792650327,-3.139097802622005,27.444202092344256,7.259792337930125,3.1099709329294853,341.66094855170127,29.96121725499429,13.85129165355844,68.54190299220724,-7.001393138203452,112.49119258557556,548.8852417139028,1.274,1.0230490803133316,0.0,4.3123872452804095,165.0000707061107,0.0880630202895472,-1.5814501879691622e-06,-0.0145152512711994,-0.2361362059032531,0.0013488032745802,3.1393640487878613,13.55692628798525,29.46837557044391,28.558023959632923
1.0,31.22218353635037,131.01045817298075,18.19097175494729,0.004740532230841,-2.990606792935417,24.44403253253068,7.441239202126852,3.103515595068519,314.2672081822764,30.24826089767167,13.989444977515644,68.51676402637726,-7.340050616203742,112.12728344084115,559.437788609632,1.274,1.022999484445133,0.0,4.323519761803346,165.0000707061107,0.0889069892751926,-1.6943649258782029e-06,-0.0144424543257866,-0.2408483396467493,0.0013548597608197,2.9906105467253976,13.55779225099258,29.778710757227703,25.739358507226267
1.01,31.22218291518021,131.01045945520764,18.472573005901584,0.0494496371873917,-2.8472321729663075,25.581867812918777,7.6050654639365955,3.0956134517419924,324.92031610370094,30.478802981955933,14.107032801337654,68.49051963254074,-7.684686522278872,111.75688478490952,567.9826183091118,1.274,1.0229507481225095,0.0,4.334695162639813,165.0000707061107,0.0895848931348202,-1.8092107531864569e-06,-0.0144404428858491,-0.2454166442421764,0.0013649589967852,2.8476611982885816,13.584837681612443,30.03174484915965,26.86729990436361
1.02,31.222182290425646,131.01046074705187,18.7557453680756,0.0933021051210788,-2.699892964064585,21.170859814266755,7.773202076544746,3.084877100017233,284.59063161543185,30.74170046948038,14.23633625770123,68.46309576910595,-8.035014720532583,111.3802988718492,577.8075258932265,1.274,1.0229039803623294,0.0,4.345800729463041,165.0000707061107,0.0903579039022354,-1.9258695081202926e-06,-0.0145101945642801,-0.249824496386404,0.001383344974698,2.7015034436317342,13.60128784608115,30.31775920759504,22.762786352297585
1.03,31.222181660510824,131.01046205339415,19.04175001365223,0.1366351605083905,-2.5581705766868605,17.09058616067005,7.918257313896077,3.072792819281207,247.3046933904342,30.933161399449265,14.339622085167262,68.43442085275265,-8.390721243751614,110.99785769700156,585.0110997741216,1.274,1.022853416101322,0.0,4.356826450065534,165.0000707061107,0.090920951105018,-2.0441976058945544e-06,-0.0146528228844222,-0.2540679769664883,0.0014056042196859,2.5618144857249296,13.649523004210886,30.531458401029948,19.084784251192925
1.04,31.22218102795199,131.0104633669797,19.32868921397674,0.1794695906817205,-2.4186666089410447,27.754682682576863,8.047609007381883,3.058877512964449,345.4656368807608,31.08583237512985,14.42875037600058,68.40442497950129,-8.75148278202855,110.60990313608592,590.7837267014531,1.274,1.0228049544826707,0.0,4.367822358219834,165.0000707061107,0.091369988342081,-2.16407136667156e-06,-0.0148689334133104,-0.2581296412765101,0.0014333352884334,2.42531201386501,13.715673185977156,30.706021939532945,29.059304072629573
1.05,31.222180392373428,131.01046468905753,19.61688280287132,0.2204168952051368,-2.2640555253791765,16.29503926280762,8.220051479229493,3.0395778120261343,240.4562587980608,31.41903518586572,14.583510758188044,68.37304165961399,-9.116947673525992,110.21680742265636,603.4998834085474,1.274,1.022755494436122,0.0,4.378716310879152,165.0000707061107,0.092349665258512,-2.285353466630503e-06,-0.0151587564676446,-0.2619977238243058,0.0014768958672754,2.274753995496821,13.710211456070777,31.063490720086552,18.50233996479868
1.06,31.22217974964,131.01046603300145,19.909754092824965,0.262187880655466,-2.125867092665509,23.650103795760444,8.326145399357141,3.0213007368698377,308.1796836557233,31.52755716521085,14.656469229364664,68.34020793997804,-9.486744574361197,109.8189638663299,607.6589916606608,1.274,1.0227013895379469,0.0,4.389522821956995,165.0000707061107,0.0926689491037199,-2.4078472219628216e-06,-0.015524798722577,-0.2656856223119774,0.001517740553774,2.141966814045672,13.798307134439812,31.193703356050857,25.254313788026174
1.07,31.22217910767089,131.01046737392988,20.20090374078393,0.3016279969329567,-1.975286577018196,28.01923160151907,8.471844175581529,2.997654571712665,348.5093681440431,31.803884062714143,14.790476127732497,68.30586094542971,-9.860518076145349,109.41674853420736,618.3401737700291,1.274,1.0226540159946436,0.0,4.400370372213327,165.0000707061107,0.0934814638718329,-2.531462831778284e-06,-0.0159651825538226,-0.2691606127650613,0.0015744292310849,1.998174282345015,13.819670149144583,31.49366823209916,29.425081413756693
1.08,31.22217845867732,131.01046873719287,20.496810902054232,0.3398864600615316,-1.8228622918824668,18.458055706210125,8.61978838748195,2.970671432963227,261.0015785751465,32.109320740903456,14.935059792297148,68.26994500758764,-10.237864484922053,109.01058943043952,630.2560656125764,1.274,1.0226061614050743,0.0,4.411022834823156,165.0000707061107,0.0943795519872406,-2.655994926602572e-06,-0.0164823647044786,-0.2724333112791307,0.0016409954944739,1.8542682549004852,13.831444485338254,31.82303450343038,20.58702166563072
1.09,31.22217780574213,131.01047011336365,20.795039203532376,0.378878761273427,-1.6802437239924854,16.859786211513097,8.715023959177854,2.943894168577316,246.54375332456465,32.249902193189705,15.019557645140672,68.23240528491499,-10.618392903385452,108.60090076802604,635.7687263852544,1.274,1.0225512795791307,0.0,4.421719644797351,165.0000707061107,0.0947930847889223,-2.7812771136625384e-06,-0.0170778077473776,-0.2754974692385634,0.0017076734757379,1.7224189195588286,13.911251318523687,31.986007954923053,19.20600287885938
1.1,31.2221771519504,131.01047149199204,21.0929407268632,0.4167866221060333,-1.5356896388390169,35.00701297969239,8.809467401226211,2.914036258432652,413.1890617384087,32.4146205551972,15.112810577442705,68.19319011285978,-11.001701832506976,108.18810819703684,642.2613904092817,1.274,1.0224981043155532,0.0,4.432371387456626,165.0000707061107,0.0952775665900721,-2.907198024464496e-06,-0.0177486319947333,-0.2783311746758604,0.0017837652997533,1.591229762007592,13.982496051850962,32.1734238722109,36.21587056759894
1.11,31.222176494374143,131.010472883326,21.39310048100592,0.4499849853523499,-1.3775273803675585,25.270296556142487,8.976568091843232,2.8756885976699254,324.1593910379213,32.85976295524594,15.308330303777122,68.15225545274905,-11.387358935573976,107.77267066513996,660.0035363587933,1.274,1.0224548851875197,0.0,4.44288574177294,165.0000707061107,0.0965863182643022,-3.033583653585087e-06,-0.0184952277112523,-0.2809304994026088,0.0018842714700019,1.4491477337335488,13.94249843573999,32.64340230579408,26.97102607713792
1.12,31.22217582870694,131.01047430365932,21.69957140334664,0.485234060758302,-1.230987019012544,8.729912904309185,9.068845572849208,2.8389773308970088,172.7328179403806,33.06853333778783,15.417619231715715,68.1095614320144,-11.774926292843436,107.35505327802724,668.3970015137686,1.274,1.0223979224661404,0.0,4.453356381302662,165.0000707061107,0.0972003034716166,-3.1601726181503986e-06,-0.0193245289432581,-0.2833071439082569,0.0019812096254078,1.3231571734016108,13.998830458536052,32.875185224582985,12.904074225854322
1.13,31.22217516338537,131.01047572274385,22.004764649657155,0.5224931520234048,-1.09213115939407,29.964996463530667,9.095064719478048,2.803943800916792,367.5328077894322,33.07821861873194,15.45418269880464,68.06506689696816,-12.163980741904764,106.93570538873476,668.7689813884762,1.274,1.0223460397860296,0.0,4.463922526588717,165.0000707061107,0.0972291068414744,-3.286875297401002e-06,-0.0202310846659045,-0.2854364713662856,0.0020746991520221,1.2106677905571326,14.135367306302689,32.90667744556606,31.440154518538858
1.14,31.22217449777029,131.01047714235463,22.30915081810607,0.5524572982202852,-0.9389480840635578,15.986437389004852,9.228792994471071,2.75704392660172,239.6953177322812,33.48935171710337,15.63739142584113,68.01874080386592,-12.554067251030444,106.5151109370866,685.4766713432197,1.274,1.0223022138470996,0.0,4.474323340668767,165.0000707061107,0.0984379170475988,-3.413590005725011e-06,-0.0212085803441917,-0.2873025397162422,0.0022019096295471,1.0894059152427171,14.112056301441836,33.341868698448124,18.663817716120732
1.15,31.22217382292829,131.0104785976673,22.621417341683937,0.5866731814173792,-0.7964920113513431,15.718072446689185,9.262075051377003,2.714454500422254,237.4125115347709,33.58502067800446,15.705284409070918,67.97056208236421,-12.944712617516,106.09377378353284,689.3779875618192,1.274,1.0222426194541194,0.0,4.48457979554242,165.0000707061107,0.0987194723045085,-3.53999291734964e-06,-0.0222686264335801,-0.288918787217902,0.0023185003999596,0.9892233187308408,14.215407486524812,33.45991203504317,18.444839357705796
1.16,31.22217315069705,131.0104800428387,22.93021573242517,0.618566227571563,-0.6525386343720676,43.28278332369207,9.305206756247031,2.667631249752987,490.043774385954,33.74678979289028,15.797346542007062,67.92050596747366,-13.3354612745934,105.67217908878028,696.0143968211945,1.274,1.02219674531104,0.0,4.494982304662448,165.0000707061107,0.0991953204778021,-3.666025992387711e-06,-0.0234014122065812,-0.2902652270003175,0.0024481035105341,0.8991186261073223,14.292383881471263,33.64429147973821,44.35202883191298
