Time,Latitude,Longitude,Altitude,Angle of Attack,Angle of Sideslip,X-Acceleration,Y-Acceleration,Z-Acceleration,Thrust,True Velocity,Ground Velocity,Pitch,Roll,Yaw,Dynamic Pressure,cp,parachute_deploy_gain,Wind Speed,Mach,omega_x,omega_y,omega_z,Cmq,Angle of Attack(total),Angle of Attack(gust),True Velocity(gust),Acceleration
0.0,31.222186000000004,131.010384,3.000000003643237,0.0,0.0,0.0,0.0,0.0,2.2828121974499247,0.0,0.0,69.99999999623421,0.0,113.69999999388332,0.0,15.288,0,0.0,0.0,0.0,0.0,0.0,-0.0,0.0,90.0,0.0,0.0
0.01,31.22218600000153,131.01038399999584,2.99999882256592,0.0,0.0,0.0,0.0,0.0,34.24218696174923,7.502283530665459e-11,7.190531319924593e-11,69.99999999623329,-4.83564628150269e-13,113.69999999388072,3.446445726795683e-21,15.288,0,0.0,2.204725565824978e-13,-3.659182332138578e-19,7.589415207398531e-19,4.811147140404426e-19,-1.5108918610345807e-31,0.0,89.9999999995224,7.502283530665459e-11,0.0
0.02,31.22218600000288,131.01038399999217,2.999997775701936,0.0,0.0,0.0,0.0,0.0,25.871876237766408,1.5320717031631675e-10,1.4674636035870463e-10,69.99999999623222,-9.67129256300373e-13,113.69999999387804,1.4372842949972735e-20,15.288,0,0.0,4.5023593667086093e-13,-7.284483346386986e-19,1.5178830414797062e-18,9.757819552369542e-19,-6.170906918166791e-31,0.0,89.99999999902465,1.5320717031631675e-10,0.0
0.03,31.22218599928065,131.01038400193067,3.000201659671132,18.81500467334555,-0.00012974450181,11.96616230539064,-1.8916256735984712e-05,3.349833086198469,180.34219359854663,0.0882870268161719,0.0553390044312322,69.99999999799445,-4.212591857125379e-12,113.69999999488518,0.0047728553458352,15.288,0,0.0,0.0002594525584132,3.2187251995663407e-17,-7.20264389268894e-10,1.2365134327422308e-11,1.6874092354518158e-13,18.815004673776716,89.46786891739345,0.0882666465974854,12.426199017587786
0.04,31.22218599548236,131.0103840121632,3.001799604587872,9.46752327608497,-4.6177622759613696e-05,55.21900012092241,3.931876292165237e-06,3.349616504302861,548.6359724538078,0.3767519978512604,0.1853356633749705,70.00000000507204,-2.4624598767003407e-11,113.70000000019972,0.086915163246288,15.288,0,0.0,0.0011071759353184,1.6174128009138757e-15,-1.3693172015529268e-08,2.7753303060112748e-11,1.3689612277852356e-11,9.467523276196548,87.63554493451223,0.3767447442872393,55.32050167054111
0.05,31.222185984749512,131.01038404118162,3.00777936418888,5.376730308971262,-2.257790939128127e-06,80.28807156553681,5.266841443842784e-05,3.348887800834877,761.6984298824644,1.018787885905993,0.4366201147110198,70.00000000894464,-1.1355399380652658e-10,113.70000001523856,0.635552918586145,15.288,0,0.0,0.0029939522895272,1.6418815498809788e-14,-9.32122351075408e-08,4.303264669380585e-11,2.5199270302492604e-10,5.3767303089717045,83.57022052969386,1.0187875312530217,80.35788377762394
0.06,31.22218596447235,131.01038409608267,3.0201664202003013,4.296730121134882,2.4863835723705905e-05,60.21296515808257,0.0001057204249726,3.347700952379021,590.4875390737208,1.721098934225416,0.7081674028809783,69.99999995523842,-3.0560354507026086e-10,113.70000004366592,1.8138247671743823,15.288,0,0.0,0.0050578622752421,8.328976953118383e-14,-3.2824985336199985e-07,5.923438275930214e-11,1.4991363363716091e-09,4.296730121206683,79.20467073327266,1.7211028398275985,60.305955550063224
0.07,31.22218593493329,131.01038417609837,3.038741944736831,3.8204913578752526,4.8016684030909405e-05,91.4060317508128,0.0001597686613101,3.346072557365335,855.2937749779139,2.4375792548422868,0.9844712334613328,69.99999973536046,-5.939103491363046e-10,113.7000000850886,3.6383156301599167,15.288,0,0.0,0.007163413150771,2.709313825263564e-13,-7.906546256197275e-07,7.920022733617308e-11,5.114174483651565e-09,3.820491358176508,74.87999294483174,2.437586797285377,91.46725557277466
0.08,31.222185894468456,131.01038428575305,3.0647976109320942,3.588632851766762,7.220043782492885e-05,19.18449428359557,0.0002119618497595,3.3440615022685813,241.2171988638848,3.1292508166901074,1.2522236515868983,69.99999919480445,-9.914748373602156e-10,113.7000001418522,5.996012698481753,15.288,0,0.0,0.0091960591623389,6.80386533246681e-13,-1.5973238302190878e-06,1.0839624626357699e-10,1.3263625118823921e-08,3.58863285249208,70.86684630658345,3.1292621579083604,19.473766155861934
0.09,31.22218584634549,131.01038441616095,3.0957981580345013,3.551302481506045,9.685468678862004e-05,57.102946699906326,0.0002554087225869,3.341892818148368,563.0937377043176,3.701810007254615,1.479132491047967,69.99999812344194,-1.4359264356978275e-09,113.7000002093888,8.390904013834115,15.288,0,0.0,0.010878666406854,1.440096519545733e-12,-2.748643691533636e-06,1.5214952332699618e-10,2.6999776649034504e-08,3.5513024828250237,67.68737872952666,3.701825221153239,57.20065357568538
0.1,31.222185790329306,131.01038456796124,3.1319266121977414,3.608446747536112,0.0001234669721807,54.26147302645416,0.0002914860332524,3.3396271157106168,538.7437595981919,4.174070299823608,1.6716491241860567,69.9999963052332,-1.902380107712657e-09,113.70000028805804,10.668380938744466,15.288,0,0.0,0.0122665227999911,2.687800116751415e-12,-4.315796035622946e-06,2.1749089204950437e-10,4.7802076800548326e-08,3.608446749645647,65.17160335282355,4.174089693970246,54.36414778470795
0.11,31.222185727066616,131.0103847393952,3.172681775073216,3.633547373470009,0.0001485939126744,42.987553988990406,0.0003293995000288,3.337005588796181,442.8656393052949,4.672024955140527,1.8729475711242067,69.99999349387662,-2.3433348587116544e-09,113.70000037699285,13.365573690709628,15.288,0,0.0,0.0137298902182575,4.5789425819531184e-12,-6.340230783164189e-06,3.1157625832417107e-10,7.860218435507205e-08,3.6335473765043056,62.62546922225161,4.672048296217748,43.116880735560244
0.12,31.22218565692512,131.0103849294629,3.2177790417108385,3.650108937861461,0.0001727442530266,46.86777100765684,0.000367618259785,3.334068179146888,475.58594813540446,5.17479364099247,2.0758708919414386,69.99998941286465,-2.702771525550512e-09,113.70000047573096,16.396890189902592,15.288,0,0.0,0.0152074069417046,7.288473386564583e-12,-8.86736416607888e-06,4.42271554299792e-10,1.217615295152289e-07,3.6501089419435786,60.16906436414164,5.174820775596283,46.986210423745625
0.13,31.222185580265183,131.0103851371844,3.2669395832841857,3.7280113734654137,0.0001995014041665,51.64515456841877,0.0003986198234033,3.3311573548369657,515.9156326236895,5.579364582999854,2.2451120211463422,69.99998375846928,-2.9114380666036422e-09,113.70000058383452,19.060875702782603,15.288,0,0.0,0.0163963474924215,1.100846422415094e-11,-1.1941028436408576e-05,6.179653149059831e-10,1.7678562106638216e-07,3.728011378795934,58.279338776943774,5.579395920607139,51.75247433579817
0.14,31.22218549718016,131.01038536230575,3.320091807147376,3.768719651034081,0.0002242721760019,48.1660778383537,0.0004326225136175,3.32784677779744,486.2390860568404,6.025734265159953,2.428648685938864,69.99997621008868,-2.890941335368725e-09,113.70000070125378,22.232643351545065,15.288,0,0.0,0.0177081261985351,1.5941871344608664e-11,-1.560901486259027e-05,8.477542742712431e-10,2.495765160917323e-07,3.7687196576976176,56.27980129251342,6.025769493750979,48.280903250602165
0.15,31.22218540777004,131.01038560455507,3.377159065217065,3.821894709649632,0.000249725644238,46.56959330999435,0.0004643042952466,3.324387732286376,472.54218587214,6.441023336496372,2.6014999612196745,69.99996641132823,-2.546763407193136e-09,113.70000082794672,25.402620271850456,15.288,0,0.0,0.0189285691155931,2.2314099732464315e-11,-1.992367942778425e-05,1.1417519574710292e-09,3.4051816697623295e-07,3.821894717796148,54.501255563441134,6.441062563308839,46.68809885900716
0.16,31.22218531193176,131.01038586421257,3.4382223512025254,3.8463320955387794,0.0002733212404609,36.974247749122085,0.0004987816203583,3.3205066466509234,391.1218908297564,6.895451966878468,2.7877331692857847,69.99995397923414,-1.77088415515292e-09,113.70000096417354,29.113317717489338,15.288,0,0.0,0.0202640360420561,3.0367358387834494e-11,-2.4945905791363795e-05,1.5114297685186711e-09,4.5643121540033697e-07,3.846332105235269,52.641145594326446,6.895494900078523,37.12304892183151
0.17,31.222185210004127,131.010386140357,3.503019838429153,3.8860314262554336,0.000297865039677,46.520531453299206,0.0005306403365217,3.31650761597812,471.78125980632376,7.314788342774694,2.9619016331667103,69.99993849340957,-4.3039914767238207e-10,113.70000110959404,32.761746921137856,15.288,0,0.0,0.0214963781445172,4.0366633128431416e-11,-3.0713078585132897e-05,1.96747427715988e-09,5.961228045584824e-07,3.886031437653654,51.00464968745696,7.314835131305714,46.63860064094784
0.18,31.22218510147516,131.01038643438045,3.571950002194137,3.9107265153396016,0.0003214293682635,38.895647526122765,0.0005639254295027,3.312149448254175,407.10156721191447,7.754626295791602,3.1430587898572058,69.9999195084231,1.6149322372810674e-09,113.70000126508234,36.81988229018681,15.288,0,0.0,0.0227889722876034,5.2593391349219385e-11,-3.731786027786564e-05,2.525509173087448e-09,7.6786585232224e-07,3.9107265285284982,49.36615848311875,7.754676785798701,39.036415444581515
0.19,31.222184986476247,131.0103867459258,3.644912152926752,3.920599115663931,0.0003437679584038,43.86258669386953,0.0005989384366483,3.307389681300437,448.9531328318269,8.219206165926856,3.332657190859447,69.99989653019398,4.538529095696477e-09,113.70000143063515,41.36350714675367,15.288,0,0.0,0.02415428010977,6.735860419174937e-11,-4.481243905342629e-05,3.199401151670645e-09,9.773118416308382e-07,3.92059913071168,47.71893898797248,8.21926016487149,43.987104227715655
0.2,31.222184864792144,131.01038707557822,3.722074668489528,3.943376465171875,0.000367328732016,40.28070981710589,0.0006315894240138,3.30251450988504,418.51563019916136,8.65238089736321,3.511445117640573,69.99986902534273,8.534090245934178e-09,113.7000016067622,45.83799876721736,15.288,0,0.0,0.025427299120469,8.499785987217288e-11,-5.328041996372527e-05,4.006766070954748e-09,1.2232205148646746e-06,3.9433764822533854,46.2587826635041,8.652438597225508,40.41586552155969
0.21,31.22218473678744,131.01038742234647,3.803156063113743,3.9664546506877016,0.000390962054969,38.67679184347145,0.0006636984664108,3.297405915846789,404.8187610144644,9.079179692250786,3.688002035198235,69.99983642883521,1.3827831253856693e-08,113.70000179318536,50.47126980736161,15.288,0,0.0,0.0266815841422463,1.0586558589671407e-10,-6.275155280099118e-05,4.961340042512481e-09,1.5117124669161171e-06,3.9664546699249135,44.88773728276958,9.079241104426773,38.817098210937615
0.22,31.2221846022986,131.01038778667507,3.8882846911135607,3.956175711337521,0.0004112685792646,46.713636108302936,0.0007011135033803,3.291572407481395,472.5421858721365,9.580256326712124,3.889976788904857,69.99979815126248,2.0662823443484168e-08,113.70000199039316,56.195522894218605,15.288,0,0.0,0.0281541581291438,1.3033127211465288e-10,-7.330053770532661e-05,6.0817207473359025e-09,1.8632831045819008e-06,3.956175732680424,43.35679625546934,9.580320928629488,46.8294591882524
0.23,31.222184460898035,131.01038816972698,3.977794004014759,3.9879066397329104,0.0004360962274406,38.89105719050748,0.0007308686121188,3.286096544282012,406.3406421461021,9.977039034039262,4.056142701351626,69.99975353557706,2.9316661139418326e-08,113.70000219928508,60.9462612310605,15.288,0,0.0,0.0293202403623685,1.5880617816859538e-10,-8.505067486192354e-05,7.393319440773217e-09,2.2514912291167663e-06,3.987906663538912,42.20670487756048,9.97710753587448,39.0296395118868
0.24,31.222184313516166,131.01038856897196,4.070963590490852,4.003523997322975,0.000459165577055,40.0792299321398,0.0007630441688766,3.280134925833028,416.2328240017114,10.408422364424831,4.234121060914368,69.99970190737699,4.010976417051318e-08,113.70000241888,66.32994780718496,15.288,0,0.0,0.030588009649109,1.91711512587616e-10,-9.795845222523724e-05,8.904557280909524e-09,2.7052895870113487e-06,4.003524023611085,41.011349410369874,10.408494489985014,40.21323112692186
0.25,31.22218416001652,131.01038898478134,4.167901030441617,4.0261356185860135,0.0004830526730531,41.17760020658354,0.0007934613160587,3.2740610008587527,425.36408079150686,10.816813039390448,4.4041629376391525,69.99964258149416,5.3372865854010094e-08,113.70000264972064,71.63651430352668,15.288,0,0.0,0.0317882126436337,2.2947426169209347e-10,-0.0001121037688082,1.0637152702866709e-08,3.217380562698304e-06,4.026135647516394,39.93186687113378,10.816888917126896,41.30755663120434
0.26,31.222184000702686,131.0103894163294,4.26837241014618,4.053359329950934,0.000507503069958,44.80261175215926,0.0008224724146494,3.2678597736729302,455.8015834241788,11.207047269494833,4.567925492611352,69.99957484039399,6.947299261165984e-08,113.70000289176392,76.89781807056055,15.288,0,0.0,0.0329350617559806,2.7254099134167665e-10,-0.0001275114371842,1.260720913253598e-08,3.7915697709142366e-06,4.053359361668992,38.945390435244384,11.207126987890645,44.921630958721536
0.27,31.22218383516388,131.01038986473338,4.372698316214008,4.0614460923241,0.0005296455772492,41.029837477288126,0.0008548809954683,3.2610328932384265,423.84219965987256,11.645685385842508,4.748226940060522,69.99949794024376,8.879821051920497e-08,113.70000314600205,83.0342688744587,15.288,0,0.0,0.0342241635563461,3.2137296827284217e-10,-0.0001442952656441,1.4842505534226832e-08,4.458527942364847e-06,4.061446126801262,37.8838346421185,11.645768582375233,41.15922617924542
0.28,31.222183663504484,131.01039032970942,4.48079961904222,4.081133040992532,0.0005533279247169,47.27661484082626,0.0008845140695959,3.254218495915602,476.3468732012221,12.047344998676092,4.915789434712848,69.99941106884992,1.1178948978424788e-07,113.70000341275257,88.85982357848233,15.288,0,0.0,0.0354045979054623,3.764736350660473e-10,-0.0001625146963723,1.7365685655384934e-08,5.194620655212288e-06,4.081133078439725,36.956255322213885,12.047431915223257,47.38848224631549
0.29,31.22218348566054,131.0103908114315,4.592727908358551,4.1001100265020245,0.0005770279952742,37.989969791857405,0.0009138463939581,3.247164755122801,397.97031042211177,12.446314684600782,5.082367374004485,69.99931338876085,1.3891902435864665e-07,113.70000369260468,94.8417675268915,15.288,0,0.0,0.0365771315767517,4.3836067907166327e-10,-0.0001822432988888,2.0202163500922312e-08,6.018074062137429e-06,4.100110067036654,36.07377590258778,12.446405323946324,38.12849176886316
0.3,31.222183301933686,131.01039130907952,4.708251093558373,4.112858061667493,0.0005998635114143,35.655053282557844,0.000944131403186,3.2397207148238625,378.1859457108711,12.860033399289696,5.253940723820665,69.99920403105713,1.707002607527005e-07,113.7000039856728,101.2505662360602,15.288,0,0.0,0.03779301412572,5.075709863465428e-10,-0.0002035013069687,2.3370674033523645e-08,6.94335970778e-06,4.112858105337573,35.19685285507256,12.860127625629724,35.80193592228613
0.31,31.222183112488807,131.0103918222051,4.827243246502713,4.136140889545823,0.0006242383343011,37.56633644061071,0.0009716215464757,3.232339252743767,394.1656220930212,13.2364445751808,5.4126574282679245,69.99908210036875,2.0768081583188525e-07,113.7000042923011,107.26326115439352,15.288,0,0.0,0.0388992619788015,5.846561731689753e-10,-0.0002263323252403,2.6893437641668458e-08,7.948283231812338e-06,4.1361409365698805,34.43286455705216,13.236542630309057,37.70514091683033
0.32,31.22218291741533,131.01039235056504,4.949637017503345,4.1622282001352975,0.0006491019906456,40.83513712643371,0.0009979686925508,3.224840963348891,421.55939346242695,13.59846554462374,5.566374262777002,69.99894668612772,2.504388718903276e-07,113.70000461297312,113.2095365840355,15.288,0,0.0,0.0399632243410653,6.701756367872645e-10,-0.00025078340164,3.0793566854276295e-08,9.047716714467492e-06,4.16222825066026,33.72644865222576,13.598567505326,40.96227562489027
0.33,31.222182716732533,131.01039289410716,5.075419569102976,4.187801887681037,0.0006739743721461,40.48743503284469,0.0010239291638211,3.217136801802925,418.5156301991682,13.956637761217308,5.718704299733134,69.99879684673242,2.995902922462564e-07,113.70000494831164,119.25032483364384,15.288,0,0.0,0.0410158804634189,7.647061680070125e-10,-0.0002769136723495,3.509664608790402e-08,1.0253455741189656e-05,4.187801941818244,33.053267359159875,13.956743628864118,40.61505097607
0.34,31.222182510255863,131.01039345333336,5.204736257784645,4.19642921746386,0.0006961879027693,31.814592723444047,0.0010535137542081,3.208669900766693,345.46563688075645,14.367047160772364,5.88887983533068,69.99863160305904,3.557915789971256e-07,113.70000529927128,126.36523219087664,15.288,0,0.0,0.042222056531773,8.688448410811866e-10,-0.0003048202762282,3.9835373705550826e-08,1.1618525957862828e-05,4.196429275109305,32.30947868183619,14.367156517712404,31.97598901989736
0.35,31.222182298183583,131.0103940277045,5.337435501771672,4.210915783240843,0.0007193441544952,34.813487415034444,0.0010813034848195,3.200164272309822,370.5765700527033,14.754132934586384,6.050986755458457,69.99844991734221,4.1975736284587617e-07,113.70000566632532,133.26448209504355,15.288,0,0.0,0.0433596939127697,9.832256819293898e-10,-0.0003345386312107,4.503361101379695e-08,1.309465610343774e-05,4.210915844572415,31.63649055965014,14.75424592890194,34.96026256388454
0.36,31.222182080444604,131.0103946174141,5.4735747500461605,4.22903876037745,0.0007431682866607,39.2632255716727,0.0011077666085529,3.1915717453569297,407.8625232777193,15.124417129017054,6.2072589919251575,69.99825073022951,4.922382611919288e-07,113.70000605036684,140.03566173682628,15.288,0,0.0,0.0444479595865755,1.1084921261805627e-09,-0.0003661511460057,5.0723697896912267e-08,1.4691545926915382e-05,4.229038825557203,31.017264542603208,15.124533865618538,39.39272792946638
0.37,31.22218185710795,131.01039522227452,5.613102797925907,4.249164960780052,0.0007674149135003,37.28328237034959,0.001133274451316,3.1828514669894137,391.1218908297666,15.483077353331511,6.359470679857624,69.99803294268581,5.740349991123437e-07,113.70000645214331,146.75405277514704,15.288,0,0.0,0.0455020695186381,1.245311285088233e-09,-0.0003997125883071,5.6934243389647934e-08,1.641828325195534e-05,4.2491650299519,30.439178816713017,15.483197898584232,37.418894813348615
0.38,31.2221816281124,131.0103958424523,5.756069531572451,4.260095806433531,0.0007900626414612,38.9278000801764,0.0011607546399008,3.1735466295306622,404.8187610144602,15.87126705947922,6.521735074464384,69.99779542676283,6.659911329739736e-07,113.70000687263192,154.20298254405043,15.288,0,0.0,0.0466429667223463,1.3943646956867835e-09,-0.0004353006984059,6.369875435270817e-08,1.8328108041903096e-05,4.260095879559656,29.83470194713067,15.87139116222873,39.05694584372078
0.39,31.22218139339905,131.0103964781077,5.9025231349944285,4.274091258047817,0.0008133283308351,33.320076729592266,0.0011870382950339,3.164143363712209,357.64062493382744,16.24457853509073,6.678818328235205,69.9975369905506,7.690136753559805e-07,113.70000731287368,161.54010621938565,15.288,0,0.0,0.0477401448128051,1.5563705124515804e-09,-0.0004730068442167,7.105463478762673e-08,2.0383860516746246e-05,4.274091335289374,29.274934656826048,16.244706292406182,33.46997636540994
0.4,31.22218115316572,131.01039712870306,6.0523126585892895,4.286421841403391,0.0008363022448449,31.88018820767003,0.0012133780841982,3.1544430614236454,345.465636880754,16.62063299903514,6.836764518435374,69.99725641601981,8.840594270905819e-07,113.70000777359816,169.10340080049767,15.288,0,0.0,0.0488453895716005,1.7320643186450851e-09,-0.0005128553637434,7.9027539265021e-08,2.2612406375611563e-05,4.286421922834417,28.730746964325096,16.620764365084565,32.03586915718869
0.41,31.22218090752676,131.01039779392735,6.205351877049411,4.30025870409831,0.0008595777771371,35.882550741685804,0.0012389121673015,3.1445895889870297,378.94687077668647,16.987310563534386,6.99141560549392,69.9969524610574,1.0121301778427253e-06,113.70000825570062,176.64448930727934,15.288,0,0.0,0.0499230826371405,1.922193031274436e-09,-0.0005548883906878,8.764667734700782e-08,2.5005077415911235e-05,4.300258789847355,28.21875643368965,16.987445585695873,36.020076248499606
0.42,31.222180656535848,131.0103984736348,6.36160173428776,4.322008670726048,0.0008844838439129,40.34064925656127,0.001261804338223,3.134918999355981,416.2328240017114,17.318628721060172,7.133856886815013,69.99662385300175,1.154276942054023e-06,113.70000876021427,183.59942989625057,15.288,0,0.0,0.0508968652507098,2.1275184665783874e-09,-0.0005991661829955,9.694534598491077e-08,2.752657757470936e-05,4.322008761057615,27.772396468009568,17.318767655457478,40.462275036947325
0.43,31.222180400205527,131.0103991677914,6.521055075967404,4.339436441324956,0.0009085827200945,35.541853595187746,0.0012854696362701,3.124839917627212,375.9031395134336,17.662848429084132,7.280642039343927,69.99626930133451,1.3115939750280808e-06,113.70000928827632,190.96736675963504,15.288,0,0.0,0.0519085689713619,2.3488101247838237e-09,-0.0006457514522491,1.0695800287133593e-07,3.0255957891170616e-05,4.339436536261635,27.322335771349252,17.662991148924057,35.67895714766603
0.44,31.22218013836212,131.0103998768696,6.683849332059896,4.342209064313268,0.0009296474314902,32.82948243168077,0.0013129688908547,3.113754688841357,353.0750125389216,18.063580761318697,7.446730341918701,69.99588746395321,1.4852372182848018e-06,113.7000098413532,199.7278270846888,15.288,0,0.0,0.0530863610987301,2.586862292117705e-09,-0.0006947575786514,1.1773083546077225e-07,3.329010177793299e-05,4.342209163639375,26.81344244367223,18.06372678999575,32.9768158972058
0.45,31.22217987077456,131.0104006014978,6.850166573233225,4.3420317510315165,0.0009500780330031,38.11022602597878,0.001341042003417,3.1022288449712887,397.2093853562869,18.47486275310604,7.616350301328129,69.99547690348253,1.6764536248320808e-06,113.70001042108892,208.92306716049887,15.288,0,0.0,0.0542951637545535,2.842521175226318e-09,-0.0007463379956615,1.2932090054593452e-07,3.657529369088674e-05,4.342031854775571,26.30944884471334,18.47501199101448,38.23628058998621
0.46,31.22217959739673,131.01040134180155,7.020045503401754,4.351169003849846,0.0009725797783515,44.3937050866137,0.0013660055515545,3.09098240974522,449.7140588976434,18.844323061800488,7.771531995684422,69.99503610583268,1.8865779683531e-06,113.70001102895836,217.3591612614144,15.288,0,0.0,0.0553810645782081,3.1166808800591503e-09,-0.000800596194505,1.417768495237597e-07,4.001824400409673e-05,4.351169112337076,25.873596578896564,18.844475834274814,44.50118229261506
0.47,31.22217931813738,131.01040209802923,7.193559875579052,4.358630093683735,0.0009947969928181,30.22514089990685,0.0013910994973101,3.079396422776949,331.0078106302534,19.2180591098146,7.9280875671397615,69.99456352718363,2.1170044481277104e-06,113.70001166656292,226.0625808853568,15.288,0,0.0,0.0564795377574197,3.4102493884459798e-09,-0.0008576351980594,1.551487523304888e-07,4.3718862242359527e-05,4.35863020698899,25.44665981168229,19.218215372160817,30.381603425148434
0.48,31.22217903348153,131.01040286886197,7.370336324605091,4.365514409145237,0.001016880998596,29.779838936311712,0.001416009414045,3.067527859335786,327.2031223011574,19.5915905767454,8.084483592791102,69.99405758812365,2.369198154608765e-06,113.70001233476164,234.93171707892955,15.288,0,0.0,0.057577416115756,3.7241711041759195e-09,-0.0009173883913609,1.6944871263079066e-07,4.767297940601472e-05,4.365514527349481,25.03354780044292,19.59175030803913,29.937410312943754
0.49,31.22217874361868,131.01040365378466,7.5502307795521535,4.3786401372577615,0.0010404145545081,37.2489281064929,0.0014385799934191,3.0558405437943126,389.60000969812296,19.93403005898306,8.23012235628909,69.99351671352461,2.644660619562788e-06,113.700013034871,243.21198709852868,15.288,0,0.0,0.0585839249886784,4.059374595909599e-09,-0.0009798792959512,1.8470833984680338e-07,5.180951737438081e-05,4.378640260624215,24.667474291142685,19.934193486919103,37.37406598941686
0.5,31.22217844858332,131.0104044527036,7.733219389747018,13.315627282651771,-0.0015406945564453,38.44066779255812,0.0013361578246772,2.3321630815956635,397.97031042210494,22.06957750018596,8.366269437912349,69.99293932307316,2.9449363413826395e-06,113.70001376847225,298.1090536360474,15.288,0,3.7577354668479273,0.0648601982594335,4.41672905964163e-09,-0.0010516197388721,1.555754818850547e-05,6.155835047701309e-05,13.315627370174848,25.699408456565585,22.069335488450992,38.511348025774055
0.51,31.22217814864719,131.01040526507958,7.919265776060494,13.202777204476297,-0.0006514845641441,29.532509648328656,0.0012921686708234,2.3033647467632887,323.3984349720841,22.41663391140649,8.505312897854214,69.99227653048553,2.741303023667677e-05,113.70004022888548,307.5531418771527,15.288,0,3.7726489251538897,0.0658802993073284,4.8350240550303915e-09,-0.0012895703890979,1.554400936703986e-05,7.6672905139987e-05,13.202777220264377,25.38131962738849,22.41653157645046,29.622198043949354
0.52,31.22217784383036,131.01040609065635,8.108397821971131,13.0880621618744,-0.0006090392906128,35.37176342798311,0.0013134961679702,2.273618070107001,372.0984511843415,22.77231594244566,8.647357121952647,69.99147561629792,5.186042990714412e-05,113.70006667397948,317.38462419175926,15.288,0,3.787512733251381,0.0669257568750833,5.339773157391364e-09,-0.0015345744414051,1.5532472200524833e-05,9.268591495695964e-05,13.088062175797564,25.06224765002568,22.7722202747776,35.444759681216524
0.53,31.222177534002554,131.01040692980598,8.3007278539108,12.978101725796169,-0.0005674707196732,37.115267539978326,0.0013344595032754,2.243569976935716,386.5562464348624,23.124397228245144,8.787912387449493,69.99053243012817,7.628766462182868e-05,113.7000931044741,327.268573788948,15.288,0,3.802329107074988,0.0679606390720665,5.933311781551841e-09,-0.0017869483944866,1.5521433996757588e-05,0.0001095955679076,12.978101737989649,24.755108413716403,23.124308090152944,37.18301618462868
0.54,31.22217721907256,131.01040778277684,8.49633365693212,12.871717361446464,-0.0005266757255861,32.663014902763535,0.0013551554963937,2.2131326225994608,349.2703242098436,23.47451312232409,8.927548921767313,69.98944270061185,0.0001006950420549,113.70011952078964,337.24730795639954,15.288,0,3.817108733681701,0.0689897521776933,6.618034296333687e-09,-0.0020469482705044,1.551092924974936e-05,0.000127440029604,12.87171737203965,24.45773315864301,23.474430392294572,32.737906169757
0.55,31.22217689932261,131.01040864880198,8.695003342402424,12.771927130883288,-0.0004867665741198,34.588837585898354,0.0013752252827287,2.182613027018013,365.2500005919907,23.81674047359193,9.064202489305211,69.98820210303012,0.0001250829208742,113.70014592287012,347.14560266455976,15.288,0,3.831834259620979,0.0699956883852155,7.396373938484974e-09,-0.002314373498357,1.5501012966297686e-05,0.0001461873823662,12.771927140005008,24.17526947254573,23.81666401247727,34.65763245030751
0.56,31.22217657476067,131.01040952786008,8.896737611168344,12.680766052629933,-0.0004477544608098,32.320943758608855,0.0013943922109327,2.1522644857715845,346.2265619465787,24.146522087201635,9.196277248587668,69.98680633934838,0.0001494517124473,113.70017231110316,356.8188426295478,15.288,0,3.846505368656657,0.0709650543451206,8.270711273392317e-09,-0.0025893673264555,1.5491725142053894e-05,0.0001658188715324,12.68076606040548,23.911117879890305,24.1464517540954,32.39252459763209
0.57,31.222176245465256,131.0104104197381,9.101482388807508,12.58707343595742,-0.0004092143217106,31.96716936035691,0.0014138923717882,2.1210268789412616,343.1828296833023,24.48421491631401,9.330920162628304,69.98525108190495,0.0001738018780919,113.70019868582835,366.8617511424404,15.288,0,3.8611155852853822,0.0719576777609364,9.243433993201353e-09,-0.0028719601033789,1.5483110904991625e-05,0.0001864840756628,12.58707344250199,23.64586600921566,24.484150637078667,32.03745735750614
0.58,31.22217591142177,131.01041132447602,9.309255797758356,12.483810941988963,-0.0003709534951797,41.92460441627815,0.0014345734569692,2.088114513664713,426.1250058573153,24.8439533831292,9.473083620416558,69.98353194026181,0.0001981339237753,113.70022504756356,377.7137679705175,15.288,0,3.8756648416588506,0.0730150992486651,1.031694289096386e-08,-0.0031623046348958,1.5475211678184404e-05,0.0002083497157993,12.483810947412884,23.36732435299836,24.84389511389044,41.976572987103026
0.59,31.22217557224109,131.01041224313255,9.520366694089756,12.397158832987888,-0.0003336972794032,34.088670968363054,0.0014533379412091,2.056252224688864,360.68438819711065,25.174652377713127,9.604838531674035,69.98164426471396,0.0002224483795981,113.70025139738227,387.82836110336655,15.288,0,3.890169896656977,0.0739871827664959,1.1493737089380884e-08,-0.0034610993953374,1.546805496439176e-05,0.0002310666415376,12.397158837408693,23.120595576137312,25.17459996066705,34.15063196652512
0.6,31.222175228138763,131.01041317512198,9.734655013700753,12.292182960958447,-0.0002964972743906,30.356868915925617,0.0014743651593136,2.0216842532161325,329.4859594986058,25.545611407020026,9.750485433981575,69.9795833213602,0.0002467458332136,113.70027773556014,399.3339802742319,15.288,0,3.904620074071583,0.0750775963379767,1.2776413465118494e-08,-0.0037681947221422,1.5461697185605593e-05,0.0002552703655657,12.29218296447928,22.845405098475062,25.545564833337075,30.424113787785927
0.61,31.22217487907416,131.0104141205551,9.952159387056726,12.186365987654876,-0.0002598634567289,35.48267589755029,0.0014955953737652,1.9862058377789569,372.0984511843297,25.92285551633933,9.898109700030147,69.9773442141367,0.0002710346993969,113.70030407390163,411.206784860828,15.288,0,3.919018836097238,0.0761864896058309,1.4167601728502867e-08,-0.0040838103897116,1.545618453309354e-05,0.0002807308238984,12.186365990383637,22.571842615399085,25.922814697083,35.5382231508193
0.62,31.222174525166576,131.010415079108,10.172794571505868,12.113607098954162,-0.0002244294072496,43.9916952405468,0.0015126993785876,1.9538628125636168,442.86563930529206,26.23412110416831,10.022406121740644,69.97492203380342,0.0002953000971665,113.70033039068016,421.1321816750117,15.288,0,3.9333702939861888,0.0771014816810742,1.5669986553424947e-08,-0.0044080011206645,1.54515686444456e-05,0.0003066484016748,12.11360710100207,22.357966587460407,26.234085850879456,44.03506366880518
0.63,31.22217416624279,131.01041605125212,10.396701723793653,12.03286465773498,-0.0001892661279388,25.17770128753551,0.0015307776632707,1.9199608803677293,286.11251274707894,26.56445712254716,10.153166118851546,69.97231187320966,0.0003195505607934,113.70035669801254,431.79533339526034,15.288,0,3.947652144366141,0.0780725288922093,1.728614276172037e-08,-0.0047411147635489,1.5447896659927486e-05,0.0003339677766994,12.032864659201522,22.13325267792503,26.564427392693304,25.250799873465198
0.64,31.222173802880768,131.0104170354163,10.623439793635024,11.938578913395808,-0.0001544206062377,24.728879258317743,0.0015506327198901,1.8836684365132,282.30782441796754,26.92742446821459,10.295155358879915,69.969508788944,0.0003437869050656,113.70038299589667,443.6660849811423,15.288,0,3.961876155452472,0.079139486745873,1.9018791653137185e-08,-0.0050824497696914,1.5445234054851823e-05,0.0003628955211109,11.938578914379976,21.888106352757145,26.92740021188248,24.800517707411583
0.65,31.222173435068,131.01041803163494,10.853025242998804,11.868511826376997,-0.0001203766618903,43.3030693439994,0.001567269572835,1.849784741968889,436.7781447787475,27.23920156199884,10.41903135364808,69.96650786130708,0.0003680177961504,113.70040929636605,453.98946054354064,15.288,0,3.976015778135943,0.0800560045014236,2.087049490240772e-08,-0.0054322227504564,1.5443627997290913e-05,0.0003923521758747,11.868511826978684,21.687080151682505,27.239182653277005,43.34256015349319
0.66,31.222173062316344,131.01041904123582,11.085842914980072,11.794290400441556,-8.6675726104238e-05,36.91283329773857,0.0015843949154491,1.8147427594905563,383.51251517160017,27.56216408320436,10.54660799606998,69.9633042081447,0.0003922285609711,113.70043557875732,464.8083724682812,15.288,0,3.9901004235265343,0.0810054040117913,2.2843726114613333e-08,-0.0057912935466659,1.5443122442225166e-05,0.0004232366861074,11.794290400755518,21.481567692502423,27.562150468213144,36.95741543804258
0.67,31.22217268481277,131.01042006371082,11.321754878584812,11.708328043510251,-5.333131586293351e-05,25.57662308068004,0.0016030913153121,1.7774140216328371,289.1562440103425,27.914755090471058,10.684344628929756,69.95989248895445,0.0004164357613817,113.70046186606424,476.76582797913807,15.288,0,4.004140026403945,0.0820418899423566,2.4941288785267544e-08,-0.0061595360264369,1.5443776105761374e-05,0.0004558966444883,11.708328043630026,21.258604513526752,27.914746713207556,25.63830827853846
0.68,31.22217230272769,131.0104210985971,11.560636068388527,11.627357036806751,-2.048200478927452e-05,31.810089599968244,0.0016210674253382,1.7400542175971825,340.8999924858462,28.258313544500226,10.818725867487773,69.95626748642312,0.0004406248518717,113.7004881368232,488.5623465315353,15.288,0,4.018083506258514,0.0830518372907438,2.716595359062336e-08,-0.0065368781839808,1.54456459735069e-05,0.0004897689438472,11.62735703682456,21.04673708877252,28.25831032719444,31.85764573326229
0.69,31.22217191614432,131.01042214566888,11.802428763134156,11.560012568339042,1.1918689141125252e-05,39.05454060252184,0.0016370592191,1.7039937466811572,401.0140726853634,28.57131107573172,10.942217381444788,69.95242385990824,0.0004648124422459,113.70051441419722,499.4336143248127,15.288,0,4.031969921534968,0.0839719733403883,2.9520463474272065e-08,-0.0069233388985675,1.5448788020192392e-05,0.0005244574854423,11.56001256834509,20.860408074225177,28.571312947915036,39.09169654853468
0.7,31.222171524934545,131.01042320527472,12.047238678405508,11.492837985106563,4.3948835735053705e-05,32.83748291708095,0.0016529289743067,1.6673429050935422,349.27032420985284,28.88538159132068,11.0658832863136,69.9483564271791,0.0004889842597415,113.7005406774844,510.4620242778724,15.288,0,4.045803186312406,0.08489527084358,3.200744776168536e-08,-0.0073192732113427,1.54532592382788e-05,0.0005605319676264,11.492837985189468,20.67668838999641,28.88538849478765,32.879785878635566
0.71,31.22217112915566,131.01042427725932,12.29502804346726,11.418334599381016,7.556018359908892e-05,27.07487116130545,0.0016697670575448,1.628927203885964,301.33126406340574,29.219231465435207,11.196279237231687,69.9440597158691,0.0005131571611945,113.70056695019296,522.3173635926835,15.288,0,4.059539875732843,0.0858767088062539,3.4629678288433283e-08,-0.0077247340918816,1.5459118614145933e-05,0.0005984065125094,11.418334599627718,20.48294922326297,29.21924333440109,27.123828177913442
0.72,31.222170728814472,131.01042536160455,12.545798224387935,11.335083903453947,0.0001066831538226,33.041537913486245,0.0016878412135433,1.5883763571868594,350.79220534145287,29.57772436832449,11.335098809913651,69.93952823563494,0.0005373247366569,113.70059322261952,535.1997999524538,15.288,0,4.073222134933539,0.0869305824146395,3.7389945234308906e-08,-0.0081398952046559,1.5466426531838597e-05,0.0006382886128346,11.335083903949428,20.27671488054351,29.577741126075104,33.07969422454245
0.73,31.22217032391284,131.01042645830583,12.799554580680743,11.275319568100752,0.0001376365255703,41.67056604501301,0.001702305061477,1.5509385457462077,422.320318528234,29.87767649815968,11.453241260371376,69.93475626104902,0.0005614879553509,113.7006194955898,546.096616353497,15.288,0,4.086852574018187,0.0878124098599129,4.029112902288997e-08,-0.0085649682640043,1.54752454679612e-05,0.0006784151239322,11.275319568929945,20.112287531337337,29.87769811805456,41.699418314675746
0.74,31.222169914393035,131.01042756752048,13.056348139101996,11.208787814282324,0.0001681758531417,26.27408899320096,0.0017176550364152,1.5117790544317855,294.48281347105944,30.19630265174524,11.577723984866044,69.92973822415674,0.0005856404294892,113.70064575946692,557.7925041805572,15.288,0,4.10039690783567,0.0887491297082895,4.3336006573577294e-08,-0.0090001573088262,1.548564010891272e-05,0.0007204703330184,11.20878781552785,19.93864406903984,30.19632906874648,26.317546072580576
0.75,31.22216950061342,131.01042868827443,13.315908188380416,11.13821813054564,0.0001982658029718,30.59418225684249,0.0017335156165697,1.471240372923986,330.24688556441487,30.52725631062003,11.706342073607168,69.92446836449952,0.0006097998159025,113.70067203837922,570.0721904849246,15.288,0,4.113867084407775,0.0897220893251538,4.65275658217569e-08,-0.0094449915157857,1.5497665834403195e-05,0.0007643473295633,11.138218132287932,19.76030995720356,30.52728745413953,30.62953703869671
0.76,31.222169082469023,131.01042982085357,13.578322196033255,11.076124285927722,0.000228140323382,32.89765260121555,0.0017479275682054,1.43153062014962,349.27032420986166,30.83669429016459,11.82724912075753,69.9189409933022,0.0006339676406383,113.7006983340252,581.6731210290963,15.288,0,4.127275902279513,0.0906318210427475,4.986854954797641e-08,-0.0098998503315427,1.5511389328132454e-05,0.0008092578245394,11.07612428824794,19.598235219329524,30.836730126362788,32.928784211415106
0.77,31.222168659907048,131.01043096540175,13.843637193301443,11.016457689279983,0.000257738766782,30.79575368926337,0.0017617997744693,1.3916401141887822,331.7687666960708,31.14034817765283,11.945947416765325,69.91315040889623,0.0006581288024472,113.70072462421788,593.1700678472758,15.288,0,4.140619418466739,0.0915245611258184,5.336174790068533e-08,-0.0103649949563645,1.5526878709211063e-05,0.0008556023265634,11.016457692257774,19.442205530507955,31.14038866316364,30.827181359980614
0.78,31.22216823299486,131.01043212173624,14.111807248430337,10.950469796102151,0.0002868540002852,25.38659514799719,0.0017765257895972,1.3499396416621547,286.8734378128899,31.46258443425688,12.07097195490569,69.90709072525087,0.0006822941388517,113.70075092367064,605.4940826880023,15.288,0,4.153870536041356,0.0924719251159862,5.70100531900441e-08,-0.0108404347121358,1.5544198483147028e-05,0.000904085086646,10.950469799813476,19.277590470453077,31.462629493177875,25.42246159207423
0.79,31.22216780182305,131.01043328961103,14.382768554938988,10.88121907356482,0.0003155167905731,35.86630393134661,0.0017916465425563,1.306893585377344,373.6203323159534,31.795599916246527,12.19959433893907,69.90075596462657,0.0007064726237377,113.70077724437516,618.3635210066765,15.288,0,4.167056078346086,0.0934509791832052,6.081640102965463e-08,-0.0113261719037798,1.5563412884819067e-05,0.0009545684686932,10.881219078084122,19.1094373193497,31.795649477508093,35.89010632123046
0.8,31.222167366176976,131.01043446961026,14.656693067498548,10.825517588619832,0.0003442491390919,36.33603239527904,0.0018043744060722,1.2658465205160143,377.42502064505743,32.09053505337605,12.314704819367412,69.89414007644115,0.000730650977473,113.70080356688842,629.8720045682354,15.288,0,4.180185979923282,0.0943181194705123,6.478358413392392e-08,-0.0118228444417034,1.558460562253533e-05,0.0010056443574548,10.825517594028074,18.96575122707915,32.09058912790437,36.35807504392989
0.81,31.222166926161247,131.0104356614497,14.933505973202996,10.761987831790412,0.000372427764314,23.845532666042693,0.0018182226739568,1.2225857626113044,273.9374926939919,32.40914180147871,12.437921229244935,69.88723685294147,0.0007548460359543,113.70082991437442,642.4242206660581,15.288,0,4.1932535247691565,0.0952548422804008,6.891464153796031e-08,-0.0123303617632714,1.560784290012807e-05,0.001059198341218,10.761987838158513,18.810832343837717,32.409200302295126,23.87685379986615
0.82,31.222166481965537,131.010436864614,15.213066893345736,10.695534199090252,0.0004001587086925,30.472312806235287,0.0018323955925824,1.1780077634040402,328.72500443277005,32.73757826705907,12.564417058864423,69.88004014328016,0.000779052325014,113.70085627792498,655.4933406005,15.288,0,4.206230042167444,0.0962204648823408,7.321264467616365e-08,-0.0128485202908284,1.5633185659454344e-05,0.0011148641410452,10.695534206488812,18.65288103303598,32.737641123842046,30.495074248300575
0.83,31.222166033576613,131.01043807913956,15.495392006557225,10.64502288128334,0.0004281711185901,38.57448221222583,0.0018436570815258,1.1361834791967595,395.68750322465047,33.018423820329154,12.674086165227283,69.87254367832173,0.000803271603722,113.7008826592399,666.7700512748531,15.288,0,4.219137376019878,0.0970462196060253,7.768053211678996e-08,-0.0133775652131923,1.5660710080362696e-05,0.0011706954265155,10.645022889795152,18.523150617868083,33.01849107729119,38.59121136008558
0.84,31.222165580892288,131.01043930530457,15.780565671823531,10.591769735199115,0.0004558143789653,24.04907328132441,0.0018551646076229,1.093199343056971,275.4593748256452,33.30767944731425,12.786526457931291,69.86474124532397,0.0008275075279333,113.70090906283464,678.4850267556561,15.288,0,4.231981880673288,0.0978967013150767,8.23211503484108e-08,-0.0139178227284838,1.5690498530112652e-05,0.0012286106907358,10.5917697448951,18.39053922484716,33.30775104646947,24.073907325895554
0.85,31.22216512420827,131.01044054230536,16.068365533480605,10.526367671685865,0.0004826202117741,26.1721675663162,0.0018685882460797,1.0468163784450604,292.96093233939376,33.635398302656284,12.912284764132956,69.85662661648414,0.0008517604015449,113.70093548783171,691.883001971496,15.288,0,4.244753288565384,0.0988602414914686,8.71376613302121e-08,-0.0144688082434069,1.5722600455608235e-05,0.0012897809113523,10.52636768262484,18.239453363263248,33.63547411246187,26.19309418799422
0.86,31.222164663354626,131.01044179060432,16.358928206735722,10.470691725922547,0.0005095564865642,32.6230935251414,0.0018800956635776,1.0019799488150232,346.2265619465587,33.93315469978184,13.027388540013051,69.8481933319339,0.0008760321820748,113.70096193634852,704.1673208847069,15.288,0,4.257460274088033,0.0997357259130544,9.213289102706558e-08,-0.015031122313473,1.575711153742552e-05,0.0013517305714853,10.470691738182962,18.106099628482585,33.93323474072758,32.63847726997554
0.87,31.22216419835812,131.01044305012897,16.652238505733006,10.41971473441467,0.0005364501742388,30.42192137769433,0.0018905296884135,0.9576649469175555,327.964078366998,34.21589159240399,13.137071073547377,69.83943487049052,0.0009003361939855,113.70098842647585,715.9305272324821,15.288,0,4.270097301002619,0.1005670739881219,9.730985569101093e-08,-0.0156048689018276,1.5794109050350413e-05,0.0014149798074617,10.419714748071453,17.982097744019867,34.21597585780031,30.436991080513728
0.88,31.22216372925688,131.010444320776,16.94827237287947,10.362853871535355,0.0005627737400287,26.37730640098206,0.0019017772287247,0.9113262802473696,294.4828134710418,34.51774164603635,13.253299639401025,69.83034482487966,0.0009246573554196,113.70101493557304,728.5973023492022,15.288,0,4.28265067642891,0.1014546081199999,1.0267158321850721e-07,-0.0161900659522987,1.583366684433169e-05,0.0014809517216194,10.362853886649605,17.84995978169651,34.51783004632871,26.39304476897494
0.89,31.222163256134618,131.01044560231804,17.24697065242271,10.300341660258969,0.0005884874087017,28.87194021875925,0.0019138284044576,0.8628891913192489,315.028134248087,34.838832663938824,13.376127359984608,69.82091651196852,0.0009490199143722,113.70104149724258,742.1941760267204,15.288,0,4.295136118208395,0.1023987045260732,1.0822116266920217e-07,-0.0167867261768851,1.5875858569254838e-05,0.0015497692933037,10.300341676888442,17.710039805136123,34.83892510332482,28.884831891753198
0.9,31.222162778919124,131.0104468949519,17.54839424516715,10.253354023875048,0.0006148076370778,31.828814261799568,0.0019227804303102,0.8177474020908753,339.37814235421445,35.108132414897355,13.480645990003843,69.81114325995014,0.0009734038638416,113.7010680818692,753.6908373450984,15.288,0,4.307558300741201,0.1031905844594823,1.1396155330913725e-07,-0.0173952247052014,1.5920779339812872e-05,0.0016183134701881,10.2533540421103,17.597183589030887,35.10822898865516,31.83931738939839
0.91,31.22216229768284,131.0104481984808,17.852492309334757,10.200584737055724,0.0006405398797647,24.369777183452783,0.0019325321963554,0.7705264704755866,277.7421810230789,35.39666010388411,13.591760554219212,69.80101839876518,0.0009978218446058,113.70109470638448,766.1074176368505,15.288,0,4.319913543114391,0.1040389882849269,1.1989584410917076e-07,-0.0180155198075584,1.5968502829253787e-05,0.0016897454169755,10.20058475695394,17.476264372043993,35.39676071965314,24.38195551524775
0.92,31.22216181262875,131.01044951235323,18.15911391722652,10.142281501661335,0.0006656403715289,28.894541636655173,0.0019430658007075,0.7211727441127243,315.02813424806214,35.70435430219672,13.709470859409782,69.79053517231385,0.0010222864728156,113.701121387478,779.4615086545219,15.288,0,4.332196032153799,0.1049437359285833,1.260273099903001e-07,-0.0186472666911108,1.601908248064575e-05,0.0017641510615529,10.14228152327576,17.347682058181768,35.704458860741774,28.903540099696357
0.93,31.222161323669027,131.01045083680827,18.468331374432186,10.097951816447967,0.0006913934847079,34.252051332782045,0.0019506857965881,0.6750255020459337,359.1625070654728,35.963128466572265,13.809877198590652,69.77968688342649,0.0010467817212386,113.70114810115705,790.7775620254802,15.288,0,4.344411997305934,0.1057047046166462,1.3235878183031008e-07,-0.0192909185321069,1.6072621871234762e-05,0.0018382174243499,10.097951839871758,17.24343787369682,35.96323707040688,34.258702306671275
0.94,31.22216083069617,131.0104521721384,18.78023156732857,10.04157369252328,0.0007160919957716,25.033908605936016,0.0019603093266954,0.6249216122309837,283.0687504837787,36.26395118612109,13.924905759153,69.76846675098746,0.001071319775212,113.70117486387512,804.0381253464046,15.288,0,4.356561266788254,0.1065892735823802,1.388931562340079e-07,-0.0199467967632847,1.6129220587994506e-05,0.0019165571830268,10.041573717794568,17.120813685910104,36.26406366958875,25.04170742889956
0.95,31.22216033400024,131.01045351755545,19.09459688161784,9.98725381263544,0.0007406525413223,32.239144728397434,0.0019692660848449,0.5747350029298496,342.4218736174873,36.55748288543664,14.037257908652592,69.75686775641566,0.0010959116600227,113.70120168982676,817.0824030315008,15.288,0,4.368638983720496,0.1074524214663812,1.4563388052076857e-07,-0.020614417535078,1.618892249803878e-05,0.0019966766463201,9.987253839820037,17.002915088948164,36.557599226865776,32.24426735126971
0.96,31.222159833291045,131.01045487384846,19.41165408079941,9.93996763644373,0.000765494818829,31.60105653948208,0.0019765565703405,0.5259943716909821,337.09533515678345,36.82506626085497,14.140357929573394,69.74488296679844,0.0011205494110398,113.70122856676336,829.0622404635612,15.288,0,4.380654497435594,0.1082393092852488,1.5258354896540674e-07,-0.0212946869440122,1.6251872201641647e-05,0.0020776000953956,9.939967665623486,16.897868293289257,36.825186504499925,31.605433842891156
0.97,31.22215932858996,131.0104562409596,19.73139109440889,9.889641411361383,0.0007898849448196,20.434869726795448,0.0019841226738366,0.4757631455022925,245.02188719299323,37.10305375944942,14.246982117904524,69.73250521572784,0.0011452400664344,113.70125550347454,841.6005994233686,15.288,0,4.392598846675591,0.1090567868104441,1.597453256808861e-07,-0.0219877059827492,1.6318160874856546e-05,0.002161341535073,9.889641442591518,16.789171811766348,37.10317783428641,20.440407414199505
0.98,31.22215882018524,131.0104576181056,20.053591626698232,9.828100054504452,0.0008131103680789,29.49216435077371,0.0019936065527019,0.421386777239472,319.5937466429581,37.42273285294366,14.368161366242868,69.7197273434131,0.0011699870249919,113.70128250312123,856.1390055610442,15.288,0,4.404471999453315,0.1099968175942627,1.671228297638401e-07,-0.0226928465386939,1.6387821092070072e-05,0.0022498049021033,9.828100087809515,16.663434820701767,37.4228605760216,29.49517467118218
0.99,31.222158307930982,131.01045900568323,20.37837166709613,9.786354735169018,0.0008377159757559,32.17892980289205,0.0019988413996063,0.3726175829668712,341.6609485517054,37.66737585745508,14.462826605470108,69.70654201113314,0.0011947937893466,113.701309569591,867.3421835666254,15.288,0,4.41628381745082,0.1107163037005131,1.7471886357280997e-07,-0.023410783859502,1.6460988887948865e-05,0.0023360823960137,9.786354770674086,16.571293882327005,37.66750744557283,32.181087164947634
1.0,31.222157791826728,131.01046040369403,20.705735203516475,9.73371102335169,0.0008611851347806,28.85941322865111,0.0020059196077941,0.3197696340049237,314.2672081822764,37.95262240696958,14.571662867796327,69.6929421229954,0.0012196639024375,113.70133670660924,880.5006112584338,15.288,0,4.42803079280033,0.1115551454026285,1.825365542894149e-07,-0.0241415505259701,1.65377521060899e-05,0.0024271696334166,9.73371106108095,16.46260636060341,37.952757681614216,28.86118480839946
1.01,31.22215727205292,131.01046181164773,21.03554843891316,9.683260726535105,0.0008846000948064,30.160534435135524,0.0020122298816714,0.2670180410949079,324.9203161036979,38.22886052484214,14.677226980247628,69.67892029937987,0.0012446010366323,113.7013639177837,893.3364029494097,15.288,0,4.439711287369798,0.1123675175909185,1.9057932427441441e-07,-0.0248848847405133,1.661817204807766e-05,0.0025200340553048,9.683260766555351,16.358713669862148,38.228999477500096,30.16171646468972
1.02,31.22215674853448,131.01046322974864,21.367872340106608,9.635992087457872,0.0009080797217312,25.26628044166861,0.0020175503235545,0.2147546607636567,284.59063161540416,38.49179223510909,14.77799759681178,69.66446923894361,0.0012696089261547,113.70139120715146,905.6381908145152,15.288,0,4.451328083005161,0.1131407868664661,1.9885010292319938e-07,-0.0256411445390514,1.6702365354613608e-05,0.0026143943739416,9.63599212984164,16.261206816790647,38.49193487593821,25.26719317597178
1.03,31.22215622133978,131.010464657811,21.70265818018279,9.581472258291871,0.0009306464799587,20.739128045554786,0.0020240112727318,0.1593677835157935,247.30469339049705,38.78272068597462,14.888541815185148,69.6495816475889,0.0012946913827685,113.70141857863004,919.3503425368,15.288,0,4.462879110356878,0.1139963575926423,2.073521152100836e-07,-0.02641026102115,1.6790411822881342e-05,0.0027130797585941,9.581472303066525,16.1530722271091,38.78286687158184,20.7397404582835
1.04,31.222155690530617,131.01046609566717,22.03986255590325,9.534423259713432,0.0009536956682374,32.679843108821686,0.002028581940485,0.1059807766152706,345.46563688072297,39.0429638208706,14.988175221952009,69.63424998379091,0.001319852343976,113.70144603628192,931.6997689072404,15.288,0,4.474365967854026,0.1147617424018516,2.160885798920135e-07,-0.0271922875930069,1.688240253591133e-05,0.0028120695144201,9.53442330696981,16.05826193062434,39.04311362703584,32.680015019233956
1.05,31.22215515582568,131.0104675440819,22.379702626714515,9.481605599117568,0.0009759628873399,19.914741744270767,0.0020339813033209,0.049912732360367,240.45625879819983,39.32565224335476,15.095624095019677,69.61846675727473,0.0013450958117238,113.70147358472576,945.209599740732,15.288,0,4.485794819518945,0.1155931117464321,2.2506202145158882e-07,-0.0279881609107244,1.697852008049392e-05,0.0029152355370466,9.481605648887248,15.955231507121407,39.3258055472466,19.914804396702777
1.06,31.22215461745968,131.01046900241744,22.722003167368207,9.423989852799314,0.0009974879582131,28.158316928853534,0.0020400278235243,-0.008654898250074,308.17968365593924,39.627669933125325,15.209821038319044,69.60222412196084,0.0013704336613808,113.7015012391228,959.752053323541,15.288,0,4.497160915295648,0.1164813070202819,2.3427624311769346e-07,-0.0287973600018194,1.7078804306647798e-05,0.0030224580828682,9.423989905112288,15.845537714401027,39.6278266181674,28.158318332861015
1.07,31.22215407531865,131.0104704709837,23.06685414297369,9.378404439885765,0.0010200526839109,33.07272983426428,0.0020431631435686,-0.063314266024312,348.5093681440308,39.87873023740583,15.30592566459541,69.58551415959816,0.0013958551572159,113.70152898255785,971.9193615254673,15.288,0,4.5084706210821945,0.1172197281557813,2.437341671555067e-07,-0.0296205001979946,1.7183412135137895e-05,0.0031284440922395,9.378404494863032,15.756535700742678,39.878890466906725,33.07279050157444
1.08,31.222153529302915,131.0104719500518,23.41433388404304,9.330559618607047,0.0010421889553247,22.42754020205095,0.0020463743666411,-0.1194095239536414,261.00157857466235,40.13786178248101,15.404783146854518,69.56832896460345,0.0014213719291861,113.70155683024852,984.5585803594088,15.288,0,4.519724622994351,0.1179818832758181,2.534388654221789e-07,-0.0304579674264168,1.729248274754137e-05,0.0032376905981709,9.33055967629592,15.664981908181096,40.13802548913929,22.427858175418145
1.09,31.222152979684225,131.01047343888325,23.76423898011056,9.27046887875972,0.0010627286337111,20.67105275913292,0.0020518167693662,-0.1810336475851967,246.54375332474407,40.448563135203045,15.521820475614266,69.55066056925463,0.0014469884109762,113.70158478649806,999.826621066408,15.288,0,4.530916429339058,0.1188956333541179,2.6339437871434484e-07,-0.031309044581503,1.740603416459114e-05,0.0033538104243548,9.270468939140663,15.554622149495785,40.44873006822646,20.671845577073345
1.1,31.222152426537825,131.01047493727373,24.116515373918965,9.21709459630356,0.0010837721275432,40.97317622758595,0.0020554363706507,-0.2406925730904984,413.1890617385841,40.72984719408694,15.628393840509068,69.53250091037225,0.001472709137807,113.70161285599876,1013.7464923859332,15.288,0,4.542048162476003,0.1197229234996623,2.736040647942608e-07,-0.0321737643459051,1.7524163956022865e-05,0.0034702883182042,9.217094659469472,15.456250144796876,40.73001743261464,40.9738832345236
1.11,31.22215186946628,131.01047644630353,24.471466418479725,9.17676713054141,0.0011061616422529,30.135231238006487,0.0020558073450674,-0.2954876969218439,324.1593910376397,40.95237872502029,15.714058576752784,69.51384176940455,0.0014985387588219,113.70164104423688,1024.8192193999057,15.288,0,4.553130164220994,0.1203775236675737,2.840700925433139e-07,-0.0330535904019101,1.7647142312241953e-05,0.0035845436037305,9.176767196638334,15.3801622416283,40.95255248048473,30.136679959370078
1.12,31.22215130853021,131.0104779658079,24.82904788884809,9.112758385487,0.0011255155116142,11.68658121557938,0.0020609006990928,-0.3609846477411671,172.73281794065943,41.2786528367246,15.836427162394427,69.49467503937375,0.0015244819812709,113.70166935611388,1041.1783027692431,15.288,0,4.564154568509126,0.1213370801708329,2.947961105470137e-07,-0.0339483656726502,1.7775058053691918e-05,0.0037107830435279,9.112758454406082,15.266692106994368,41.27882963228773,11.69215526203571
1.13,31.22215074431404,131.0104794941987,25.18882136401936,9.061941050497731,0.0011462153253436,35.434994607851294,0.0020627111346246,-0.4215202954249803,367.5328077900705,41.54530533568312,15.93762625950224,69.4749920006264,0.0015505437555232,113.70169779605172,1054.636943097017,15.288,0,4.575110637500467,0.1221213911986218,3.057872249824244e-07,-0.0348564936705252,1.7907816037126256e-05,0.0038345271839588,9.061941122382764,15.17567579891824,41.545485382765385,35.43750169626356
1.14,31.222150176161648,131.01048103325928,25.551283699761875,9.020350782039127,0.0011679099509886,19.854525349673217,0.0020620334847994,-0.4784884807747412,239.69531773195544,41.76810157536942,16.023166140150646,69.4547845310394,0.0015767289483461,113.70172637014346,1065.94162491765,15.288,0,4.586018260591618,0.1227767974166125,3.170445957451508e-07,-0.0357802922695871,1.804580887085691e-05,0.0039571240691762,9.020350857021,15.100710231522694,41.76828503023551,19.860290338739578
1.15,31.222149604552552,131.01048258168643,25.916074670261693,8.955010593544177,0.001186324451298,19.578563210180366,0.0020661801462535,-0.546905227281725,237.41251153546767,42.09904762297506,16.147105210498008,69.43404446748046,0.0016030425248982,113.70175508298092,1082.862397728034,15.288,0,4.596864363978126,0.1237501185205068,3.28573258412427e-07,-0.0367181475843666,1.8188938097100783e-05,0.0040928785991676,8.955010671483087,14.98818217440417,42.09923397038409,19.58620042202562
1.16,31.222149029622816,131.01048413911056,26.283094492879663,8.915887462060123,0.0012079538651021,50.40432615881876,0.0020640549907415,-0.6038200106511644,490.0437743845894,42.30674339221511,16.22719165487469,69.4127630501582,0.0016294896891281,113.70178393990156,1093.5348093292791,15.288,0,4.607653495852544,0.1243611551774057,3.40376761699191e-07,-0.0376700017313981,1.83372955557754e-05,0.0042195462727468,8.915887543227345,14.91923808770264,42.30693313716452,50.407942810535
1.17,31.222148450507785,131.01048570788132,26.652994020301527,8.864364361517431,0.0012277831739398,9.370425937884791,0.0020642089950163,-0.6670800919587716,153.70937929486794,42.570486699132125,16.327128170070665,69.39093207261523,0.0016560755605274,113.70181294757388,1107.1723173081707,15.288,0,4.618399688912692,0.1251369540243292,3.524555527053805e-07,-0.038638880977927,1.8491400444461613e-05,0.0043549005468343,8.864364445866652,14.83120940767698,42.57067955886208,9.394140853075951
1.18,31.22214786834449,131.01048728490912,27.02492034492973,8.79642175787918,0.0012450714861359,24.78897125088596,0.0020676269880707,-0.7391304205323344,280.02501822196746,42.91222411434792,16.454880439768477,69.36854288170174,0.0016828054820741,113.70184211007232,1124.9792709125072,15.288,0,4.629080077636775,0.1261420287218254,3.6481724635548403e-07,-0.0396208254555487,1.8650821749821377e-05,0.0045012601440424,8.796421845301335,14.717443354380045,42.912419689719606,24.799988180055415
1.19,31.22214728261926,131.0104888715897,27.399261090867675,8.764964705287413,0.0012672904831067,42.91168334227154,0.0020623207327755,-0.7936728654087221,428.4078130529292,43.075967517310026,16.519132423681008,69.34558656396348,0.0017096849377194,113.70187143396583,1133.5402242524372,15.288,0,4.639713116204252,0.1266238933017789,3.774628506998041e-07,-0.0406181815670284,1.881599036957065e-05,0.0046320098012293,8.764964796187817,14.663982791113668,43.0761665828336,42.91902245086481
1.2,31.222146692887502,131.01049046913116,27.776348891232686,8.704346240502446,0.0012851855658538,4.9089565837906255,0.0020631159692001,-0.8634587831119079,117.1843741360236,43.37967058835808,16.633261235584413,69.32205493094224,0.0017367192722995,113.70190092557982,1149.5387670447349,15.288,0,4.650300054809843,0.1275171858715692,3.9039440093816243e-07,-0.0416323813640131,1.898723354598056e-05,0.0047809667500339,8.70434633464939,14.56412978278773,43.37987246483468,4.9843174124569884
1.21,31.22214610029141,131.01049207442995,28.15533034566861,8.645375081597582,0.0013030330717735,34.5626670992806,0.0020630909603479,-0.933214240262414,359.92343213200894,43.67483730322681,16.744401388923336,69.29793886267615,0.0017639142043568,113.70193058939628,1165.193096975069,15.288,0,4.660823608989769,0.1283853955446299,4.036197877232016e-07,-0.0426594391964363,1.9164079791202743e-05,0.0049320656305756,8.645375179047964,14.46786033684031,43.67504198318308,34.57526355778458
1.22,31.22214550395816,131.01049368985778,28.536858863685644,8.611310581712166,0.0013244504518973,25.17777788165495,0.0020568491715145,-0.990239174853354,283.0687504825761,43.84287296243821,16.810035056156966,69.27322970204126,0.0017912753690812,113.7019604326676,1174.1332967522776,15.288,0,4.671304649111439,0.1288799036676525,4.1713834127890577e-07,-0.0437029885671006,1.934718012328325e-05,0.00507196950445,8.61131068279669,14.413124559071884,43.84308100662867,25.197243438757265
1.23,31.222144904232728,131.01049531447714,28.92067596767133,8.550170021822792,0.001341560461802,10.113330089457492,0.0020563090815334,-1.0623824310489165,159.79687382222795,44.14553066518308,16.923846474851025,69.24791925404321,0.001818808335239,113.70199046085384,1190.3559974816685,15.288,0,4.681713916622296,0.129770154206936,4.309551768970205e-07,-0.04476153905711,1.953642959062208e-05,0.0052304882560678,8.550170126288846,14.315278127927495,44.14574139700762,10.168977635757427
