Time,Latitude,Longitude,Altitude,Angle of Attack,Angle of Sideslip,X-Acceleration,Y-Acceleration,Z-Acceleration,Thrust,True Velocity,Ground Velocity,Pitch,Roll,Yaw,Dynamic Pressure,cp,parachute_deploy_gain,Wind Speed,Mach,omega_x,omega_y,omega_z,Cmq,Angle of Attack(total),Angle of Attack(gust),True Velocity(gust),Acceleration
0.0,31.222216000000007,131.010392,3.000000004412624,0.0,0.0,0.0,0.0,0.0,2.2828121974499247,0.0,0.0,71.99999999612658,-1.0292491154817412e-14,119.99999999354436,0.0,15.288,0.0,0.0,0.0,0.0,0.0,0.0,-0.0,0.0,90.0,0.0,0.0
0.01,31.22221599999862,131.01039200000284,3.0000009727369523,0.0,0.0,0.0,0.0,0.0,34.24218696174923,5.916279387578309e-11,5.734623670548936e-11,71.99999999613168,-5.86671995824671e-13,119.9999999935449,2.1432944861733093e-21,15.288,0.0,0.0,1.7386402909615473e-13,-3.4220131069073734e-19,7.115076756936125e-19,5.488773498207866e-19,-1.1574302492039043e-31,0.0,89.99999999962336,5.916279387578309e-11,0.0
0.02,31.22221599999738,131.01039200000537,3.0000018317022668,0.0,0.0,0.0,0.0,0.0,25.871876237766408,1.2265415415436536e-10,1.1895038237325684e-10,71.9999999961369,-1.1836364828043265e-12,119.99999999354544,9.211895886571454e-21,15.288,0.0,0.0,3.6044858651615574e-13,-6.979551485375437e-19,1.4162390878091906e-18,1.0909784360635388e-18,-4.776231873571785e-31,0.0,89.99999999921916,1.2265415415436536e-10,0.0
0.03,31.22221599921969,131.01039200159065,3.0001883335529382,18.80143492628821,-0.0001350810307892,10.931161642028636,-1.75114298675875e-05,3.026590975169265,180.34219359854663,0.0798232026864394,0.0478175828508887,71.99999999765336,-5.341802909786072e-12,119.99999999436793,0.0039016003969354,15.288,0.0,0.0,0.0002345795854893,3.788270153300133e-17,-7.771883375645477e-10,1.1422790048099072e-11,1.7057759223764537e-13,18.80143492675591,89.51882325913425,0.079801984207741,11.342422482672777
0.04,31.222215995131297,131.01039200995308,3.001692634342189,9.19442604083399,-4.49173898918486e-05,52.29595764159784,6.445392950801871e-06,3.026413589912948,548.6359724538078,0.3504174083926908,0.1601447499964056,72.00000000319055,-3.111420077280171e-11,119.99999999870242,0.0751892535633216,15.288,0.0,0.0,0.0010297854387864,2.0082066977226968e-15,-1.520937588847922e-08,2.5623342884322286e-11,1.4654248781413086e-11,9.19442604094277,87.798916624545,0.3504103527855857,52.383455068075136
0.05,31.222215983575865,131.01039203366796,3.0074067499493786,5.158590039700252,1.707592688632746e-06,76.26884281015512,5.843947534199429e-05,3.0258124765658088,761.6984298824644,0.9592973585397016,0.3772700771701255,72.0000000004862,-1.3608731808076822e-10,120.0000000109612,0.5634958029902841,15.288,0.0,0.0,0.0028191251099456,2.086299069701397e-14,-1.0551247853743037e-07,3.973493515691201e-11,2.783064866637575e-10,5.158590039700515,83.94063169874748,0.959297626767734,76.32884071402438
0.06,31.222215961742712,131.0103920785344,3.019291017943491,4.109521257467909,3.140103977270004e-05,57.06876634333886,0.0001151069734147,3.024834864051463,590.4875390737208,1.6257536642597354,0.6118982818704327,71.99999992547217,-3.5903296759057166e-10,120.00000003412836,1.6184272268450337,15.288,0.0,0.0,0.0047776672697797,1.0694899894620088e-13,-3.741090980393931e-07,5.521401959501359e-11,1.6723176417636091e-09,4.109521257587776,79.78719176344794,1.6257585967235286,57.148873286519276
0.07,31.222215929936205,131.01039214392435,3.0371334573469446,3.649087515174788,5.707077112564807e-05,86.89643797254193,0.0001728541558773,3.0234947746384675,855.2937749779139,2.3057260079826607,0.8506307413593818,71.99999965378231,-6.907496536790437e-10,120.00000006788592,3.255354923652711,15.288,0.0,0.0,0.0067759305364855,3.495199904512709e-13,-9.036515915819006e-07,7.594816279105379e-11,5.728932851326001e-09,3.6490875156204896,75.6601668283889,2.305734972638426,86.94902215090157
0.08,31.222215886364623,131.01039223353447,3.0621840248716574,3.4254446680114707,8.413075603463509e-05,17.831756866644035,0.0002285946601282,3.021841001032126,241.2171988638848,2.961944911520492,1.0819695676346892,71.99999900671328,-1.141745983122182e-09,120.00000011415082,5.371998197385977,15.288,0.0,0.0,0.0087043901031071,8.800530155962314e-13,-1.829098470920821e-06,1.0943386634701918e-10,1.4896287129277132e-08,3.4254446690434226,71.81713637501419,2.9619581267487467,18.085991154451033
0.09,31.22221583454733,131.01039234010327,3.0919888289029,3.389560809024919,0.0001118726864415,54.09031716446879,0.0002748660999733,3.020060228038602,563.0937377043176,3.504225426410036,1.2780161667917422,71.99999774508822,-1.634190085504106e-09,120.00000016921716,7.519080503822694,15.288,0.0,0.0,0.0102980157586766,1.865782139518716e-12,-3.1503298654458527e-06,1.6284478329871028e-10,3.03536411425607e-08,3.389560810868955,68.76526501308032,3.504242999330529,54.17456206384468
0.1,31.22221577423132,131.0103924641528,3.1267248829165366,3.4447939461814814,0.0001419149103147,51.372195336549765,0.0003131602029306,3.0182021883815127,538.7437595981919,3.950569597142709,1.4443465951180965,71.99999562056465,-2.1287748602259068e-09,120.00000023339832,9.55649523509932,15.288,0.0,0.0,0.0116097108366932,3.485956000178229e-12,-4.949356763187612e-06,2.4573266549165286e-10,5.3761299442583966e-08,3.444793949101151,66.34639928474206,3.9505918890846927,51.460781166288626
0.11,31.222215706113143,131.01039260424562,3.165907002780892,3.4691423802630394,0.0001702373452339,40.591037561894986,0.0003534470100582,3.016051659024047,442.8656393052949,4.421478635995476,1.6182620895289603,71.99999235067894,-2.5564479031457968e-09,120.00000030601664,11.970509656144712,15.288,0.0,0.0,0.0129935974697161,5.942887149865172e-12,-7.273722517324353e-06,3.67769289312894e-10,8.842679949465076e-08,3.4691423844348632,63.88798785789768,4.421505376815134,40.70293476011277
0.12,31.222215630588888,131.0103927595646,3.2092596514826863,3.4852659299808075,0.0001974376474727,44.30042894095728,0.000394069215595,3.013641598889868,475.58594813540446,4.896982486381051,1.793579340340896,71.99998761802138,-2.8337988279882726e-09,120.00000038673312,14.683611096353944,15.288,0.0,0.0,0.0143909889875706,9.464337642181618e-12,-1.017558359402848e-05,5.395790443954697e-10,1.3700793350599625e-07,3.4852659355662303,61.5068242157714,4.897013499814194,44.40281567867803
0.13,31.222215548046687,131.0103929293088,3.256512891171917,3.5606043721293616,0.0002276507019012,48.86766833507025,0.0004268800875964,3.0112558910133567,515.9156326236895,5.278566579338586,1.939796541405244,71.99998107389406,-2.8573058577484587e-09,120.00000047523812,17.061052093156064,15.288,0.0,0.0,0.0155123760833565,1.4300406003001044e-11,-1.3705268062305584e-05,7.724776992181392e-10,1.989112774124932e-07,3.560604379397528,59.67313531776262,5.27860233862722,48.960358155653
0.14,31.222215458587108,131.01039311327068,3.30759734332425,3.6000732663755977,0.0002555702913645,45.540290862247225,0.0004629468001456,3.0085404980032777,486.2390860568404,5.70011779273801,2.098362647205908,71.99997235012626,-2.508533681468686e-09,120.00000057154703,19.894788765881632,15.288,0.0,0.0,0.0167512184495524,2.071534240530911e-11,-1.7917736259613292e-05,1.0787346240473087e-09,2.8081526258393346e-07,3.6000732754351943,57.72385750323359,5.700157937625502,45.639559681930805
0.15,31.222215362317904,131.01039331122794,3.3624387479639086,3.651605404442164,0.0002842753491325,44.01308509501,0.0004965057129938,3.005703619811542,472.54218587214,6.091938849578711,2.2476968067377374,71.99996103728932,-1.6446954747148112e-09,120.00000067569304,22.723773683610247,15.288,0.0,0.0,0.0179026934683374,2.9002783512213203e-11,-2.287326399669318e-05,1.47199345427166e-09,3.831202693354572e-07,3.651605415492516,55.98561718911576,6.091983503446133,44.115597174664394
0.16,31.22221525912812,131.01039352340948,3.421115382839859,3.67540086436193,0.0003108411545024,34.83804992586084,0.0005330990866742,3.002517946501868,391.1218908297564,6.521183188362317,2.4085903880902046,71.99994669525161,-1.0153513453738144e-10,120.00000078796704,26.03872642002185,15.288,0.0,0.0,0.019164148528834,3.9478358970291335e-11,-2.864207894220033e-05,1.9677461746207517e-09,5.135466997084602e-07,3.6754008774883777,54.15946979122355,6.521232015176687,34.96719658394182
0.17,31.2222151493826,131.01039374906244,3.4833737923187487,3.7139589864597298,0.0003384978477213,43.96471427482637,0.0005668629535037,2.999235483723449,471.78125980632376,6.916861975403744,2.559060925010733,71.99992884100092,2.3206494032971838e-09,120.0000009081849,29.29426197817256,15.288,0.0,0.0,0.0203269651395979,5.248754693205839e-11,-3.5267097947693114e-05,2.580363454062817e-09,6.706952682968329e-07,3.713959001863866,52.549031795895466,6.916915146521327,44.06689817851128
0.18,31.22221503253009,131.01039398932429,3.549599475912623,3.7380363034619775,0.0003650282082698,36.67395661481795,0.0006021794701355,2.9956556354306425,407.10156721191447,7.332140201215607,2.71556808256092,71.99990696207136,5.837017536380516e-09,120.00000103716444,32.917216366714264,15.288,0.0,0.0,0.0215473823438242,6.839750892601699e-11,-4.285557247677198e-05,3.331016495775474e-09,8.639362741436378e-07,3.738036321259578,50.93050624815799,7.332197539712479,36.796100973258795
0.19,31.22221490871209,131.01039424390297,3.619694897703461,3.747799769666444,0.0003901520189829,41.42208371271829,0.0006393759928961,2.991742733214697,448.9531328318269,7.771071983754382,2.879366399937307,71.99988049019642,1.0709144790974043e-08,120.00000117502664,36.97605053227239,15.288,0.0,0.0,0.0228373144884866,8.761416506509219e-11,-5.146771415177372e-05,4.238406957677133e-09,1.0996552116864756e-06,3.747799789945131,49.29705748437159,7.771133268690212,41.529983675580546
0.2,31.22221477769685,131.01039451327668,3.693822889232993,3.7700519460961166,0.0004166800650969,37.99697972290605,0.0006740224661302,2.987733789228414,418.51563019916136,8.179966026035371,3.0338260708461373,71.99984881140107,1.723179577184912e-08,120.0000013223286,40.969302182777255,15.288,0.0,0.0,0.024038975990988,1.1057590044953188e-10,-6.120032215177249e-05,5.3263847350253015e-09,1.376394225587184e-06,3.7700519690893857,47.8457752505109,8.180031477986942,38.11426270718793
0.21,31.222214639876928,131.01039479663547,3.771710975053407,3.7926098867321474,0.0004432924407074,36.46301043881366,0.0007080907240332,2.983530483977461,404.8187610144644,8.582757448615462,3.1863584283669346,71.99981127559042,2.5745201416596626e-08,120.00000147900325,45.103059028532826,15.288,0.0,0.0,0.0252227064089584,1.3774582723633048e-10,-7.20875523136271e-05,6.61341033873124e-09,1.7010673350603349e-06,3.792609912601061,46.47936953648762,8.582827080829217,36.584868250565684
0.22,31.22221449507626,131.01039509434258,3.8534832466471007,3.782921298925821,0.0004660920499522,44.14577847155813,0.0007479176313898,2.978724032883548,472.5421858721365,9.056569122268344,3.360845972992861,71.99976720416048,3.661811567390422e-08,120.00000164562512,50.21995530074818,15.288,0.0,0.0,0.0266151520780326,1.6960703048385348e-10,-8.421592474264931e-05,8.124635526119773e-09,2.0969540034515424e-06,3.7829213275976334,44.9464484092354,9.056642335836344,44.24615863872642
0.23,31.22221434283448,131.01039540734791,3.9394622486964206,3.813874679301352,0.0004940771488601,36.66675459308932,0.000779455230549,2.974212905336642,406.3406421461021,9.430647902846331,3.5044030163419806,71.99971583979395,5.0272885112871524e-08,120.00000182313076,54.45382429059888,15.288,0.0,0.0,0.0277145095638672,2.0669790509245914e-10,-9.77285871729516e-05,9.894576563683824e-09,2.5339062472561444e-06,3.813874711257219,43.79476959007253,9.430725512303388,36.78718303164376
0.24,31.222214184153326,131.01039573358457,4.028950821673608,3.829256049377765,0.0005200487408944,37.802126339316736,0.0008136255607606,2.9692962675112065,416.2328240017114,9.837806876534357,3.658163422426286,71.9996564062533,6.718950080713476e-08,120.0000020109434,59.25679777340223,15.288,0.0,0.0,0.0289110855155543,2.4956955046738006e-10,-0.0001125744417092,1.1934277804843484e-08,3.0448209172448607e-06,3.829256084638984,42.59361542722471,9.83788856559955,37.91856374864305
0.25,31.22221401888584,131.01039607335582,4.122052964664892,3.851417709838087,0.0005469594058717,38.85163035360012,0.0008459008130282,2.964283881833675,425.36408079150686,10.22297576958679,3.8050691648373967,71.99958811418384,8.786880969336211e-08,120.00000220974424,63.98709205399403,15.288,0.0,0.0,0.0300430411774988,2.987811646313829e-10,-0.0001288461362054,1.4273117985167728e-08,3.621333387698252e-06,3.8514177486178034,41.50703126619192,10.223061685769354,38.96455005232871
0.26,31.222213847358866,131.0103964259872,4.218542267117083,3.8780574625554745,0.0005745172425185,42.3164797140743,0.0008766626387865,2.959162938653076,455.8015834241788,10.590779679138215,3.946551912391076,71.99951013710364,1.1286401474734325e-07,120.00000241975916,68.67355887153568,15.288,0.0,0.0,0.0311239685467471,3.5491769188178554e-10,-0.0001465721578858,1.6932703957058654e-08,4.267712643344226e-06,3.8780575050466,40.51245375834074,10.590869924095635,42.41981967733593
0.27,31.22221366913008,131.0103967923915,4.318728802515264,3.886188503202341,0.0005994342651313,38.70936050721014,0.0009111181036949,2.953518013741325,423.84219965987256,11.004860953238978,4.102320296019413,71.99942161756776,1.4276417094868828e-07,120.0000026420792,74.14786134434608,15.288,0.0,0.0,0.0323408987462391,4.1858405402174807e-10,-0.0001658847815307,1.995072923688136e-08,5.018832267232506e-06,3.886188549362022,39.43841359495857,11.00495511215316,38.8218734782956
0.28,31.22221348431185,131.01039717233687,4.422535913956003,3.90556090261878,0.0006261175699806,44.68030766832924,0.0009425767186621,2.947879457547137,476.3468732012221,11.38358114165448,4.247086834352694,71.999321619057,1.7823531611327881e-07,120.000002877279,79.33831935330025,15.288,0.0,0.0,0.033453914386159,4.904408325040897e-10,-0.0001868529238516,2.3357766479368094e-08,5.847713054408178e-06,3.9055609527288775,38.49894431917428,11.383679491972384,44.77744842575601
0.29,31.222213292835256,131.0103975659655,4.530013412817602,3.9242599519377537,0.0006528240665589,35.802573724660256,0.0009737210635801,2.942037024315898,397.97031042211177,11.759725774384751,4.391004157029451,71.99920917567837,2.1999186079018322e-07,120.00000312617878,84.66717879828003,15.288,0.0,0.0,0.0345593650464213,5.711677680739745e-10,-0.0002095620322847,2.7188189988316943e-08,6.77505090435382e-06,3.9242600061534456,37.60352534239979,11.759828319749328,35.92324968749781
0.3,31.222213095024976,131.0103979726075,4.64093665799555,3.936939025755682,0.0006785438093183,33.570228713727204,0.0010059102294455,2.93586442972183,378.1859457108711,12.149968255527943,4.539237002744259,71.99908328532703,2.6880857935396905e-07,120.00000338923812,90.3787563598417,15.288,0.0,0.0,0.0357062504417728,6.614698865958865e-10,-0.0002340353597042,3.1467140861055e-08,7.817263716758327e-06,3.9369390841381695,36.71173884615234,12.150074840940263,33.698361337808635
0.31,31.22221289105846,131.01039839189684,4.755183729044857,3.9598342215431432,0.0007060286581592,35.396825578217346,0.0010350810412898,2.9297385597941448,394.1656220930212,12.504537499407316,4.6763673222047455,71.99894291513503,3.255120771695107e-07,120.00000366712923,95.72967338626896,15.288,0.0,0.0,0.0367483036680869,7.620720834468404e-10,-0.0002603234137215,3.622454560346964e-08,8.948994505138873e-06,3.9598342843844345,35.934338386209795,12.504648402129598,35.5178635353378
0.32,31.222212681031937,131.01039882363492,4.872689374180126,3.985461429033668,0.0007340760463279,38.52097867048992,0.0010630242168685,2.9235095146848846,421.55939346242695,12.84534566718622,4.809181081594425,71.99878701464397,3.909756427278764e-07,120.0000039606604,101.01782231644016,15.288,0.0,0.0,0.0377499198995686,8.737098716736534e-10,-0.0002884807530145,4.1491545539590986e-08,1.0187112828155184e-05,3.98546149652875,35.21473736963424,12.845460975581933,38.631757748577954
0.33,31.22221246496604,131.01039926777932,4.9934410812554,4.010606629086,0.0007621365968788,38.18822026147908,0.0010905599149574,2.917102431053817,418.5156301991682,13.18247167592885,4.940798912752974,71.99861449732019,4.661299779655886e-07,120.000004270781,106.38859400029033,15.288,0.0,0.0,0.0387407190563976,9.971421990244511e-10,-0.0003185760672934,4.7302669734505256e-08,1.154498667827874e-05,4.010606701382261,34.52805863348922,13.182591392065536,38.299473293007864
0.34,31.222212242662028,131.01039972474007,5.117579377337869,4.019339771238816,0.0007871574969313,29.898022638335373,0.0011220389395318,2.910051232417875,345.46563688075645,13.569536737955724,5.0878303926024735,71.99842423285973,5.519675040347761e-07,120.0000045987411,112.72655675097128,15.288,0.0,0.0,0.0398782837956187,1.1331556132162459e-09,-0.0003507224668667,5.37022358302301e-08,1.308298593306914e-05,4.019339848191799,33.76700548046532,13.5696603843662,30.039310197084795
0.35,31.22221201433324,131.01040019407705,5.2449575244483055,4.033762873683395,0.000813261106463,32.76415525156106,0.0011515840876071,2.902959820469776,370.5765700527033,13.934300103976534,5.227895396154902,71.99821502296155,6.495674834876441e-07,120.000004945438,118.8669740701126,15.288,0.0,0.0,0.040950312688979,1.2825853697215452e-09,-0.0003849609961885,6.072234695821837e-08,1.4746020857580124e-05,4.033762955530055,33.07785186209504,13.934427850732408,32.89250745069162
0.36,31.22221177990305,131.01040067594835,5.375631006350063,4.051723629010647,0.0008401329464575,37.01692984301412,0.0011797030485285,2.8957873473716007,407.8625232777193,14.282998147928636,5.362923567977223,71.9979856440668,7.600645476620651e-07,120.00000531213882,124.88900300695136,15.288,0.0,0.0,0.0419751331662584,1.4462801652534363e-09,-0.0004213876232777,6.84067806399068e-08,1.654507199147348e-05,4.051723715967022,32.44322602189087,14.283130115703262,37.13002398000203
0.37,31.222211539445663,131.01040117020102,5.509550188388412,4.071639898917391,0.0008674922629137,35.12417761390579,0.0012067983861697,2.88849906286036,391.1218908297666,14.620581431527652,5.494447309446232,71.99773482653193,8.846681943540367e-07,120.00000570002652,130.86067091914967,15.288,0.0,0.0,0.0429672939311924,1.6251202388969355e-09,-0.0004600660652957,7.679415042686734e-08,1.849041957573993e-05,4.071639991174516,31.85023865502424,14.620717696893658,35.24274792557624
0.38,31.222211292895075,131.01040167697127,5.646763233102716,4.08264881385344,0.0008930259828975,36.695642158537446,0.0012360471443664,2.880711738179021,404.8187610144602,14.986392916850402,5.634654729559426,71.99746126698146,1.0246533537040716e-06,120.0000061105033,137.4891296153862,15.288,0.0,0.0,0.0440424171304414,1.8200057922063743e-09,-0.0005010869196581,8.592980519823866e-08,2.0642694281337543e-05,4.082648911356968,31.228847973200924,14.986533193043764,36.808540518115166
0.39,31.22221104018777,131.0104021963902,5.787316652586672,4.096641430700089,0.0009192713382325,31.335681548387896,0.0012640110027448,2.872831219844713,357.64062493382744,15.337978856701952,5.770390286512262,71.99716358743511,1.1813915463769678e-06,120.00000654506955,144.01394309468844,15.288,0.0,0.0,0.0450757388736732,2.031886352449547e-09,-0.00054455673306,9.586443829735616e-08,2.295945663566148e-05,4.096641533664766,30.65298398882095,15.338123255506089,31.4670954954126
0.4,31.222210781536543,131.01040272801887,5.931064331106764,4.109028969993624,0.0009451871856381,29.95928076777898,0.0012920492774571,2.8646905607053603,345.465636880754,15.692185018814769,5.906873567965718,71.99684037970908,1.3563276523471372e-06,120.00000700500496,150.74021066990193,15.288,0.0,0.0,0.0461167659598875,2.2617341782092324e-09,-0.0005905037520737,1.0663253249436129e-07,2.5471259834659164e-05,4.1090290785164525,30.09246700352443,15.692333488470696,30.095929256306363
0.41,31.222210517064383,131.01040327160345,6.077922766619747,4.122888296344507,0.0009714525997821,33.78425365340317,0.0013192264430821,2.85640971467756,378.94687077668647,16.03742529732769,6.0405139809190125,71.99649020751959,1.5509747261474075e-06,120.0000074917568,157.44375780268788,15.288,0.0,0.0,0.0471314487675864,2.5105374204052982e-09,-0.0006389770219162,1.1827345344180344e-07,2.816813594418537e-05,4.122888410595805,29.56469007160549,16.037577892745222,33.904791300285986
0.42,31.22221024682894,131.0104038270252,6.227854084363214,4.14444025865494,0.0009995884754813,38.04468161607466,0.0013435485656724,2.8482703202464488,416.2328240017114,16.348862540904037,6.163613566771559,71.99611159893284,1.766920641656551e-06,120.00000800692096,163.6157044470786,15.288,0.0,0.0,0.0480467946810589,2.779304965995011e-09,-0.0006900467934588,1.308321832549104e-07,3.100973487310896e-05,4.144440378988911,29.104646754454564,16.34901955589459,38.15115260238947
0.43,31.222209970843565,131.0104043942566,6.380851271439565,4.1618082623168045,0.0010268052928652,33.45815353250911,0.0013687230309017,2.8397750580998298,375.9031395134336,16.67263197205097,6.290467308135904,71.99570306121484,2.005818691215035e-06,120.00000855220898,170.15779512382937,15.288,0.0,0.0,0.0489983878509763,3.0690566816849196e-09,-0.0007437862329608,1.443552931671376e-07,3.4086145072160934e-05,4.161808388761201,28.640125213458976,16.672793262249197,33.57845085853367
0.44,31.22220968892116,131.01040497368373,6.537047157143216,4.164954087655709,0.0010505545842624,30.86574023822051,0.0013980747538988,2.830419582421933,353.0750125389216,17.050421620730056,6.433992917638883,71.99526304125902,2.269416145406482e-06,120.00000912964636,177.9537948947602,15.288,0.0,0.0,0.050108743779844,3.380847125286677e-09,-0.0008003278134917,1.589055036683518e-07,3.750784460406397e-05,4.164954219916419,28.113519280259386,17.050586641458253,30.99524475496968
0.45,31.22220940081287,131.01040556582012,6.696617751072218,4.165241899529329,0.0010735835484822,35.912216710755274,0.0014280646808282,2.820677244966047,397.2093853562869,17.438293672974723,6.580571293039616,71.99478987454265,2.5595995397253085e-06,120.00000974147088,186.13940823302417,15.288,0.0,0.0,0.0512487363629523,3.7158016249566814e-09,-0.000859850913876,1.745604864109677e-07,4.121350642664912e-05,4.1652420376426775,27.591357195572936,17.43846231108416,36.02281959036367
0.46,31.222209106468902,131.0104061707686,6.859600379555308,4.174585124444534,0.0010989881252456,41.916816790010685,0.0014546917035209,2.811153314474766,449.7140588976434,17.786187321601275,6.714685486378061,71.99428180697711,2.8783880229668832e-06,120.0000103898448,193.6374175079873,15.288,0.0,0.0,0.0522712438446989,4.0751091178509895e-09,-0.0009224765531151,1.9138630415982226e-07,4.50966024037632e-05,4.1745852688465686,27.13985967570823,17.786359950252297,42.01097612387663
0.47,31.22220880579083,131.01040678873238,7.026066274755745,4.1823089530633855,0.0011240727220223,28.37640408484148,0.0014814747534716,2.801325368441072,331.0078106302534,18.138167428286582,6.849989708801916,71.99373704967608,3.2278903746588286e-06,120.00001107707628,201.37401505997488,15.288,0.0,0.0,0.0533057667609836,4.459978104761035e-09,-0.0009883252835099,2.094509673354327e-07,4.927107017839778e-05,4.182309103852639,26.69716826759888,18.13834399721685,28.514342615617974
0.48,31.222208499300592,131.0104074186346,7.195654207463586,4.189479568102716,0.0011490100608361,27.95074823096412,0.0015080719422187,2.7912412472910484,327.2031223011574,18.48995085190441,6.98515976370584,71.99315377257649,3.6103201777021456e-06,120.00001180491516,209.25751230436188,15.288,0.0,0.0,0.0543397174489847,4.8716620260348906e-09,-0.0010573190976925,2.2877013380347535e-07,5.373205427420879e-05,4.189479725385959,26.268461765425428,18.4901313379827,28.089773168283216
0.49,31.222208187201936,131.01040806005494,7.368224738812109,4.202723284133339,0.001175611380853,35.08821363242469,0.0015321405723077,2.781292092003844,389.60000969812296,18.812014261754847,7.111044804193205,71.99253015042137,4.027946338669921e-06,120.0000125755114,216.60722913930897,15.288,0.0,0.0,0.0552863302793499,5.311396446020465e-09,-0.0011294854492155,2.4938633613154685e-07,5.8398320167141767e-05,4.202723448262914,25.88860807032205,18.81219892635871,35.1982716047702
0.5,31.22220786953184,131.01040871291724,7.5437546994244835,4.220815778795054,0.0012036252596423,36.05491615971072,0.0015540388599792,2.7714444106710974,397.97031042210494,19.10875420627192,7.229005658018125,71.99186435180009,4.483102820610566e-06,120.00001339126192,223.4908652241728,15.288,0.0,0.0,0.0561585257949344,5.7804122391526605e-09,-0.0012048912160576,2.713531252030471e-07,6.327866493526626e-05,4.220815950099865,25.54902500917784,19.108943271285572,36.161276053538906
0.51,31.222207546379583,131.0104093770373,7.722184419225251,4.232567510615346,0.0012298790840397,27.54004661432325,0.0015777580800203,2.761017323676155,323.3984349720841,19.430597746636646,7.354673636736509,71.99115452520388,4.978202222778502e-06,120.00001425458936,231.07869697977367,15.288,0.0,0.0,0.0571045034845869,6.2799518101633574e-09,-0.0012835871653678,2.947201005874635e-07,6.854585242460463e-05,4.232567688976395,25.189423168613605,19.430790935591396,27.678103017910345
0.52,31.22220721770797,131.01041005266967,7.903528141146634,-18.175689403685595,-0.0024700356087695,33.3994212374211,0.0010003593311051,3.874798031107932,372.0984511843415,18.289544434150365,7.489847183814482,71.99042324582572,4.861253201291201e-05,120.00006048526524,204.73203417092031,15.288,0.0,7.542872346434539,0.0537511765755547,6.807267557860853e-09,-0.0011629397821219,4.105146440843976e-05,5.8455073049932784e-05,18.17568956585373,31.515330723336547,18.289156441864357,33.62343527626665
0.53,31.222206882936703,131.0104107408928,8.087884994540259,-17.835716823291964,-0.0023959603946426,35.06139502456497,0.0010210664358766,3.894360121971628,386.5562464348624,18.589713963612525,7.62848906732364,71.98983395161505,0.000120923028128,120.00013687595424,211.50359444463336,15.288,0.0,7.571888764814609,0.05463345899266,7.240264361149497e-09,-0.0008656545351783,4.100932001370959e-05,4.422539500260467e-05,17.8357169789905,31.038098623004547,18.58933760703393,35.27701040154578
0.54,31.22220654188953,131.01041144199067,8.275326138804198,-17.507567643209097,-0.0023237338258375,30.80292146983913,0.0010416324885715,3.9140488251625856,349.2703242098436,18.888601297579743,7.766662451114854,71.98941676624534,0.0001931559785754,120.00021319182936,218.35549231066088,15.288,0.0,7.600836257677765,0.0555119787488416,7.547998949801948e-09,-0.0005615004685401,4.0966614271355245e-05,2.914717781804478e-05,17.50756779259096,30.575580813030054,18.88823628632404,31.05059983909862
0.55,31.22220619485604,131.01041215536563,8.465645129638004,-17.195644369649223,-0.0022539417159131,32.63893884255619,0.0010617775821201,3.9335770847992975,365.2500005919907,19.18064073981932,7.902564024001523,71.9891755309254,0.000265312504581,120.00028943375312,225.1556276104427,15.288,0.0,7.629679157847269,0.0563703786417763,7.727963851500038e-09,-0.0002508764317557,4.092343084817226e-05,1.3223963024976216e-05,17.19564451290639,30.134979692672395,19.1802866914826,32.875117620740966
0.56,31.22220584183104,131.010412881028,8.658841166114504,-16.902675078212752,-0.0021868875636117,30.46762657427836,0.0010812861353545,3.952720632516745,346.2265619465787,19.46151328310309,8.034815422067146,71.98911397829659,0.0003373938734572,120.00036560305864,231.79376079693125,15.288,0.0,7.658415636498816,0.0571959653783508,7.777732165986546e-09,6.628278652412365e-05,4.087979096672593e-05,-3.54493241382024e-06,16.902675215555714,29.72101499021501,19.46116976760797,30.722959991471786
0.57,31.22220548288557,131.01041361883085,8.854860490336737,-16.610747462307742,-0.0021203037904626,30.12528030001681,0.0011011153022832,3.9724502208985455,343.1828296833023,19.75026197989087,8.169579600849556,71.9892358082295,0.0004094014713809,120.00044170112167,238.718498952898,15.288,0.0,7.687031886151782,0.0580447050526215,7.69492607373206e-09,0.0003898903993136,4.0835736732183856e-05,-2.1161079669363103e-05,16.610747593819713,29.3063685763393,19.74992892335037,30.386063830719383
0.58,31.222205117990608,131.01041436883375,9.053719178193925,-16.309046939331783,-0.0020528874697256,39.63520854321772,0.0011219255886988,3.993463462430773,426.1250058573153,20.06017127254057,8.311129703375121,71.989544731786,0.0004813367850166,120.00051772953094,246.26422947047192,15.288,0.0,7.715526876405183,0.0589556400892275,7.47717286992414e-09,0.0007200205811761,4.0791289922391375e-05,-3.969114931191666e-05,16.309047065026046,28.87407709210489,20.05984880573096,39.83588216606789
0.59,31.22220474671338,131.01041513192925,9.2557144179136,-16.03783971455567,-0.0019895281137475,32.14353680716074,0.0011413152626633,4.01330874005732,360.68438819711065,20.343249777718377,8.444018218456062,71.99004472506093,0.0005532013077453,120.00059369031644,253.2586572146903,15.288,0.0,7.743943622888813,0.0597877270769069,7.121902786549225e-09,0.0010574512115009,4.074638485022076e-05,-5.911345923147896e-05,16.037839834718397,28.487305416581624,20.342937263373127,32.39311048385009
0.6,31.222204369272035,131.01041590766698,9.460689917605515,-15.743567303530195,-0.0019237524420884,28.5734790262624,0.0011625315319025,4.035345565147554,329.4859594986058,20.664625796106087,8.589199121627935,71.99073979600676,0.0006249966471907,120.00066958492748,261.3185138069797,15.288,0.0,7.772254197710059,0.0607323745061007,6.6265876517080565e-09,0.0014018498290021,4.070109974302392e-05,-7.960240590888933e-05,15.7435674180916,28.061897411922672,20.66432361377917,28.85702200238086
0.61,31.22220398560896,131.01041669616544,9.66868155340832,-15.453040456333076,-0.0018588491246843,33.46647215264722,0.0011839768170278,4.057948187957449,372.0984511843297,20.992386973179208,8.736388393900663,71.99163403655757,0.000696724497994,120.00074541520108,269.6684023906988,15.288,0.0,7.800462528437309,0.0616957941315776,5.9886415453700085e-09,0.0017533655624962,4.065545256586552e-05,-0.0001011399600911,15.453040565409642,27.639979541892806,20.992094985841547,33.711595975893225
0.62,31.22220359583846,131.01041749718843,9.879605386432498,-15.216137604466471,-0.0018006028405867,41.591491564466686,0.0012022757542405,4.077557803608848,442.86563930529206,21.25838611605368,8.863748175212917,71.99273161808661,0.0007683866542637,120.0008211828934,276.5401542660438,15.288,0.0,7.828567706048515,0.0624777037462981,5.205449324867774e-09,0.0021119385628932,4.060948839079151e-05,-0.0001233647994236,15.216137708487215,27.301932879451133,21.25810327802093,41.790891946025056
0.63,31.22220319976124,131.0104183111469,10.093596503669202,-14.971384877854776,-0.001741746433027,23.611224478113,0.0012214007570547,4.098332746437797,286.11251274707894,21.542725488387184,8.996992756729869,71.99403649348743,0.0008399851045749,120.0008968903023,283.9814613810113,15.288,0.0,7.856550350445656,0.0633135207380843,4.2745704563457556e-09,0.0024778632617941,4.056321097333004e-05,-0.0001466725173215,14.9713849768543,26.949819834244447,21.542451895497305,23.964270365445863
0.64,31.22220279798592,131.01041913678492,10.310226951062734,-14.710977646084425,-0.0016815226154972,23.177765285483307,0.0012419771481789,4.120962472790484,282.30782441796754,21.858240063713204,9.140179636645977,71.99555263035623,0.0009115219661333,120.00097253899077,292.35467537457885,15.288,0.0,7.884418461123286,0.0642409670262112,3.193600902067112e-09,0.0028501350786434,4.051677844737328e-05,-0.0001711757984405,14.710977740065603,26.570582274743707,21.857975930758457,23.541264555533328
0.65,31.2222023904866,131.01041997415552,10.52951127531674,-14.489335880596748,-0.0016260394865105,40.91856873923021,0.001260104968462,4.14127718279835,436.7781447787475,22.125776902415566,9.268009390663735,71.99728384742878,0.0009829995190409,120.00104813137555,299.5487928950032,15.288,0.0,7.9121056489088,0.0650274137614101,1.960234481174536e-09,0.0032289042024966,4.047021047365836e-05,-0.0001962936596052,14.489335969883095,26.25307257309278,22.12552148473034,41.12759956476598
0.66,31.222201976726524,131.01042082436587,10.75182030566494,-14.265307953342733,-0.0015705858242021,34.808245588745386,0.0012786820176965,4.162391402552276,383.51251517160017,22.40420095344267,9.39932729716635,71.99923398232686,0.0010544201535883,120.00112367053848,307.12853167837915,15.288,0.0,7.939696586675315,0.0658458641108695,5.721744514445356e-10,0.0036150861650683,4.0423442628145605e-05,-0.0002225314634393,14.26530803800818,25.930379384038165,22.403954246398342,35.05623289501428
0.67,31.22220155689396,131.0104216870273,10.97701925108054,-14.028322175192024,-0.0015140942254746,23.972881385767764,0.0012985566932764,4.185248298716289,289.1562440103425,22.71097775809209,9.53967748445076,72.00140717349932,0.0011257863092174,120.001199158832,315.5902060341556,15.288,0.0,7.967195401814861,0.0667476495897562,-9.730553040702755e-10,0.0040083894477576,4.037655154580136e-05,-0.0002501149560875,14.02832225526178,25.584868283615087,22.71073992472733,24.335475071266796
0.68,31.222201131159416,131.01042256178766,11.204985772536704,-13.801909292340648,-0.0014591456078758,29.923002695322715,0.0013179362903078,4.207902349853288,340.8999924858462,23.009567141532774,9.6773967749694,72.00380747209913,0.001197108418703,120.00127460958008,323.9360210281583,15.288,0.0,7.994507206336767,0.0676253788396675,-2.677874866869597e-09,0.0044085971431408,4.0329604515962766e-05,-0.0002786976304828,13.801909367973792,25.25558179562366,23.009337939476687,30.21742103865165
0.69,31.222200699600343,131.010423448487,11.435662701996865,-13.597738534314855,-0.0014068666956055,36.83860657975456,0.0013358255069113,4.2292458707619565,401.0140726853634,23.279513052942992,9.805991631006176,72.00643894344185,0.0012683735469686,120.00135000399108,331.57403103008704,15.288,0.0,8.021702331167697,0.0684189309912092,-4.544623432942575e-09,0.0048156030281876,4.028265641604437e-05,-0.0003079919483051,13.5977386057228,24.96211590199765,23.27929206283924,37.08058059358999
0.7,31.22220026206777,131.0104243474324,11.669150996637187,-13.39688722915934,-0.0013552392953042,30.8937583796842,0.0013536847519044,4.250886736027675,349.27032420985284,23.5507521680054,9.935001214676657,72.009305444822,0.0013395924447785,120.0014253560658,339.3380443542216,15.288,0.0,8.048793444106428,0.0692162902289022,-6.575528967551575e-09,0.0052296927404661,4.023572195892098e-05,-0.0003383654494433,13.396887296454024,24.673167860719467,23.55053928751472,31.184841617319563
0.71,31.2221998186118,131.0104252585202,11.905412817635812,-13.189078288900909,-0.0013032842742644,25.3831891550202,0.0013723723903097,4.273790906183006,301.33126406340574,23.84105736129308,10.070056989082964,72.01241092541902,0.0014107760293472,120.00150067977934,347.74761503871633,15.288,0.0,8.075706220677553,0.070069691721593,-8.772867754201274e-09,0.0056507928180095,4.01888555885776e-05,-0.0003701093858826,13.189078352151814,24.371610055134653,23.84085264187802,25.74046585189774
0.72,31.22219936922829,131.0104261817588,12.14444819348024,-12.972671947854607,-0.0012508991872053,31.07779698643768,0.0013921026782694,4.298244269720958,350.79220534145287,24.15504614688688,10.212604633409365,72.0157595297343,0.0014819116607764,120.0015759567072,356.959470666042,15.288,0.0,8.102495120917144,0.0709927070676844,-1.1138959268540958e-08,0.0060789707543723,4.01420980982402e-05,-0.0004033881705188,12.972672007129932,24.054283178893662,24.154849656102048,31.373625408460107
0.73,31.22219891390747,131.010427117168,12.386260989040936,-12.790636194780152,-0.0012021311478585,39.31527633242246,0.0014090590624528,4.319918260673485,422.320318528234,24.413726226712505,10.337618393912928,72.01935543440344,0.0015530104892934,120.00165120113212,364.63740849497646,15.288,0.0,8.12917931905193,0.0717531745661054,-1.3676188496337582e-08,0.0065143411329148,4.00954873511656e-05,-0.0004368976565819,12.79063625032989,23.79435920210257,24.41353739639338,39.55189817011422
0.74,31.22219845257684,131.01042806489718,12.630899329760876,-12.602363360530749,-0.0011531001672182,24.60149183336673,0.0014267803851681,4.342813779935331,294.48281347105944,24.690410387626816,10.46833484395162,72.02320259838878,0.0016240838230038,120.001726427554,372.940454170708,15.288,0.0,8.155730407488734,0.0725665635757463,-1.6386754031521892e-08,0.0069569946677859,4.004906610165237e-05,-0.0004718619130782,12.602363412430847,23.523008360312332,24.69022925907612,24.981862100133934
0.75,31.222197985609743,131.01042902417586,12.878100117904705,-12.411439074475012,-0.0011042193103332,28.722595761112228,0.0014449711937625,4.366612101149936,330.24688556441487,24.97908210086089,10.602818792585676,72.02730507263128,0.0016951274671472,120.00180162861176,381.702952693149,15.288,0.0,8.182098648098401,0.0734151914145793,-1.927290617685852e-08,0.0074062632225003,4.000294837177282e-05,-0.0005081948432928,12.411439122824294,23.24632619967817,24.978908650497235,29.05262140644305
0.76,31.222197512883486,131.01042999525697,13.127946763510955,-12.234170146794952,-0.0010568914802829,30.917034426880736,0.0014620844294059,4.389529537660441,349.27032420986166,25.24754616663992,10.73090281532826,72.03166683865204,0.0017661372404223,120.00187679744748,389.94243430278107,15.288,0.0,8.208343686821646,0.0742044344108271,-2.2336757624899416e-08,0.0078624452791439,3.995715730454101e-05,-0.0005452818299373,12.234170191750632,22.992381896909645,25.247380150514427,31.227087431469062
0.77,31.22219703433157,131.01043097827755,13.380483586406228,-12.062499128575755,-0.0010103603249816,28.90312084445016,0.0014788372086432,4.412395189669448,331.7687666960708,25.51074339420584,10.857317938563424,72.03629178386159,0.0018371328479714,120.00195195995263,398.10519497777045,15.288,0.0,8.234468411797593,0.0749782044560977,-2.5580403016870763e-08,0.0083256962013902,3.99117325144769e-05,-0.0005834146858492,12.062499170262845,22.74744756549175,25.51058468717713,29.23798262612636
0.78,31.222196550016417,131.01043197310855,13.635664991406172,-11.885231378615682,-0.0009637126663904,23.73005880498473,0.0014963320058138,4.43651264851015,286.8734378128899,25.79187663609419,10.989374569948628,72.0411839079618,0.0019081104559644,120.00202710944532,406.9179606277911,15.288,0.0,8.260448634773889,0.0758046967665674,-2.9005948207745883e-08,0.0087958887081014,3.9866740106687525e-05,-0.0006231401132842,11.88523141712494,22.492070730727757,25.791725256462552,24.141216572646734
0.79,31.22219606002524,131.0104329795699,13.893428098113088,-11.706239742204565,-0.0009173188812906,33.73433383659889,0.0015142076391911,4.461478326244144,373.6203323159534,26.08352067541976,11.124713195830063,72.04634720234154,0.0019790746380093,120.00210225073177,416.1622133491781,15.288,0.0,8.28625250374381,0.0766620883586459,-3.2615499753096055e-08,0.0092728917372653,3.982224633739974e-05,-0.000664345029462,11.706239777644315,22.23297724040047,26.083376583306844,34.02807767928527
0.8,31.22219556411894,131.01043399815467,14.1539381405491,-11.546563981564484,-0.0008727503508582,34.17656532843841,0.0015302541731373,4.484653782610764,377.42502064505743,26.33911687824123,11.248692211733363,72.05178577846183,0.0020500295736833,120.0021773883795,424.3476260520292,15.288,0.0,8.311945080979491,0.0774135388154902,-3.641112778674327e-08,0.0097572654936048,3.9778263324524245e-05,-0.0007058798041551,11.546564014100312,22.00722453292364,26.338979786936704,34.46954800313722
0.81,31.22219506240032,131.0104350286507,14.41712162857402,-11.379403076337036,-0.0008279496203501,22.239335174789705,0.0015472561839188,4.50937826225557,273.9374926939919,26.61748500775265,11.379818540684704,72.05750368366701,0.002120979615843,120.002252526766,433.3536089018877,15.288,0.0,8.337513165937798,0.0782319254243287,-4.039493459287151e-08,0.0102487662143686,3.973487117737698e-05,-0.0007492539701336,11.379403106060174,21.767605769645293,26.617354953730413,22.69190436527405
0.82,31.222194555062863,131.01043607065844,14.682841628671408,-11.21096985967355,-0.000783437499386,28.562712425492368,0.0015645841022649,4.534924479223409,328.72500443277005,26.905461318689287,11.513929431919983,72.0635049396218,0.0021919292887682,120.00232767034872,442.7699970528524,15.288,0.0,8.362945234285684,0.0790785588185753,-4.4569006843017993e-08,0.0107470393365758,3.969215686246706e-05,-0.000794161167015,11.210969886697129,21.52502082502913,26.90533825661466,28.92047861951042
0.83,31.22219404208364,131.01043712422523,14.951112723513043,-11.064028436553183,-0.0007407444735573,36.294869014556525,0.0015796615503923,4.558109105009449,395.68750322465047,27.148271491462616,11.633834242601246,72.069793531019,0.0022628925263009,120.00240283669592,450.7860596670256,15.288,0.0,8.388236977580979,0.079792450187578,-4.893532876295805e-08,0.0112522145544492,3.965017122509564e-05,-0.0008389737351035,11.064028461040882,21.32036818211635,27.1481551355928,36.57996552612257
0.84,31.222193523345865,131.01043818959175,15.222015554715,-10.91561657360954,-0.000698242032318,22.41402811847776,0.0015949981741016,4.5819975380208655,275.4593748256452,27.39930023891575,11.756302984252269,72.07637342742359,0.0023338575546414,120.00247800807315,459.14911749648655,15.288,0.0,8.413366382789983,0.0805305038483597,-5.3495751693756335e-08,0.0117644917393865,3.9608963855709904e-05,-0.0008852573036451,10.915616595671032,21.11276932425712,27.399190559313794,22.87757330833758
0.85,31.222192999156885,131.01043926612385,15.49533392572124,-10.754678089949616,-0.0006553073357944,24.43522376205301,0.0016119267541364,4.608300235890882,292.96093233939376,27.68723702179585,11.890297866206236,72.08324838766316,0.0024048452636813,120.00255321112938,468.83783176726496,15.288,0.0,8.438350503354476,0.0813770426220693,-5.8252224488624776e-08,0.0122832235539741,3.956864191275765e-05,-0.0009339797346725,10.754678109679269,20.88200017648981,27.687134086360256,24.865972612468223
0.86,31.2221924693278,131.010440354211,15.771199066268318,-10.607281763686572,-0.0006135431692349,30.589762773756,0.0016273925533112,4.633197221854632,346.2265619465587,27.946780066694767,12.015364091941816,72.09042243410806,0.0024758553620296,120.00262844387566,477.6562448798557,15.288,0.0,8.46320669770632,0.0821401351631131,-6.320655325224052e-08,0.0128089026042641,3.952923740299767e-05,-0.0009830546756253,10.607281781227556,20.675261826589136,27.946683691559112,30.938650676777684
0.87,31.22219193387983,131.0104414538094,16.049595325881846,-10.46723278125672,-0.0005725057367875,28.480182988625064,0.0016420637345828,4.657503834830087,327.964078366998,28.192173824204783,12.135974572821931,72.09789950446755,0.0025468901683453,120.00270370762225,486.06843948382095,15.288,0.0,8.487933770518238,0.0828616476336854,-6.836057267613449e-08,0.0133414951248071,3.949082014563816e-05,-0.0010328932216202,10.467232796738772,20.481539898053008,28.192083895213944,28.8585025206333
0.88,31.22219139284668,131.01044256484937,16.330498497488378,-10.322143435542715,-0.0005315106140002,24.60992132096917,0.0016574483150217,4.683157381910852,294.4828134710418,28.456014445094866,12.262316288911988,72.10568344953127,0.002617958450562,120.0027790124639,495.1955386585112,15.288,0.0,8.512525836446454,0.0836373856779649,-7.371607556232126e-08,0.01388088097473,3.945346603690243e-05,-0.0010846802881272,10.322143449078734,20.27818229182864,28.455930955602856,25.05155071517877
0.89,31.22219084631056,131.0104436871612,16.613850392233807,-10.172392250429624,-0.0004906416814982,26.98529431802993,0.0016735405031417,4.7101844411955325,315.028134248087,28.738427992833007,12.394407253600692,72.11377814640126,0.0026890663097541,120.00285436471324,505.0597696783341,15.288,0.0,8.536980920352725,0.0844677203465328,-7.927484541352865e-08,0.0144269336989691,3.941725146763904e-05,-0.0011385074341567,10.172392262137514,20.0657228192476,28.7383509230179,27.393282930337442
0.9,31.222190294187968,131.01044482091703,16.899709063463764,-10.042131705270508,-0.0004510252171985,29.80177190802624,0.0016872134057162,4.734506442467846,339.37814235421445,28.971536085743303,12.5110713650365,72.12218761451008,0.0027602157567116,120.00292976517817,513.2723641427708,15.288,0.0,8.561308552670607,0.0851531441360418,-8.503860973503127e-08,0.0149798948252238,3.9382235166112186e-05,-0.0011917006879333,10.042131715295117,19.88899384463637,28.971465238867857,30.175506009982342
0.91,31.222189736550128,131.01044596596992,17.188024451413618,-9.906856370642204,-0.0004114803377973,22.670287205422937,0.0017015881371429,4.760182659906032,277.7421810230789,29.223195982343352,12.6334787411654,72.1309155473035,0.0028314261678841,120.00300523827964,522.2136655276253,15.288,0.0,8.585474561247294,0.0858931023695181,-9.10090280876982e-08,0.0155395734496358,3.934850062069735e-05,-0.0012469288756584,9.906856379102257,19.7027194310528,29.22313134716304,23.164655486914437
0.92,31.22218917360616,131.01044712188826,17.478649560680104,-9.767019120070133,-0.0003720967878954,26.98411195627072,0.0017166509654005,4.787232523795317,315.02813424806214,29.49335886821396,12.761586739673325,72.13996580084293,0.0029026864232985,120.003080766342,531.8989827558186,15.288,0.0,8.609495821162561,0.0866874520206974,-9.718786698893249e-08,0.0161054889686061,3.9316142344155615e-05,-0.0013042501820431,9.767019127089274,19.507516309683638,29.493300419387197,27.405472012945275
0.93,31.222188605257564,131.01044828887512,17.771653611827375,-9.644307331681848,-0.0003336694781683,32.092834382838845,0.0017294318177436,4.811675907231964,359.1625070654728,29.71691510245816,12.875137873670347,72.14934205139213,0.0029740199724335,120.00315637941983,539.9778123777435,15.288,0.0,8.633385856783724,0.0873448216040296,-1.0357655893432905e-07,0.0166779527726412,3.928522096901325e-05,-0.0013608084521096,9.644307337399292,19.3442497003484,29.71686268977909,32.45153689352007
0.94,31.22218803138638,131.01044946717397,18.067120043393565,-9.509801424347431,-0.0002951339602606,23.28133669107316,0.0017438843235641,4.8388463823147525,283.0687504837787,29.980850106361288,13.00119471042359,72.15904795074786,0.0030454299629239,120.0032320796413,549.5965908736916,15.288,0.0,8.657144450434016,0.0881208808304248,-1.1017649393543057e-07,0.0172571263309302,3.9255808871076126e-05,-0.0014205307270242,9.509801428885009,19.158405751199457,29.98080374682722,23.77887876826581
0.95,31.222187452293653,131.01045065616356,18.36483726394849,-9.37910815063428,-0.0002570695488617,30.1545190875054,0.0017578587066397,4.865845765393301,342.4218736174873,30.23798280379617,13.12506301405636,72.16908734461708,0.0031169120281185,120.0033078582995,559.0483337388496,15.288,0.0,8.68076206351311,0.0888769538191271,-1.1698943791521958e-07,0.017842404073131,3.9228004915968936e-05,-0.0014812623319572,9.379108154125742,18.979446944793303,30.237942423405865,30.544581835431806
0.96,31.222186867669105,131.01045185648405,18.66502427084952,-9.257515186165728,-0.0002195511302651,29.5369126500067,0.0017705499802407,4.891564817069088,337.09533515678345,30.47044787708138,13.241220634231569,72.17946389974887,0.0031884818174617,120.00338373474578,567.6607681404618,15.288,0.0,8.704257402939412,0.0895605298568921,-1.2401651718245226e-07,0.0184345119564893,3.92018669798134e-05,-0.0015421398290697,9.257515188746476,18.81762742377652,30.470413390070483,29.939215393669908
0.97,31.222186277531367,131.01045306809695,18.967668702074853,-9.134061859844907,-0.0001822734290555,18.865003845049472,0.0017835224317244,4.918163534886344,245.02188719299323,30.713027091204896,13.360459584723456,72.19018134232763,0.0032601576477438,120.00345973154768,576.7184254534944,15.288,0.0,8.72762822434593,0.090273841207076,-1.312592023468379e-07,0.0190333913386987,3.917748287468473e-05,-0.0016048684813927,9.134061861648142,18.652023819661828,30.71299845976161,19.495556052869315
0.98,31.222185682179816,131.0104542903846,19.272560285729856,-9.000129939307847,-0.0001451483423797,27.506461598258248,0.0017981029231526,4.947543264128128,319.5937466429581,30.99567494065987,13.492023695548578,72.20124348282657,0.0033319271472707,120.0035358287958,587.364993065203,15.288,0.0,8.750858686648813,0.0911049326306793,-1.387192411089427e-07,0.0196383018387738,3.9154954715817774e-05,-0.0016710635217953,9.00012994046864,18.46580697824208,30.995652140811565,27.947873214970212
0.99,31.22218508145708,131.0104555236715,19.579810759246303,-8.88851219213733,-0.0001086956206355,30.063641406604454,0.0018093031717041,4.972625487126488,341.6609485517054,31.20664467820471,13.601331127842125,72.21265401806129,0.0034038164996701,120.00361205987356,595.3703461615521,15.288,0.0,8.773966625192514,0.0917253495301696,-1.4639776853100534e-07,0.0202497397266595,3.9134357264341966e-05,-0.0017347689331848,8.88851219279655,18.322703617460714,31.206627604336543,30.472110890676735
1.0,31.222184475360468,131.0104567679634,19.88942345416664,-8.766751322339028,-7.239909111704832e-05,26.885078249268453,0.0018220516297106,5.000432909440336,314.2672081822764,31.45663664423188,13.722636510360603,72.22441648377956,0.003475822952511,120.00368841824267,604.9294176439361,15.288,0.0,8.796945086356095,0.092460471204421,-1.54296039606507e-07,0.0208675747622882,3.91157833472233e-05,-0.001801965466765,8.766751322635628,18.15962989467844,31.456625271809244,27.346147170506008
1.01,31.22218386407605,131.01045802287626,20.20126808026963,-8.648590371950604,-3.64576092030536e-05,28.11891276293121,0.0018342315015684,5.027933139751829,324.9203161036979,31.69815265055581,13.841235140941585,72.2365345165102,0.0035479590718994,120.0037649180753,614.2356658105451,15.288,0.0,8.819790875048248,0.0931706868930195,-1.624155081378244e-07,0.0214914220844167,3.909932701420973e-05,-0.0018700288135669,8.648590372026833,18.003390356011536,31.698146923807947,28.564897514109088
1.02,31.22218324752305,131.01045928857673,20.515403220299007,-8.53496040171439,-8.331271523356634e-07,23.43639023982847,0.0018456611096495,5.054851786018336,284.59063161540416,31.92706852624876,13.955863553925564,72.24901161445925,0.0036202338973983,120.00384156891708,623.1206022800856,15.288,0.0,8.842509705184764,0.0938438741903068,-1.7075719836321122e-07,0.0221214609040407,3.908507800460885e-05,-0.0019386925324113,8.534960401714422,17.855934615359914,31.92706839538145,23.97531892298004
1.03,31.222182625771392,131.01046056492063,20.83178115506268,-8.415189322728118,3.44732372669639e-05,19.10455315139052,0.0018580700898555,5.083756614314011,247.30469339049705,32.18294705767889,14.07871109992172,72.26185118495718,0.0036926567168999,120.00391838040876,633.1293496365571,15.288,0.0,8.865097511244972,0.0945963208121484,-1.7932227940033334e-07,0.022757475162341,3.907313128814495e-05,-0.0020103551174092,8.4151893227982,17.69605722021651,32.182952472722334,19.769383801229395
1.04,31.22218199888345,131.01046185177927,21.150359287241567,-8.304213863895251,6.94945616830576e-05,30.49792122674509,0.0018689944335752,5.110992897438095,345.46563688072297,32.40957060848182,14.192449758360608,72.27505677182903,0.0037652371159765,120.00399536250823,642.0577463560828,15.288,0.0,8.887557616588026,0.0952627848063567,-1.881118989103332e-07,0.0233993692984453,3.906358087730586e-05,-0.0020815508822631,8.304213864183978,17.553561122186036,32.409581524662045,30.923218639778614
1.05,31.22218136656548,131.0104631497588,21.471347894097725,-8.188667379832072,0.0001041816787211,18.299460617295377,0.0018806462049794,5.1398898459912274,240.45625879819983,32.65783613194188,14.312761510640009,72.28863178604526,0.0038379849278902,120.00407252581304,651.9119728415887,15.288,0.0,8.90990255421526,0.0959928695742384,-1.971266189320361e-07,0.0240478169190603,3.905653058685849e-05,-0.0021555558281633,8.188667380490257,17.401693016655038,32.657852496761706,19.007596640546076
1.06,31.222180729060607,131.01046445835755,21.79457655348137,-8.069620366954261,0.0001384691757072,26.162185166222294,0.0018928797873393,5.170282981231522,308.17968365593924,32.92476558342235,14.438695397134849,72.30257983301976,0.0039109103254086,120.00414988069528,662.5917836479828,15.288,0.0,8.932122841590418,0.0967778221278135,-2.063679199119957e-07,0.024702199765893,3.905207854646149e-05,-0.0022322408474151,8.069620368134421,17.242439580689137,32.92478733410961,26.668178834721882
1.07,31.222180086249185,131.0104657778225,22.12013214369719,-7.963626322610622,0.0001726622857506,30.845467642718567,0.0019027898910421,5.197685257348712,348.5093681440308,33.14299146728627,14.549574126144533,72.31690458448149,0.0039840237988642,120.0042274382467,671.3832356853919,15.288,0.0,8.95423141296315,0.0974196250031568,-2.1583660656560345e-07,0.0253629060657543,3.905033406723032e-05,-0.0023070651975683,7.963626324470374,17.109556210637702,33.143018589014694,31.28032624115464
1.08,31.22217943802828,131.01046710836616,22.44809040651825,-7.856519373643526,0.0002065639973444,20.67127362394844,0.0019128124247018,5.2258499586675455,261.00157857466235,33.36907982126994,14.662776838864572,72.33160951649441,0.0040573360980655,120.00430520980912,680.5528604867891,15.288,0.0,8.976229751241034,0.0980845460746048,-2.2553348962893685e-07,0.0260301000514909,3.905141228442235e-05,-0.0023838314061653,7.856519376342004,16.974318601530022,33.36911226826677,21.32161027421483
1.09,31.222178784679663,131.01046844940709,22.77825359244048,-7.738732739312272,0.0002398397820472,18.98485516688597,0.0019247082647929,5.257590030367373,246.54375332474407,33.64473604656456,14.791041640135443,72.3466980978874,0.004130858290923,120.00438320663974,691.8212224427715,15.288,0.0,8.998104849043452,0.0988951740867036,-2.354600550522817e-07,0.0267029975583384,3.905540750443135e-05,-0.0024655785196192,7.738732743006217,16.816811067382893,33.64477372050943,19.69941578675767
1.1,31.22217812628088,131.0104698007853,23.110568893509114,-7.628598075308403,0.0002729753638156,38.36066782802283,0.0019351617363072,5.287685939322294,413.1890617385841,33.89232277131083,14.910576895887615,72.36217378538856,0.0042046017654864,120.00446144054648,702.0183015854343,15.288,0.0,9.019861076342975,0.0996233028987419,-2.456172265574505e-07,0.0273814775098884,3.906242489472739e-05,-0.0025467484261808,7.628598080163462,16.67485715371538,33.89236565018071,38.723383924311975
1.11,31.22217746242272,131.0104711633454,23.44533066635723,-7.531917248419745,0.0003063262284506,28.002305015451626,0.0019430002993457,5.314180623777524,324.1593910376397,34.083697046493405,15.012834122164788,72.37804007252049,0.0042785782530924,120.0045399242166,709.9458011237303,15.288,0.0,9.041519398338396,0.1001862080980847,-2.560049769622956e-07,0.0280666154772569,3.9072616269912605e-05,-0.0026251287603826,7.531917254613039,16.560947186565425,34.08374516410485,28.502098267597248
1.12,31.222176793170583,131.01047253695253,23.78249589565752,-7.414015090064066,0.0003385043568199,10.377797581626218,0.0019547631377849,5.347744102324723,172.73281794065943,34.374671665901474,15.145390145913728,72.39430026453088,0.0043527997688609,120.00461867011892,722.0958587375856,15.288,0.0,9.063070369812964,0.1010418883713544,-2.666243072168891e-07,0.0287580803551327,3.90860983419288e-05,-0.0027126780631031,7.414015097748529,16.402247003841733,34.3747248380415,11.674632904303877
1.13,31.2221761191251,131.0104739203673,24.121638344254183,-7.309590988682999,0.0003708990270247,33.04328648089978,0.0019638738264426,5.377616016561984,367.5328077900705,34.60860308066909,15.260381839139349,72.41095807794572,0.0044272788431497,120.00469769068091,731.9336761939056,15.288,0.0,9.084499658584322,0.1017299023700112,-2.7747732903429776e-07,0.0294543949407441,3.9102926932519374e-05,-0.0027971762492251,7.309590998041825,16.271736382630863,34.60866134135202,33.4780157616487
1.14,31.222175439615583,131.01047531497386,24.463240757268924,-7.21468884907132,0.0004035205352134,18.15699091816789,0.0019709830971558,5.404807337556705,239.69531773195544,34.80058834861571,15.362494114559116,72.42801663388639,0.0045020281359593,120.00477699982892,740.0524684290169,15.288,0.0,9.105835925120056,0.1022946258345205,-2.8856301292814e-07,0.0301573020493375,3.9123308142359446e-05,-0.0028797214271938,7.214688860296158,16.161507901575824,34.80065173347316,18.944346529857196
1.15,31.222174755137143,131.0104767197506,24.80695305195584,-7.098997623526642,0.000434639958273,17.883957170863816,0.0019821043804539,5.439454890469958,237.41251153546767,35.09642542920459,15.496056331186317,72.44547899521834,0.0045770606575625,120.00485661059612,752.6633550319401,15.288,0.0,9.127030592490684,0.1031646246070665,-2.998832211968576e-07,0.0308652905786971,3.914729694063632e-05,-0.0029722841321788,7.098997636763967,16.006532846972583,35.09649370228958,18.692875581982744
1.16,31.22217406582948,131.01047813440923,25.15267801804801,-7.008151045506648,0.0004669306997246,47.30522891334681,0.0019880976501452,5.466037073004952,490.0437743845894,35.27416258819879,15.593564747806033,72.46334860954579,0.0046523899627902,120.00493653696232,760.2807640196694,15.288,0.0,9.14810755605035,0.1036874808542285,-3.114386686592256e-07,0.0315781748550342,3.917500297836617e-05,-0.0030562324466484,7.008151060984044,15.905078133246157,35.27423593350159,47.61997740213806
1.17,31.222173370815987,131.0104795607593,25.5010486820686,-6.907044023145914,0.0004983131404629,8.117332209173968,0.0019960112078464,5.496634785714628,153.70937929486794,35.50576853432096,15.707334697143503,72.48162837763553,0.0047280297456416,120.00501679414133,770.2715894691395,15.288,0.0,9.1691009054613,0.1043686908115402,-3.232275601937111e-07,0.0322981878021304,3.920670872567695e-05,-0.0031463366160064,6.90704404103429,15.78136227526999,35.505846809166016,9.803268850015385
1.18,31.222172671258264,131.0104809964034,25.851235603429178,-6.792342883059924,0.0005282909760833,22.828523466971728,0.0020066564653199,5.532772908114959,280.02501822196746,35.81231397232202,15.84362093683729,72.50032146286698,0.0048039942409969,120.00509739571264,783.6032028107661,15.288,0.0,9.189964488758775,0.1052701926982622,-3.352535851053943e-07,0.0330219897716062,3.9242328250443416e-05,-0.0032445100549779,6.792342903508128,15.62747191458707,35.812396956074494,23.489424508946996
1.19,31.222171966636107,131.0104824424153,26.203615744078945,-6.710868392974033,0.0005605382965657,40.12016729502693,0.002010127757142,5.556943320621356,428.4078130529292,35.94820753238141,15.928083496602616,72.51943112609897,0.0048802981401674,120.00517835753747,789.53468837309,15.288,0.0,9.21073568384736,0.1056700716465499,-3.475152856896212e-07,0.0337512970695335,3.9282114665581766e-05,-0.003328637562012,6.710868416276908,15.546876804238003,35.948295581531134,40.50317823196299
1.2,31.2221712565069,131.010483899709,26.558513181491858,-6.604679241981639,0.0005904905276174,3.8276387762294606,0.0020186817019149,5.590962176112074,117.1843741360236,36.21848168902594,16.053076923051,72.53895995918668,0.0049569562142118,120.00525969547,801.4241219443747,15.288,0.0,9.231417105508692,0.106464971315843,-3.600118690931513e-07,0.0344870055566591,3.932629883500691e-05,-0.0034266498101002,6.604679268260955,15.41137667962457,36.21857444306112,6.775668286677487
1.21,31.22217054202947,131.01048536589255,26.915097356830955,-6.500942617780408,0.0006202223166879,32.12836943750258,0.0020265864641589,5.624597883597338,359.92343213200894,36.480677929442734,16.17540235253065,72.55891118015127,0.0050339840188338,120.00534142445436,813.0417621008929,15.288,0.0,9.25197384315664,0.1072361340997808,-3.727470662052565e-07,0.0352258573134138,3.9374746517498527e-05,-0.0035252797954074,6.500942647239507,15.280989668388791,36.48077535373642,32.61699293576693
1.22,31.22216982232744,131.01048684277518,27.27400451671746,-6.419494823384441,0.0006518140372921,23.15750728759933,0.002029366841138,5.649561680313476,283.0687504825761,36.62099103474479,16.260826671462944,72.57928753743,0.0051113972878245,120.00542356180436,819.2798353510384,15.288,0.0,9.272448193065692,0.1076490250500383,-3.8571786801560884e-07,0.0359704891361573,3.94278385605842e-05,-0.0036135210020002,6.419494856337336,15.201020072173874,36.62109342145434,23.83668800553492
