Time,Latitude,Longitude,Altitude,Angle of Attack,Angle of Sideslip,X-Acceleration,Y-Acceleration,Z-Acceleration,Thrust,True Velocity,Ground Velocity,Pitch,Roll,Yaw,Dynamic Pressure,cp,cg,parachute_deploy_gain,Wind Speed,Wind Direction,Mach,omega_x,omega_y,omega_z,Cmq,Angle of Attack(total),Angle of Attack(gust),True Velocity(gust),Acceleration
0.0,31.222216000000007,131.010392,3.000000004412624,0.0,0.0,0.0,0.0,0.0,2.2828121974499247,0.0,0.0,69.99999999623412,0.0,119.9999999935444,0.0,1.274,1.0271675151847728,0,0.0,0.0,0.0,0.0,0.0,0.0,-0.0,0.0,90.0,0.0,0.0
0.01,31.22221599999084,131.01039200000497,3.000002745347096,0.0,0.0,0.0,0.0,0.0,34.242186961749226,3.465174813755316e-14,2.8705476994166025e-14,69.9999999962611,-2.1713911667908447e-11,119.99999999352175,7.352495975525499e-28,1.274,1.0271659134330349,0,0.0,0.0,1.0183245502395064e-16,-3.3305335486039093e-18,7.169286865560398e-18,5.624298769768554e-18,-7.715917190115602e-34,0.0,89.99999999999979,3.465174813755316e-14,0.0
0.02,31.222215999994315,131.0103920000094,3.0000030495639742,0.0,0.0,0.0,0.0,0.0,25.871876237766216,3.8197434737535036e-11,2.4171837235633357e-11,69.99999999628672,-1.1921727947863515e-11,119.99999999353136,8.93414285188691e-22,1.274,1.027164492361118,0,0.0,0.0,1.1225230367947217e-13,-6.657678965418802e-18,1.4338573731120796e-17,1.1241821275959074e-17,-1.7010872994127372e-30,0.0,89.99999999975682,3.8197434737535036e-11,0.0
0.03,31.222215999994315,131.0103920000094,3.0000030495639742,0.0,0.0,9.81877837424427,-2.5122800045972096e-05,3.3498614629347925,180.34219359854663,1.2659015405517447e-10,1.1364406173918436e-10,69.99999999631459,-1.6431898037347223e-11,119.99999999352724,9.812605835254651e-21,1.274,1.0271551940870716,0,0.0,0.0,3.720154642239108e-13,-9.991600645811728e-18,2.150108433310316e-17,1.6859343782149594e-17,-8.453698244545225e-30,0.0,89.99999999919412,1.2659015405517447e-10,10.374487003414373
0.04,31.222215999994315,131.0103920000094,3.0000030495639742,18.83801224594347,-0.0001111777826462,48.68248476615645,-1.016330065874988e-05,3.3497854396877287,548.635972453808,0.1556173050466994,0.0975908358443652,69.99999999633813,-2.0932768807056278e-11,119.99999999352085,0.0148286043323172,1.274,1.027133720825283,0,0.0,0.0,0.0004573186944143,-1.3322134194415637e-17,-1.04744143520903e-11,1.336824254131964e-11,5.0626055458604615e-15,18.83801224625964,89.06236267790787,0.1555998412814392,48.79759610369246
0.05,31.22221599164764,131.01039201704114,3.002326315126219,5.772385609593056,-4.395076213712875e-06,71.20344550265034,4.905512691849684e-05,3.349217396035405,761.6984298824663,0.8326471944351852,0.3620326097059287,70.00000001316391,-1.0866255162484559e-10,120.00000000231074,0.4245281043148827,1.274,1.027093426565204,0,0.0,0.0,0.0024469331205246,-5.0245994431125096e-18,-7.32924164976824e-07,2.217344936947165e-11,1.895424184525467e-09,5.772385609594774,84.74112356985832,0.8326465040582279,71.28217104309611
0.06,31.22221596664444,131.01039206837547,3.015081730143309,4.056581213689704,3.169093567502233e-05,53.16249142470188,0.0001203825427859,3.3481235983850643,590.4875390737236,1.657216205300742,0.6755452977614796,69.99999964391398,-3.9285905645317736e-10,120.0000000287861,1.6816755551786196,1.274,1.027050317124926,0,0.0,0.0,0.0048701272653724,3.095757869075056e-13,-7.483541766772344e-06,3.074135420506017e-11,3.8518749565858254e-08,4.056581213813337,79.59316473687034,1.657221183301277,53.26781792157489
0.07,31.22221592883117,131.0103921460222,3.034593611434361,4.115662018628709,6.450869598349036e-05,81.18203554989698,0.0001593212642178,3.347059402768047,855.2937749779172,2.099899704220947,0.8579771146174259,69.99999543281565,-8.233801910783518e-10,120.00000006883089,2.700101932075157,1.274,1.027003201295312,0,0.0,0.0,0.006171060252819,3.4704292086287e-12,-2.6327204536316785e-05,1.9541142932033486e-10,1.7170712165327165e-07,4.115662019133419,76.90111966094352,2.099909837223217,81.2510043180746
0.08,31.22221588914193,131.01039222747755,3.0542761843835606,3.459696193892355,8.037433511260004e-05,16.298214211652088,0.0002413456836072,3.344878926597744,241.2171988638792,3.051964775152957,1.2149999716613011,69.99998042886442,-1.0128995578004475e-09,120.00000011111383,5.703497661025892,1.274,1.0269597189470347,0,0.0,0.0,0.0089689344021769,1.458982438104473e-11,-5.702803872814215e-05,7.043261397829576e-10,5.405702492731987e-07,3.459696194824858,71.30331929508368,3.051977400323993,16.63790856991177
0.09,31.2222158241468,131.01039236098703,3.0886872184095737,4.313676956300389,0.0001337561018991,50.35975918308536,0.0002293282821279,3.344215841840564,563.0937377043203,2.893161298572128,1.191209213966114,69.99994788602814,-7.098432023887522e-10,120.00000018106356,5.125380275808925,1.274,1.026918932011013,0,0.0,0.0,0.0085022553945842,3.8672912027154325e-11,-0.0001115933708951,2.016054215232918e-09,1.0027525988343615e-06,4.313676958370176,72.2316578138625,2.893182308931483,50.47067588835877
0.1,31.2222157788302,131.01039245392113,3.109877853389092,4.035124630954496,0.0001457499816535,47.804664812504015,0.0002878217657545,3.341734392237128,538.7437595981891,3.5677148583138303,1.4531247507621967,69.99988403958329,1.9248461973355822e-09,120.0000002323013,7.7939962029572305,1.274,1.0268846934974103,0,0.0,0.0,0.0104845969583028,8.579678749070606e-11,-0.0001726817043215,3.984565639703107e-09,1.913455350430327e-06,4.0351246335824245,68.43243098813296,3.567737752667411,47.92132267234452
0.11,31.222215703308,131.01039260899836,3.148841432727305,4.043401107254707,0.0001752764476999,37.67622367577205,0.0003286462930162,3.3392563999062723,442.86563930529127,4.034183355956686,1.6436552022667772,69.99978525353545,7.302513231814865e-09,120.00000031883242,9.96528118825134,1.274,1.026848594915519,0,0.0,0.0,0.0118554331868328,1.5870341853361987e-10,-0.0002596204409236,7.232030302688121e-09,3.252930323390323e-06,4.04340111104746,65.92012987243639,4.034210888316708,37.82391391539392
0.12,31.222215627491828,131.01039276462643,3.186995101203875,4.17874459224363,0.0002066711490009,41.15991989399172,0.0003576945202315,3.336766085769504,475.58594813540793,4.361857560629481,1.7865750500940407,69.99963665601238,1.781774420198147e-08,120.00000041104812,11.649831899889556,1.274,1.0268114448194128,0,0.0,0.0,0.0128183893919737,2.682972478760441e-10,-0.0003710216542429,1.2215991071490164e-08,5.026311388647148e-06,4.178744597345269,64.21681651392016,4.361890024457652,41.29495143136631
0.13,31.22221554594398,131.01039293200228,3.2277173449026786,4.202734874672792,0.0002327160860324,45.44886120763352,0.0003953741266062,3.333578629398489,515.9156326236897,4.792165672014363,1.9646716520715424,69.99942424225341,3.613383418913551e-08,120.00000051758742,14.061726603124043,1.274,1.026779572895131,0,0.0,0.0,0.0140829618979635,4.248908088871395e-10,-0.0005056103199642,1.908859219307828e-08,7.5253154423526356e-06,4.202734881104192,62.048594618540655,4.792202226971676,45.570952718869485
0.14,31.222215454191247,131.01039312033683,3.2737880595608355,4.184830647080848,0.000257138757548,42.32232525579263,0.0004369426767266,3.329727443445437,486.2390860568421,5.269261304374574,2.158791628597544,69.99913473613935,6.515851355725497e-08,120.00000064630268,17.000925061330125,1.274,1.0267449573927567,0,0.0,0.0,0.0154850332441425,6.382432869666793e-10,-0.0006690086306358,2.8426433029675884e-08,1.0948547100483978e-05,4.184830654966803,59.74181173116622,5.269301695636157,42.45310707234106
0.15,31.222215353826755,131.0103933263496,3.3242182719560263,4.21963947489699,0.0002846467688673,40.886944113003565,0.0004726792395108,3.325585650885676,472.5421858721398,5.6781946837482895,2.329510773545807,69.99875162806286,1.0876776246115984e-07,120.00000079954532,19.742017654108928,1.274,1.0267115958081523,0,0.0,0.0,0.0166867950518804,9.204756288136623e-10,-0.000865746478554,4.08948221429571e-08,1.526771148078443e-05,4.219639484480408,57.84996018384879,5.678239395958187,41.02196629910223
0.16,31.222215247130432,131.01039354534575,3.3775922280208457,4.253495568077899,0.0003118339050386,32.26872905470846,0.0005078415214353,3.32090791922544,391.1218908297597,6.081244877834229,2.4981889727471702,69.99825581174558,1.7187028096464329e-07,120.0000009800088,22.644030778355887,1.274,1.026675762255412,0,0.0,0.0,0.0178712695992133,1.2856146928958252e-09,-0.0010961187242953,5.6923362293832417e-08,2.0702404729358337e-05,4.253495579487569,56.06022383757386,6.081293860589489,32.43916312841722
0.17,31.22221513260033,131.01039378041813,3.4348437275053194,4.364838523348639,0.0003448792023946,40.840448242802736,0.0005326487904353,3.3162727284953744,471.78125980632416,6.362544479165355,2.6250789114832647,69.99762801982864,2.5997588617291615e-07,120.00000119506798,24.78723182122683,1.274,1.0266409836796937,0,0.0,0.0,0.0186979513961862,1.747791994374917e-09,-0.0013624931601664,7.706724512977917e-08,2.6923621797558364e-05,4.364838536947241,54.85936171416122,6.362598652663785,40.97486885600156
0.18,31.222215014088988,131.01039402363364,3.4935801365785646,4.353948305387995,0.0003681615230806,33.992183768165326,0.0005718025428208,3.310131992647221,407.1015672119096,6.81502088160835,2.810667639293692,69.99684761766231,3.794979223522764e-07,120.00000144728236,28.437950785509614,1.274,1.0266048342046536,0,0.0,0.0,0.020027681385988,2.3221419748804155e-09,-0.0016616990447559,1.0147209890543081e-07,3.517105786247627e-05,4.353948320923495,52.99157233768714,6.815078712285162,34.152972512863755
0.19,31.22221488419521,131.01039429023237,3.558399965607869,4.432620772533925,0.0003996774584738,38.45149959021069,0.0005986099513107,3.304145139297767,448.95313283182486,7.1223367465208405,2.946425726785696,69.99589577323147,5.440084577183829e-07,120.00000176148238,31.060341085698347,1.274,1.026566130444714,0,0.0,0.0,0.0209308229359413,3.022391489754689e-09,-0.0020041563310821,1.3135864879722746e-07,4.433199397898183e-05,4.432620790516937,51.77883352025967,7.122399527709208,38.59320142454953
0.2,31.222214751373183,131.01039456280608,3.624052454705669,4.443889400961181,0.0004246617145652,35.23432408779927,0.0006337972852267,3.2968110145188256,418.5156301991588,7.530482904611057,3.1167566004785483,69.99474776398331,7.478025600151903e-07,120.00000211715036,34.72195181863731,1.274,1.026529240027363,0,0.0,0.0,0.0221302820454282,3.866698391504749e-09,-0.0023849544920781,1.668144671071589e-07,5.57780533277244e-05,4.443889421210987,50.22448880200342,7.530549610317194,35.38822625098952
0.21,31.222214608673173,131.01039485566503,3.6948551453492566,4.493351735844891,0.0004538195602194,33.79371564104691,0.0006629296043866,3.2891790438445727,404.8187610144608,7.868284042829251,3.2629204975089228,69.99338155599101,1.0150082652278477e-06,120.00000255293388,37.906665490338085,1.274,1.0264923657015164,0,0.0,0.0,0.0231230169900677,4.871073773182836e-09,-0.0028117605859743,2.089322918608601e-07,6.870935089180403e-05,4.493351758715364,48.992529909481824,7.868355328639073,33.95340801819282
0.22,31.22221446109996,131.01039515850383,3.767700382407304,4.5412639153933885,0.000482649303782,41.008966751568416,0.0006914639179131,3.2808061382386606,472.5421858721387,8.20057841132235,3.4071691679735228,69.9917708347139,1.3454961520984431e-06,120.00000305929996,41.175744234065135,1.274,1.0264494137127138,0,0.0,0.0,0.0240995709751246,6.054779813287368e-09,-0.0032829112061357,2.580881224843564e-07,8.3609968899004e-05,4.54126394098788,47.82515604752711,8.2006542256977,41.13999323561041
0.23,31.22221430675399,131.0103954752338,3.843768625625224,4.52371495179584,0.0005047555656171,33.98493478127787,0.0007294889663961,3.2705214710765107,406.340642146096,8.647938096586296,3.5908865300848416,69.98989017772566,1.7539876018835507e-06,120.00000365514876,45.79040229326471,1.274,1.0264133390858623,0,0.0,0.0,0.0254142776666487,7.436335125872812e-09,-0.0038001790077148,3.1489825108822685e-07,0.0001020628978177,4.523714979897577,46.31461705147579,8.648017383405135,34.14194053232237
0.24,31.222214142622448,131.0103958120587,3.92493179063287,4.57837522350066,0.0005351929930195,35.051650311058864,0.0007555049947555,3.26053011385611,416.2328240017099,8.954297884844461,3.72617527247482,69.98771316795013,2.25257161141768e-06,120.0000043564586,49.09180568115741,1.274,1.0263750048312463,0,0.0,0.0,0.0263146218848643,9.034877387788232e-09,-0.0043732521010013,3.809642748985157e-07,0.00012161410144,4.578375254714954,45.32798984252032,8.954381952763216,35.20297212911011
0.25,31.22221397517227,131.0103961556623,4.0071748888306855,4.6034117733065,0.0005618935542827,36.03738579534623,0.000785606492708,3.249069743648399,425.3640807915084,9.311611941121669,3.8789349536029696,69.98520781816889,2.8559738498748624e-06,120.00000517181904,53.08749562138344,1.274,1.0263373768840591,0,0.0,0.0,0.0273647110956883,1.0873791100894836e-08,-0.0049950711786164,4.5609738277273444e-07,0.0001444478241125,4.603411807525074,44.2165428352526,9.311700203154778,36.183554686886296
0.26,31.22221379934012,131.01039651647062,4.09364247475714,4.621386912291471,0.0005881033207375,39.29107511182762,0.0008162761165496,3.236407051295005,455.80158342417656,9.67833954512075,4.034902068846398,69.98234620927953,3.5784678110229355e-06,120.00000612171208,57.350948423913096,1.274,1.0263006300381676,0,0.0,0.0,0.0284424679130479,1.2973286442992724e-08,-0.0056712051373577,5.414206381221602e-07,0.0001704578711045,4.621386949630312,43.12063533194282,9.678431924174348,39.42414126789902
0.27,31.222213616776543,131.01039689108487,4.183310605341074,4.617158109135719,0.0006115457810536,35.90419462403674,0.0008503454714941,3.221982799915672,423.8421996598744,10.088790784535757,4.205862468567124,69.97909721779352,4.436165972465058e-06,120.000007221354,62.31798301949865,1.274,1.026260090595354,0,0.0,0.0,0.0296487219805601,1.5355910600537293e-08,-0.0064045199323113,6.379142666348734e-07,0.0002006609239367,4.617158149547818,41.94410287616451,10.08888684592241,36.048472443180565
0.28,31.22221342607797,131.0103972823952,4.277051150896916,4.642105655370123,0.0006389739579882,41.51133203546672,0.0008785747638736,3.2071101123224945,476.3468732012228,10.432377224420517,4.35383399240675,69.97542808435722,5.446665372087172e-06,120.00000849080963,66.63429581008447,1.274,1.0262212716723291,0,0.0,0.0,0.0306584788590473,1.8045308789081613e-08,-0.0072006835403936,7.469524967369969e-07,0.0002332868227611,4.642105699250441,41.0023231023774,10.432477594215127,41.63503624837164
0.29,31.22221323001776,131.01039768469093,4.373143569786686,4.62134615173668,0.0006600657405645,33.17552944492765,0.0009148746278066,3.1894209319791806,397.9703104221098,10.876662296046485,4.536381530986506,69.9713027936179,6.629751536885327e-06,120.00000994797426,72.43000748232016,1.274,1.026183007522519,0,0.0,0.0,0.0319641703260467,2.1067646517035105e-08,-0.0080566154554079,8.688043379161898e-07,0.000272130659453,4.621346198772975,39.83162628795024,10.876765978930557,33.32848872465723
0.3,31.22221302403368,131.01039810736614,4.4744193758467325,4.664362353358112,0.0006905183788532,31.08096762732793,0.0009381960428197,3.172549142946348,378.1859457108735,11.168362145070317,4.66647911311536,69.96668711012893,8.005507138509574e-06,120.00001161892672,76.36634300732833,1.274,1.0261430389738484,0,0.0,0.0,0.0328214509167604,2.4447409007156216e-08,-0.0089829108229115,1.0056222251461646e-06,0.0003115527202986,4.664362404357781,39.09908960432563,11.168470611443622,31.242464973103964
0.31,31.22221281503337,131.01039853619727,4.576593712520673,4.700143580504286,0.0007196683316923,32.79732593144512,0.0009620705970519,3.154230688182399,394.1656220930229,11.470279728974068,4.800072153432283,69.96154070456518,9.597499105113692e-06,120.00001352112182,80.55022837857167,1.274,1.0261054058068628,0,0.0,0.0,0.0337087616009043,2.8214060606649844e-08,-0.0099686353219717,1.1565909895184251e-06,0.0003550834484269,4.700143635477137,38.36463422765983,11.47039277421126,32.94865339301887
0.32,31.222212598991007,131.01039897947376,4.68216432480395,4.718667719113184,0.0007464384342556,35.7316568886908,0.0009885845337584,3.133859770838664,421.5593934624264,11.808280530415894,4.946054328851105,69.95582953472353,1.14278227255889e-05,120.00001568218067,85.36654007972253,1.274,1.026068246703101,0,0.0,0.0,0.0347021168382987,3.2392058795580455e-08,-0.0110163301561155,1.3226102501723267e-06,0.0004039614423012,4.718667778018562,37.5686120062341,11.808397780690962,35.8688218659563
0.33,31.222212376029034,131.0103994369436,4.791055524254013,4.72141404831576,0.0007708346814671,35.42013590291081,0.0010176135371143,3.1111955852784385,418.5156301991632,12.181577273013426,5.104163223586657,69.94951809396906,1.351997394754887e-05,120.00001812674968,90.84831229869296,1.274,1.0260310883392356,0,0.0,0.0,0.0357992034445943,3.700677535501642e-08,-0.0121310534481307,1.5051409581878843e-06,0.0004588955105349,4.721414111097893,36.7208578211118,12.181698355442045,35.55651229220977
0.34,31.222212145785647,131.0103999093516,4.903491659547144,4.73024573449122,0.0007962944975467,27.63851074646407,0.0010446307681611,3.0871492806781062,345.4656368807584,12.53557620048282,5.2556261014174765,69.94256797855994,1.5899658158227497e-05,120.000020882338,96.20413272674828,1.274,1.0259901535019136,0,0.0,0.0,0.0368395817555172,4.208561016221623e-08,-0.0133180771902383,1.7057647550599631e-06,0.0005184333231541,4.730245801363397,35.94841996438923,12.535701282129995,27.810389570354005
0.35,31.222211909310875,131.01040039453565,5.018822212845608,4.780248518778662,0.0008286678570753,30.332092807652543,0.0010618579815451,3.063967690608957,370.5765700527057,12.774786382148209,5.367579971644358,69.93493776125636,1.8594985713558667e-05,120.00002397748868,99.9096898192772,1.274,1.025950003202184,0,0.0,0.0,0.0375426220587071,4.7658312175989686e-08,-0.0145774693288123,1.9252724355785177e-06,0.0005782798420984,4.780248590437683,35.44790728185619,12.774916548990808,30.486451961956565
0.36,31.22221166933814,131.0104008868675,5.135354490370708,4.798132156899578,0.0008554457330409,34.32674769697476,0.0010851169437774,3.0374319611165923,407.8625232777224,13.09301701329486,5.506730645516068,69.92658597246795,2.163521613217148e-05,120.0000274401514,104.94818266210537,1.274,1.0259105142325406,0,0.0,0.0,0.0384778908056978,5.3755109608570216e-08,-0.0158991451700967,2.162609490834569e-06,0.0006464142451675,4.798132232978766,34.796094028187134,13.09315138639638,34.46087058603792
0.37,31.222211421355144,131.01040139563804,5.255882891363927,4.797392186816851,0.0008791822061288,32.551601855236584,0.00111162791192,3.0078619428913056,391.1218908297639,13.457513730739372,5.661815946371007,69.91747693543164,2.5047738471809164e-05,120.0000313040604,110.87154396328836,1.274,1.025872170958032,0,0.0,0.0,0.0395491312153729,6.040098808671168e-08,-0.0172926678053148,2.420031948898497e-06,0.0007226353721561,4.797392267189059,34.07332166419882,13.457651832357364,32.69027405888565
0.38,31.22221116634284,131.01040191882743,5.379799334000849,4.811698494594017,0.0009057112478668,34.02947987649063,0.0011338447913587,2.9774881690446744,404.81876101445977,13.77554886562956,5.800899861213392,69.90756948297444,2.886339581486796e-05,120.00003560072224,116.17243393848278,1.274,1.02583050512925,0,0.0,0.0,0.0404838339452728,6.762496638941508e-08,-0.0187646375218858,2.69955777313946e-06,0.0008026686661094,4.8116985796350695,33.46655348088405,13.775691134419684,34.15949264475229
0.39,31.222210906095896,131.01040245274032,5.505993307722699,4.813508003664984,0.000929862892873,29.00025983045028,0.0011579891265804,2.9442136901860865,357.6406249338268,14.124492165837273,5.950648592462506,69.8968186645841,3.311602501056718e-05,120.00004036395212,122.13093644173792,1.274,1.02579027384009,0,0.0,0.0,0.0415093739609825,7.545934774906889e-08,-0.020311592409804,3.0013532510753577e-06,0.0008908380763632,4.813508093268025,32.821616487639595,14.124638228358922,29.149330452482886
0.4,31.222210638473225,131.0104030017851,5.635788650457906,4.841647069358873,0.0009592124397379,27.71178845184976,0.0011749448424961,2.91135549588368,345.4656368807565,14.390874239274588,6.07193451174791,69.8851815212744,3.783947407715338e-05,120.00004563180136,126.77947425345651,1.274,1.0257493418632293,0,0.0,0.0,0.0422922854866381,8.39343718693383e-08,-0.021938519432511,3.3271332720311508e-06,0.0009803271643914,4.841647164150728,32.348088166612904,14.391024912012275,27.864299944624147
0.41,31.22221036681104,131.01040355909262,5.767123077463226,4.86553909860892,0.0009876699832274,31.306062598221665,0.0011918093836199,2.876450850006428,378.9468707766882,14.663028799871563,6.195223154320929,69.87261222561014,4.307011032901644e-05,120.0000514391194,131.6183642808765,1.274,1.025708445186429,0,0.0,0.0,0.0430921644173401,9.308325447883581e-08,-0.0236371933433427,3.6760977501392174e-06,0.0010761942383903,4.865539198612839,31.87689439156756,14.663183942709727,31.437931330109585
0.42,31.22221008906472,131.01040412887247,5.901259531771367,4.867510642114694,0.0010118258958528,35.308283402190774,0.0012128114559048,2.8374461227958245,416.23282400171047,14.9952917972178,6.33928625560071,69.85906967380902,4.884273094936628e-05,120.00005782486392,137.64909586091787,1.274,1.0256701057426505,0,0.0,0.0,0.0440686959134695,1.0293499639582845e-07,-0.0254093547296826,4.049238334851429e-06,0.0011830797791891,4.867510747027452,31.315270489291198,14.995450734457847,35.422111438762386
0.43,31.222209804115888,131.01040471342728,6.038886819939341,4.854590670645608,0.0010330089741511,31.00586934514032,0.0012363751872706,2.794478603999558,375.90313951343126,15.369430568701889,6.497852263156962,69.8445117629242,5.519340856908871e-05,120.00006482835984,144.60167924299955,1.274,1.0256308158337524,0,0.0,0.0,0.0451682983415116,1.135186446762958e-07,-0.0272634397889413,4.449073329427772e-06,0.0013010625065656,4.854590780289497,30.70250814963406,15.369592833372094,31.13154422839874
0.44,31.22220951192321,131.01040531284193,6.180028459770617,4.866912332640401,0.0010595850174406,28.57707721036899,0.0012525768202179,2.752165534925872,353.07501253892326,15.659290812546615,6.627318538707029,69.82889155423543,6.216182865383864e-05,120.00007249162944,150.1053167542629,1.274,1.025586171750536,0,0.0,0.0,0.0460202245100907,1.2486676023179565e-07,-0.0292060158163984,4.8779154055816594e-06,0.001420032405556,4.866912447705031,30.24619499837236,15.659457251771938,28.709297424144207
0.45,31.222209215425703,131.01040592106523,6.322872201489905,4.881836476567178,0.0010866574689855,33.31904824532484,0.0012669045761511,2.7082028218433374,397.2093853562887,15.934249290371609,6.751662050993672,69.81215834018458,6.97909417564726e-05,120.00008085697964,155.42080512416243,1.274,1.0255397023523487,0,0.0,0.0,0.0468283602442113,1.3701614206272197e-07,-0.0312276295846745,5.334643585560923e-06,0.0015449645531859,4.8818365972149325,29.82567893138932,15.934419982127675,33.428929688274074
0.46,31.22220891307435,131.0104065412864,6.468371919199588,4.869610441729251,0.0011078049156487,38.95909776354321,0.0012868374716666,2.6582856015412624,449.7140588976424,16.292139278621757,6.904766425053949,69.79426683863348,7.812149592850748e-05,120.00008996920153,162.4785746623087,1.274,1.02549635315424,0,0.0,0.0,0.0478802236363867,1.499987870203256e-07,-0.0333272350234362,5.819761874615242e-06,0.0016858511402973,4.869610567434908,29.29014635640275,16.292313292210977,39.04968351401366
0.47,31.22220860266524,131.01040717804253,6.6178810515614845,4.838450928223533,0.0011247917292402,26.253747818137555,0.0013104398935566,2.6026193242279367,331.0078106302504,16.710658191447514,7.078951441335346,69.77517236812905,8.719457259907165e-05,120.0000998741591,170.9309671061642,1.274,1.025453319323251,0,0.0,0.0,0.0491102725711187,1.6384464803343264e-07,-0.0355167087264168,6.3368207228363735e-06,0.0018427306558807,4.838451058652396,28.68386015667837,16.710834873319172,26.382435512333956
0.48,31.222208284201663,131.0104078313267,6.771393590864176,4.869339340099417,0.0011561785713505,25.860860976019296,0.0013165328518772,2.5543454292827983,327.20312230115803,16.911139899671,7.177575416403102,69.75482343794755,9.70562828082882e-05,120.00011062072316,175.0543877818846,1.274,1.0254092882449153,0,0.0,0.0,0.0496995461609974,1.7858865391586845e-07,-0.0378054080201581,6.88909442277235e-06,0.0019849793891693,4.869339477030596,28.40887970825325,16.911321511776286,25.986704537635287
0.49,31.22220796480208,131.01040848648364,6.924537656029012,4.881367714530694,0.0011829003785372,32.565703383222065,0.0013261973190012,2.5011623511055703,389.6000096981238,17.169005224738054,7.296160258358563,69.73316318155707,0.0001077573203115,120.000122255028,180.4309832312717,1.274,1.025367445590036,0,0.0,0.0,0.05045746454003,1.942747077649401e-07,-0.0401641298712614,7.47069711110948e-06,0.002140948887153,4.881367857509675,28.058569663954906,17.169191034294997,32.66161128464712
0.5,31.222207637929923,131.01040915697027,7.081324512896956,4.862566137860805,0.001202418260511,33.47759680712428,0.0013425340759632,2.4399894027711366,397.970310422106,17.52898693231981,7.450304424940405,69.71015149227495,0.0001193385310595,120.0001348274002,188.0736471953394,1.274,1.0253278572281015,0,0.0,0.0,0.0515154948878309,2.109295159784217e-07,-0.0426011733481599,8.084173008518589e-06,0.0023184335011768,4.862566286171007,27.57768313050809,17.529175807738486,33.56639745442473
0.51,31.22220730314019,131.01040984370235,7.24202048914867,4.8479762258125,0.001223054804074,25.49162310288008,0.0013562860883156,2.3767006597692686,323.39843497208153,17.86914397471067,7.597652147346554,69.68574349602717,0.0001318441288964,120.00014838524436,195.4407439266201,1.274,1.025286455263166,0,0.0,0.0,0.0525152689856776,2.2858192086249162e-07,-0.0451315948093539,8.734206149830708e-06,0.002503767471626,4.847976379721193,27.13799345359824,17.86933609171003,25.602178740977283
0.52,31.222206962738102,131.01041054193402,7.405210501673173,4.865306299521403,0.0012516517170965,30.733671928447727,0.0013599291289974,2.317711624364424,372.098451184342,18.08534843773428,7.701914987606457,69.65988568649581,0.0001453248538387,120.00016298000436,200.19561780583155,1.274,1.0252426840672306,0,0.0,0.0,0.0531507657929359,2.4726951523704535e-07,-0.0477531686556663,9.421346966092632e-06,0.0026812161964639,4.865306460134566,26.8699055233151,18.085545046726228,30.820940596104087
0.53,31.222206619320115,131.01041124632013,7.569307468221277,4.848802699234936,0.0012715119568563,32.301199055744725,0.0013711327835325,2.2490252325653923,386.55624643486095,18.41963113311156,7.8474319110539055,69.6325258319474,0.0001598315062727,120.0001786629144,207.6614205945027,1.274,1.0251993415311351,0,0.0,0.0,0.0541332845214831,2.67031759303889e-07,-0.0504479325599339,1.0141887756417996e-05,0.0028848299490111,4.848802865552398,26.45837260670532,18.419830861742675,32.37940050117613
0.54,31.22220626697288,131.01041196903336,7.737918664599091,4.831496690588052,0.0012913635058467,28.31291960103712,0.0013809098107221,2.177242866245296,349.2703242098436,18.75116898748492,7.992112829440902,69.60362200959217,0.0001754082864028,120.00019548734956,215.20067397992847,1.274,1.0251561018460285,0,0.0,0.0,0.0551077428911958,2.878941684235108e-07,-0.0532336286085667,1.090122304443916e-05,0.003098869611663,4.831496862756785,26.061835558272342,18.751371834390056,28.396510432451375
0.55,31.222205908994248,131.01041270328463,7.909026079894722,16.926145910542473,21.867809829269504,30.9209585032238,-1.5629167197966192,1.284649892361431,365.2500005919912,23.311818853880887,8.113323699629928,69.57312211246325,0.0001921068626005,120.00021350480982,332.60755958266367,1.274,1.025112921033824,0,10.025614263783408,0.0,0.068511152573491,3.0989272306468813e-07,-0.0561100530405476,1.1700476995263424e-05,0.0040606783378885,27.39650053572576,44.75010101150643,26.664016837543148,30.987073252842908
0.56,31.222205546564343,131.01041344664463,8.081909946161325,4.774965778170713,-27.54423855802096,28.83906352963672,1.2871674016198682,1.8410914805923329,346.22656194657776,21.80899220099353,8.24370876953435,69.54097415464405,0.0002099796112633,120.00023276987916,291.10105620171703,1.274,1.0250709539098009,0,10.062191141780394,210.00008998959544,0.0640946172224279,3.3292051977349045e-07,-0.0690085882480278,0.0189385669121715,0.0046721123782487,27.92311729507328,8.630782473855751,17.647092103829713,28.926423958486907
0.57,31.22220518105916,131.01041420589075,8.258547605517315,4.773127464750404,-27.22868233018973,28.52944270245832,1.6978247209798836,1.7623151680872924,343.1828296833045,22.058255608720337,8.374066930607826,69.50143310747288,0.0292380856677736,120.03121933929825,297.78824532160394,1.274,1.0250279191823897,0,10.098482259245095,210.00008998959544,0.064827308572289,3.716310600413814e-07,-0.0720063484100945,-0.0010371251113361,0.004930706213428,27.612345515497942,8.497559069286662,17.9403675955067,28.634200957032014
0.58,31.222204802610527,131.0104149717365,8.436968643522123,4.755383352364933,-26.938738688956875,37.46628739555241,2.126154070766378,1.6805795032239572,426.12500585731766,22.320139651042208,8.502816982917633,69.46017756872003,0.0275959167705307,120.02946608931173,304.89590776394795,1.274,1.024981594484354,0,10.134876624800247,210.00008998959544,0.0655970951913274,4.007555227829293e-07,-0.0750904116598811,-0.021288493559427,0.0052028478594402,27.3242963897736,8.389365538848706,18.24280155774453,37.564179344229295
0.59,31.222204420129955,131.01041575024874,8.618184716834177,4.703486162684386,-26.489860528026124,30.4450106743968,2.5861700582672262,1.5833278296463815,360.68438819710633,22.7031545937888,8.679346426492081,69.4171571125831,-0.0049438124715593,119.99471259855352,315.4442650898169,1.274,1.0249386802161349,0,10.170998263968984,210.00008998959544,0.0667228817034159,4.2020426980149894e-07,-0.0782536328536079,-0.0418491337403745,0.0055149666634549,26.87444154071906,8.190113233196021,18.6887997046896,30.595651284954627
0.6,31.222204025981817,131.01041654761585,8.804338712439366,4.684749699036448,-26.2070379012544,27.10523482317856,3.0485749145411334,1.4959441706037864,329.4859594986072,22.95306776084175,8.803457170580513,69.37230647763319,-0.0686410512128489,119.92666213289272,322.4214582726795,1.274,1.024891335813742,0,10.207048500466012,210.00008998959544,0.0674574995638801,4.29865726848159e-07,-0.0815178579915549,-0.0628413467997488,0.0058081511784379,26.593283904687212,8.074764769558124,18.97852318674851,27.317126730144672
0.61,31.22220362795617,131.01041734915722,8.991072641595506,4.666946141510084,-25.93474834557544,31.70522472928638,3.5231933611161144,1.4070452188868,372.0984511843332,23.190127764247546,8.922493658514803,69.32552798570204,-0.1639213472447961,119.82483942585353,329.10990703944515,1.274,1.0248423929069768,0,10.24343248675006,210.00008998959544,0.0681543463059212,4.295876638414908e-07,-0.0848580860754153,-0.0841140510989009,0.0061084778049902,26.32266480662413,7.959810723126201,19.254002374341585,31.931394314097172
0.62,31.222203222530368,131.0104181621739,9.18051849515653,4.627674747931523,-25.563732638845977,39.33299459162637,4.027149513347499,1.306513352642762,442.86563930529206,23.50434179470465,9.072000540911164,69.2767177325318,-0.2909581084026167,119.68903691921932,338.082709754509,1.274,1.0247996097896497,0,10.279294422610544,210.00008998959544,0.0690779494724837,4.192882400385104e-07,-0.0882712066637985,-0.1056458291580357,0.0064401485286214,25.95147275296292,7.787630252076985,19.62070845124525,39.56019936613563
0.63,31.22220280779841,131.01041899061556,9.373813824126298,4.566959188614598,-25.095724657179936,22.46173715214079,4.5690189782769774,1.1924931176108686,286.11251274707456,23.901731633899363,9.254163172106846,69.2257525592646,-0.4498697344858784,119.51910414220757,349.604845810393,1.274,1.024756158874558,0,10.315032563957011,210.00008998959544,0.0702460092225384,3.988964654186578e-07,-0.0917706935054961,-0.1275083232802512,0.0068085408093105,25.48138149426831,7.561826340741252,20.084544992005085,22.952725549512987
0.64,31.222202382911448,131.01041983630745,9.571468479757907,4.566089122205632,-24.918448534110446,22.057323458961523,5.069120165170487,1.105546702210434,282.3078244179702,24.037077571906668,9.333471225257888,69.17247959470814,-0.6408581576640651,119.31479942335912,353.5686898391526,1.274,1.024708534665538,0,10.350872185191184,210.00008998959544,0.0706439417736685,3.6831357645199933e-07,-0.0953710991405465,-0.1497792081658697,0.0071155893350509,25.307040925767065,7.477727041080933,20.24512693523901,22.659296788138874
0.65,31.222201957843367,131.01042067840615,9.767456543430873,4.545904418565553,-24.6530758221383,38.699675495905055,5.594911839873904,1.0080405353471251,436.7781447787504,24.24360147263509,9.440757171594273,69.1167143092284,-0.8642137956854755,119.07578424322968,359.6636675076941,1.274,1.0246641738210605,0,10.386892484437215,210.00008998959544,0.0712510642113644,3.274253876278957e-07,-0.099022173609116,-0.1721688122177315,0.007451330742035,25.04291404434837,7.344059614760897,20.48949553063222,39.11501077214754
0.66,31.222201523710048,131.01042153562963,9.967168309027535,4.471955056528524,-24.135267106090847,32.95464261111608,6.2003931008695945,0.8785050723983948,383.5125151715984,24.678737736019063,9.637970251025958,69.05828017863617,-1.1197625490449783,118.80221489925654,372.6832317009798,1.274,1.0246195561629028,0,10.42200216874574,210.00008998959544,0.0725300772972897,2.76242711129212e-07,-0.102735930925222,-0.1947420673215661,0.0078693928086854,24.521662778926935,7.081541146298085,20.9987074213607,33.54437531679385
0.67,31.222201076609995,131.010422416499,10.172999409041871,4.430537312476271,-23.77657216401497,22.77547126801747,6.7830056263605085,0.7640438332341715,289.15624401033847,24.961107511801305,9.77523048458802,68.99697129358505,-1.4073982330945882,118.49417281590182,381.2528380840531,1.274,1.024572383541697,0,10.457182445429805,210.00008998959544,0.0733601240295433,2.1474768430762003e-07,-0.1065540615462192,-0.217725698936053,0.0082550782887941,24.16225701519637,6.892659601291223,21.33256723254964,23.776354215619996
0.68,31.222200626174928,131.01042330051882,10.379086103133089,4.410751129733344,-23.52488363036699,28.342269425229528,7.342077561028119,0.6615615196316951,340.89999248584934,25.13128470550611,9.868477179438194,68.93253166179049,-1.7273171831990533,118.15141277855048,386.4614414868081,1.274,1.0245245285832842,0,10.492819126537132,210.00008998959544,0.0738604426318717,1.42837430017566e-07,-0.1104459723394206,-0.2409441772483778,0.0086147626340566,23.91168616791073,6.749954157537072,21.53895890046625,29.285286454612503
0.69,31.222200170978496,131.01042419072016,10.586300889321445,4.362547888451635,-23.14134691292811,34.8062837287117,7.954524673608345,0.5397081231864734,401.0140726853658,25.42479202374009,10.010240420129486,68.86470104729796,-2.079415263819679,117.77400840746412,395.533220664798,1.274,1.024479631064582,0,10.527897765523628,210.00008998959544,0.0747232306124613,6.049279991213031e-08,-0.114388604546592,-0.2642671919933389,0.0090263105622446,23.526730725876444,6.54108755328142,21.88778487631224,35.707746143447054
0.7,31.22219970575029,131.0104250988786,10.79793288874396,4.299538053028561,-22.69121345330856,29.19728304567484,8.608403756057612,0.4050415080524965,349.270324209851,25.78271298428183,10.177348457040464,68.79321223823402,-2.4633564620992323,117.36227886264066,406.7396866092319,1.274,1.0244351749185203,0,10.562617992062508,210.00008998959544,0.0757753379501031,-3.2243992519817984e-08,-0.1184032335559035,-0.2878067805141504,0.0094744378677664,23.0737969429218,6.299015757284093,22.31083191976201,30.442569062084818
0.71,31.222199232054788,131.0104260218851,11.01306371145835,4.255749951324681,-22.335543351033813,23.991780946698576,9.237635574370085,0.2818765422158487,301.3312640634036,26.034821771259622,10.30299583521124,68.71776136474143,-2.8789272626943214,116.91640876389746,414.7243810635978,1.274,1.0243880468141104,0,10.597511734993436,210.00008998959544,0.0765164708396177,-1.353725951953938e-07,-0.1224996535360852,-0.3116110668648557,0.009897870618669,22.71696950465345,6.0964049871393335,22.614551420779623,25.71028818166549
0.72,31.22219875377213,131.01042695109453,11.229276544187725,4.218280361361216,-22.01241247459801,29.292821689111783,9.858582954025293,0.1627476524070804,350.7922053414578,26.24171375026741,10.410986929773497,68.63801461523522,-3.3259361903927784,116.43655538050268,421.33323751042826,1.274,1.024337302174265,0,10.632348438900292,210.00008998959544,0.0771247155222047,-2.489080359116445e-07,-0.1266553754905692,-0.3355538335178995,0.010314759511809,22.39320612593424,5.90458609800704,22.868446714760456,30.907726334524508
0.73,31.22219826961953,131.0104278895145,11.44739709123688,4.1599725570843695,-21.59387256297688,36.968717133535215,10.533970745495816,0.0259120722850573,422.3203185282354,26.547106006956422,10.557714234003136,68.55363244790676,-3.803957167694481,115.92312384927116,431.187938869828,1.274,1.024292465384646,0,10.666820373144631,210.00008998959544,0.0780224590707341,-3.72802908982948e-07,-0.1308593637293196,-0.3595717727434777,0.0107809288047066,21.97210042800054,5.670054894672697,23.23487995747525,38.44022967675651
0.74,31.222197776491857,131.01042884480583,11.669481677641668,4.084932486343698,-21.099989950716584,23.10380389689264,11.265436460372587,-0.1278305271217531,294.4828134710563,26.93616514134945,10.737312762140506,68.46426370488045,-4.312421404019789,115.3766686244646,443.9095683953374,1.274,1.0242470321640116,0,10.701063404889124,210.00008998959544,0.0791661097587274,-5.069705200924242e-07,-0.135127098929651,-0.3837434993422485,0.0112954398347932,21.47404828894531,5.404728015720247,23.69619534097141,25.704321694851778
0.75,31.22219727441245,131.010429817477,11.895608976886306,4.048254392210973,-20.78828982698409,26.904445722532245,11.898760340277184,-0.248374060703295,330.24688556441737,27.09762153653116,10.827744728280194,68.36952595766886,-4.850818472701721,114.79767721788292,449.23738379091645,1.274,1.0241984712898409,0,10.735368321630316,210.00008998959544,0.0796408375966616,-6.513496557444703e-07,-0.1394707871172826,-0.4081294173865825,0.0117281610733448,21.161654102484608,5.211503382037815,23.903378487687235,29.4192349823388
0.76,31.22219677109704,131.01043078866783,12.12069941044187,3.988566948949969,-20.37179700111955,28.885686748638044,12.599560780394484,-0.390443495363846,349.2703242098581,27.37806449338172,10.964888089621736,68.26900714744572,-5.418663558486172,114.18660483400132,458.5742249797559,1.274,1.0241522053390697,0,10.769706275535144,210.00008998959544,0.0804652733873734,-8.059170330179423e-07,-0.1438447219438238,-0.4324829721485944,0.0122208885369304,20.7422867989638,4.978297025338806,24.24506871597471,31.516412818123356
0.77,31.222196258142983,131.01043177963467,12.35041037110439,3.9250360025751534,-19.938622789743743,26.90896931579013,13.317484236934984,-0.5373355704513573,331.76876669606884,27.66987161146613,11.106670576872924,68.16231619379984,-6.015063004424917,113.54434181193288,468.39134791322687,1.274,1.0241065975906936,0,10.803371269502684,210.00008998959544,0.0813231174337572,-9.70511820029012e-07,-0.1482673662497287,-0.4568989328447524,0.0127306109634523,20.30584720237316,4.7412474254615,24.600751765561867,30.02893180841468
0.78,31.222195739152767,131.0104327818401,12.582415475821175,3.8652934218656543,-19.525786054132883,21.959735072173498,14.02518245247844,-0.6807663966529077,286.8734378128874,27.92634849356772,11.234640294573351,68.04903214195934,-6.639197995761505,112.87169327354572,477.10416395380486,1.274,1.0240588105546735,0,10.837211671152009,210.00008998959544,0.0820771304761686,-1.1450143832980228e-06,-0.1527368863218317,-0.4813622032359974,0.0132356398105524,19.890041014230064,4.516048202234309,24.918268929502755,26.065286304818667
0.79,31.222195214687925,131.01043379406542,12.816373778857296,3.8126013476369898,-19.14724907165925,31.23817261791717,14.703897593140503,-0.8157086596955287,373.6203323159581,28.12389725899384,11.339573553987742,67.92872231712421,-7.290166892364135,112.16954859658884,483.8671608821031,1.274,1.0240083170932772,0,10.870877593024597,210.00008998959544,0.0826579557397611,-1.329296115511174e-06,-0.1572427023830834,-0.505814662138487,0.0137221795662477,19.50917049415762,4.3082473590781385,25.1719238853598,34.53539363542647
0.8,31.22219468566288,131.01043481404207,13.051679584822727,3.733922655374281,-18.650222833645845,31.531720354941218,15.48428785669224,-0.9810855061814752,377.42502064505805,28.47760411493988,11.505994447471464,67.80095264569727,-7.966926902836901,111.43894437670323,496.1034257426149,1.274,1.0239625010683884,0,10.9042622795641,210.00008998959544,0.0836977452970451,-1.5232009111947808e-06,-0.1617700526204005,-0.5301763094205146,0.0142944963418084,19.007286071459312,4.071681453858552,25.59949450496564,35.142212334193765
0.81,31.22219414733756,131.01043585591577,13.29189598113157,3.659374156019243,-18.17407257205085,20.202644357637567,16.25195321759015,-1.14253157132296,273.9374926939922,28.79379380064493,11.657822614652252,67.66529547740097,-8.668268548913085,110.68109236664937,507.16945694238206,1.274,1.0239149950770308,0,10.937333427671025,210.00008998959544,0.0846272790853313,-1.7264984456900331e-06,-0.1663422029721038,-0.5545632848711548,0.0148613616674337,18.52662038313823,3.855873768767935,25.98664874520401,25.953385151447844
0.82,31.222193603986444,131.01043690806378,13.53400936586452,3.605704432069448,-17.79622349718531,25.99361115857628,16.918312001379558,-1.2752602155822723,328.725004432774,28.9497000643005,11.74665527039454,67.52129427734423,-9.393081801999728,109.89709206596848,512.664623931776,1.274,1.0238644186635044,0,10.970598253689488,210.00008998959544,0.0850857325700196,-1.9390289771328096e-06,-0.1709472042354836,-0.5789099009068494,0.015355120809072,18.14623275703661,3.6849611827113473,26.19900713988032,31.04067316693908
0.83,31.222193058055687,131.01043796294715,13.776142302977046,3.530520551710579,-17.32079443147263,33.08941486886191,17.678243643786683,-1.4357292448989596,395.6875032246518,29.24380017736914,11.890027449697657,67.3684997239544,-10.14011096150938,109.08819553280075,523.1216932637672,1.274,1.0238188483711983,0,11.00363424551996,210.00008998959544,0.0859503536516745,-2.1606248147072286e-06,-0.1755519062434175,-0.6030452296131144,0.0159285566882966,17.666136016220452,3.509354308013953,26.564307873839542,37.54318837229201
0.84,31.222192503927587,131.0104390389471,14.022801404903005,3.4436499487324683,-16.79307498321587,19.898409815472863,18.497947624629884,-1.613540794358536,275.45937482564227,29.614075629003047,12.063650683599109,67.20649729427035,-10.907826505389009,108.25594702963618,536.4400442367564,1.274,1.0237739661568126,0,11.036192452360412,210.00008998959544,0.0870388711928459,-2.3909780567131662e-06,-0.1801750641231342,-0.6270612373620134,0.0165546364273908,17.13255611743874,3.3506225669688696,27.01383082763481,27.21625053902753
0.85,31.22219194324232,131.0104401321995,14.272936692679217,3.3835156658441337,-16.38936585504917,21.61524628224041,19.160562835614417,-1.7482722447789538,292.9609323393965,29.76415460794632,12.150505904717775,67.03485588362348,-11.694777229919412,107.40180227546875,541.8779741797604,1.274,1.0237227741398531,0,11.068881402212169,210.00008998959544,0.0874802159180056,-2.6298206689735685e-06,-0.1848235945357951,-0.6509881050325421,0.0170673978612945,16.725592941395057,3.254695554584574,27.22468398545556,28.937907593005075
0.86,31.222191381426647,131.01044122401532,14.522034469796056,3.309762778538733,-15.924764750875363,27.192907462597265,19.88461654870356,-1.9015403487637688,346.2265619465616,30.004267916534488,12.27303007584626,66.85314083572977,-12.499509243503418,106.52721613337616,550.6429399047895,1.274,1.023674789281455,0,11.101499958391043,210.00008998959544,0.0881861839247329,-2.876969897885893e-06,-0.1894544328547082,-0.674608586800048,0.017635743160282,16.25635432890493,3.185682996325985,27.534893968521157,33.74119214337766
0.87,31.22219081296736,131.01044233458416,14.774897467584177,3.2252357607865583,-15.41178073522848,25.003697461179183,20.66439276260647,-2.0713471687361475,327.9640783669946,30.318943912960403,12.42531602506894,66.66097540778567,-13.320263552117748,105.63397210189324,562.2398173938954,1.274,1.0236288969245204,0,11.133522266733738,210.00008998959544,0.0891113090883244,-3.132063420500354e-06,-0.1940768466164557,-0.6979666935695236,0.0182550576872597,15.737629511791855,3.154700261125923,27.92715483449131,32.50373046391556
0.88,31.22219023899405,131.01044346143243,15.03083773632715,3.145613454353206,-14.922647228052556,21.15091639176895,21.398988579832206,-2.2300735156961884,294.4828134710421,30.57819807704671,12.555840247790671,66.45798537403395,-14.155319707904264,104.72381011698484,571.8821799394628,1.274,1.0235805388426191,0,11.165569676257885,210.00008998959544,0.0898735502325017,-3.3947507449068383e-06,-0.1986965513132839,-0.721086215270598,0.0188489410928767,15.243211128641024,3.1788753487339023,28.260565315611625,30.170369642031222
0.89,31.22218966139801,131.01044459774874,15.288231158413438,3.068872822801445,-14.4476869930264,23.14327872196221,22.093170440994847,-2.379456417015174,315.02813424808807,30.795179048545524,12.669762559259528,66.2438043289178,-15.002974527772423,103.79845003212527,580.0127180088289,1.274,1.0235293752791452,0,11.197550532251254,210.00008998959544,0.0905115501494349,-3.6647277793705794e-06,-0.2032977850779335,-0.7438876661480406,0.0194217957920828,14.76323603563888,3.257393701189885,28.54971551748387,32.08397330409299
0.9,31.2221890800284,131.01044574460127,15.547302813851466,2.984827451385676,-13.940814569843957,25.53318342994893,22.820957159129545,-2.539622658141029,339.3781423542166,31.062578322421263,12.80395537274754,66.0181026307015,-15.86142672871094,102.85971831764058,590.1144460780048,1.274,1.0234837388140003,0,11.229263106106064,210.00008998959544,0.091297742720981,-3.941651158545344e-06,-0.2078672120776194,-0.766304228353587,0.0200302647670037,14.250577694310406,3.382543196349221,28.89430309223684,34.33932475998892
0.91,31.222188493920942,131.01044690765198,15.809272606953884,2.896300721182742,-13.415065793288024,18.579105139018623,23.565497901825385,-2.7059734913905986,277.7421810230785,31.35827035241129,12.949710399560765,65.78058876771978,-16.728808028767574,101.90951561101777,601.3876673861558,1.274,1.023436404813438,0,11.26073960599474,210.00008998959544,0.0921670999513464,-4.225109528044458e-06,-0.2124055720781837,-0.7883366613223515,0.0206619010188929,13.718552100241078,3.553567179145394,29.270237190501195,30.130352332220635
0.92,31.22218790364463,131.0104480858481,16.07383073251018,2.817081109498541,-12.931665828277469,22.34818806875281,24.20450767719724,-2.846168202629611,315.0281342480675,31.54445064782016,13.051986170097896,65.53099407416904,-17.60327483028409,100.94971761437148,608.5345216062628,1.274,1.0233859136578225,0,11.292129583814976,210.00008998959544,0.092714591127943,-4.514693369085713e-06,-0.2169096568407338,-0.8099666049781687,0.0212247748806379,13.229840961589009,3.775914765270031,29.53035139340484,33.066605137048846
0.93,31.22218731115957,131.01044926954123,16.338834266558894,2.727230955501262,-12.40238557283998,26.84589480419075,24.911219675959984,-3.006402838009533,359.16250706547066,31.82276997827949,13.19137607847368,65.26907960157598,-18.48299579673604,99.9821896292323,619.3044344040277,1.274,1.0233407575091376,0,11.323394843878225,210.00008998959544,0.0935328993973313,-4.810047643828623e-06,-0.2213559487379047,-0.8310807541103503,0.0218503984667542,12.694109119864956,4.02970769945329,29.889786052024046,36.74655618702253
0.94,31.22218671411437,131.010450473408,16.607411303437022,2.631416099337088,-11.84800804222322,18.27516634769368,25.652634151109968,-3.177809208139249,283.06875048378083,32.152099429544634,13.351660611150043,64.99466691664391,-19.36606066263124,99.00888829107542,632.1726470088647,1.274,1.0232914783978162,0,11.354285870076607,210.00008998959544,0.0945011448272229,-5.110672990096804e-06,-0.2257501792697969,-0.8517037721494041,0.0225141949246283,12.1326275863568,4.312657864650899,30.304253887096134,31.656560383116542
0.95,31.222186113439136,131.01045169470933,16.87887390114204,2.546844049041386,-11.343877151228185,24.403877108862087,26.246757733363832,-3.312710506388304,342.421873617488,32.33767767373794,13.454443723419573,64.7076001187338,-20.25064657380157,98.03167999525978,639.4746921749534,1.274,1.0232418269359267,0,11.385171495211504,210.00008998959544,0.0950468857599155,-5.416091956405441e-06,-0.2300912036492283,-0.8718265639644758,0.0230789742745529,11.622606241118214,4.636815523997271,30.567404294307533,35.991881867408274
0.96,31.222185511201182,131.0104529199699,17.15037406859462,2.449304246985846,-10.785058734031836,23.491283662881795,26.94979895813331,-3.4785176592661657,337.09533515678265,32.65890826357964,13.612304040198678,64.40775600181233,-21.134988295515328,97.05237444503727,652.2253992708435,1.274,1.0231951201821403,0,11.41595926046948,210.00008998959544,0.0959913406038469,-5.725933136857432e-06,-0.2343512105826509,-0.8913195331218832,0.0237391518885653,11.056471080110368,4.972284828795149,30.97478188692761,35.9198017410955
0.97,31.22218490484604,131.01045417059237,17.42628375686967,2.353831447185307,-10.23612213464621,13.139491792529924,27.5981804195407,-3.6324195756466975,245.0218871929888,32.940630238785005,13.754717384343312,64.09508467501959,-22.01726634940448,96.07284994887104,663.5087914178938,1.274,1.0231476260761452,0,11.446335631194437,210.00008998959544,0.0968196816407989,-6.039612033952833e-06,-0.2385398199344035,-0.91022389575212,0.0243712395252185,10.500459053271092,5.332677478220653,31.34128351630778,30.781492475333653
0.98,31.2221842964768,131.0104554325854,17.703655146868005,2.2678785589542123,-9.728728039119217,20.892373396504134,28.084080617604776,-3.746557923863175,319.593746642963,33.07831178023705,13.838927285135933,63.769556377053696,-22.8957952216234,95.09484627866536,669.0490785405026,1.274,1.0230935628253934,0,11.476798210507493,210.00008998959544,0.0972246619371962,-6.356663642108144e-06,-0.2426429816645865,-0.9284726071970464,0.0248934063299929,9.987086293242198,5.7282984255513405,31.557459479498643,35.20289116751548
0.99,31.22218368683953,131.01045669824427,17.98095488318811,2.168106615907017,-9.164312398140217,22.923523530756054,28.711269469700465,-3.9001743157743873,341.66094855170127,33.38530590279715,13.992535860156243,63.4311969472428,-23.76892102903819,94.12007910427104,681.5072147397107,1.274,1.0230490803133316,0,11.507021871133244,210.00008998959544,0.098127294331005,-6.676674458344368e-06,-0.2466350139766671,-0.9459508203155856,0.0255371121262298,9.415155310376011,6.1177243160308805,31.951909176263584,36.946397460649756
1.0,31.222183074230887,131.0104579910466,18.262742634411847,2.067739173639646,-8.598712624632839,19.5673607391554,29.31168290355521,-4.049535372380904,314.2672081822764,33.688371816795275,14.145232822429534,63.08010703082142,-24.63499042161233,93.15027649355967,693.9177998871569,1.274,1.022999484445133,0,11.53684841015008,210.00008998959544,0.0990183914202608,-6.9989764958038e-06,-0.2505277294901483,-0.9627070575217838,0.0261749440490261,8.842016398339066,6.520085879058981,32.34275367290171,35.47471067770638
1.01,31.222182460176207,131.0104592976653,18.546313854348178,1.969966662877472,-8.045675249802914,20.341349143661265,29.83011205451977,-4.180418737845786,324.92031610370094,33.93610974016856,14.27576213982681,62.7164053341003,-25.49251369341113,92.18699767380132,704.1420292398003,1.274,1.0229507481225095,0,11.566767724668654,210.00008998959544,0.0997468731261521,-7.323038766259396e-06,-0.2543114832094218,-0.9786951600576892,0.0267649314979232,8.281794207179368,6.941367343761957,32.676447402034945,36.34669133488311
1.02,31.22218184487068,131.01046061673648,18.83138556020272,1.8691282137347287,-7.48179918908716,15.559122567303584,30.352978385041645,-4.315379679650844,284.59063161543185,34.21623001526344,14.420269413379962,62.34026073334916,-26.340078142928885,91.23173030268096,715.7948661920971,1.274,1.0229039803623294,0,11.596491998624195,210.00008998959544,0.1005705414846096,-7.648360094885298e-06,-0.2579710373897508,-0.9938480514723372,0.0273734367047394,7.710452509910031,7.366731584108064,33.04432886225759,34.38040275631925
1.03,31.22218122830756,131.01046195493862,19.11915434586716,1.7713949195433147,-6.9315296232675525,11.102448475363488,30.771966021049263,-4.426416294198656,247.3046933904342,34.425841772197764,14.536144641023608,61.95190064285941,-27.176336918417885,90.28590401809132,724.5717526319713,1.274,1.022853416101322,0,11.625995826864834,210.00008998959544,0.1011869743893858,-7.974352799820233e-06,-0.2615006488974827,-1.0081379678338347,0.0279171805364278,7.1532243644933375,7.81294020444922,33.3396935954397,33.011686054460455
1.04,31.222180611036364,131.01046330269588,19.407794681448863,1.6746178283011108,-6.386122122409526,21.38651092748041,31.11647638564532,-4.521217136454712,345.4656368807608,34.59721098797593,14.636540005252623,61.55159605611848,-28.00004835127759,89.35084682781306,731.7831461475856,1.274,1.0228049544826707,0,11.655404769459892,210.00008998959544,0.1016910066346723,-8.300512786658737e-06,-0.2648846758212776,-1.0214976272582792,0.0284184312502839,6.6011572833954375,8.274016109238694,33.59615697392862,38.02708714462145
1.05,31.22217999314333,131.01046466177132,19.69760540466141,1.5677823515703115,-5.804307838529625,9.542246837472495,31.61619860468357,-4.6594661655194765,240.4562587980608,34.94821849053585,14.812926215275878,61.139676373253536,-28.81004614769897,88.42781942742654,746.6863610036672,1.274,1.022755494436122,0,11.684536705026591,210.00008998959544,0.1027230530680929,-8.626299526191036e-06,-0.2681116991265848,-1.0338790110067435,0.0290556700271181,6.011615136851602,8.703653392502424,34.038038608856446,33.35189820483491
1.06,31.22217937512229,131.01046605080245,19.99181268940451,1.4710510719290395,-5.261367048925608,16.513180068444647,31.842559962325595,-4.729971245092727,308.1796836557233,35.07600667421522,14.896080977989058,60.71652178926656,-29.60525905715128,87.51799348880334,752.1356088047606,1.274,1.0227013895379469,0,11.713428089229843,210.00008998959544,0.1030990022460687,-8.950962792731666e-06,-0.2711888457110794,-1.0453035794504153,0.0294957729942536,5.462589883360094,9.18615956446589,34.25071408102848,36.18019304683963
1.07,31.222178756751543,131.01046743555915,20.284351632291248,1.3659143884858935,-4.690393189645693,20.49691664445503,32.20953261024716,-4.840283374967664,348.5093681440431,35.37114923703656,15.050683757430688,60.282533058316005,-30.384762731283903,86.62239220943393,764.8248687442441,1.274,1.0226540159946436,0,11.7423983867522,210.00008998959544,0.1039668587809536,-9.274149349532154e-06,-0.2740894275542449,-1.055667291120784,0.0300612522244111,4.88480712468029,9.633858410582167,34.63520662966845,38.48383980387484
1.08,31.222178139091486,131.01046885144277,20.581322177715784,1.259298756118303,-4.116555911996008,10.551230107282343,32.57004249477124,-4.952382872028365,261.0015785751465,35.695447605339645,15.218914092648168,59.83818241838233,-31.14768313587533,85.74200091703136,778.8914499321224,1.274,1.0226061614050743,0,11.77084089866835,210.00008998959544,0.1049204245977487,-9.595109534333505e-06,-0.2768183251724553,-1.0649828074995895,0.0306380340492718,4.304548313802406,10.076402340334324,35.04937669216129,34.59280591393514
1.09,31.222177522307064,131.01047028563613,20.88040202651609,1.1584775534403036,-3.5645208227090768,8.573197925660844,32.71181362930916,-5.010872870163436,246.54375332456465,35.855650035956394,15.317620587825008,59.3839632563887,-31.893281779559203,84.87766905729681,785.8759480510629,1.274,1.0225512795791307,0,11.79936432641117,210.00008998959544,0.1053916668523353,-9.913240269220952e-06,-0.2793683676229998,-1.073215777014438,0.0310581498168616,3.747818964270214,10.561845456825438,35.29609752716539,34.18583508578008
1.1,31.2221769056128,131.01047172331968,21.179113701398297,1.0560961413109675,-3.009312617120432,26.346019101868503,32.83682359858309,-5.068352825933776,413.1890617384087,36.04005511444453,15.427356792844668,58.920407683730325,-32.62091569002159,84.03015560436882,793.9574518692126,1.274,1.0224981043155532,0,11.827746216319404,210.00008998959544,0.1059340517111495,-1.0228149469653076e-05,-0.2817208174004924,-1.0802998022136987,0.0314798515751271,3.189086966903566,11.042717376006662,35.567570696756995,42.403512907878685
1.11,31.222176290080725,131.01047317920435,21.479858706971584,0.9447115363283088,-2.431051204347092,16.23856737719066,33.22548935673713,-5.198617931981144,324.1593910379213,36.504574639228125,15.66024995269082,58.448100655623456,-33.330014447397595,83.20015551191428,814.5324218423617,1.274,1.0224548851875197,0,11.855757126039997,210.00008998959544,0.1072997976530089,-1.0539247344083216e-05,-0.2838703716586099,-1.0862127524014684,0.0321279565110794,2.608055635188564,11.44485249672578,36.12282057788324,37.34501093668241
1.12,31.222175678410384,131.0104746772825,21.78634944638321,0.8403637476091793,-1.8761419818510008,-0.6622498769847964,33.31142757687284,-5.25325003799111,172.7328179403806,36.73316505106627,15.791477838560027,57.96765853410791,-34.02010570467841,82.38826955205943,824.741231018008,1.274,1.0223979224661404,0,11.883630073177033,210.00008998959544,0.1079720787825326,-1.0845657788149144e-05,-0.2858226747638981,-1.090954351720766,0.0325505243532363,2.0556914984490566,11.912628371802889,36.43851401968252,33.729607440206955
1.13,31.222175066898654,131.01047617379578,22.09156147409253,0.7405429709355247,-1.3343990072855345,20.225654991940697,33.13258690464669,-5.241488843277835,367.5328077894322,36.76298950242088,15.835430606677226,57.479714828476645,-34.69081936435212,81.59499826091651,826.0568083539245,1.274,1.0223460397860296,0,11.91170607703207,210.00008998959544,0.1080601158222416,-1.1147107857418928e-05,-0.2875575330629869,-1.0944620065898183,0.0327737244045863,1.5260817294152604,12.439711820148046,36.55340154474149,39.17037962722837
1.14,31.22217445536352,131.0104776710755,22.3959522964751,0.6314216420591366,-0.7765308853099515,5.90865131821856,33.34792428121639,-5.337621651654776,239.6953177322812,37.19409103432305,16.05875435945382,56.98495079293546,-35.34184728169458,80.82078858107167,845.5192047904292,1.274,1.0223022138470996,0,11.939342361394957,210.00008998959544,0.1093276592847939,-1.1443309210329969e-05,-0.2890615161359239,-1.0967048340565126,0.0333304944544157,1.0008341991368603,12.840113460399293,37.07211758227709,34.2853674205519
1.15,31.22217385062681,131.0104792214719,22.70741940336128,0.5290062945085399,-0.23422094392115,5.319984252267694,33.1691154221271,-5.333067096590863,237.4125115347709,37.30973111028392,16.14230618108551,56.48408064573272,-35.972959247360336,80.06601431153965,850.7595296852741,1.274,1.0222426194541194,0,11.966593676435451,210.00008998959544,0.1096679551541672,-1.1733250892443396e-05,-0.2903414723099877,-1.0976706166189163,0.0335811629104604,0.5785374243143518,13.337986121514426,37.27293987291775,34.01373332916435
1.16,31.222173244386845,131.01048075709895,23.01561080179697,0.4252954812565253,0.3056498342646588,32.580825832891954,33.01531995683428,-5.338626415651508,490.043774385954,37.491710120302166,16.256400795362637,55.977834055507685,-36.58399931199488,79.3309792494208,859.0535344304008,1.274,1.02219674531104,0,11.994165181550628,210.00008998959544,0.1102032462140779,-1.2016823907056908e-05,-0.2913822221478523,-1.0973340449959184,0.0338649144619959,0.5237330921058797,13.810503992335304,37.53972125628012,46.69071102276417
