Time,Latitude,Longitude,Altitude,Angle of Attack,Angle of Sideslip,X-Acceleration,Y-Acceleration,Z-Acceleration,Thrust,True Velocity,Ground Velocity,Pitch,Roll,Yaw,Dynamic Pressure,cp,parachute_deploy_gain,Wind Speed,Mach,omega_x,omega_y,omega_z,Cmq,Angle of Attack(total),Angle of Attack(gust),True Velocity(gust),Acceleration
0.0,31.222216000000007,131.010392,3.000000004412624,0.0,0.0,0.0,0.0,0.0,2.2828121974499247,0.0,0.0,71.99999999612658,-1.0292491154817412e-14,119.99999999354436,0.0,15.288,0,0.0,0.0,0.0,0.0,0.0,-0.0,0.0,90.0,0.0,0.0
0.01,31.22221599999862,131.01039200000284,3.0000009727369523,0.0,0.0,0.0,0.0,0.0,34.24218696174923,5.916279387578309e-11,5.734623670548936e-11,71.99999999613168,-5.86671995824671e-13,119.9999999935449,2.1432944861733093e-21,15.288,0,0.0,1.7386402909615473e-13,-3.4220131069073734e-19,7.115076756936125e-19,5.488773498207866e-19,-1.1574302492039043e-31,0.0,89.99999999962336,5.916279387578309e-11,0.0
0.02,31.22221599999738,131.01039200000537,3.0000018317022668,0.0,0.0,0.0,0.0,0.0,25.871876237766408,1.2265415415436536e-10,1.1895038237325684e-10,71.9999999961369,-1.1836364828043265e-12,119.99999999354544,9.211895886571454e-21,15.288,0,0.0,3.6044858651615574e-13,-6.979551485375437e-19,1.4162390878091906e-18,1.0909784360635388e-18,-4.776231873571785e-31,0.0,89.99999999921916,1.2265415415436536e-10,0.0
0.03,31.22221599921969,131.01039200159065,3.0001883335529382,18.80143492628821,-0.0001350810307892,10.931161642028636,-1.75114298675875e-05,3.026590975169265,180.34219359854663,0.0798232026864394,0.0478175828508887,71.99999999765336,-5.341802909786072e-12,119.99999999436793,0.0039016003969354,15.288,0,0.0,0.0002345795854893,3.788270153300133e-17,-7.771883375645477e-10,1.1422790048099072e-11,1.7057759223764537e-13,18.80143492675591,89.51882325913425,0.079801984207741,11.342422482672777
0.04,31.222215995131297,131.01039200995308,3.001692634342189,9.19442604083399,-4.49173898918486e-05,52.29595764159784,6.445392950801871e-06,3.026413589912948,548.6359724538078,0.3504174083926908,0.1601447499964056,72.00000000319055,-3.111420077280171e-11,119.99999999870242,0.0751892535633216,15.288,0,0.0,0.0010297854387864,2.0082066977226968e-15,-1.520937588847922e-08,2.5623342884322286e-11,1.4654248781413086e-11,9.19442604094277,87.798916624545,0.3504103527855857,52.383455068075136
0.05,31.222215983575865,131.01039203366796,3.0074067499493786,5.158590039700252,1.707592688632746e-06,76.26884281015512,5.843947534199429e-05,3.0258124765658088,761.6984298824644,0.9592973585397016,0.3772700771701255,72.0000000004862,-1.3608731808076822e-10,120.0000000109612,0.5634958029902841,15.288,0,0.0,0.0028191251099456,2.086299069701397e-14,-1.0551247853743037e-07,3.973493515691201e-11,2.783064866637575e-10,5.158590039700515,83.94063169874748,0.959297626767734,76.32884071402438
0.06,31.222215961742712,131.0103920785344,3.019291017943491,4.109521257467909,3.140103977270004e-05,57.06876634333886,0.0001151069734147,3.024834864051463,590.4875390737208,1.6257536642597354,0.6118982818704327,71.99999992547217,-3.5903296759057166e-10,120.00000003412836,1.6184272268450337,15.288,0,0.0,0.0047776672697797,1.0694899894620088e-13,-3.741090980393931e-07,5.521401959501359e-11,1.6723176417636091e-09,4.109521257587776,79.78719176344794,1.6257585967235286,57.148873286519276
0.07,31.222215929936205,131.01039214392435,3.0371334573469446,3.649087515174788,5.707077112564807e-05,86.89643797254193,0.0001728541558773,3.0234947746384675,855.2937749779139,2.3057260079826607,0.8506307413593818,71.99999965378231,-6.907496536790437e-10,120.00000006788592,3.255354923652711,15.288,0,0.0,0.0067759305364855,3.495199904512709e-13,-9.036515915819006e-07,7.594816279105379e-11,5.728932851326001e-09,3.6490875156204896,75.6601668283889,2.305734972638426,86.94902215090157
0.08,31.222215886364623,131.01039223353447,3.0621840248716574,3.4254446680114707,8.413075603463509e-05,17.831756866644035,0.0002285946601282,3.021841001032126,241.2171988638848,2.961944911520492,1.0819695676346892,71.99999900671328,-1.141745983122182e-09,120.00000011415082,5.371998197385977,15.288,0,0.0,0.0087043901031071,8.800530155962314e-13,-1.829098470920821e-06,1.0943386634701918e-10,1.4896287129277132e-08,3.4254446690434226,71.81713637501419,2.9619581267487467,18.085991154451033
0.09,31.22221583454733,131.01039234010327,3.0919888289029,3.389560809024919,0.0001118726864415,54.09031716446879,0.0002748660999733,3.020060228038602,563.0937377043176,3.504225426410036,1.2780161667917422,71.99999774508822,-1.634190085504106e-09,120.00000016921716,7.519080503822694,15.288,0,0.0,0.0102980157586766,1.865782139518716e-12,-3.1503298654458527e-06,1.6284478329871028e-10,3.03536411425607e-08,3.389560810868955,68.76526501308032,3.504242999330529,54.17456206384468
0.1,31.22221577423132,131.0103924641528,3.1267248829165366,3.4447939461814814,0.0001419149103147,51.372195336549765,0.0003131602029306,3.0182021883815127,538.7437595981919,3.950569597142709,1.4443465951180965,71.99999562056465,-2.1287748602259068e-09,120.00000023339832,9.55649523509932,15.288,0,0.0,0.0116097108366932,3.485956000178229e-12,-4.949356763187612e-06,2.4573266549165286e-10,5.3761299442583966e-08,3.444793949101151,66.34639928474206,3.9505918890846927,51.460781166288626
0.11,31.222215706113143,131.01039260424562,3.165907002780892,3.4691423802630394,0.0001702373452339,40.591037561894986,0.0003534470100582,3.016051659024047,442.8656393052949,4.421478635995476,1.6182620895289603,71.99999235067894,-2.5564479031457968e-09,120.00000030601664,11.970509656144712,15.288,0,0.0,0.0129935974697161,5.942887149865172e-12,-7.273722517324353e-06,3.67769289312894e-10,8.842679949465076e-08,3.4691423844348632,63.88798785789768,4.421505376815134,40.70293476011277
0.12,31.222215630588888,131.0103927595646,3.2092596514826863,3.4852659299808075,0.0001974376474727,44.30042894095728,0.000394069215595,3.013641598889868,475.58594813540446,4.896982486381051,1.793579340340896,71.99998761802138,-2.8337988279882726e-09,120.00000038673312,14.683611096353944,15.288,0,0.0,0.0143909889875706,9.464337642181618e-12,-1.017558359402848e-05,5.395790443954697e-10,1.3700793350599625e-07,3.4852659355662303,61.5068242157714,4.897013499814194,44.40281567867803
0.13,31.222215548046687,131.0103929293088,3.256512891171917,3.5606043721293616,0.0002276507019012,48.86766833507025,0.0004268800875964,3.0112558910133567,515.9156326236895,5.278566579338586,1.939796541405244,71.99998107389406,-2.8573058577484587e-09,120.00000047523812,17.061052093156064,15.288,0,0.0,0.0155123760833565,1.4300406003001044e-11,-1.3705268062305584e-05,7.724776992181392e-10,1.989112774124932e-07,3.560604379397528,59.67313531776262,5.27860233862722,48.960358155653
0.14,31.222215458587108,131.01039311327068,3.30759734332425,3.6000732663755977,0.0002555702913645,45.540290862247225,0.0004629468001456,3.0085404980032777,486.2390860568404,5.70011779273801,2.098362647205908,71.99997235012626,-2.508533681468686e-09,120.00000057154703,19.894788765881632,15.288,0,0.0,0.0167512184495524,2.071534240530911e-11,-1.7917736259613292e-05,1.0787346240473087e-09,2.8081526258393346e-07,3.6000732754351943,57.72385750323359,5.700157937625502,45.639559681930805
0.15,31.222215362317904,131.01039331122794,3.3624387479639086,3.651605404442164,0.0002842753491325,44.01308509501,0.0004965057129938,3.005703619811542,472.54218587214,6.091938849578711,2.2476968067377374,71.99996103728932,-1.6446954747148112e-09,120.00000067569304,22.723773683610247,15.288,0,0.0,0.0179026934683374,2.9002783512213203e-11,-2.287326399669318e-05,1.47199345427166e-09,3.831202693354572e-07,3.651605415492516,55.98561718911576,6.091983503446133,44.115597174664394
0.16,31.22221525912812,131.01039352340948,3.421115382839859,3.67540086436193,0.0003108411545024,34.83804992586084,0.0005330990866742,3.002517946501868,391.1218908297564,6.521183188362317,2.4085903880902046,71.99994669525161,-1.0153513453738144e-10,120.00000078796704,26.03872642002185,15.288,0,0.0,0.019164148528834,3.9478358970291335e-11,-2.864207894220033e-05,1.9677461746207517e-09,5.135466997084602e-07,3.6754008774883777,54.15946979122355,6.521232015176687,34.96719658394182
0.17,31.2222151493826,131.01039374906244,3.4833737923187487,3.7139589864597298,0.0003384978477213,43.96471427482637,0.0005668629535037,2.999235483723449,471.78125980632376,6.916861975403744,2.559060925010733,71.99992884100092,2.3206494032971838e-09,120.0000009081849,29.29426197817256,15.288,0,0.0,0.0203269651395979,5.248754693205839e-11,-3.5267097947693114e-05,2.580363454062817e-09,6.706952682968329e-07,3.713959001863866,52.549031795895466,6.916915146521327,44.06689817851128
0.18,31.22221503253009,131.01039398932429,3.549599475912623,3.7380363034619775,0.0003650282082698,36.67395661481795,0.0006021794701355,2.9956556354306425,407.10156721191447,7.332140201215607,2.71556808256092,71.99990696207136,5.837017536380516e-09,120.00000103716444,32.917216366714264,15.288,0,0.0,0.0215473823438242,6.839750892601699e-11,-4.285557247677198e-05,3.331016495775474e-09,8.639362741436378e-07,3.738036321259578,50.93050624815799,7.332197539712479,36.796100973258795
0.19,31.22221490871209,131.01039424390297,3.619694897703461,3.747799769666444,0.0003901520189829,41.42208371271829,0.0006393759928961,2.991742733214697,448.9531328318269,7.771071983754382,2.879366399937307,71.99988049019642,1.0709144790974043e-08,120.00000117502664,36.97605053227239,15.288,0,0.0,0.0228373144884866,8.761416506509219e-11,-5.146771415177372e-05,4.238406957677133e-09,1.0996552116864756e-06,3.747799789945131,49.29705748437159,7.771133268690212,41.529983675580546
0.2,31.22221477769685,131.01039451327668,3.693822889232993,3.7700519460961166,0.0004166800650969,37.99697972290605,0.0006740224661302,2.987733789228414,418.51563019916136,8.179966026035371,3.0338260708461373,71.99984881140107,1.723179577184912e-08,120.0000013223286,40.969302182777255,15.288,0,0.0,0.024038975990988,1.1057590044953188e-10,-6.120032215177249e-05,5.3263847350253015e-09,1.376394225587184e-06,3.7700519690893857,47.8457752505109,8.180031477986942,38.11426270718793
0.21,31.222214639876928,131.01039479663547,3.771710975053407,3.7926098867321474,0.0004432924407074,36.46301043881366,0.0007080907240332,2.983530483977461,404.8187610144644,8.582757448615462,3.1863584283669346,71.99981127559042,2.5745201416596626e-08,120.00000147900325,45.103059028532826,15.288,0,0.0,0.0252227064089584,1.3774582723633048e-10,-7.20875523136271e-05,6.61341033873124e-09,1.7010673350603349e-06,3.792609912601061,46.47936953648762,8.582827080829217,36.584868250565684
0.22,31.22221449507626,131.01039509434258,3.8534832466471007,3.782921298925821,0.0004660920499522,44.14577847155813,0.0007479176313898,2.978724032883548,472.5421858721365,9.056569122268344,3.360845972992861,71.99976720416048,3.661811567390422e-08,120.00000164562512,50.21995530074818,15.288,0,0.0,0.0266151520780326,1.6960703048385348e-10,-8.421592474264931e-05,8.124635526119773e-09,2.0969540034515424e-06,3.7829213275976334,44.9464484092354,9.056642335836344,44.24615863872642
0.23,31.22221434283448,131.01039540734791,3.9394622486964206,3.813874679301352,0.0004940771488601,36.66675459308932,0.000779455230549,2.974212905336642,406.3406421461021,9.430647902846331,3.5044030163419806,71.99971583979395,5.0272885112871524e-08,120.00000182313076,54.45382429059888,15.288,0,0.0,0.0277145095638672,2.0669790509245914e-10,-9.77285871729516e-05,9.894576563683824e-09,2.5339062472561444e-06,3.813874711257219,43.79476959007253,9.430725512303388,36.78718303164376
0.24,31.222214184153326,131.01039573358457,4.028950821673608,3.829256049377765,0.0005200487408944,37.802126339316736,0.0008136255607606,2.9692962675112065,416.2328240017114,9.837806876534357,3.658163422426286,71.9996564062533,6.718950080713476e-08,120.0000020109434,59.25679777340223,15.288,0,0.0,0.0289110855155543,2.4956955046738006e-10,-0.0001125744417092,1.1934277804843484e-08,3.0448209172448607e-06,3.829256084638984,42.59361542722471,9.83788856559955,37.91856374864305
0.25,31.22221401888584,131.01039607335582,4.122052964664892,3.851417709838087,0.0005469594058717,38.85163035360012,0.0008459008130282,2.964283881833675,425.36408079150686,10.22297576958679,3.8050691648373967,71.99958811418384,8.786880969336211e-08,120.00000220974424,63.98709205399403,15.288,0,0.0,0.0300430411774988,2.987811646313829e-10,-0.0001288461362054,1.4273117985167728e-08,3.621333387698252e-06,3.8514177486178034,41.50703126619192,10.223061685769354,38.96455005232871
0.26,31.222213847358866,131.0103964259872,4.218542267117083,3.8780574625554745,0.0005745172425185,42.3164797140743,0.0008766626387865,2.959162938653076,455.8015834241788,10.590779679138215,3.946551912391076,71.99951013710364,1.1286401474734325e-07,120.00000241975916,68.67355887153568,15.288,0,0.0,0.0311239685467471,3.5491769188178554e-10,-0.0001465721578858,1.6932703957058654e-08,4.267712643344226e-06,3.8780575050466,40.51245375834074,10.590869924095635,42.41981967733593
0.27,31.22221366913008,131.0103967923915,4.318728802515264,3.886188503202341,0.0005994342651313,38.70936050721014,0.0009111181036949,2.953518013741325,423.84219965987256,11.004860953238978,4.102320296019413,71.99942161756776,1.4276417094868828e-07,120.0000026420792,74.14786134434608,15.288,0,0.0,0.0323408987462391,4.1858405402174807e-10,-0.0001658847815307,1.995072923688136e-08,5.018832267232506e-06,3.886188549362022,39.43841359495857,11.00495511215316,38.8218734782956
0.28,31.22221348431185,131.01039717233687,4.422535913956003,3.90556090261878,0.0006261175699806,44.68030766832924,0.0009425767186621,2.947879457547137,476.3468732012221,11.38358114165448,4.247086834352694,71.999321619057,1.7823531611327881e-07,120.000002877279,79.33831935330025,15.288,0,0.0,0.033453914386159,4.904408325040897e-10,-0.0001868529238516,2.3357766479368094e-08,5.847713054408178e-06,3.9055609527288775,38.49894431917428,11.383679491972384,44.77744842575601
0.29,31.222213292835256,131.0103975659655,4.530013412817602,3.9242599519377537,0.0006528240665589,35.802573724660256,0.0009737210635801,2.942037024315898,397.97031042211177,11.759725774384751,4.391004157029451,71.99920917567837,2.1999186079018322e-07,120.00000312617878,84.66717879828003,15.288,0,0.0,0.0345593650464213,5.711677680739745e-10,-0.0002095620322847,2.7188189988316943e-08,6.77505090435382e-06,3.9242600061534456,37.60352534239979,11.759828319749328,35.92324968749781
0.3,31.222213095024976,131.0103979726075,4.64093665799555,3.936939025755682,0.0006785438093183,33.570228713727204,0.0010059102294455,2.93586442972183,378.1859457108711,12.149968255527943,4.539237002744259,71.99908328532703,2.6880857935396905e-07,120.00000338923812,90.3787563598417,15.288,0,0.0,0.0357062504417728,6.614698865958865e-10,-0.0002340353597042,3.1467140861055e-08,7.817263716758327e-06,3.9369390841381695,36.71173884615234,12.150074840940263,33.698361337808635
0.31,31.22221289105846,131.01039839189684,4.755183729044857,3.9598342215431432,0.0007060286581592,35.396825578217346,0.0010350810412898,2.9297385597941448,394.1656220930212,12.504537499407316,4.6763673222047455,71.99894291513503,3.255120771695107e-07,120.00000366712923,95.72967338626896,15.288,0,0.0,0.0367483036680869,7.620720834468404e-10,-0.0002603234137215,3.622454560346964e-08,8.948994505138873e-06,3.9598342843844345,35.934338386209795,12.504648402129598,35.5178635353378
0.32,31.222212681031937,131.01039882363492,4.872689374180126,3.985461429033668,0.0007340760463279,38.52097867048992,0.0010630242168685,2.9235095146848846,421.55939346242695,12.84534566718622,4.809181081594425,71.99878701464397,3.909756427278764e-07,120.0000039606604,101.01782231644016,15.288,0,0.0,0.0377499198995686,8.737098716736534e-10,-0.0002884807530145,4.1491545539590986e-08,1.0187112828155184e-05,3.98546149652875,35.21473736963424,12.845460975581933,38.631757748577954
0.33,31.22221246496604,131.01039926777932,4.9934410812554,4.010606629086,0.0007621365968788,38.18822026147908,0.0010905599149574,2.917102431053817,418.5156301991682,13.18247167592885,4.940798912752974,71.99861449732019,4.661299779655886e-07,120.000004270781,106.38859400029033,15.288,0,0.0,0.0387407190563976,9.971421990244511e-10,-0.0003185760672934,4.7302669734505256e-08,1.154498667827874e-05,4.010606701382261,34.52805863348922,13.182591392065536,38.299473293007864
0.34,31.222212242662028,131.01039972474007,5.117579377337869,4.019339771238816,0.0007871574969313,29.898022638335373,0.0011220389395318,2.910051232417875,345.46563688075645,13.569536737955724,5.0878303926024735,71.99842423285973,5.519675040347761e-07,120.0000045987411,112.72655675097128,15.288,0,0.0,0.0398782837956187,1.1331556132162459e-09,-0.0003507224668667,5.37022358302301e-08,1.308298593306914e-05,4.019339848191799,33.76700548046532,13.5696603843662,30.039310197084795
0.35,31.22221201433324,131.01040019407705,5.2449575244483055,4.033762873683395,0.000813261106463,32.76415525156106,0.0011515840876071,2.902959820469776,370.5765700527033,13.934300103976534,5.227895396154902,71.99821502296155,6.495674834876441e-07,120.000004945438,118.8669740701126,15.288,0,0.0,0.040950312688979,1.2825853697215452e-09,-0.0003849609961885,6.072234695821837e-08,1.4746020857580124e-05,4.033762955530055,33.07785186209504,13.934427850732408,32.89250745069162
0.36,31.22221177990305,131.01040067594835,5.375631006350063,4.051723629010647,0.0008401329464575,37.01692984301412,0.0011797030485285,2.8957873473716007,407.8625232777193,14.282998147928636,5.362923567977223,71.9979856440668,7.600645476620651e-07,120.00000531213882,124.88900300695136,15.288,0,0.0,0.0419751331662584,1.4462801652534363e-09,-0.0004213876232777,6.84067806399068e-08,1.654507199147348e-05,4.051723715967022,32.44322602189087,14.283130115703262,37.13002398000203
0.37,31.222211539445663,131.01040117020102,5.509550188388412,4.071639898917391,0.0008674922629137,35.12417761390579,0.0012067983861697,2.88849906286036,391.1218908297666,14.620581431527652,5.494447309446232,71.99773482653193,8.846681943540367e-07,120.00000570002652,130.86067091914967,15.288,0,0.0,0.0429672939311924,1.6251202388969355e-09,-0.0004600660652957,7.679415042686734e-08,1.849041957573993e-05,4.071639991174516,31.85023865502424,14.620717696893658,35.24274792557624
0.38,31.222211292895075,131.01040167697127,5.646763233102716,4.08264881385344,0.0008930259828975,36.695642158537446,0.0012360471443664,2.880711738179021,404.8187610144602,14.986392916850402,5.634654729559426,71.99746126698146,1.0246533537040716e-06,120.0000061105033,137.4891296153862,15.288,0,0.0,0.0440424171304414,1.8200057922063743e-09,-0.0005010869196581,8.592980519823866e-08,2.0642694281337543e-05,4.082648911356968,31.228847973200924,14.986533193043764,36.808540518115166
0.39,31.22221104018777,131.0104021963902,5.787316652586672,4.096641430700089,0.0009192713382325,31.335681548387896,0.0012640110027448,2.872831219844713,357.64062493382744,15.337978856701952,5.770390286512262,71.99716358743511,1.1813915463769678e-06,120.00000654506955,144.01394309468844,15.288,0,0.0,0.0450757388736732,2.031886352449547e-09,-0.00054455673306,9.586443829735616e-08,2.295945663566148e-05,4.096641533664766,30.65298398882095,15.338123255506089,31.4670954954126
0.4,31.222210781536543,131.01040272801887,5.931064331106764,4.109028969993624,0.0009451871856381,29.95928076777898,0.0012920492774571,2.8646905607053603,345.465636880754,15.692185018814769,5.906873567965718,71.99684037970908,1.3563276523471372e-06,120.00000700500496,150.74021066990193,15.288,0,0.0,0.0461167659598875,2.2617341782092324e-09,-0.0005905037520737,1.0663253249436129e-07,2.5471259834659164e-05,4.1090290785164525,30.09246700352443,15.692333488470696,30.095929256306363
0.41,31.222210517064383,131.01040327160345,6.077922766619747,4.122888296344507,0.0009714525997821,33.78425365340317,0.0013192264430821,2.85640971467756,378.94687077668647,16.03742529732769,6.0405139809190125,71.99649020751959,1.5509747261474075e-06,120.0000074917568,157.44375780268788,15.288,0,0.0,0.0471314487675864,2.5105374204052982e-09,-0.0006389770219162,1.1827345344180344e-07,2.816813594418537e-05,4.122888410595805,29.56469007160549,16.037577892745222,33.904791300285986
0.42,31.22221024682894,131.0104038270252,6.227854084363214,4.14444025865494,0.0009995884754813,38.04468161607466,0.0013435485656724,2.8482703202464488,416.2328240017114,16.348862540904037,6.163613566771559,71.99611159893284,1.766920641656551e-06,120.00000800692096,163.6157044470786,15.288,0,0.0,0.0480467946810589,2.779304965995011e-09,-0.0006900467934588,1.308321832549104e-07,3.100973487310896e-05,4.144440378988911,29.104646754454564,16.34901955589459,38.15115260238947
0.43,31.222209970843565,131.0104043942566,6.380851271439565,4.1618082623168045,0.0010268052928652,33.45815353250911,0.0013687230309017,2.8397750580998298,375.9031395134336,16.67263197205097,6.290467308135904,71.99570306121484,2.005818691215035e-06,120.00000855220898,170.15779512382937,15.288,0,0.0,0.0489983878509763,3.0690566816849196e-09,-0.0007437862329608,1.443552931671376e-07,3.4086145072160934e-05,4.161808388761201,28.640125213458976,16.672793262249197,33.57845085853367
0.44,31.22220968892116,131.01040497368373,6.537047157143216,4.164954087655709,0.0010505545842624,30.86574023822051,0.0013980747538988,2.830419582421933,353.0750125389216,17.050421620730056,6.433992917638883,71.99526304125902,2.269416145406482e-06,120.00000912964636,177.9537948947602,15.288,0,0.0,0.050108743779844,3.380847125286677e-09,-0.0008003278134917,1.589055036683518e-07,3.750784460406397e-05,4.164954219916419,28.113519280259386,17.050586641458253,30.99524475496968
0.45,31.22220940081287,131.01040556582012,6.696617751072218,4.165241899529329,0.0010735835484822,35.912216710755274,0.0014280646808282,2.820677244966047,397.2093853562869,17.438293672974723,6.580571293039616,71.99478987454265,2.5595995397253085e-06,120.00000974147088,186.13940823302417,15.288,0,0.0,0.0512487363629523,3.7158016249566814e-09,-0.000859850913876,1.745604864109677e-07,4.121350642664912e-05,4.1652420376426775,27.591357195572936,17.43846231108416,36.02281959036367
0.46,31.222209106468902,131.0104061707686,6.859600379555308,4.174585124444534,0.0010989881252456,41.916816790010685,0.0014546917035209,2.811153314474766,449.7140588976434,17.786187321601275,6.714685486378061,71.99428180697711,2.8783880229668832e-06,120.0000103898448,193.6374175079873,15.288,0,0.0,0.0522712438446989,4.0751091178509895e-09,-0.0009224765531151,1.9138630415982226e-07,4.50966024037632e-05,4.1745852688465686,27.13985967570823,17.786359950252297,42.01097612387663
0.47,31.22220880579083,131.01040678873238,7.026066274755745,4.1823089530633855,0.0011240727220223,28.37640408484148,0.0014814747534716,2.801325368441072,331.0078106302534,18.138167428286582,6.849989708801916,71.99373704967608,3.2278903746588286e-06,120.00001107707628,201.37401505997488,15.288,0,0.0,0.0533057667609836,4.459978104761035e-09,-0.0009883252835099,2.094509673354327e-07,4.927107017839778e-05,4.182309103852639,26.69716826759888,18.13834399721685,28.514342615617974
0.48,31.222208499300592,131.0104074186346,7.195654207463586,4.189479568102716,0.0011490100608361,27.95074823096412,0.0015080719422187,2.7912412472910484,327.2031223011574,18.48995085190441,6.98515976370584,71.99315377257649,3.6103201777021456e-06,120.00001180491516,209.25751230436188,15.288,0,0.0,0.0543397174489847,4.8716620260348906e-09,-0.0010573190976925,2.2877013380347535e-07,5.373205427420879e-05,4.189479725385959,26.268461765425428,18.4901313379827,28.089773168283216
0.49,31.222208187201936,131.01040806005494,7.368224738812109,4.202723284133339,0.001175611380853,35.08821363242469,0.0015321405723077,2.781292092003844,389.60000969812296,18.812014261754847,7.111044804193205,71.99253015042137,4.027946338669921e-06,120.0000125755114,216.60722913930897,15.288,0,0.0,0.0552863302793499,5.311396446020465e-09,-0.0011294854492155,2.4938633613154685e-07,5.8398320167141767e-05,4.202723448262914,25.88860807032205,18.81219892635871,35.1982716047702
0.5,31.22220786953184,131.01040871291724,7.5437546994244835,4.220815778795054,0.0012036252596423,36.05491615971072,0.0015540388599792,2.7714444106710974,397.97031042210494,19.10875420627192,7.229005658018125,71.99186435180009,4.483102820610566e-06,120.00001339126192,223.4908652241728,15.288,0,0.0,0.0561585257949344,5.7804122391526605e-09,-0.0012048912160576,2.713531252030471e-07,6.327866493526626e-05,4.220815950099865,25.54902500917784,19.108943271285572,36.161276053538906
0.51,31.222207546379583,131.0104093770373,7.722184419225251,4.232567510615346,0.0012298790840397,27.54004661432325,0.0015777580800203,2.761017323676155,323.3984349720841,19.430597746636646,7.354673636736509,71.99115452520388,4.978202222778502e-06,120.00001425458936,231.07869697977367,15.288,0,0.0,0.0571045034845869,6.2799518101633574e-09,-0.0012835871653678,2.947201005874635e-07,6.854585242460463e-05,4.232567688976395,25.189423168613605,19.430790935591396,27.678103017910345
0.52,31.2222072175343,131.01041005232278,7.9035495355154,4.237907651287689,-26.942402725940184,33.96892899311333,1.7930683476508695,2.7508595787619665,372.0984511843415,22.173900286650944,7.484021908720224,71.99038844515515,-9.208143336235982e-05,119.99991254283748,300.9291130657615,15.288,0,10.057166465814396,0.0651669173201884,6.787477538601016e-09,-0.0013955112795849,-0.0003016141373804,8.504279650166131e-05,27.249014123888447,8.050226673288947,18.096049107737517,34.12726856138049
0.53,31.22220688166888,131.0104107385538,8.088012890462673,4.245572449090893,-26.602035010788047,35.635418656199086,1.8380331857040528,2.7396733071768704,386.5562464348624,22.482454826339165,7.613724151990267,71.98956774770585,-0.0011048512600878,119.99884794690236,309.3568887001041,15.288,0,10.095875337278184,0.0660738663319698,7.0526085011245285e-09,-0.0014807398664753,-0.0009111519922443,9.14906889171844e-05,26.91428055308206,7.932853747873847,18.452337214109072,35.787808519444
0.54,31.22220653852328,131.0104114358763,8.275650353695841,4.253052913515385,-26.271763848443584,31.381454884110884,1.8835428935234884,2.728248427434598,349.2703242098436,22.789872246495506,7.742790302681774,71.98869725044078,-0.0032038772706318,119.9966411243,317.8690828785455,15.288,0,10.13450984729822,0.0669774796202343,7.020754703652081e-09,-0.0015697048964173,-0.001536164305994,9.831198795867132e-05,26.589617620341564,7.821780961125921,18.806208221209555,31.556089490889537
0.55,31.222206188371256,131.01041214365728,8.46625656542933,4.261548727090624,-25.957314509785103,33.2219938287304,1.9290803211123235,2.7166734935976766,365.2500005919907,23.090908135178648,7.869431500087083,71.98777477773643,-0.0064158088784554,119.99326404021846,326.31616321432926,15.288,0,10.173021620080224,0.0678623441936693,6.686050585464388e-09,-0.0016623767846586,-0.0021760383812217,0.0001054894685921,26.28084318885601,7.719705291353652,19.15159534147387,33.38865884866177
0.56,31.22220583119235,131.01041286187285,8.659831771467282,4.271915684914633,-25.662493049875287,31.055224166922205,1.97423012933692,2.705024059847686,346.2265619465787,23.381483455890848,7.992269919917634,71.98679811569845,-0.0107668563650318,119.9886891204288,334.57432483586365,15.288,0,10.211407466097988,0.0687164720301304,6.042802992737509e-09,-0.0017588542350298,-0.0028310003936412,0.0001130140565931,25.991833568165625,7.62825301940005,19.483861295988408,31.23526353059512
0.57,31.22220546704269,131.01041359034275,8.856323252685764,4.280093658452092,-25.36549331888681,30.71736488956853,2.0207590461987768,2.6929850176673127,343.1828296833023,23.67946794382004,8.117473707433792,71.98576498927419,-0.0162832077478263,119.9828888124306,343.1501336591451,15.288,0,10.249648281842054,0.0695923809356248,5.0853992469975995e-09,-0.0018591934825416,-0.0035010020996172,0.0001209814784621,25.70047228275516,7.536017796777168,19.823948788396088,30.9013291168369
0.58,31.22220509587851,131.0104143290936,9.055748110817476,4.283439705978071,-25.05269521280317,40.23167710132864,2.0699664577894423,2.6803138016115766,426.1250058573153,23.997383765117288,8.24931723039344,71.9846730478498,-0.0229912741481758,119.97583532750816,352.4193692699731,15.288,0,10.287742058867696,0.0705268730511062,3.808231296339314e-09,-0.0019634980148119,-0.0041862898184956,0.0001294817039967,25.392922018619792,7.436206220979077,20.186319197213248,40.37396048936807
0.59,31.222204717251827,131.0104150789833,9.25840457980956,4.291847654530163,-24.77471944861744,32.744458935333384,2.1173489048946768,2.667828189453287,360.68438819711065,24.290088267349496,8.37233246712557,71.98351974595535,-0.0309191240691022,119.96749913527051,361.0619395371353,15.288,0,10.325745567998933,0.0713872772513586,2.2053109957750543e-09,-0.0020720864779884,-0.0048884093629315,0.0001383064904598,25.12058326558748,7.3541367767939185,20.518624731271967,32.92111882365535
0.6,31.222204331365607,131.0104158395272,9.464137407522417,4.292119981600324,-24.464058507845262,29.178684160576573,2.169117048561694,2.6543842333962844,329.4859594986058,24.61891313492812,8.507489158487884,71.98230256885637,-0.0400951990331626,119.9578503026448,370.8964676019078,15.288,0,10.363621036015015,0.0723538439721193,2.7064150049264165e-10,-0.0021849484062133,-0.0056068723452717,0.0001478111086143,24.81488818044256,7.256167638220455,20.891812031865623,29.379353869197768
0.61,31.2222039381472,131.01041661080944,9.672983496914672,4.2908777286165805,-24.15445371772494,34.07590865243896,2.2222938815882025,2.6405190973567807,372.0984511843297,24.95383962841371,8.644501923519982,71.98101873091858,-0.0505485595224787,119.9468582541117,381.04914814939553,15.288,0,10.401373205296396,0.0733383501928925,-2.001860402271737e-09,-0.0023022185616817,-0.0063420726093235,0.0001578600490229,24.510099734888826,7.15915087473478,21.271059154860254,34.25023330853404
0.62,31.222203537695663,131.01041739255896,9.88485995181878,4.3013053621596615,-23.91072435705565,42.20534177967173,2.270217908215294,2.6274894138218072,442.86563930529206,25.23049566343948,8.761531222181326,71.97966549709173,-0.062308926713599,119.9344917064984,389.5372239121817,15.288,0,10.439000403665805,0.0741516086061626,-4.618390398121506e-09,-0.002423966951969,-0.0070940123930633,0.0001680474565302,24.27214162794095,7.094086745038561,21.58268131414193,42.34794522417151
0.63,31.222203129797872,131.01041818515503,10.09990282936612,4.307668251680172,-23.654026687500565,24.229371560539448,2.320640638270663,2.613840392539457,286.11251274707894,25.52445633578865,8.884291424512726,71.97823994956173,-0.0754048989513487,119.92072056568612,398.6588713899452,15.288,0,10.476473912302428,0.0750157314768674,-7.584743299176238e-09,-0.0025503832244628,-0.0078633753418997,0.0001788679140659,24.020870333882,7.022584731128162,21.91353994060013,24.480195685254273
0.64,31.222202715047764,131.01041898730838,10.317685184415517,4.307727837895516,-23.373835144135352,23.800063761440647,2.374903479675356,2.599302111368351,282.30782441796754,25.84793171839119,9.0168756282813,71.97673920037575,-0.0898653426289685,119.90551444413208,408.8188810226145,15.288,0,10.5138129841745,0.0759666040857355,-1.090676526113184e-08,-0.0026812291482114,-0.0086483901285793,0.000190423764415,23.745553145223308,6.939945090399331,22.277373015504804,24.059085041883417
0.65,31.22220229340608,131.0104197990415,10.538222509943523,4.316389563192216,-23.141856087549865,41.54513078969322,2.4251211537765847,2.585388138347585,436.7781447787475,26.125979127563934,9.133970113374634,71.97516027513744,-0.1057184103955748,119.88884370552034,417.6527098737829,15.288,0,10.550904593725916,0.0767839714331778,-1.4590017088633032e-08,-0.0028166385619408,-0.0094494445362888,0.0002021882510964,23.51918396398321,6.879766866573312,22.588898434730872,41.6960829907213
0.66,31.22220186432412,131.01042062143387,10.76188652477639,4.32252806778319,-22.904172549991923,35.43898172277255,2.477183108355333,2.5709689434142144,383.51251517160017,26.414334476315776,9.254406503264224,71.97350009917247,-0.1229925147710043,119.8706784378264,426.91377740691456,15.288,0,10.587895560143036,0.0776316405855416,-1.8639989012715053e-08,-0.0029570158314616,-0.0102684064462046,0.0002146032102343,23.286884122265104,6.816647058569463,22.911615168589,35.61836244140554
0.67,31.22220142797625,131.01042145406484,10.98854340105006,4.323078551286482,-22.64639402095065,24.60764076734198,2.53291297544047,2.555673357088174,289.1562440103425,26.72958152098332,9.383747049643738,71.97175539747279,-0.1417179811770269,119.85098671316366,437.1552429234033,15.288,0,10.624759176053056,0.0785583514723846,-2.3062666976059496e-08,-0.0031023581921543,-0.0111048504522231,0.0002278334769047,23.033981145452703,6.744041139844829,23.26419680568811,24.869320428669457
0.68,31.2222009845194,131.0104222965506,11.218071744006863,4.324771207367481,-22.400115183099285,30.56175317727322,2.5886147049132,2.5402192008598274,340.8999924858462,27.03705308328188,9.510329812616998,71.96992276561593,-0.1619250075844585,119.82973673687631,447.2604614583639,15.288,0,10.66138955977778,0.0794622174397291,-2.7863932223843923e-08,-0.0032526840767448,-0.011958481308903,0.0002416156740188,22.792667089086315,6.676459629243355,23.607402968399917,30.776198546075822
0.69,31.222200534018054,131.01042314870128,11.4504153030311,4.331148838395684,-22.18148742390733,37.48138285676281,2.642133735412641,2.525046716852984,401.0140726853634,27.31733943328321,9.62765836390057,71.96799881218031,-0.1836433330095313,119.80689718819453,456.5716155394921,15.288,0,10.69788251716486,0.0802861927726092,-3.3049474443948655e-08,-0.0034080497235331,-0.0128292151042695,0.0002557752387667,22.57942010990751,6.621164188941519,23.9194649134944,37.659139560713925
0.7,31.222200076311864,131.01042401079707,11.68567588311826,4.336826390802766,-21.965046535483623,31.54048758974508,2.6965559466944886,2.5095399986148577,349.27032420985284,27.59883691361335,9.745275631724894,71.96598002518992,-0.2069023119727803,119.78243714987016,466.0192528528144,15.288,0,10.734233131564212,0.0811137346400817,-3.8624749429956286e-08,-0.0035686558107065,-0.0137177330538588,0.0002705825648309,22.36829113692188,6.566450304295556,24.232468881892107,31.754866751053523
0.71,31.222199611438835,131.0104248827062,11.923816515135693,4.3387667122979305,-21.73671296910864,26.03373455955693,2.7537811220384105,2.49330151053226,301.33126406340574,27.898415818594216,9.868827130397229,71.96386272004847,-0.2317319806671622,119.7563249851096,476.1803319076268,15.288,0,10.770347597787616,0.0819944255065901,-4.459536060315826e-08,-0.0037345749603873,-0.0146240227686373,0.0002862300050313,22.14491652848636,6.505955045742246,24.565337509453094,26.297437099610796
0.72,31.222199139382933,131.01042576440892,12.164838087311606,4.336318353341602,-21.4939829634734,31.732019984036786,2.81440765689458,2.476199609743537,350.79220534145287,28.22055293736184,9.999766584724016,71.96164316478846,-0.2581629786945938,119.7285284119938,487.2292506814827,15.288,0,10.80632455121898,0.0829414233637657,-5.096698276749729e-08,-0.0039059322269986,-0.0155483463129661,0.000302813061898,21.90671498259452,6.438795908135481,24.92292130281181,31.952676683398384
0.73,31.22219866012235,131.01042665589657,12.408745323257127,4.3428568077727725,-21.296782939159343,39.973277334508914,2.869934882030141,2.459991283141568,422.320318528234,28.49004125453492,10.113025249083227,71.95931731311602,-0.2862269808552694,119.69901406368302,496.56750876653234,15.288,0,10.842170720493884,0.0837336915762401,-5.7745455339617584e-08,-0.0040828704751769,-0.0164910506123958,0.0003195456360253,21.714887811751524,6.391373270058547,25.221251001370995,40.15160002044489
0.74,31.222198173574167,131.01042755729347,12.65558713556848,4.345921503646231,-21.08866857048443,25.26311891819257,2.9281991420190767,2.443051241172028,294.48281347105944,28.776631045452177,10.23187851041556,71.95688113725556,-0.3159544956874643,119.66774979123984,506.5959877671186,15.288,0,10.87780272236194,0.0845762291959981,-6.493623918138772e-08,-0.0042655311483091,-0.017452456369913,0.0003371917821858,21.51180974629711,6.338631703223198,25.53832043404013,25.549325373814725
0.75,31.22219768009867,131.01042846779856,12.905101315078849,4.346620084662873,-20.87474509135604,29.387737251302,2.988626691450684,2.425490154041793,330.24688556441487,29.07462855242417,10.35441199463083,71.95433056410054,-0.347376246386426,119.63470320864636,517.1300709283947,15.288,0,10.913240594987847,0.0854523021345012,-7.254499253209285e-08,-0.0044537559192298,-0.0184313745555098,0.0003557083801833,21.30268377753555,6.282937329590494,25.867692889154643,29.638724546440393
0.76,31.222197179563548,131.01042938764152,13.157372018208846,4.350230993313827,-20.6780961979603,31.585665779889485,3.0476620531348684,2.4080587029338343,349.27032420986166,29.35333907111406,10.470429927201426,71.95166129913862,-0.3805226311791159,119.59984227418607,527.0792798767553,15.288,0,10.948521883032198,0.0862716967649052,-8.057696123969199e-08,-0.0046477635253794,-0.0194285229396744,0.0003747524862527,21.111110926036936,6.234290216651449,26.175284236744023,31.823596174313412
0.77,31.222196671892824,131.01043031693624,13.41244429127938,4.354255593657391,-20.48747761413388,29.57516727763042,3.1069444393089887,2.390412373138948,331.7687666960708,29.626996736939,10.584671492771289,71.94886890261354,-0.4154243296473617,119.56313464422036,536.939733040571,15.288,0,10.983650101471042,0.087076248051324,-8.903741505131769e-08,-0.0048477223472267,-0.0204443471774273,0.000394509728632,20.925605235451485,6.187753391906679,26.47697282608976,29.833834727745444
0.78,31.222196157138853,131.01043125552937,13.670273301390337,4.354997015753782,-20.28673404128736,24.40535970127595,3.169083880498407,2.371980331923427,286.8734378128899,29.917735053937097,10.704475168247187,71.9459489014342,-0.4521120972327707,119.52454788244556,547.5161748892871,15.288,0,11.01853322975578,0.0879310083262365,-9.793167159628212e-08,-0.0050536881866491,-0.0214787309175575,0.0004152969591086,20.729640919821687,6.136358971060703,26.797268657597364,24.724299089869675
0.79,31.222195635378583,131.01043220321583,13.930796916506644,4.3537238933019085,-20.081565213579207,34.41276962215491,3.2333292821915127,2.35291785862073,373.6203323159534,30.21850990728939,10.82748538557154,71.9428965876804,-0.4906169887091038,119.48404923596668,558.5663323030865,15.288,0,11.053243425186707,0.0888152746753006,-1.0726506465314301e-07,-0.0052657129844583,-0.0225315442507415,0.0004370598980648,20.52903532567973,6.082672221932952,27.128292178974647,34.64432642964792
0.8,31.222195106365763,131.0104331604704,14.194180990743709,4.357694734865363,-19.90257923210739,34.85813836454388,3.2943209404938902,2.3343948197588653,377.42502064505743,30.4847965405416,10.93899791900316,71.93970707428451,-0.5309708936593717,119.4416050658476,568.4395425457908,15.288,0,11.087811519177116,0.0895981844298087,-1.1704277145935713e-07,-0.0054841416721041,-0.0236040527537508,0.0004591892503806,20.355143937532155,6.039583621866968,27.420999638852933,35.091192055488506
0.81,31.22219457019356,131.01043412705707,14.460352748511593,4.35772166896535,-19.710777016237248,22.923868008726725,3.3588245070830047,2.31492894340662,273.9374926939919,30.772848436090538,11.057593724672175,71.93637534970404,-0.5732054002545798,119.39718204226888,579.2178990685784,15.288,0,11.122219609290733,0.090445072383023,-1.2727015677671416e-07,-0.0057089861513273,-0.0246959136334446,0.0004825200148501,20.16802106405626,5.990633654479012,27.73739739578216,23.283992839801503
0.82,31.22219402704481,131.01043510255036,14.72917600961856,4.35592674430605,-19.51512161940884,29.25006991236199,3.4253876915506307,2.294826192542696,328.72500443277005,31.07008277209412,11.17911174573898,71.93289625726557,-0.6173520280248364,119.35074689955884,590.4460028673773,15.288,0,11.156427073131088,0.091318956524391,-1.379525757050277e-07,-0.0059402042597658,-0.025806543740624,0.0005068987524628,19.976844685848054,5.939632717463936,28.063582088800324,29.539229813410348
0.83,31.22219347688843,131.0104360869769,15.000665999692144,4.360574184458638,-19.34953101858608,36.98506085310803,3.487480492702677,2.2755414964726017,395.68750322465047,31.324002015616355,11.286283396654806,71.92926447458348,-0.663442446939922,119.30226620564348,600.1205929740102,15.288,0,11.190423838720177,0.0920655397416332,-1.4909511554664218e-07,-0.0061779628124726,-0.0269363396645161,0.0005314821009256,19.816413794126355,5.900612087605676,28.34203052566774,37.218749785521474
0.84,31.22219291960208,131.0104370805624,15.274903884987229,4.363529152285548,-19.180241856942903,23.10690708792161,3.551393735778664,2.255677507826785,275.4593748256452,31.585749844414988,11.395946918168947,71.92547454271565,-0.7115074683733031,119.25170742544624,610.1758127877829,15.288,0,11.224258919370186,0.092835139768467,-1.6070252758823596e-07,-0.0064224689361283,-0.0280858632763687,0.0005571188795771,19.65210376210965,5.859549488273407,28.62888116794953,23.486797007163098
0.85,31.222192355481862,131.01043808264535,15.55167422525156,4.360617414313618,-18.99041483898921,25.13056817554545,3.620682927080496,2.234416586973349,292.96093233939376,31.88287147814255,11.51713651738911,71.92152097551468,-0.7615777057028532,119.19903821484256,621.69291605007,15.288,0,11.257905031970136,0.0937087163458022,-1.7277997082057697e-07,-0.0066735461019957,-0.0292539264148924,0.000584328705874,19.46661552870894,5.809603204179492,28.95418173353297,25.488181951020586
0.86,31.22219178433445,131.0104390936025,15.831108722155172,4.361515548075519,-18.81927172457981,31.28752569048596,3.687451820518677,2.2135432752352084,346.2265619465587,32.152728546723914,11.629282143219188,71.91739792318073,-0.8136847891987447,119.14422515814016,632.2445216553718,15.288,0,11.291385017106084,0.0945021661743981,-1.853320858689211e-07,-0.0069315325661087,-0.0304416831464467,0.0006120382656163,19.300219813921174,5.76686875679678,29.24947176146805,31.581740588397032
0.87,31.222191206174443,131.01044011337223,16.113192276699856,4.364048239415267,-18.6576960486358,29.18026927074223,3.753368704510296,2.192684628840808,327.964078366998,32.40896122980092,11.736878127763443,71.91309942983206,-0.8678599482248603,119.08723524838166,642.3442845820249,15.288,0,11.324697000527584,0.0952555794144596,-1.983636697145315e-07,-0.0071965332185473,-0.0316492127556065,0.0006404838069754,19.143570731489326,5.727556334839529,29.52973939720981,29.502266984531467
0.88,31.222190621029167,131.010441141868,16.39790121837271,4.363502473901952,-18.48681907729613,25.312139138866623,3.822482149356099,2.17090440142932,294.4828134710418,32.68287334754602,11.850180661278843,71.90861938421574,-0.9241341020570714,119.02803579390792,653.230160878704,15.288,0,11.357818828429115,0.0960609633986865,-2.1187945790118626e-07,-0.0074686135221809,-0.0328764172190439,0.0006702981969674,18.97727627311319,5.684012420447635,29.829094976426667,25.69102145668083
0.89,31.222190028973746,131.01044217890123,16.685177911781263,4.359945654031509,-18.3070465992004,27.689445465788328,3.8948770732868647,2.148167026482337,315.028134248087,32.974609390857765,11.969222657295983,71.90395148137266,-0.9825382768691387,118.96659397909704,664.9256769547096,15.288,0,11.390727618820192,0.0969187433231748,-2.2588416892717586e-07,-0.0077478339529726,-0.0341231791222356,0.0007015454557363,18.80174187970373,5.636462441190465,30.14762641109816,28.044430448710266
0.9,31.2221894299206,131.0104432246318,16.97508084938401,4.362962679322158,-18.1558320757084,30.50784805783304,3.961969755418248,2.1264771693364883,339.37814235421445,33.21889794632951,12.072671186751467,71.89908915975649,-1.04310429961638,118.90287613396951,674.7954317771432,15.288,0,11.423472896079154,0.0976370739232812,-2.403823374694249e-07,-0.008034432489089,-0.0353901485158165,0.0007328653456871,18.655508644435237,5.599943008878741,30.414475307642853,30.83744319191177
0.91,31.222188823935287,131.01044427889687,17.26756044334726,4.362943983161519,-17.995464902463276,23.378084413248256,4.032326370514284,2.103833022524961,277.7421810230789,33.480987921314245,12.181855046874825,71.89402578451009,-1.1058624723301316,118.83685017995028,685.4661642982836,15.288,0,11.456044825959689,0.0984077342358982,-2.5537844973738897e-07,-0.008328444374597,-0.036677084340059,0.0007656560424171,18.49977633295923,5.5593304345167045,30.70051248616564,23.816393517448702
0.92,31.2221882112179,131.010445341242,17.562470314363868,4.359978939316919,-17.826439416114688,27.69342582752308,4.106012801005339,2.080203511300977,315.02813424806214,33.760862206945674,12.296755398193696,71.88875451610211,-1.1708431330041524,118.76848398720377,696.954219695232,15.288,0,11.48842793263485,0.0992306743957197,-2.708772349189008e-07,-0.008629753560784,-0.0379831140821361,0.0007999653626379,18.335041539241296,5.514894683227036,31.00565047269457,28.07334005484511
0.93,31.22218759166812,131.01044641186263,17.859879997827697,4.363013590427466,-17.682884995443786,32.80363234471514,4.174542716264153,2.05760524189734,359.1625070654728,33.995809248078494,12.396933177990055,71.88326831007437,-1.238076585141506,118.69774544856584,706.6682113177179,15.288,0,11.520638613541433,0.0999215712597061,-2.868825997474141e-07,-0.0089386393584448,-0.0393090434271712,0.0008343411314587,18.1964783166353,5.480141353542143,31.26207297466364,33.13214211651035
0.94,31.222186965168287,131.01044749099918,18.15987315066477,4.360116094996321,-17.519278367383556,23.99342585218686,4.249281379033342,2.033324592042712,283.0687504837787,34.269624590942215,12.509690329349288,71.87755998290046,-1.3075922616096765,118.62460335830866,718.0769215465652,15.288,0,11.552676329769524,0.1007267190386261,-3.0339835937523137e-07,-0.0092553168281136,-0.0406553825138175,0.0008708332022799,18.03716474751022,5.4370926530054,31.56038446591637,24.45148840580454
0.95,31.222186332008107,131.01044857800215,18.46223887409233,4.357770756479252,-17.360249963574805,30.867761241269108,4.324076277365792,2.0088234430182323,342.4218736174873,34.536858819902925,12.6202213229993,71.87162204803894,-1.3794205538311617,118.54902548633213,729.2985226325337,15.288,0,11.58452814395941,0.1015125314353643,-3.204292827089968e-07,-0.0095795968748056,-0.0420209663999544,0.0009083470267472,17.88249158394451,5.395505268773731,31.85145053815985,31.233822874020603
0.96,31.22218569188348,131.0104496735212,18.767196142242025,4.35831097277969,-17.2143669523447,30.25119018592064,4.3965235708308175,1.984688191907121,337.09533515678345,34.78026452286109,12.722925222471854,71.86544684040251,-1.453591296132914,118.47098017323324,739.5928510327789,15.288,0,11.616218720795615,0.10222831390291,-3.379785101017966e-07,-0.0099119923143458,-0.0434075200833812,0.0009464612707175,17.74130973036459,5.358693181585492,32.11673632636488,30.633362766642314
0.97,31.2221850448108,131.01045077750908,19.074732899961223,4.357076630689521,-17.06414981831789,19.58010906887325,4.471282624424688,1.959786569751276,245.02188719299323,35.03338892188617,12.82870960055547,71.85902642370296,-1.5301347340264635,118.39043530962776,750.3751033452317,15.288,0,11.647744840090391,0.1029726701882937,-3.5605009951189865e-07,-0.010252613014345,-0.0448150884900775,0.0009860816969883,17.595580922123187,5.319840773982996,32.392408901575706,20.179539213159256
0.98,31.222184391078383,131.0104518893201,19.384639528228668,4.350214543310078,-16.89555200404677,28.2221221098936,4.552525826871392,1.933078509334324,319.5937466429581,35.32517952637862,12.946958424619485,71.85235266950926,-1.6090805535803858,118.30735935671191,762.9040912927529,15.288,0,11.6790851929206,0.103830685319171,-3.746488073515978e-07,-0.0106011956442726,-0.0462422199706199,0.001028069517828,17.43078028414766,5.273584919413701,32.70952830754972,28.652233077254667
0.99,31.22218373053204,131.0104530092818,19.697027840671,4.352292629071571,-16.761847916719926,30.7798277262582,4.624830119708635,1.9083601025779409,341.6609485517054,35.547705623784466,13.042662088003407,71.84541715766481,-1.6904589076289636,118.22172026634352,772.5228043798753,15.288,0,11.710263294445708,0.1044851207059964,-3.9377784278034713e-07,-0.0109581428926143,-0.0476901459238969,0.0010693472561861,17.301973467247887,5.240492096480782,32.95215716215391,31.183788845735354
1.0,31.222183063169567,131.0104541373967,20.011901343465304,4.348892903499274,-16.610304794223293,27.60150276416656,4.70351628143609,1.8818487156034025,314.2672081822764,35.80789671344564,13.150499355622,71.83821141297531,-1.7742977805694256,118.1334882527148,783.8494329183607,15.288,0,11.741269668973237,0.105250272495922,-4.134407606998202e-07,-0.0113235299876138,-0.049158764005806,0.0011130578520367,17.154651271468886,5.200242855165587,33.23515023723855,28.062561801062404
1.01,31.222182389169696,131.01045527326073,20.329130226257067,4.346186600969702,-16.463348798781347,28.83539239799576,4.7819689433548325,1.8551747427662089,324.9203161036979,36.05986476706708,13.255594770138195,71.83072659958296,-1.860626225418998,118.04263238490536,794.895391535844,15.288,0,11.77209985476259,0.1059912624577344,-4.336416276400815e-07,-0.0116972792625609,-0.0506473802890134,0.0011578513616238,17.012003144130983,5.161497693946684,33.50924726329954,29.288030917898862
1.02,31.22218170845513,131.010456417044,20.648773104242185,4.344662854676019,-16.322602602769894,24.15274139021751,4.859572613257349,1.8284936949767263,284.59063161540416,36.299608744879855,13.356659249096754,71.82295372491946,-1.9494721104809336,117.9491229578588,805.4755213198051,15.288,0,11.80275829788715,0.1066963301073792,-4.543834284093057e-07,-0.0120796345896803,-0.0521565578613848,0.0012036113277033,16.87571694866918,5.12486904223053,33.77020086032602,24.704528974234996
1.03,31.222181021094293,131.01045756859483,20.9707824855566,4.33934523970254,-16.170368590208113,19.82050141581609,4.94202027939708,1.8003647663980789,247.30469339049705,36.565414187503286,13.466073054494812,71.81488359584574,-2.0408625393019064,117.85293104913372,817.2896909196159,15.288,0,11.8332433318235,0.1074780090935556,-4.756695473463731e-07,-0.0124706182889254,-0.0536859891393789,0.0012516288835468,16.727460346928158,5.083664294537218,34.05896424702128,20.506514918640544
1.04,31.22218032714761,131.01045872777584,21.295116013129388,4.337282772399043,-16.03155083581724,31.21331671640269,5.021218203864872,1.7728303294098884,345.46563688072297,36.80287219103995,13.566248313450563,71.80650666263729,-2.134825374534117,117.75402691416085,827.913423927785,15.288,0,11.863561341664711,0.108176373670464,-4.975032932113322e-07,-0.0128703163058601,-0.0552356180034072,0.0013000932341093,16.593039117587537,5.04734335478672,34.31737235813828,31.664281139261053
1.05,31.22217962633691,131.0104598952225,21.62198347469169,4.332124067039636,-15.88379613812872,19.014018803025607,5.104569081992719,1.744006249941558,240.45625879819983,37.06126123876812,13.67310266746507,71.79781319145638,-2.2313873993327142,117.65238192079948,839.5532596833746,15.288,0,11.893728077107756,0.108936270280866,-5.198865010675645e-07,-0.0132792830364078,-0.0568071480111852,0.0013507804045829,16.449280818273408,5.007468336172362,34.598076286059914,19.764389551779296
1.06,31.222178918896265,131.01046107040895,21.95121495977089,4.324315936799691,-15.72878797970124,26.87563789388989,5.191751383345675,1.7139553446261715,308.17968365593924,37.3377227910075,13.78570309527589,71.78879303553721,-2.3305765167431085,117.5479662321006,852.0984651834663,15.288,0,11.9237246279079,0.1097492971611823,-5.428233372463753e-07,-0.0136973034263648,-0.0583993596186211,0.0014036508704483,16.29791966186709,4.96474385219824,34.89796578766047,27.426115976443597
1.07,31.222178204713792,131.01046225359417,22.28289716236893,4.322024408950512,-15.594669472943597,31.557675965405974,5.27268749029123,1.6852732804981772,348.5093681440308,37.566951231784685,13.882989935609368,71.77943570995093,-2.4324208780549714,117.44074972347693,862.5657215263843,15.288,0,11.953571673978567,0.1104234971388433,-5.663162314646029e-07,-0.0141247661492078,-0.0600133039207692,0.0014562957340208,16.168174563995372,4.929697216551985,35.14747932933496,32.03948020392647
1.08,31.22217748369596,131.0104634450063,22.617105565392663,4.318339755465687,-15.457476559630432,21.381966490293344,5.355795365262216,1.6557916440750022,261.00157857466235,37.80376678419433,13.982646809534304,71.76973057115744,-2.5369470602258826,117.33070389983205,873.4468889328825,15.288,0,11.983271001013271,0.111120006810587,-5.903676660612715e-07,-0.014561941494624,-0.0616495568771989,0.0015107853876542,16.035175011583522,4.89337398399527,35.405058694893974,22.104630305779384
1.09,31.222176756113832,131.01046464403592,22.95364297078497,4.308361555640492,-15.30067676894244,19.69367296180328,5.447485141211882,1.6238200406252383,246.54375332474407,38.08866076246626,14.09770426285392,71.75966668040269,-2.6441813322454912,117.21780056093472,886.6326466858553,15.288,0,12.012805142862783,0.1119578464479707,-6.149818445880932e-07,-0.0150085061959507,-0.0633065126066557,0.001568799894298,15.881724351737727,4.849721109429448,35.71370077410763,20.497625243293964
1.1,31.222176022044057,131.01046585051617,23.29245671936388,4.30135863136514,-15.15576524505344,39.067415822418745,5.535957155266464,1.5924284545992344,413.1890617385841,38.34630974224245,14.203904767677948,71.74923279932725,-2.754149613067427,117.10201184514024,898.6391420723062,15.288,0,12.0421797382876,0.1127156110669444,-6.401615382869184e-07,-0.0154645384463698,-0.0649840581218835,0.0016273493122846,15.74055908233663,4.810444768508375,35.99331313745921,39.48981677660379
1.11,31.2221752811059,131.01046706534837,23.633840083671785,4.300492646171001,-15.033048616164535,28.70679425413749,5.616697095172245,1.562825361673542,324.1593910376397,38.54933900196372,14.292459846073625,71.7384173464222,-2.866877791627876,116.98330989144108,908.1504650979476,15.288,0,12.071422476594607,0.1133128342819764,-6.659071045316133e-07,-0.0159308966375559,-0.0666848760644883,0.0016852454400025,15.622428776866746,4.779281048463088,36.21495360737783,29.29282754736025
1.12,31.22217453336864,131.010468288401,23.97774996948015,4.287640692327239,-14.872073233733326,11.07945093541077,5.714128707175331,1.5285407638323392,172.73281794065943,38.849107711707454,14.412028765432751,71.72720856278575,-2.982390131355764,116.86166851713516,922.2988954162256,15.288,0,12.100520637855285,0.1141944246676147,-6.922215357769426e-07,-0.0164075625037122,-0.0684084457703319,0.0017491085967799,15.46439576469669,4.734088936666054,36.53915207529555,12.559535691220315
1.13,31.22217377939875,131.01046951835525,24.32376163460276,4.281024646979319,-14.733460348551532,33.741969927724966,5.803620374129966,1.496091852914588,367.5328077900705,39.09344349160362,14.51370251491532,71.71559403885468,-3.100713445368241,116.7370588195929,933.9056657965804,15.288,0,12.129455031922076,0.1149130825001279,-7.191105881630923e-07,-0.0168937243638355,-0.0701514714354682,0.0018122017883843,15.32958333466273,4.6971495527179705,36.804538479519294,34.270115769907605
1.14,31.22217301857675,131.01047075670124,24.672355751808727,4.2787300065081695,-14.61053423017882,18.8524983390928,5.887412405222166,1.4649090622180867,239.69531773195544,39.29695955917423,14.602193356727966,71.70356149392703,-3.2218700423758584,116.60945660559004,943.6229941129748,15.288,0,12.158263565348609,0.1155117614873268,-7.465721341914055e-07,-0.0173907216551778,-0.0719182543925046,0.0018751639114598,15.21106644902423,4.665949991475156,37.02673409238739,19.80465291327342
1.15,31.22217225137314,131.0104720023587,25.02318330680772,4.264301931410329,-14.44959191509072,18.575737509589448,5.988994290628264,1.4286637964434334,237.41251153546767,39.60147763482901,14.723014239202124,71.69109836387649,-3.345881416115629,116.47883850235976,958.2719186202448,15.288,0,12.186911569232572,0.1164073404475371,-7.746113520936877e-07,-0.0178977289295003,-0.073705456580443,0.0019447212680128,15.052829563671802,4.62108126125206,37.35572434327175,19.569546670314427
1.16,31.222171477922487,131.01047325502273,25.376147360392103,4.262725515367023,-14.33182211446818,47.99327387323228,6.07238845874944,1.3970545158499303,490.0437743845894,39.79106278159853,14.806894568326872,71.67819142471963,-3.4727713798664355,116.345178656141,967.436197805552,15.288,0,12.215411046491411,0.116965086130685,-8.032304804266334e-07,-0.0184147758267448,-0.0755127833608246,0.0020104130618738,14.939586675122742,4.59196758408491,37.56322828230654,48.39607422080112
1.17,31.222170697423955,131.0104745166622,25.731877783032967,4.2546648088858605,-14.194569226981256,8.801158556321186,6.165622043044976,1.3625033459448643,153.70937929486794,40.03304761336963,14.907493398195063,71.6648275541591,-3.602559463424313,116.20845568651356,979.2052227788776,15.288,0,12.24379913254309,0.1176768684420785,-8.324254795208495e-07,-0.0189436173985447,-0.0773458189328221,0.002080654876592,14.805943485178291,4.55595077791972,37.82610814914072,10.831975926805722
1.18,31.222169910959767,131.01047578470147,26.08954848932824,4.2380372855300745,-14.031536824240533,23.50764437393624,6.272395733730336,1.3239487112465769,280.02501822196746,40.34803381753248,15.031394372771771,71.65099305966389,-3.7352665722564895,116.06864672050312,994.6407453163876,15.288,0,12.27201521591608,0.1186032469614753,-8.62206084136504e-07,-0.0194821047979409,-0.0791967677674365,0.002156561322212,14.64528411861683,4.510946810778563,38.16593044324796,24.366065181764295
1.19,31.222169118057217,131.01047706031187,26.449534466316216,4.2396059374764095,-13.92766182092145,40.79466661921436,6.351622391600484,1.2926672857873485,428.4078130529292,40.49673969918,15.101970886936648,71.63667379333556,-3.8709138664803926,115.92572857575244,1001.9512626310288,15.288,0,12.300108144848474,0.1190408522601776,-8.925690671174145e-07,-0.0200316190206156,-0.0810699140723718,0.0022254849155651,14.546424347050218,4.487343508541821,38.33046970042077,41.30640289700942
1.2,31.222168318325128,131.01047834451393,26.81215760283077,4.226130364769348,-13.777645992810807,4.496814592411456,6.454539423672976,1.2545654884233897,117.1843741360236,40.77637988227671,15.214378425765016,71.62185582950575,-4.009517216677297,115.77968359861757,1015.801104819651,15.288,0,12.328069854404555,0.1198633498443026,-9.235129116445612e-07,-0.0205930397875307,-0.082967724939994,0.0023035759709225,14.399236185787284,4.4475217194102505,38.63298892869895,7.965949737163568
1.21,31.222167512831923,131.0104796347129,27.17659116944811,4.213215207128924,-13.630845674406505,32.79191296909003,6.557145354924087,1.216225563078539,359.92343213200894,41.04815917968903,15.324190512190444,71.60652431819932,-4.151096424850971,115.63048994544616,1029.351058588022,15.288,0,12.355827079261363,0.1206627492320759,-9.55047402095165e-07,-0.0211641739601869,-0.0848824490269945,0.0023831600999735,14.255344717687269,4.409228583860173,38.92717109679101,33.46318747516833
1.22,31.222166700789227,131.0104809329039,27.54346766718153,4.212784936050432,-13.524111393844931,23.815340985288813,6.639712638897442,1.1831758024795065,283.0687504825761,41.20102045064712,15.39590160820144,71.59066444716757,-4.295667408916482,115.47812982015888,1036.9952887131856,15.288,0,12.383471383632356,0.1211125926777465,-9.871654320641685e-07,-0.0217471540861519,-0.0868207246776652,0.0024578383094203,14.153381072483736,4.385478516051489,39.096329599609255,24.75189195096578
1.23,31.22216588253661,131.01048223830955,27.91253655936321,4.1982513523157055,-13.375049280350348,9.416652075013053,6.745673511545423,1.143273010711692,159.79687382222795,41.480009793925,15.507853429904332,71.57426145326686,-4.443242232364272,115.3225894389553,1051.0494304792662,15.288,0,12.41097097691144,0.1219332045849355,-1.0198709251379752e-06,-0.0223411981868721,-0.0887794986824444,0.0025419840368895,14.006991805386765,4.347167070558868,39.39809141186364,11.639781810808781
