Time,Latitude,Longitude,Altitude,Angle of Attack,Angle of Sideslip,X-Acceleration,Y-Acceleration,Z-Acceleration,Thrust,True Velocity,Ground Velocity,Pitch,Roll,Yaw,Dynamic Pressure,cp,cg,parachute_deploy_gain,Wind Speed,Wind Direction,Mach,omega_x,omega_y,omega_z,Cmq,Angle of Attack(total),Angle of Attack(gust),True Velocity(gust),Acceleration
0.0,31.222216000000007,131.010392,3.000000004412624,0.0,0.0,0.0,0.0,0.0,2.2828121974499247,0.0,0.0,69.99999999623412,0.0,119.9999999935444,0.0,1.274,1.0271675151847728,0.0,0.0,0.0,0.0,0.0,0.0,0.0,-0.0,0.0,90.0,0.0,0.0
0.01,31.22221599999084,131.01039200000497,3.000002745347096,0.0,0.0,0.0,0.0,0.0,34.242186961749226,3.465174813755316e-14,2.8705476994166025e-14,69.9999999962611,-2.1713911667908447e-11,119.99999999352175,7.352495975525499e-28,1.274,1.0271659134330349,0.0,0.0,0.0,1.0183245502395064e-16,-3.3305335486039093e-18,7.169286865560398e-18,5.624298769768554e-18,-7.715917190115602e-34,0.0,89.99999999999979,3.465174813755316e-14,0.0
0.02,31.222215999994315,131.0103920000094,3.0000030495639742,0.0,0.0,0.0,0.0,0.0,25.871876237766216,3.8197434737535036e-11,2.4171837235633357e-11,69.99999999628672,-1.1921727947863515e-11,119.99999999353136,8.93414285188691e-22,1.274,1.027164492361118,0.0,0.0,0.0,1.1225230367947217e-13,-6.657678965418802e-18,1.4338573731120796e-17,1.1241821275959074e-17,-1.7010872994127372e-30,0.0,89.99999999975682,3.8197434737535036e-11,0.0
0.03,31.222215999994315,131.0103920000094,3.0000030495639742,0.0,0.0,9.81877837424427,-2.5122800045972096e-05,3.3498614629347925,180.34219359854663,1.2659015405517447e-10,1.1364406173918436e-10,69.99999999631459,-1.6431898037347223e-11,119.99999999352724,9.812605835254651e-21,1.274,1.0271551940870716,0.0,0.0,0.0,3.720154642239108e-13,-9.991600645811728e-18,2.150108433310316e-17,1.6859343782149594e-17,-8.453698244545225e-30,0.0,89.99999999919412,1.2659015405517447e-10,10.374487003414373
0.04,31.222215999994315,131.0103920000094,3.0000030495639742,18.83801224594347,-0.0001111777826462,48.68248476615645,-1.016330065874988e-05,3.3497854396877287,548.635972453808,0.1556173050466994,0.0975908358443652,69.99999999633813,-2.0932768807056278e-11,119.99999999352085,0.0148286043323172,1.274,1.027133720825283,0.0,0.0,0.0,0.0004573186944143,-1.3322134194415637e-17,-1.04744143520903e-11,1.336824254131964e-11,5.0626055458604615e-15,18.83801224625964,89.06236267790787,0.1555998412814392,48.79759610369246
0.05,31.22221599164764,131.01039201704114,3.002326315126219,5.772385609593056,-4.395076213712875e-06,71.20344550265034,4.905512691849684e-05,3.349217396035405,761.6984298824663,0.8326471944351852,0.3620326097059287,70.00000001316391,-1.0866255162484559e-10,120.00000000231074,0.4245281043148827,1.274,1.027093426565204,0.0,0.0,0.0,0.0024469331205246,-5.0245994431125096e-18,-7.32924164976824e-07,2.217344936947165e-11,1.895424184525467e-09,5.772385609594774,84.74112356985832,0.8326465040582279,71.28217104309611
0.06,31.22221596664444,131.01039206837547,3.015081730143309,4.056581213689704,3.169093567502233e-05,53.16249142470188,0.0001203825427859,3.3481235983850643,590.4875390737236,1.657216205300742,0.6755452977614796,69.99999964391398,-3.9285905645317736e-10,120.0000000287861,1.6816755551786196,1.274,1.027050317124926,0.0,0.0,0.0,0.0048701272653724,3.095757869075056e-13,-7.483541766772344e-06,3.074135420506017e-11,3.8518749565858254e-08,4.056581213813337,79.59316473687034,1.657221183301277,53.26781792157489
0.07,31.22221592883117,131.0103921460222,3.034593611434361,4.115662018628709,6.450869598349036e-05,81.18203554989698,0.0001593212642178,3.347059402768047,855.2937749779172,2.099899704220947,0.8579771146174259,69.99999543281565,-8.233801910783518e-10,120.00000006883089,2.700101932075157,1.274,1.027003201295312,0.0,0.0,0.0,0.006171060252819,3.4704292086287e-12,-2.6327204536316785e-05,1.9541142932033486e-10,1.7170712165327165e-07,4.115662019133419,76.90111966094352,2.099909837223217,81.2510043180746
0.08,31.22221588914193,131.01039222747755,3.0542761843835606,3.459696193892355,8.037433511260004e-05,16.298214211652088,0.0002413456836072,3.344878926597744,241.2171988638792,3.051964775152957,1.2149999716613011,69.99998042886442,-1.0128995578004475e-09,120.00000011111383,5.703497661025892,1.274,1.0269597189470347,0.0,0.0,0.0,0.0089689344021769,1.458982438104473e-11,-5.702803872814215e-05,7.043261397829576e-10,5.405702492731987e-07,3.459696194824858,71.30331929508368,3.051977400323993,16.63790856991177
0.09,31.2222158241468,131.01039236098703,3.0886872184095737,4.313676956300389,0.0001337561018991,50.35975918308536,0.0002293282821279,3.344215841840564,563.0937377043203,2.893161298572128,1.191209213966114,69.99994788602814,-7.098432023887522e-10,120.00000018106356,5.125380275808925,1.274,1.026918932011013,0.0,0.0,0.0,0.0085022553945842,3.8672912027154325e-11,-0.0001115933708951,2.016054215232918e-09,1.0027525988343615e-06,4.313676958370176,72.2316578138625,2.893182308931483,50.47067588835877
0.1,31.2222157788302,131.01039245392113,3.109877853389092,4.035124630954496,0.0001457499816535,47.804664812504015,0.0002878217657545,3.341734392237128,538.7437595981891,3.5677148583138303,1.4531247507621967,69.99988403958329,1.9248461973355822e-09,120.0000002323013,7.7939962029572305,1.274,1.0268846934974103,0.0,0.0,0.0,0.0104845969583028,8.579678749070606e-11,-0.0001726817043215,3.984565639703107e-09,1.913455350430327e-06,4.0351246335824245,68.43243098813296,3.567737752667411,47.92132267234452
0.11,31.222215703308,131.01039260899836,3.148841432727305,4.043401107254707,0.0001752764476999,37.67622367577205,0.0003286462930162,3.3392563999062723,442.86563930529127,4.034183355956686,1.6436552022667772,69.99978525353545,7.302513231814865e-09,120.00000031883242,9.96528118825134,1.274,1.026848594915519,0.0,0.0,0.0,0.0118554331868328,1.5870341853361987e-10,-0.0002596204409236,7.232030302688121e-09,3.252930323390323e-06,4.04340111104746,65.92012987243639,4.034210888316708,37.82391391539392
0.12,31.222215627491828,131.01039276462643,3.186995101203875,4.17874459224363,0.0002066711490009,41.15991989399172,0.0003576945202315,3.336766085769504,475.58594813540793,4.361857560629481,1.7865750500940407,69.99963665601238,1.781774420198147e-08,120.00000041104812,11.649831899889556,1.274,1.0268114448194128,0.0,0.0,0.0,0.0128183893919737,2.682972478760441e-10,-0.0003710216542429,1.2215991071490164e-08,5.026311388647148e-06,4.178744597345269,64.21681651392016,4.361890024457652,41.29495143136631
0.13,31.22221554594398,131.01039293200228,3.2277173449026786,4.202734874672792,0.0002327160860324,45.44886120763352,0.0003953741266062,3.333578629398489,515.9156326236897,4.792165672014363,1.9646716520715424,69.99942424225341,3.613383418913551e-08,120.00000051758742,14.061726603124043,1.274,1.026779572895131,0.0,0.0,0.0,0.0140829618979635,4.248908088871395e-10,-0.0005056103199642,1.908859219307828e-08,7.5253154423526356e-06,4.202734881104192,62.048594618540655,4.792202226971676,45.570952718869485
0.14,31.222215454191247,131.01039312033683,3.2737880595608355,4.184830647080848,0.000257138757548,42.32232525579263,0.0004369426767266,3.329727443445437,486.2390860568421,5.269261304374574,2.158791628597544,69.99913473613935,6.515851355725497e-08,120.00000064630268,17.000925061330125,1.274,1.0267449573927567,0.0,0.0,0.0,0.0154850332441425,6.382432869666793e-10,-0.0006690086306358,2.8426433029675884e-08,1.0948547100483978e-05,4.184830654966803,59.74181173116622,5.269301695636157,42.45310707234106
0.15,31.222215353826755,131.0103933263496,3.3242182719560263,4.21963947489699,0.0002846467688673,40.886944113003565,0.0004726792395108,3.325585650885676,472.5421858721398,5.6781946837482895,2.329510773545807,69.99875162806286,1.0876776246115984e-07,120.00000079954532,19.742017654108928,1.274,1.0267115958081523,0.0,0.0,0.0,0.0166867950518804,9.204756288136623e-10,-0.000865746478554,4.08948221429571e-08,1.526771148078443e-05,4.219639484480408,57.84996018384879,5.678239395958187,41.02196629910223
0.16,31.222215247130432,131.01039354534575,3.3775922280208457,4.253495568077899,0.0003118339050386,32.26872905470846,0.0005078415214353,3.32090791922544,391.1218908297597,6.081244877834229,2.4981889727471702,69.99825581174558,1.7187028096464329e-07,120.0000009800088,22.644030778355887,1.274,1.026675762255412,0.0,0.0,0.0,0.0178712695992133,1.2856146928958252e-09,-0.0010961187242953,5.6923362293832417e-08,2.0702404729358337e-05,4.253495579487569,56.06022383757386,6.081293860589489,32.43916312841722
0.17,31.22221513260033,131.01039378041813,3.4348437275053194,4.364838523348639,0.0003448792023946,40.840448242802736,0.0005326487904353,3.3162727284953744,471.78125980632416,6.362544479165355,2.6250789114832647,69.99762801982864,2.5997588617291615e-07,120.00000119506798,24.78723182122683,1.274,1.0266409836796937,0.0,0.0,0.0,0.0186979513961862,1.747791994374917e-09,-0.0013624931601664,7.706724512977917e-08,2.6923621797558364e-05,4.364838536947241,54.85936171416122,6.362598652663785,40.97486885600156
0.18,31.222215014088988,131.01039402363364,3.4935801365785646,4.353948305387995,0.0003681615230806,33.992183768165326,0.0005718025428208,3.310131992647221,407.1015672119096,6.81502088160835,2.810667639293692,69.99684761766231,3.794979223522764e-07,120.00000144728236,28.437950785509614,1.274,1.0266048342046536,0.0,0.0,0.0,0.020027681385988,2.3221419748804155e-09,-0.0016616990447559,1.0147209890543081e-07,3.517105786247627e-05,4.353948320923495,52.99157233768714,6.815078712285162,34.152972512863755
0.19,31.22221488419521,131.01039429023237,3.558399965607869,4.432620772533925,0.0003996774584738,38.45149959021069,0.0005986099513107,3.304145139297767,448.95313283182486,7.1223367465208405,2.946425726785696,69.99589577323147,5.440084577183829e-07,120.00000176148238,31.060341085698347,1.274,1.026566130444714,0.0,0.0,0.0,0.0209308229359413,3.022391489754689e-09,-0.0020041563310821,1.3135864879722746e-07,4.433199397898183e-05,4.432620790516937,51.77883352025967,7.122399527709208,38.59320142454953
0.2,31.222214751373183,131.01039456280608,3.624052454705669,4.443889400961181,0.0004246617145652,35.23432408779927,0.0006337972852267,3.2968110145188256,418.5156301991588,7.530482904611057,3.1167566004785483,69.99474776398331,7.478025600151903e-07,120.00000211715036,34.72195181863731,1.274,1.026529240027363,0.0,0.0,0.0,0.0221302820454282,3.866698391504749e-09,-0.0023849544920781,1.668144671071589e-07,5.57780533277244e-05,4.443889421210987,50.22448880200342,7.530549610317194,35.38822625098952
0.21,31.222214608673173,131.01039485566503,3.6948551453492566,4.493351735844891,0.0004538195602194,33.79371564104691,0.0006629296043866,3.2891790438445727,404.8187610144608,7.868284042829251,3.2629204975089228,69.99338155599101,1.0150082652278477e-06,120.00000255293388,37.906665490338085,1.274,1.0264923657015164,0.0,0.0,0.0,0.0231230169900677,4.871073773182836e-09,-0.0028117605859743,2.089322918608601e-07,6.870935089180403e-05,4.493351758715364,48.992529909481824,7.868355328639073,33.95340801819282
0.22,31.22221446109996,131.01039515850383,3.767700382407304,4.5412639153933885,0.000482649303782,41.008966751568416,0.0006914639179131,3.2808061382386606,472.5421858721387,8.20057841132235,3.4071691679735228,69.9917708347139,1.3454961520984431e-06,120.00000305929996,41.175744234065135,1.274,1.0264494137127138,0.0,0.0,0.0,0.0240995709751246,6.054779813287368e-09,-0.0032829112061357,2.580881224843564e-07,8.3609968899004e-05,4.54126394098788,47.82515604752711,8.2006542256977,41.13999323561041
0.23,31.22221430675399,131.0103954752338,3.843768625625224,4.52371495179584,0.0005047555656171,33.98493478127787,0.0007294889663961,3.2705214710765107,406.340642146096,8.647938096586296,3.5908865300848416,69.98989017772566,1.7539876018835507e-06,120.00000365514876,45.79040229326471,1.274,1.0264133390858623,0.0,0.0,0.0,0.0254142776666487,7.436335125872812e-09,-0.0038001790077148,3.1489825108822685e-07,0.0001020628978177,4.523714979897577,46.31461705147579,8.648017383405135,34.14194053232237
0.24,31.222214142622448,131.0103958120587,3.92493179063287,4.57837522350066,0.0005351929930195,35.051650311058864,0.0007555049947555,3.26053011385611,416.2328240017099,8.954297884844461,3.72617527247482,69.98771316795013,2.25257161141768e-06,120.0000043564586,49.09180568115741,1.274,1.0263750048312463,0.0,0.0,0.0,0.0263146218848643,9.034877387788232e-09,-0.0043732521010013,3.809642748985157e-07,0.00012161410144,4.578375254714954,45.32798984252032,8.954381952763216,35.20297212911011
0.25,31.22221397517227,131.0103961556623,4.0071748888306855,4.6034117733065,0.0005618935542827,36.03738579534623,0.000785606492708,3.249069743648399,425.3640807915084,9.311611941121669,3.8789349536029696,69.98520781816889,2.8559738498748624e-06,120.00000517181904,53.08749562138344,1.274,1.0263373768840591,0.0,0.0,0.0,0.0273647110956883,1.0873791100894836e-08,-0.0049950711786164,4.5609738277273444e-07,0.0001444478241125,4.603411807525074,44.2165428352526,9.311700203154778,36.183554686886296
0.26,31.22221379934012,131.01039651647062,4.09364247475714,4.621386912291471,0.0005881033207375,39.29107511182762,0.0008162761165496,3.236407051295005,455.80158342417656,9.67833954512075,4.034902068846398,69.98234620927953,3.5784678110229355e-06,120.00000612171208,57.350948423913096,1.274,1.0263006300381676,0.0,0.0,0.0,0.0284424679130479,1.2973286442992724e-08,-0.0056712051373577,5.414206381221602e-07,0.0001704578711045,4.621386949630312,43.12063533194282,9.678431924174348,39.42414126789902
0.27,31.222213616776543,131.01039689108487,4.183310605341074,4.617158109135719,0.0006115457810536,35.90419462403674,0.0008503454714941,3.221982799915672,423.8421996598744,10.088790784535757,4.205862468567124,69.97909721779352,4.436165972465058e-06,120.000007221354,62.31798301949865,1.274,1.026260090595354,0.0,0.0,0.0,0.0296487219805601,1.5355910600537293e-08,-0.0064045199323113,6.379142666348734e-07,0.0002006609239367,4.617158149547818,41.94410287616451,10.08888684592241,36.048472443180565
0.28,31.22221342607797,131.0103972823952,4.277051150896916,4.642105655370123,0.0006389739579882,41.51133203546672,0.0008785747638736,3.2071101123224945,476.3468732012228,10.432377224420517,4.35383399240675,69.97542808435722,5.446665372087172e-06,120.00000849080963,66.63429581008447,1.274,1.0262212716723291,0.0,0.0,0.0,0.0306584788590473,1.8045308789081613e-08,-0.0072006835403936,7.469524967369969e-07,0.0002332868227611,4.642105699250441,41.0023231023774,10.432477594215127,41.63503624837164
0.29,31.22221323001776,131.01039768469093,4.373143569786686,4.62134615173668,0.0006600657405645,33.17552944492765,0.0009148746278066,3.1894209319791806,397.9703104221098,10.876662296046485,4.536381530986506,69.9713027936179,6.629751536885327e-06,120.00000994797426,72.43000748232016,1.274,1.026183007522519,0.0,0.0,0.0,0.0319641703260467,2.1067646517035105e-08,-0.0080566154554079,8.688043379161898e-07,0.000272130659453,4.621346198772975,39.83162628795024,10.876765978930557,33.32848872465723
0.3,31.22221302403368,131.01039810736614,4.4744193758467325,4.664362353358112,0.0006905183788532,31.08096762732793,0.0009381960428197,3.172549142946348,378.1859457108735,11.168362145070317,4.66647911311536,69.96668711012893,8.005507138509574e-06,120.00001161892672,76.36634300732833,1.274,1.0261430389738484,0.0,0.0,0.0,0.0328214509167604,2.4447409007156216e-08,-0.0089829108229115,1.0056222251461646e-06,0.0003115527202986,4.664362404357781,39.09908960432563,11.168470611443622,31.242464973103964
0.31,31.22221281503337,131.01039853619727,4.576593712520673,4.700143580504286,0.0007196683316923,32.79732593144512,0.0009620705970519,3.154230688182399,394.1656220930229,11.470279728974068,4.800072153432283,69.96154070456518,9.597499105113692e-06,120.00001352112182,80.55022837857167,1.274,1.0261054058068628,0.0,0.0,0.0,0.0337087616009043,2.8214060606649844e-08,-0.0099686353219717,1.1565909895184251e-06,0.0003550834484269,4.700143635477137,38.36463422765983,11.47039277421126,32.94865339301887
0.32,31.222212598991007,131.01039897947376,4.68216432480395,4.718667719113184,0.0007464384342556,35.7316568886908,0.0009885845337584,3.133859770838664,421.5593934624264,11.808280530415894,4.946054328851105,69.95582953472353,1.14278227255889e-05,120.00001568218067,85.36654007972253,1.274,1.026068246703101,0.0,0.0,0.0,0.0347021168382987,3.2392058795580455e-08,-0.0110163301561155,1.3226102501723267e-06,0.0004039614423012,4.718667778018562,37.5686120062341,11.808397780690962,35.8688218659563
0.33,31.222212376029034,131.0103994369436,4.791055524254013,4.72141404831576,0.0007708346814671,35.42013590291081,0.0010176135371143,3.1111955852784385,418.5156301991632,12.181577273013426,5.104163223586657,69.94951809396906,1.351997394754887e-05,120.00001812674968,90.84831229869296,1.274,1.0260310883392356,0.0,0.0,0.0,0.0357992034445943,3.700677535501642e-08,-0.0121310534481307,1.5051409581878843e-06,0.0004588955105349,4.721414111097893,36.7208578211118,12.181698355442045,35.55651229220977
0.34,31.222212145785647,131.0103999093516,4.903491659547144,4.73024573449122,0.0007962944975467,27.63851074646407,0.0010446307681611,3.0871492806781062,345.4656368807584,12.53557620048282,5.2556261014174765,69.94256797855994,1.5899658158227497e-05,120.000020882338,96.20413272674828,1.274,1.0259901535019136,0.0,0.0,0.0,0.0368395817555172,4.208561016221623e-08,-0.0133180771902383,1.7057647550599631e-06,0.0005184333231541,4.730245801363397,35.94841996438923,12.535701282129995,27.810389570354005
0.35,31.222211909310875,131.01040039453565,5.018822212845608,4.780248518778662,0.0008286678570753,30.332092807652543,0.0010618579815451,3.063967690608957,370.5765700527057,12.774786382148209,5.367579971644358,69.93493776125636,1.8594985713558667e-05,120.00002397748868,99.9096898192772,1.274,1.025950003202184,0.0,0.0,0.0,0.0375426220587071,4.7658312175989686e-08,-0.0145774693288123,1.9252724355785177e-06,0.0005782798420984,4.780248590437683,35.44790728185619,12.774916548990808,30.486451961956565
0.36,31.22221166933814,131.0104008868675,5.135354490370708,4.798132156899578,0.0008554457330409,34.32674769697476,0.0010851169437774,3.0374319611165923,407.8625232777224,13.09301701329486,5.506730645516068,69.92658597246795,2.163521613217148e-05,120.0000274401514,104.94818266210537,1.274,1.0259105142325406,0.0,0.0,0.0,0.0384778908056978,5.3755109608570216e-08,-0.0158991451700967,2.162609490834569e-06,0.0006464142451675,4.798132232978766,34.796094028187134,13.09315138639638,34.46087058603792
0.37,31.222211421355144,131.01040139563804,5.255882891363927,4.797392186816851,0.0008791822061288,32.551601855236584,0.00111162791192,3.0078619428913056,391.1218908297639,13.457513730739372,5.661815946371007,69.91747693543164,2.5047738471809164e-05,120.0000313040604,110.87154396328836,1.274,1.025872170958032,0.0,0.0,0.0,0.0395491312153729,6.040098808671168e-08,-0.0172926678053148,2.420031948898497e-06,0.0007226353721561,4.797392267189059,34.07332166419882,13.457651832357364,32.69027405888565
0.38,31.22221116634284,131.01040191882743,5.379799334000849,4.811698494594017,0.0009057112478668,34.02947987649063,0.0011338447913587,2.9774881690446744,404.81876101445977,13.77554886562956,5.800899861213392,69.90756948297444,2.886339581486796e-05,120.00003560072224,116.17243393848278,1.274,1.02583050512925,0.0,0.0,0.0,0.0404838339452728,6.762496638941508e-08,-0.0187646375218858,2.69955777313946e-06,0.0008026686661094,4.8116985796350695,33.46655348088405,13.775691134419684,34.15949264475229
0.39,31.222210906095896,131.01040245274032,5.505993307722699,4.813508003664984,0.000929862892873,29.00025983045028,0.0011579891265804,2.9442136901860865,357.6406249338268,14.124492165837273,5.950648592462506,69.8968186645841,3.311602501056718e-05,120.00004036395212,122.13093644173792,1.274,1.02579027384009,0.0,0.0,0.0,0.0415093739609825,7.545934774906889e-08,-0.020311592409804,3.0013532510753577e-06,0.0008908380763632,4.813508093268025,32.821616487639595,14.124638228358922,29.149330452482886
0.4,31.222210638473225,131.0104030017851,5.635788650457906,4.841647069358873,0.0009592124397379,27.71178845184976,0.0011749448424961,2.91135549588368,345.4656368807565,14.390874239274588,6.07193451174791,69.8851815212744,3.783947407715338e-05,120.00004563180136,126.77947425345651,1.274,1.0257493418632293,0.0,0.0,0.0,0.0422922854866381,8.39343718693383e-08,-0.021938519432511,3.3271332720311508e-06,0.0009803271643914,4.841647164150728,32.348088166612904,14.391024912012275,27.864299944624147
0.41,31.22221036681104,131.01040355909262,5.767123077463226,4.86553909860892,0.0009876699832274,31.306062598221665,0.0011918093836199,2.876450850006428,378.9468707766882,14.663028799871563,6.195223154320929,69.87261222561014,4.307011032901644e-05,120.0000514391194,131.6183642808765,1.274,1.025708445186429,0.0,0.0,0.0,0.0430921644173401,9.308325447883581e-08,-0.0236371933433427,3.6760977501392174e-06,0.0010761942383903,4.865539198612839,31.87689439156756,14.663183942709727,31.437931330109585
0.42,31.22221008906472,131.01040412887247,5.901259531771367,4.867510642114694,0.0010118258958528,35.308283402190774,0.0012128114559048,2.8374461227958245,416.23282400171047,14.9952917972178,6.33928625560071,69.85906967380902,4.884273094936628e-05,120.00005782486392,137.64909586091787,1.274,1.0256701057426505,0.0,0.0,0.0,0.0440686959134695,1.0293499639582845e-07,-0.0254093547296826,4.049238334851429e-06,0.0011830797791891,4.867510747027452,31.315270489291198,14.995450734457847,35.422111438762386
0.43,31.222209804115888,131.01040471342728,6.038886819939341,4.854590670645608,0.0010330089741511,31.00586934514032,0.0012363751872706,2.794478603999558,375.90313951343126,15.369430568701889,6.497852263156962,69.8445117629242,5.519340856908871e-05,120.00006482835984,144.60167924299955,1.274,1.0256308158337524,0.0,0.0,0.0,0.0451682983415116,1.135186446762958e-07,-0.0272634397889413,4.449073329427772e-06,0.0013010625065656,4.854590780289497,30.70250814963406,15.369592833372094,31.13154422839874
0.44,31.22220951192321,131.01040531284193,6.180028459770617,4.866912332640401,0.0010595850174406,28.57707721036899,0.0012525768202179,2.752165534925872,353.07501253892326,15.659290812546615,6.627318538707029,69.82889155423543,6.216182865383864e-05,120.00007249162944,150.1053167542629,1.274,1.025586171750536,0.0,0.0,0.0,0.0460202245100907,1.2486676023179565e-07,-0.0292060158163984,4.8779154055816594e-06,0.001420032405556,4.866912447705031,30.24619499837236,15.659457251771938,28.709297424144207
0.45,31.222209215425703,131.01040592106523,6.322872201489905,4.881836476567178,0.0010866574689855,33.31904824532484,0.0012669045761511,2.7082028218433374,397.2093853562887,15.934249290371609,6.751662050993672,69.81215834018458,6.97909417564726e-05,120.00008085697964,155.42080512416243,1.274,1.0255397023523487,0.0,0.0,0.0,0.0468283602442113,1.3701614206272197e-07,-0.0312276295846745,5.334643585560923e-06,0.0015449645531859,4.8818365972149325,29.82567893138932,15.934419982127675,33.428929688274074
0.46,31.22220891307435,131.0104065412864,6.468371919199588,4.869610441729251,0.0011078049156487,38.95909776354321,0.0012868374716666,2.6582856015412624,449.7140588976424,16.292139278621757,6.904766425053949,69.79426683863348,7.812149592850748e-05,120.00008996920153,162.4785746623087,1.274,1.02549635315424,0.0,0.0,0.0,0.0478802236363867,1.499987870203256e-07,-0.0333272350234362,5.819761874615242e-06,0.0016858511402973,4.869610567434908,29.29014635640275,16.292313292210977,39.04968351401366
0.47,31.22220860266524,131.01040717804253,6.6178810515614845,4.838450928223533,0.0011247917292402,26.253747818137555,0.0013104398935566,2.6026193242279367,331.0078106302504,16.710658191447514,7.078951441335346,69.77517236812905,8.719457259907165e-05,120.0000998741591,170.9309671061642,1.274,1.025453319323251,0.0,0.0,0.0,0.0491102725711187,1.6384464803343264e-07,-0.0355167087264168,6.3368207228363735e-06,0.0018427306558807,4.838451058652396,28.68386015667837,16.710834873319172,26.382435512333956
0.48,31.222208284201663,131.0104078313267,6.771393590864176,4.869339340099417,0.0011561785713505,25.860860976019296,0.0013165328518772,2.5543454292827983,327.20312230115803,16.911139899671,7.177575416403102,69.75482343794755,9.70562828082882e-05,120.00011062072316,175.0543877818846,1.274,1.0254092882449153,0.0,0.0,0.0,0.0496995461609974,1.7858865391586845e-07,-0.0378054080201581,6.88909442277235e-06,0.0019849793891693,4.869339477030596,28.40887970825325,16.911321511776286,25.986704537635287
0.49,31.22220796480208,131.01040848648364,6.924537656029012,4.881367714530694,0.0011829003785372,32.565703383222065,0.0013261973190012,2.5011623511055703,389.6000096981238,17.169005224738054,7.296160258358563,69.73316318155707,0.0001077573203115,120.000122255028,180.4309832312717,1.274,1.025367445590036,0.0,0.0,0.0,0.05045746454003,1.942747077649401e-07,-0.0401641298712614,7.47069711110948e-06,0.002140948887153,4.881367857509675,28.058569663954906,17.169191034294997,32.66161128464712
0.5,31.222207637929923,131.01040915697027,7.081324512896956,4.862566137860805,0.001202418260511,33.47759680712428,0.0013425340759632,2.4399894027711366,397.970310422106,17.52898693231981,7.450304424940405,69.71015149227495,0.0001193385310595,120.0001348274002,188.0736471953394,1.274,1.0253278572281015,0.0,0.0,0.0,0.0515154948878309,2.109295159784217e-07,-0.0426011733481599,8.084173008518589e-06,0.0023184335011768,4.862566286171007,27.57768313050809,17.529175807738486,33.56639745442473
0.51,31.22220730314019,131.01040984370235,7.24202048914867,4.8479762258125,0.001223054804074,25.49162310288008,0.0013562860883156,2.3767006597692686,323.39843497208153,17.86914397471067,7.597652147346554,69.68574349602717,0.0001318441288964,120.00014838524436,195.4407439266201,1.274,1.025286455263166,0.0,0.0,0.0,0.0525152689856776,2.2858192086249162e-07,-0.0451315948093539,8.734206149830708e-06,0.002503767471626,4.847976379721193,27.13799345359824,17.86933609171003,25.602178740977283
0.52,31.222206962738102,131.01041054193402,7.405210501673173,4.865306299521403,0.0012516517170965,30.733671928447727,0.0013599291289974,2.317711624364424,372.098451184342,18.08534843773428,7.701914987606457,69.65988568649581,0.0001453248538387,120.00016298000436,200.19561780583155,1.274,1.0252426840672306,0.0,0.0,0.0,0.0531507657929359,2.4726951523704535e-07,-0.0477531686556663,9.421346966092632e-06,0.0026812161964639,4.865306460134566,26.8699055233151,18.085545046726228,30.820940596104087
0.53,31.222206619320115,131.01041124632013,7.569307468221277,4.848802699234936,0.0012715119568563,32.301199055744725,0.0013711327835325,2.2490252325653923,386.55624643486095,18.41963113311156,7.8474319110539055,69.6325258319474,0.0001598315062727,120.0001786629144,207.6614205945027,1.274,1.0251993415311351,0.0,0.0,0.0,0.0541332845214831,2.67031759303889e-07,-0.0504479325599339,1.0141887756417996e-05,0.0028848299490111,4.848802865552398,26.45837260670532,18.419830861742675,32.37940050117613
0.54,31.22220626697288,131.01041196903336,7.737918664599091,4.831496690588052,0.0012913635058467,28.31291960103712,0.0013809098107221,2.177242866245296,349.2703242098436,18.75116898748492,7.992112829440902,69.60362200959217,0.0001754082864028,120.00019548734956,215.20067397992847,1.274,1.0251561018460285,0.0,0.0,0.0,0.0551077428911958,2.878941684235108e-07,-0.0532336286085667,1.090122304443916e-05,0.003098869611663,4.831496862756785,26.061835558272342,18.751371834390056,28.396510432451375
0.55,31.222205908994248,131.01041270328463,7.909026079894722,8.147849966218669,6.326266384276886,30.11508519815417,-0.3440850018762378,1.915160648435697,365.2500005919912,19.702746418726875,8.113323699629928,69.57312211246325,0.0001921068626005,120.00021350480982,237.59283081976648,1.274,1.025112921033824,0.0,2.506403565945852,0.0,0.0579044421403214,3.0989272306468813e-07,-0.0561100530405476,1.1700476995263424e-05,0.0034320151542407,10.302365719164625,31.75367225909729,20.69445611203908,30.177882485189663
0.56,31.222205546564343,131.01041344664463,8.081909946161325,-2.298757749647733,-0.0147410879812843,28.01562087286941,-0.0783256215069533,2.34928891876768,346.22656194657776,18.39336891433174,8.24832211386639,69.54097415464405,0.0002099796112633,120.00023276987916,207.05949473262487,1.274,1.0250709539098009,0.0,2.5155477854450985,120.00005142262596,0.0540564153139222,3.330422384609979e-07,-0.0613846721018575,0.0041922756448518,0.0035050624652361,2.298804988387109,26.15219720190354,18.39105338967189,28.114058871304675
0.57,31.22220517792294,131.01041420485907,8.258267219218348,-2.210211581979309,-0.0115417703938121,27.697153567491128,-0.0789843368773646,2.3636743783451046,343.1828296833045,18.657446570466192,8.377966773843333,69.50580393392642,0.0066369969333632,120.00709344978245,213.04416584860417,1.274,1.0250279191823897,0.0,2.5246205648112747,120.00005142262596,0.0548326242847018,3.606899962582396e-07,-0.0600288537363751,0.0041820692265557,0.0034767978707174,2.2102417025059418,25.82850079472696,18.65563359342452,27.797940766062215
0.58,31.222204803181807,131.0104149733693,8.436441384300418,-2.131400925155692,-0.0136682564196438,36.6240138652763,-0.0794329365436146,2.3784053477126945,426.12500585731766,18.92744562010586,8.507253850976932,69.47141028333213,0.0130263520232796,120.01391546386463,219.2511179691089,1.274,1.024981594484354,0.0,2.5337048099779813,120.00005142262596,0.0556262399831269,3.876998906712516e-07,-0.0586871314277451,0.0041735008783314,0.0034482174474803,2.1314447304126705,25.50069606625102,18.925298615428456,36.70124675257486
0.59,31.22220442295774,131.01041575405642,8.617291447672086,-2.040036612385116,-0.0156500929298306,29.59458005025848,-0.0803890641837963,2.3864350336426625,360.68438819710633,19.332929880097737,8.684248094132249,69.43778513044934,0.0193814606166315,120.02070241142064,228.74184097920656,1.274,1.0249386802161349,0.0,2.542723121515648,120.00005142262596,0.0568180415211671,4.14077603775348e-07,-0.0573551766247999,0.0041634028145722,0.0034420922959827,2.04009661579324,25.025535088117085,19.33047156927949,29.690751134361598
0.6,31.222204032870543,131.01041655481237,8.802991830235742,-1.9667552707653289,-0.0176882552480599,26.24769377712739,-0.080695202974611,2.402874299776387,329.4859594986072,19.58849647598226,8.808827448251932,69.40492289022693,0.0257008646241832,120.0274526925636,234.82521146807247,1.274,1.024891335813742,0.0,2.5517181885513227,120.00005142262596,0.0575692533205651,4.398194742636177e-07,-0.0560247639303171,0.004151636310791,0.0034066350306364,1.9668347786636124,24.73229324325328,19.58571801138929,26.357574722158354
0.61,31.22220364024381,131.01041736072307,8.989182355208046,-1.896610179667032,-0.0196996832087199,30.842421349881416,-0.0808985081433225,2.420277172882547,372.0984511843332,19.82903874673696,8.928259189318771,69.37282266795174,0.0319828989148378,120.03416447356578,240.6235195112716,1.274,1.0248423929069768,0.0,2.560793123523128,120.00005142262596,0.0582763130319334,4.6493084436161707e-07,-0.0547076426394145,0.0041382407636506,0.0033673353393137,1.8967124477315975,24.46175247712332,19.8259443277956,30.937343791699654
0.62,31.22220324154057,131.01041817906216,9.177995141813518,-1.8197028028680984,-0.0215878269574124,38.46769573616388,-0.0813982353359058,2.433642366398302,442.86563930529206,20.15528431894967,9.078015186664365,69.3414768593209,0.0382259478187108,120.04083598455388,248.60206730579617,1.274,1.0247996097896497,0.0,2.569733724271994,120.00005142262596,0.0592352546740184,4.894165741050432e-07,-0.0534057364302855,0.00412318174879,0.0033412245859308,1.8198308076120917,24.105430797026703,20.151893311101084,38.54468648322782
0.63,31.22220283484784,131.0104190137556,9.370568206453267,-1.7371398767280213,-0.0233326537441367,21.597038572094007,-0.0822072026215024,2.4430974520704773,286.11251274707456,20.57295929056272,9.260234019907545,69.31087675488337,0.0444283341708971,120.04746538784244,259.00752427891643,1.274,1.024756158874558,0.0,2.578639704835353,120.00005142262596,0.0604629094360602,5.132771834437967e-07,-0.052114834296859,0.0041063398928817,0.0033279663675872,1.7372965196606296,23.66465353237162,20.569294205984452,21.734938653444424
0.64,31.22220241929282,131.0104198665898,9.56741212625216,-1.6805092340264347,-0.0253441850558287,21.19537452617552,-0.0818129473621371,2.466625747665085,282.3078244179702,20.69962025547539,9.33984418763589,69.28101605619449,0.0505881972816245,120.0540506480808,262.20163456047004,1.274,1.024708534665538,0.0,2.587568430295832,120.00005142262596,0.0608352948387345,5.365103711861088e-07,-0.0508305360304969,0.0040875669633348,0.0032658757615737,1.680700279395975,23.5302754317834,20.695639200326085,21.338576270272828
0.65,31.222202004945554,131.0104207168749,9.762498221884982,-1.6182205508997676,-0.0272363643741121,37.84427631955653,-0.0816821415141599,2.486236058846816,436.7781447787504,20.904603284963304,9.447200038320547,69.25189096418853,0.0567034540889764,120.06058947990124,267.41536870248893,1.274,1.0246641738210605,0.0,2.596539401044922,120.00005142262596,0.0614378663720875,5.591336326667499e-07,-0.0495723816323734,0.0040670981650115,0.0032165193679468,1.618449682147416,23.31903011960963,20.900325007013024,37.9259448381118
0.66,31.22220158278865,131.01042158313365,9.961219846435078,-1.538034477216915,-0.0287721929251941,32.11086289959244,-0.0824756287270405,2.4946447535422687,383.5125151715984,21.36135700722688,9.64385969924979,69.22348652316342,0.0627723427527373,120.06707996149191,279.2234521379888,1.274,1.0246195561629028,0.0,2.6052798158650927,120.00005142262596,0.062780389641902,5.811526573950361e-07,-0.0483363772682681,0.0040448254187062,0.0032047865173615,1.5383035114504686,22.86696800158089,21.35683748192076,32.20772532843839
0.67,31.222201148765883,131.01042247368267,10.165976057444771,-1.472112240728352,-0.0304731972413806,21.947329080374992,-0.0825462378323112,2.510943011057852,289.15624401033847,21.648972613698504,9.780772159505604,69.19579005604166,0.068792929181658,120.07351998149156,286.7875266957456,1.274,1.024572383541697,0.0,2.614035250792217,120.00005142262596,0.0636258302827995,6.025598179213442e-07,-0.0471093198572527,0.0040204113878269,0.003165423010668,1.4724275400525215,22.58886118302142,21.64418589529493,22.09065192447779
0.68,31.222200712717854,131.0104233683167,10.370898706534232,-1.4156740298824677,-0.0323039363869117,27.534270019704948,-0.0820844232042406,2.532436306410346,340.89999248584934,21.812847567782303,9.873854389009308,69.1687964229806,0.0747627841876219,120.07990688375008,291.13998774486566,1.274,1.0245245285832842,0.0,2.622904497353672,120.00005142262596,0.0641076031920201,6.233676557587432e-07,-0.0459025958955314,0.0039939973696232,0.0031076256323902,1.4160424749356804,22.43118527727835,21.807773277589384,27.650605726033938
0.69,31.22220027318861,131.0104242700269,10.5768609122177,-1.3511377291979911,-0.0339068107327847,34.0244523899262,-0.0820786063258817,2.5480211560328145,401.0140726853658,22.111395062465647,10.014873081951652,69.14249398337124,0.0806796641887912,120.08623822232202,299.1581435080895,1.274,1.024479631064582,0.0,2.6316288524720712,120.00005142262596,0.0649851804063544,6.435918017288621e-07,-0.0447240721188292,0.0039657061932977,0.0030692197053913,1.3515630292209984,22.153047106358365,22.106068993401284,34.11982574902108
0.7,31.222199824613657,131.01042519022397,10.787157506270944,-1.2837794563179754,-0.0353607996520437,28.448015158763223,-0.0822646808642954,2.5608181827355128,349.270324209851,22.47941997211056,10.18076995658806,69.11686659789379,0.0865414806350457,120.0925117214695,309.1932278842066,1.274,1.0244351749185203,0.0,2.6402611193969707,120.00005142262596,0.0660669588680473,6.632340372748609e-07,-0.0435678367080559,0.0039353220697092,0.0030395747056704,1.2842662766586437,21.820079024484592,22.47386551104257,28.56316025435506
0.71,31.22219936852001,131.01042612576776,11.000870913093916,-1.2244458634096107,-0.0369453909492526,23.281292477715144,-0.0819441493649484,2.5782337555532515,301.3312640634036,22.731406203492448,10.305470954426086,69.09190150062331,0.0923458180782707,120.09872474801966,316.1574818291377,1.274,1.0243880468141104,0.0,2.648938545589968,120.00005142262596,0.0668077068451424,6.822973878355973e-07,-0.0424319118445563,0.0039026954257071,0.0029934479744737,1.22500303123411,21.59612351924653,22.725602835455103,23.423761089432354
0.72,31.22219890899586,131.0104270682737,11.215580742515614,-1.1684618884068627,-0.0385686361859832,28.627992840925057,-0.0813752590790678,2.597225953183388,350.7922053414578,22.93383167757782,10.412566834502636,69.06758705419342,0.0980900295151775,120.10487441801172,321.8067470761759,1.274,1.024337302174265,0.0,2.657598208934069,120.00005142262596,0.0674027995086088,7.007973897554382e-07,-0.0413235752399258,0.0038679558857427,0.0029411580771114,1.1690981644544292,21.41851549038232,22.92777333083032,28.745681044023566
0.73,31.22219844464089,131.01042802061193,11.432115072047036,-1.1078459104249407,-0.0399787844371549,36.35760042342248,-0.0811262323234804,2.611827552164604,422.3203185282354,23.242343397344808,10.557624022475478,69.0439074628173,0.1037716313176034,120.11095802812152,330.51616157717694,1.274,1.024292465384646,0.0,2.666162929332661,120.00005142262596,0.068309685933478,7.187484070519946e-07,-0.0402464644334954,0.0038311527299738,0.00290296951369,1.108566942165539,21.1553214484014,23.236063545080025,36.45138314491054
0.74,31.222197971943466,131.0104289899735,11.652537759644211,-1.0444422091637835,-0.0411952871515557,22.555106400814605,-0.0811162868980198,2.6230068400978257,294.4828134710563,23.640114450060697,10.734730494085166,69.02084485114854,0.109388186676701,120.116972927516,341.918681829924,1.274,1.0242470321640116,0.0,2.67466861014626,120.00005142262596,0.0694789153426082,7.361545737325751e-07,-0.0391970443764817,0.0037920792321928,0.0028756003631574,1.045254223616426,20.826107238888834,23.63364351004433,22.707258079461468
0.75,31.222197490746417,131.01042997667292,11.87693111357308,-0.9928066600831136,-0.0427827804321862,26.42612030917321,-0.0801486963627272,2.6427209074387807,330.24688556441737,23.79227355495181,10.824052734035812,68.99838336307289,0.1149369418283305,120.12291612246403,346.32688908771246,1.274,1.0241984712898409,0.0,2.683195421607348,120.00005142262596,0.0699262919591688,7.53019128669041e-07,-0.0381729690904892,0.0037505321302943,0.0028184358953436,0.9937279544291948,20.700313713937952,23.78555325214101,26.558053998797416
0.76,31.22219700971629,131.01043096295908,12.10019943801981,-0.9366002351626268,-0.0441112998819791,28.48736632038835,-0.0795601254945751,2.657327073058247,349.2703242098581,24.071529345467766,10.958947446393507,68.97650846940553,0.120414831720208,120.12878427634216,354.49684796673546,1.274,1.0241522053390697,0.0,2.6917241865012365,120.00005142262596,0.0707472123214999,7.693713261876214e-07,-0.0371863484110661,0.0037069265618151,0.0027777565612223,0.9376383279090154,20.476439814732046,24.064600359369788,28.61114742296739
0.77,31.222196519181576,131.01043196863515,12.328022810748772,-0.8805448496363077,-0.0453729723785893,26.600681695355497,-0.0789293305271591,2.6710277614696167,331.76876669606884,24.36244549623861,11.09810407540929,68.95519873955924,0.1258193563340777,120.13457467747628,363.1092152686389,1.274,1.0241065975906936,0.0,2.700081745792496,120.00005142262596,0.0716024108630563,7.852158366519367e-07,-0.0362329785198099,0.0036610024333103,0.0027391914055875,0.8817129786731707,20.24825888320403,24.355318327148733,26.73456350493458
0.78,31.22219602310073,131.01043298559003,12.558069467393592,-0.8268550438736298,-0.0466593689441932,21.75169315985224,-0.078082966851552,2.685459893409184,286.8734378128874,24.614783119540707,11.223504842071556,68.93443512463762,0.1311476202736854,120.14028417636035,370.6618959282092,1.274,1.0240588105546735,0.0,2.708482368153593,120.00005142262596,0.0723442311581029,8.005646667943399e-07,-0.0353141995007138,0.0036127102605623,0.0026973248211579,0.8281703986199842,20.05380926942345,24.607453883816,21.916978512312877
0.79,31.222195522053383,131.01043401263567,12.789998917657972,-0.7757727913345546,-0.0480183967551209,31.14088497538012,-0.0769459630632512,2.70120757096344,373.6203323159581,24.80387717400934,11.326234588525455,68.91419781520919,0.1363966309405268,120.14590952313468,376.3703363331796,1.274,1.0240083170932772,0.0,2.716838447531432,120.00005142262596,0.072900179966731,8.154347116712804e-07,-0.0344327514347941,0.0035621053513383,0.0026501441419139,0.7772573893490192,19.909603387291344,24.79633446276816,31.257913559169577
0.8,31.22219501707601,131.0104350476497,13.02320409630744,-0.7203844376551964,-0.0490229468396879,31.5572381947434,-0.0762720037094619,2.7109234812780025,377.42502064505805,25.15809653641469,11.488405359834411,68.89446543125811,0.1415634484898713,120.15144752422988,387.18816632088,1.274,1.0239625010683884,0.0,2.725135392685833,120.00005142262596,0.0739414478508752,8.298464718573616e-07,-0.0335922147091273,0.0035093097670142,0.0026223151686192,0.7220504557814659,19.64770174341991,25.1503960308718,31.673556889299093
0.81,31.22219450201377,131.0104361032174,13.261274565353029,-0.6671285065224392,-0.0500572347642148,20.36298725713001,-0.0753649153196803,2.721274452694903,273.9374926939922,25.47168693405205,11.636050324995008,68.8752145560603,0.1466452794334218,120.15689515098532,396.8916887668128,1.274,1.0239149950770308,0.0,2.73334190311038,120.00005142262596,0.074863313572176,8.438016819603644e-07,-0.0327884074171391,0.0034539450313076,0.0025914126384535,0.6690037800561182,19.42097247442143,25.463823963002625,20.544154023745786
0.82,31.22219398204574,131.01043716874128,13.501181832420093,-0.6190073855380804,-0.0513724454544858,26.30028670932548,-0.0738290001539232,2.735948975507265,328.725004432774,25.61530973896454,11.72252297760018,68.8564241469019,0.1516387628096065,120.16224875468016,401.3708292534377,1.274,1.0238644186635044,0.0,2.741596989953792,120.00005142262596,0.0752856361926694,8.573183048162194e-07,-0.0320244419511796,0.0033960772317295,0.0025452457330696,0.6211353868695111,19.31720581327698,25.60724017518392,26.442313599807516
0.83,31.22219346042339,131.0104382375745,13.741034534402118,-0.5679416842230035,-0.0523603384840003,33.555585417331045,-0.0726682484542393,2.745217041661051,395.6875032246518,25.90400773106487,11.861324091735383,68.83807138196222,0.1565406041837763,120.16750476017292,410.4596787955497,1.274,1.0238188483711983,0.0,2.749794545969791,120.00005142262596,0.0761343508737112,8.704280039051989e-07,-0.031306576736677,0.0033360967139283,0.0025161763441764,0.5703501309986728,19.114851039177964,25.89578298947363,33.66777108719791
0.84,31.22219292932672,131.0104393256991,13.985381492802428,-0.5160335349907595,-0.0531440774491708,20.537883110841666,-0.0716462778551873,2.7512482885942044,275.45937482564227,26.271920568965847,12.028784463874384,68.8201298756861,0.1613480398011193,120.17266017352593,422.19203212686,1.274,1.0237739661568126,0.0,2.7578719107885727,120.00005142262596,0.0772158946857628,8.831360906609181e-07,-0.0306319404433238,0.0032736559643068,0.0024968627643555,0.5187627837817964,18.8636255997777,26.263572717998024,20.721465754362512
0.85,31.222192390546788,131.0104404294472,14.2331722693898,-0.4694062131440027,-0.0543381284115477,22.440426497146728,-0.0698336951853308,2.7629491208904486,292.9609323393965,26.408319584604424,12.112699370514068,68.80257486905356,0.1660577798806688,120.17771142695032,426.5771491491295,1.274,1.0237227741398531,0.0,2.7659826734378785,120.00005142262596,0.0776170025075386,8.954521906456972e-07,-0.0300002561161042,0.0032085453250484,0.002458010514135,0.4725407485885358,18.770508062222927,26.39978417263254,22.60998686340745
0.86,31.22219185193792,131.01044153277132,14.479847852095736,-0.421631038911796,-0.0552983891816778,28.21757790236313,-0.0682190297058472,2.7707210102651127,346.2265619465616,26.63837217688713,12.230471362624652,68.78538175012669,0.1706662053370933,120.18265459329228,434.03138030246674,1.274,1.023674789281455,0.0,2.7740898546499766,120.00005142262596,0.0782933706850625,9.074158159197316e-07,-0.0294183607578998,0.0031413518172336,0.0024312738024464,0.4252418013570143,18.61727379521056,26.629685927575235,28.35336402313966
0.87,31.222191305124248,131.01044265278048,14.7302678977068,-0.3731686834105482,-0.0560517597234328,26.24223836795341,-0.0667288916960693,2.775106411161673,327.9640783669946,26.94565228485373,12.376212219581952,68.76852202172005,0.1751705125163625,120.18748663767718,444.09176847361965,1.274,1.0236288969245204,0.0,2.78203793541274,120.00005142262596,0.0791967275364169,9.19038355839056e-07,-0.0288851056204438,0.00307184667427,0.0024146819485127,0.3773547689135247,18.417199116514627,26.936847696429734,26.388647993005318
0.88,31.22219075127581,131.01044378707857,14.983746706284204,-0.3263681915377938,-0.0568738782777675,22.617263112269576,-0.0649737376808278,2.779872989933754,294.4828134710421,27.19444360051701,12.50083958839446,68.75196782613143,0.1795675414838368,120.19220413338084,452.31928435395673,1.274,1.0235805388426191,0.0,2.7899901524972592,120.00005142262596,0.0799281857046669,9.30331863564586e-07,-0.0284005718002691,0.0029998315534806,0.0023960394476303,0.3312865821209145,18.25789412700292,27.18550987407519,22.787551560366936
0.89,31.22219019322512,131.01044492987978,15.238643301389084,-0.2807290243033999,-0.0577371051754316,24.851285448885005,-0.0630070951261594,2.784486258062543,315.02813424808807,27.39876854798465,12.609386639311516,68.73569125639904,0.1838538180112478,120.19680331506524,459.1305646704641,1.274,1.0235293752791452,0.0,2.797926896477972,120.00005142262596,0.0805289562395934,9.413218247187092e-07,-0.0279671024635114,0.0029254737550644,0.0023771390607989,0.2866048354870864,18.12877091648173,27.389699226246645,25.006873496647657
0.9,31.22218963057183,131.01044608200044,15.495189584966214,-0.2351486744454178,-0.0584428135259209,27.497256674602,-0.0610859834666878,2.786253332789747,339.3781423542166,27.654775779815463,12.73668922323678,68.71966306944887,0.1880260827012436,120.2012806516232,467.7391271963227,1.274,1.0234837388140003,0.0,2.805797206343281,120.00005142262596,0.0812816339131708,9.520335489592788e-07,-0.027586507242096,0.0028489151194844,0.0023666401617031,0.2423023779684119,17.970051879242064,27.64559560572596,27.638126994440167
0.91,31.222189061151223,131.01044724785567,15.754633368197036,-0.1900765221302655,-0.0590376516229791,20.813738792350364,-0.059136255901236,2.785777375166578,277.7421810230785,27.939345741732083,12.874391178015385,68.70385298880748,0.1920812551428833,120.2056328062276,477.4029086125578,1.274,1.023436404813438,0.0,2.813609347403271,120.00005142262596,0.0821182691234582,9.624833958680274e-07,-0.0272592509128848,0.0027700330662803,0.0023625700779864,0.1990339563696847,17.797053885782972,27.93007213074189,20.999423211053735
0.92,31.22218848548624,131.01044842637455,16.01666921216396,-0.1464069513840849,-0.0598153595226724,24.86667932175742,-0.0568126293029115,2.7867705446975366,315.0281342480675,28.110461624119672,12.970931893364217,68.68823046662588,0.1960160519448415,120.20985622165291,483.2564092892038,1.274,1.0233859136578225,0.0,2.821401539243189,120.00005142262596,0.0826214507298646,9.726899955759583e-07,-0.0269862781801312,0.0026887651314941,0.0023531769807807,0.1581545600384621,17.69403457494503,28.101065851123977,25.022411119529632
0.93,31.222187907359924,131.0104496098379,16.279116416186223,-0.1029215122427536,-0.0603441670313542,29.662475233059,-0.0546261343305166,2.783625154475444,359.16250706547066,28.3758184789078,13.101722886515196,68.67276440743089,0.1998270744564968,120.21394721367656,492.4107388036379,1.274,1.0233407575091376,0.0,2.829164328385607,120.00005142262596,0.0834016268418167,9.826873816776482e-07,-0.0267697580840031,0.0026054775066307,0.0023562725204957,0.1193073856061526,17.537481033562276,28.36633964106855,29.792851323212062
0.94,31.22218732120939,131.01045080959096,16.5451777392367,-0.0600410889426528,-0.0607123206219866,21.40408519831623,-0.052450380244802,2.777424576191362,283.06875048378083,28.69289852280757,13.251353216284636,68.6574224911781,0.2035114323051933,120.21790265378536,503.46405428545006,1.274,1.0232914783978162,0.0,2.836834198968692,120.00005142262596,0.0843338352064997,9.924887341969422e-07,-0.0266098678972126,0.0025199235577383,0.0023683109248747,0.085386866013151,17.354270914937945,28.683361855569803,21.583597973822613
0.95,31.22218672822281,131.01045202320577,16.81416440511716,-0.0182260602430431,-0.0613346297513496,27.85744450151744,-0.049849399422894,2.773396627759985,342.421873617488,28.862138801685354,13.347231087634004,68.64217228314583,0.207065854831128,120.22171899817208,509.40760772630847,1.274,1.0232418269359267,0.0,2.844505508631961,120.00005142262596,0.0848315217384193,1.0021113383965727e-06,-0.0265076401464003,0.0024319742543478,0.0023730666464459,0.0639853573245845,17.2575644010952,28.852504382413574,27.995203660138237
0.96,31.22218613347408,131.01045324033566,17.083160435904624,0.0228544655148048,-0.0616158246949482,27.283208826404817,-0.0474488476388431,2.7638899333739784,337.09533515678265,29.169491752228804,13.493403727753384,68.62698074947058,0.21048686180982,120.22539247384144,520.3012978094265,1.274,1.0231951201821403,0.0,2.852157542365602,120.00005142262596,0.0857351529310495,1.011594705535459e-06,-0.0264645508625387,0.0023421320126427,0.002394376979703,0.0657178533224687,17.08555740433763,29.159813162984,27.422888666625948
0.97,31.222185529122704,131.01045447696328,17.356667631206676,0.0632037024360517,-0.0619278302775028,17.282092028983325,-0.0448567406692745,2.753569650067988,245.0218871929888,29.43601272618816,13.624732251930556,68.61181403555604,0.2137716868845256,120.22892008795426,529.8387789100755,1.274,1.0231476260761452,0.0,2.8597082870855624,120.00005142262596,0.0865187800479194,1.0209478767980855e-06,-0.0264811691227011,0.0022500058179454,0.002417708111233,0.088485945829453,16.939081092718833,29.426285127249532,17.500138937825838
0.98,31.2221849204224,131.01045572237553,17.63166706839488,0.1031706405137336,-0.0624892764126095,25.39572431931612,-0.0418974044197373,2.745284365650261,319.593746642963,29.555388282650824,13.702433105619452,68.5966379350984,0.2169169755391666,120.23229820198966,534.1308290428016,1.274,1.0230935628253934,0.0,2.8672849171169856,120.00005142262596,0.0868699200624126,1.0301995168059815e-06,-0.0265587015678817,0.002155772707624,0.0024345559988186,0.1206195942182399,16.87398158597444,29.545572492011512,25.54371068078178
0.99,31.22218431013889,131.01045697093653,17.90657596213194,0.1418312909992586,-0.0626380117732154,27.79928192278868,-0.0391735570870734,2.730382444761141,341.66094855170127,29.84650211281624,13.842781799589783,68.58141755499918,0.2199196153056871,120.23552343967224,544.6904014310692,1.274,1.0230490803133316,0.0,2.8748030225017422,120.00005142262596,0.0877258410676891,1.039390912435673e-06,-0.0266972942905122,0.0020599673661692,0.002471300081753,0.1550471786659193,16.718247574489926,29.836662958895044,27.933073556000245
1.0,31.22218369000615,131.01045823948775,18.18612663504664,0.1796921385711109,-0.0627405010834888,24.82563225352872,-0.0363348943313174,2.71349814210927,314.2672081822764,30.13314267969403,13.981530028234628,68.56611793937009,0.2227772646436584,120.238593264157,555.1879558492243,1.274,1.022999484445133,0.0,2.882221149199191,120.00005142262596,0.0885686240161587,1.0485278542862792e-06,-0.0268983264595514,0.0019620920746957,0.0025137542724233,0.1903302977306588,16.56773865831812,30.12328742679926,24.97351415358323
1.01,31.222183064880024,131.01045951813165,18.467535334215647,0.2169155957532178,-0.0629037651935955,25.990743413227005,-0.0333059171349694,2.6960596244086377,324.92031610370094,30.363153005612567,14.099626466946692,68.55070331657743,0.2254868399134178,120.24150432704776,563.6807172669902,1.274,1.0229507481225095,0.0,2.889667935844671,120.00005142262596,0.0892449635977343,1.0576360068131567e-06,-0.0271628180066886,0.001862220551623,0.0025577794139054,0.2258522535898396,16.448927634481667,30.35327210726677,26.130223687421537
1.02,31.2221824352663,131.0104608058375,18.75051372722228,0.253050102638075,-0.0629448414678852,21.607750328288954,-0.0302355385592166,2.675539558715169,284.59063161543185,30.62552520888208,14.229569751963137,68.53513733902525,0.2280453549280579,120.24425338854492,573.4489074046897,1.274,1.0229039803623294,0.0,2.897068235224705,120.00005142262596,0.0900164290902117,1.0667476354747791e-06,-0.0274907887252939,0.0017606107222057,0.0026109607179864,0.2607611584399405,16.315566831288464,30.615637858294097,21.772788070610368
1.03,31.22218179895346,131.01046210710817,19.036323768657567,0.2889989207354224,-0.0630734889597009,17.556122635793862,-0.0269775449920699,2.6548549240521804,247.3046933904342,30.81634522005795,14.333354815497596,68.51938365242641,0.2304501970662241,120.2468376122822,580.6012663745465,1.274,1.022853416101322,0.0,2.904415375040772,120.00005142262596,0.0905775911247887,1.075884806523536e-06,-0.0278831426680194,0.0016572264900725,0.0026646521449949,0.2958016353194128,16.220014092781902,30.806437661581423,17.755743421741922
1.04,31.222181159265386,131.01046341517275,19.32306731727903,0.3245837301676764,-0.0632212350214475,28.24940825583723,-0.0236034146992968,2.633143127853132,345.4656368807608,30.968309360933304,14.42291757902387,68.5034053731589,0.2326986957367108,120.24925409278428,586.3254565789723,1.274,1.0228049544826707,0.0,2.9117427302486543,120.00005142262596,0.0910245494358759,1.0850820047584023e-06,-0.0283394703025248,0.0015523901209339,0.0027215413401304,0.3306833526034633,16.144848753234978,30.95837859457377,28.37187104612437
1.05,31.22218051564196,131.01046473117157,19.61106457375312,0.3573703145684367,-0.0629477045627202,16.819565241544247,-0.0203683392775841,2.6037633408876686,240.4562587980608,31.300945610812978,14.57867935154173,68.48716585900108,0.2347886539443634,120.25150043658796,598.9721914360425,1.274,1.022755494436122,0.0,2.919002193748728,120.00005142262596,0.0920025596762599,1.0943700316418158e-06,-0.0288593150237344,0.0014463240531445,0.0028011552151371,0.3628717457447364,15.982530705359425,31.291057810491377,17.01992283528803
1.06,31.222179862062344,131.01046606736065,19.903741542743056,0.3919738378904624,-0.063063517952896,24.204783567785764,-0.0168037906883263,2.578866927530881,308.1796836557233,31.408684605744163,14.65202457015776,68.47062873944913,0.2367182047674054,120.2535746096612,603.0857028097391,1.274,1.0227013895379469,0.0,2.9262034493188605,120.00005142262596,0.0923195407250223,1.1037531178008216e-06,-0.0294460226143602,0.0013384899392194,0.0028678595540136,0.3970144013039235,15.93101171228214,31.39877861350877,24.341782690687342
1.07,31.22217920977564,131.0104674008376,20.194694941341744,0.4234840491522141,-0.0627875919807691,28.604506631124146,-0.0133482572419924,2.546494515385879,348.5093681440431,31.684324327399366,14.786974076365793,68.45375569311301,0.2384846863573856,120.25547370379984,613.7002493789038,1.274,1.0226540159946436,0.0,2.933432215581897,120.00005142262596,0.0931300342613636,1.1132853270404956e-06,-0.0300957570077095,0.00122976350477,0.0029567804278118,0.4281132441356589,15.800043992119797,31.674461677488186,28.717635907276332
1.08,31.22217854738018,131.0104687548119,20.490409224691145,0.4536891913942611,-0.0623986744142437,19.07428440895564,-0.0098263649218737,2.510634237964247,261.0015785751465,31.98906586740908,14.932644230176855,68.43651063961248,0.2400867411829293,120.25719623547644,625.5444578370244,1.274,1.0226061614050743,0.0,2.940530975064214,120.00005142262596,0.0940260777027041,1.1229721066613188e-06,-0.0308116578279473,0.001119659256826,0.0030561427943893,0.4579600370990556,15.6577424095484,31.979264308489935,19.238807305756097
1.09,31.222177879155183,131.01047012057035,20.788446972825223,0.4852342458888168,-0.0622708174106924,17.507111268747387,-0.0061045698353608,2.4777346796552724,246.54375332456465,32.128831935281056,15.017740220600396,68.41885566882056,0.2415223003859677,120.25873993813768,631.0045718706264,1.274,1.0225512795791307,0.0,2.9476594778896046,120.00005142262596,0.0944372123987197,1.1328364861867087e-06,-0.0315948559679538,0.0010081767705124,0.0031474287129456,0.48921348650573,15.593822565072657,32.11905046008118,17.68157660913871
1.1,31.22217720977404,131.01047148860167,21.086157691543583,0.5155682232965759,-0.0620356829606814,35.68553186703848,-0.0023596072326917,2.4417717968358565,413.1890617384087,32.29273174797703,15.111707550268855,68.40075222140186,0.242789303694898,120.2601025520898,637.440691848927,1.274,1.0224981043155532,0.0,2.9547580844645185,120.00005142262596,0.094919286769203,1.142925924264802e-06,-0.0324411416721866,0.0008959989914561,0.0032481275999281,0.5192869293205343,15.519488373328592,32.28298720758846,35.76897314306056
1.11,31.22217653467436,131.0104728681907,21.386129553180574,0.5402951602925402,-0.0612141658509071,25.98023536650705,0.001310777177407,2.393429935665545,324.1593910379213,32.73714180576774,15.308942084546333,68.38216416644676,0.243886723495674,120.26128293595,655.0873606680165,1.274,1.0224548851875197,0.0,2.961765183045966,120.00005142262596,0.0962258843162232,1.1532631679682937e-06,-0.0333506946425329,0.0007831532204134,0.0033850516373443,0.5437517110454357,15.319912280348117,32.72752630891038,26.090249869906966
1.12,31.22217584667592,131.01047427394573,21.692422279149927,0.567815347720433,-0.0607807391995056,9.471143277012136,0.0051845142662688,2.3506528540375244,172.7328179403806,32.94507494397384,15.419171602501988,68.36305527473762,0.2448135898765332,120.26228001117572,663.4159732853077,1.274,1.0223979224661404,0.0,2.9687432941887546,120.00005142262596,0.0968374070722011,1.1638384514406168e-06,-0.0343312935203473,0.000668774099994,0.0035066106257891,0.5710590568592069,15.22891080815925,32.935527529577094,9.75849120986821
1.13,31.2221751592014,131.01047567855355,21.997436955516623,0.5978576129931485,-0.0606515675201161,30.73717891224261,0.009141631167085,2.3130381043041672,367.5328077894322,32.95385606364415,15.455999059407633,68.34338482034363,0.2455676585595456,120.2630913041273,663.7502257549352,1.274,1.0223460397860296,0.0,2.975785381632764,120.00005142262596,0.0968635513308788,1.1747098462826916e-06,-0.0353759531279592,0.0005538079802277,0.0036141697332633,0.6009261223692652,15.226284002198836,32.94432893947596,30.824087923644964
1.14,31.222174471432687,131.0104770836807,22.301644033325413,0.6195956651982494,-0.0597337429070594,16.789504919976515,0.0130461578498791,2.257793768647488,239.6953177322812,33.36415977413714,15.640956229219965,68.32311610529723,0.246148122631676,120.26371589992132,680.3617595282542,1.274,1.0223022138470996,0.0,2.9827173172706125,120.00005142262596,0.0980699220976017,1.1859291181231909e-06,-0.036477318546805,0.0004390789379246,0.0037729805168883,0.6224682877747735,15.048973145061003,33.35477682144247,16.940639845114873
1.15,31.22217376794591,131.01047852070585,22.613747818110834,0.6463264662481135,-0.0593234938940968,16.551427879821638,0.0170450245913312,2.212173088514549,237.4125115347709,33.45893907572373,15.709481450331156,68.30221667241666,0.2465554356381692,120.26415425303576,684.2122162692706,1.274,1.0222426194541194,0.0,2.989553077981624,120.00005142262596,0.0983488607978515,1.1974673155720616e-06,-0.0376480481262509,0.000323314015474,0.0039050183260652,0.6490431639136565,15.009700573076826,33.44962056475854,16.698615666196655
1.16,31.222173068883407,131.0104799486494,22.92237913680976,0.6706013410097295,-0.0587358179380357,44.14589573758956,0.0210489142160777,2.161755881739484,490.043774385954,33.61980696558592,15.80244841745138,68.28064674280513,0.2467881683571693,120.2644047515238,690.7868287711932,1.274,1.02219674531104,0.0,2.996486641378893,120.00005142262596,0.0988220583913778,1.20939312126248e-06,-0.0388769780158531,0.0002077402246639,0.0040517560119659,0.6731685504683907,14.94260801987013,33.610580766495055,44.19879797034251
