Time,Latitude,Longitude,Altitude,Angle of Attack,Angle of Sideslip,X-Acceleration,Y-Acceleration,Z-Acceleration,Thrust,True Velocity,Ground Velocity,Pitch,Roll,Yaw,Dynamic Pressure,cp,parachute_deploy_gain,Wind Speed,Mach,omega_x,omega_y,omega_z,Cmq,Angle of Attack(total),Angle of Attack(gust),True Velocity(gust),Acceleration
0.0,31.222186000000004,131.010384,3.000000003643237,0.0,0.0,0.0,0.0,0.0,2.2828121974499247,0.0,0.0,69.99999999623421,0.0,113.69999999388332,0.0,15.288,0.0,0.0,0.0,0.0,0.0,0.0,-0.0,0.0,90.0,0.0,0.0
0.01,31.22218600000153,131.01038399999584,2.99999882256592,0.0,0.0,0.0,0.0,0.0,34.24218696174923,7.502283530665459e-11,7.190531319924593e-11,69.99999999623329,-4.83564628150269e-13,113.69999999388072,3.446445726795683e-21,15.288,0.0,0.0,2.204725565824978e-13,-3.659182332138578e-19,7.589415207398531e-19,4.811147140404426e-19,-1.5108918610345807e-31,0.0,89.9999999995224,7.502283530665459e-11,0.0
0.02,31.22218600000288,131.01038399999217,2.999997775701936,0.0,0.0,0.0,0.0,0.0,25.871876237766408,1.5320717031631675e-10,1.4674636035870463e-10,69.99999999623222,-9.67129256300373e-13,113.69999999387804,1.4372842949972735e-20,15.288,0.0,0.0,4.5023593667086093e-13,-7.284483346386986e-19,1.5178830414797062e-18,9.757819552369542e-19,-6.170906918166791e-31,0.0,89.99999999902465,1.5320717031631675e-10,0.0
0.03,31.22218599928065,131.01038400193067,3.000201659671132,18.81500467334555,-0.00012974450181,11.96616230539064,-1.8916256735984712e-05,3.349833086198469,180.34219359854663,0.0882870268161719,0.0553390044312322,69.99999999799445,-4.212591857125379e-12,113.69999999488518,0.0047728553458352,15.288,0.0,0.0,0.0002594525584132,3.2187251995663407e-17,-7.20264389268894e-10,1.2365134327422308e-11,1.6874092354518158e-13,18.815004673776716,89.46786891739345,0.0882666465974854,12.426199017587786
0.04,31.22218599548236,131.0103840121632,3.001799604587872,9.46752327608497,-4.6177622759613696e-05,55.21900012092241,3.931876292165237e-06,3.349616504302861,548.6359724538078,0.3767519978512604,0.1853356633749705,70.00000000507204,-2.4624598767003407e-11,113.70000000019972,0.086915163246288,15.288,0.0,0.0,0.0011071759353184,1.6174128009138757e-15,-1.3693172015529268e-08,2.7753303060112748e-11,1.3689612277852356e-11,9.467523276196548,87.63554493451223,0.3767447442872393,55.32050167054111
0.05,31.222185984749512,131.01038404118162,3.00777936418888,5.376730308971262,-2.257790939128127e-06,80.28807156553681,5.266841443842784e-05,3.348887800834877,761.6984298824644,1.018787885905993,0.4366201147110198,70.00000000894464,-1.1355399380652658e-10,113.70000001523856,0.635552918586145,15.288,0.0,0.0,0.0029939522895272,1.6418815498809788e-14,-9.32122351075408e-08,4.303264669380585e-11,2.5199270302492604e-10,5.3767303089717045,83.57022052969386,1.0187875312530217,80.35788377762394
0.06,31.22218596447235,131.01038409608267,3.0201664202003013,4.296730121134882,2.4863835723705905e-05,60.21296515808257,0.0001057204249726,3.347700952379021,590.4875390737208,1.721098934225416,0.7081674028809783,69.99999995523842,-3.0560354507026086e-10,113.70000004366592,1.8138247671743823,15.288,0.0,0.0,0.0050578622752421,8.328976953118383e-14,-3.2824985336199985e-07,5.923438275930214e-11,1.4991363363716091e-09,4.296730121206683,79.20467073327266,1.7211028398275985,60.305955550063224
0.07,31.22218593493329,131.01038417609837,3.038741944736831,3.8204913578752526,4.8016684030909405e-05,91.4060317508128,0.0001597686613101,3.346072557365335,855.2937749779139,2.4375792548422868,0.9844712334613328,69.99999973536046,-5.939103491363046e-10,113.7000000850886,3.6383156301599167,15.288,0.0,0.0,0.007163413150771,2.709313825263564e-13,-7.906546256197275e-07,7.920022733617308e-11,5.114174483651565e-09,3.820491358176508,74.87999294483174,2.437586797285377,91.46725557277466
0.08,31.222185894468456,131.01038428575305,3.0647976109320942,3.588632851766762,7.220043782492885e-05,19.18449428359557,0.0002119618497595,3.3440615022685813,241.2171988638848,3.1292508166901074,1.2522236515868983,69.99999919480445,-9.914748373602156e-10,113.7000001418522,5.996012698481753,15.288,0.0,0.0,0.0091960591623389,6.80386533246681e-13,-1.5973238302190878e-06,1.0839624626357699e-10,1.3263625118823921e-08,3.58863285249208,70.86684630658345,3.1292621579083604,19.473766155861934
0.09,31.22218584634549,131.01038441616095,3.0957981580345013,3.551302481506045,9.685468678862004e-05,57.102946699906326,0.0002554087225869,3.341892818148368,563.0937377043176,3.701810007254615,1.479132491047967,69.99999812344194,-1.4359264356978275e-09,113.7000002093888,8.390904013834115,15.288,0.0,0.0,0.010878666406854,1.440096519545733e-12,-2.748643691533636e-06,1.5214952332699618e-10,2.6999776649034504e-08,3.5513024828250237,67.68737872952666,3.701825221153239,57.20065357568538
0.1,31.222185790329306,131.01038456796124,3.1319266121977414,3.608446747536112,0.0001234669721807,54.26147302645416,0.0002914860332524,3.3396271157106168,538.7437595981919,4.174070299823608,1.6716491241860567,69.9999963052332,-1.902380107712657e-09,113.70000028805804,10.668380938744466,15.288,0.0,0.0,0.0122665227999911,2.687800116751415e-12,-4.315796035622946e-06,2.1749089204950437e-10,4.7802076800548326e-08,3.608446749645647,65.17160335282355,4.174089693970246,54.36414778470795
0.11,31.222185727066616,131.0103847393952,3.172681775073216,3.633547373470009,0.0001485939126744,42.987553988990406,0.0003293995000288,3.337005588796181,442.8656393052949,4.672024955140527,1.8729475711242067,69.99999349387662,-2.3433348587116544e-09,113.70000037699285,13.365573690709628,15.288,0.0,0.0,0.0137298902182575,4.5789425819531184e-12,-6.340230783164189e-06,3.1157625832417107e-10,7.860218435507205e-08,3.6335473765043056,62.62546922225161,4.672048296217748,43.116880735560244
0.12,31.22218565692512,131.0103849294629,3.2177790417108385,3.650108937861461,0.0001727442530266,46.86777100765684,0.000367618259785,3.334068179146888,475.58594813540446,5.17479364099247,2.0758708919414386,69.99998941286465,-2.702771525550512e-09,113.70000047573096,16.396890189902592,15.288,0.0,0.0,0.0152074069417046,7.288473386564583e-12,-8.86736416607888e-06,4.42271554299792e-10,1.217615295152289e-07,3.6501089419435786,60.16906436414164,5.174820775596283,46.986210423745625
0.13,31.222185580265183,131.0103851371844,3.2669395832841857,3.7280113734654137,0.0001995014041665,51.64515456841877,0.0003986198234033,3.3311573548369657,515.9156326236895,5.579364582999854,2.2451120211463422,69.99998375846928,-2.9114380666036422e-09,113.70000058383452,19.060875702782603,15.288,0.0,0.0,0.0163963474924215,1.100846422415094e-11,-1.1941028436408576e-05,6.179653149059831e-10,1.7678562106638216e-07,3.728011378795934,58.279338776943774,5.579395920607139,51.75247433579817
0.14,31.22218549718016,131.01038536230575,3.320091807147376,3.768719651034081,0.0002242721760019,48.1660778383537,0.0004326225136175,3.32784677779744,486.2390860568404,6.025734265159953,2.428648685938864,69.99997621008868,-2.890941335368725e-09,113.70000070125378,22.232643351545065,15.288,0.0,0.0,0.0177081261985351,1.5941871344608664e-11,-1.560901486259027e-05,8.477542742712431e-10,2.495765160917323e-07,3.7687196576976176,56.27980129251342,6.025769493750979,48.280903250602165
0.15,31.22218540777004,131.01038560455507,3.377159065217065,3.821894709649632,0.000249725644238,46.56959330999435,0.0004643042952466,3.324387732286376,472.54218587214,6.441023336496372,2.6014999612196745,69.99996641132823,-2.546763407193136e-09,113.70000082794672,25.402620271850456,15.288,0.0,0.0,0.0189285691155931,2.2314099732464315e-11,-1.992367942778425e-05,1.1417519574710292e-09,3.4051816697623295e-07,3.821894717796148,54.501255563441134,6.441062563308839,46.68809885900716
0.16,31.22218531193176,131.01038586421257,3.4382223512025254,3.8463320955387794,0.0002733212404609,36.974247749122085,0.0004987816203583,3.3205066466509234,391.1218908297564,6.895451966878468,2.7877331692857847,69.99995397923414,-1.77088415515292e-09,113.70000096417354,29.113317717489338,15.288,0.0,0.0,0.0202640360420561,3.0367358387834494e-11,-2.4945905791363795e-05,1.5114297685186711e-09,4.5643121540033697e-07,3.846332105235269,52.641145594326446,6.895494900078523,37.12304892183151
0.17,31.222185210004127,131.010386140357,3.503019838429153,3.8860314262554336,0.000297865039677,46.520531453299206,0.0005306403365217,3.31650761597812,471.78125980632376,7.314788342774694,2.9619016331667103,69.99993849340957,-4.3039914767238207e-10,113.70000110959404,32.761746921137856,15.288,0.0,0.0,0.0214963781445172,4.0366633128431416e-11,-3.0713078585132897e-05,1.96747427715988e-09,5.961228045584824e-07,3.886031437653654,51.00464968745696,7.314835131305714,46.63860064094784
0.18,31.22218510147516,131.01038643438045,3.571950002194137,3.9107265153396016,0.0003214293682635,38.895647526122765,0.0005639254295027,3.312149448254175,407.10156721191447,7.754626295791602,3.1430587898572058,69.9999195084231,1.6149322372810674e-09,113.70000126508234,36.81988229018681,15.288,0.0,0.0,0.0227889722876034,5.2593391349219385e-11,-3.731786027786564e-05,2.525509173087448e-09,7.6786585232224e-07,3.9107265285284982,49.36615848311875,7.754676785798701,39.036415444581515
0.19,31.222184986476247,131.0103867459258,3.644912152926752,3.920599115663931,0.0003437679584038,43.86258669386953,0.0005989384366483,3.307389681300437,448.9531328318269,8.219206165926856,3.332657190859447,69.99989653019398,4.538529095696477e-09,113.70000143063515,41.36350714675367,15.288,0.0,0.0,0.02415428010977,6.735860419174937e-11,-4.481243905342629e-05,3.199401151670645e-09,9.773118416308382e-07,3.92059913071168,47.71893898797248,8.21926016487149,43.987104227715655
0.2,31.222184864792144,131.01038707557822,3.722074668489528,3.943376465171875,0.000367328732016,40.28070981710589,0.0006315894240138,3.30251450988504,418.51563019916136,8.65238089736321,3.511445117640573,69.99986902534273,8.534090245934178e-09,113.7000016067622,45.83799876721736,15.288,0.0,0.0,0.025427299120469,8.499785987217288e-11,-5.328041996372527e-05,4.006766070954748e-09,1.2232205148646746e-06,3.9433764822533854,46.2587826635041,8.652438597225508,40.41586552155969
0.21,31.22218473678744,131.01038742234647,3.803156063113743,3.9664546506877016,0.000390962054969,38.67679184347145,0.0006636984664108,3.297405915846789,404.8187610144644,9.079179692250786,3.688002035198235,69.99983642883521,1.3827831253856693e-08,113.70000179318536,50.47126980736161,15.288,0.0,0.0,0.0266815841422463,1.0586558589671407e-10,-6.275155280099118e-05,4.961340042512481e-09,1.5117124669161171e-06,3.9664546699249135,44.88773728276958,9.079241104426773,38.817098210937615
0.22,31.2221846022986,131.01038778667507,3.8882846911135607,3.956175711337521,0.0004112685792646,46.713636108302936,0.0007011135033803,3.291572407481395,472.5421858721365,9.580256326712124,3.889976788904857,69.99979815126248,2.0662823443484168e-08,113.70000199039316,56.195522894218605,15.288,0.0,0.0,0.0281541581291438,1.3033127211465288e-10,-7.330053770532661e-05,6.0817207473359025e-09,1.8632831045819008e-06,3.956175732680424,43.35679625546934,9.580320928629488,46.8294591882524
0.23,31.222184460898035,131.01038816972698,3.977794004014759,3.9879066397329104,0.0004360962274406,38.89105719050748,0.0007308686121188,3.286096544282012,406.3406421461021,9.977039034039262,4.056142701351626,69.99975353557706,2.9316661139418326e-08,113.70000219928508,60.9462612310605,15.288,0.0,0.0,0.0293202403623685,1.5880617816859538e-10,-8.505067486192354e-05,7.393319440773217e-09,2.2514912291167663e-06,3.987906663538912,42.20670487756048,9.97710753587448,39.0296395118868
0.24,31.222184313516166,131.01038856897196,4.070963590490852,4.003523997322975,0.000459165577055,40.0792299321398,0.0007630441688766,3.280134925833028,416.2328240017114,10.408422364424831,4.234121060914368,69.99970190737699,4.010976417051318e-08,113.70000241888,66.32994780718496,15.288,0.0,0.0,0.030588009649109,1.91711512587616e-10,-9.795845222523724e-05,8.904557280909524e-09,2.7052895870113487e-06,4.003524023611085,41.011349410369874,10.408494489985014,40.21323112692186
0.25,31.22218416001652,131.01038898478134,4.167901030441617,4.0261356185860135,0.0004830526730531,41.17760020658354,0.0007934613160587,3.2740610008587527,425.36408079150686,10.816813039390448,4.4041629376391525,69.99964258149416,5.3372865854010094e-08,113.70000264972064,71.63651430352668,15.288,0.0,0.0,0.0317882126436337,2.2947426169209347e-10,-0.0001121037688082,1.0637152702866709e-08,3.217380562698304e-06,4.026135647516394,39.93186687113378,10.816888917126896,41.30755663120434
0.26,31.222184000702686,131.0103894163294,4.26837241014618,4.053359329950934,0.000507503069958,44.80261175215926,0.0008224724146494,3.2678597736729302,455.8015834241788,11.207047269494833,4.567925492611352,69.99957484039399,6.947299261165984e-08,113.70000289176392,76.89781807056055,15.288,0.0,0.0,0.0329350617559806,2.7254099134167665e-10,-0.0001275114371842,1.260720913253598e-08,3.7915697709142366e-06,4.053359361668992,38.945390435244384,11.207126987890645,44.921630958721536
0.27,31.22218383516388,131.01038986473338,4.372698316214008,4.0614460923241,0.0005296455772492,41.029837477288126,0.0008548809954683,3.2610328932384265,423.84219965987256,11.645685385842508,4.748226940060522,69.99949794024376,8.879821051920497e-08,113.70000314600205,83.0342688744587,15.288,0.0,0.0,0.0342241635563461,3.2137296827284217e-10,-0.0001442952656441,1.4842505534226832e-08,4.458527942364847e-06,4.061446126801262,37.8838346421185,11.645768582375233,41.15922617924542
0.28,31.222183663504484,131.01039032970942,4.48079961904222,4.081133040992532,0.0005533279247169,47.27661484082626,0.0008845140695959,3.254218495915602,476.3468732012221,12.047344998676092,4.915789434712848,69.99941106884992,1.1178948978424788e-07,113.70000341275257,88.85982357848233,15.288,0.0,0.0,0.0354045979054623,3.764736350660473e-10,-0.0001625146963723,1.7365685655384934e-08,5.194620655212288e-06,4.081133078439725,36.956255322213885,12.047431915223257,47.38848224631549
0.29,31.22218348566054,131.0103908114315,4.592727908358551,4.1001100265020245,0.0005770279952742,37.989969791857405,0.0009138463939581,3.247164755122801,397.97031042211177,12.446314684600782,5.082367374004485,69.99931338876085,1.3891902435864665e-07,113.70000369260468,94.8417675268915,15.288,0.0,0.0,0.0365771315767517,4.3836067907166327e-10,-0.0001822432988888,2.0202163500922312e-08,6.018074062137429e-06,4.100110067036654,36.07377590258778,12.446405323946324,38.12849176886316
0.3,31.222183301933686,131.01039130907952,4.708251093558373,4.112858061667493,0.0005998635114143,35.655053282557844,0.000944131403186,3.2397207148238625,378.1859457108711,12.860033399289696,5.253940723820665,69.99920403105713,1.707002607527005e-07,113.7000039856728,101.2505662360602,15.288,0.0,0.0,0.03779301412572,5.075709863465428e-10,-0.0002035013069687,2.3370674033523645e-08,6.94335970778e-06,4.112858105337573,35.19685285507256,12.860127625629724,35.80193592228613
0.31,31.222183112488807,131.0103918222051,4.827243246502713,4.136140889545823,0.0006242383343011,37.56633644061071,0.0009716215464757,3.232339252743767,394.1656220930212,13.2364445751808,5.4126574282679245,69.99908210036875,2.0768081583188525e-07,113.7000042923011,107.26326115439352,15.288,0.0,0.0,0.0388992619788015,5.846561731689753e-10,-0.0002263323252403,2.6893437641668458e-08,7.948283231812338e-06,4.1361409365698805,34.43286455705216,13.236542630309057,37.70514091683033
0.32,31.22218291741533,131.01039235056504,4.949637017503345,4.1622282001352975,0.0006491019906456,40.83513712643371,0.0009979686925508,3.224840963348891,421.55939346242695,13.59846554462374,5.566374262777002,69.99894668612772,2.504388718903276e-07,113.70000461297312,113.2095365840355,15.288,0.0,0.0,0.0399632243410653,6.701756367872645e-10,-0.00025078340164,3.0793566854276295e-08,9.047716714467492e-06,4.16222825066026,33.72644865222576,13.598567505326,40.96227562489027
0.33,31.222182716732533,131.01039289410716,5.075419569102976,4.187801887681037,0.0006739743721461,40.48743503284469,0.0010239291638211,3.217136801802925,418.5156301991682,13.956637761217308,5.718704299733134,69.99879684673242,2.995902922462564e-07,113.70000494831164,119.25032483364384,15.288,0.0,0.0,0.0410158804634189,7.647061680070125e-10,-0.0002769136723495,3.509664608790402e-08,1.0253455741189656e-05,4.187801941818244,33.053267359159875,13.956743628864118,40.61505097607
0.34,31.222182510255863,131.01039345333336,5.204736257784645,4.19642921746386,0.0006961879027693,31.814592723444047,0.0010535137542081,3.208669900766693,345.46563688075645,14.367047160772364,5.88887983533068,69.99863160305904,3.557915789971256e-07,113.70000529927128,126.36523219087664,15.288,0.0,0.0,0.042222056531773,8.688448410811866e-10,-0.0003048202762282,3.9835373705550826e-08,1.1618525957862828e-05,4.196429275109305,32.30947868183619,14.367156517712404,31.97598901989736
0.35,31.222182298183583,131.0103940277045,5.337435501771672,4.210915783240843,0.0007193441544952,34.813487415034444,0.0010813034848195,3.200164272309822,370.5765700527033,14.754132934586384,6.050986755458457,69.99844991734221,4.1975736284587617e-07,113.70000566632532,133.26448209504355,15.288,0.0,0.0,0.0433596939127697,9.832256819293898e-10,-0.0003345386312107,4.503361101379695e-08,1.309465610343774e-05,4.210915844572415,31.63649055965014,14.75424592890194,34.96026256388454
0.36,31.222182080444604,131.0103946174141,5.4735747500461605,4.22903876037745,0.0007431682866607,39.2632255716727,0.0011077666085529,3.1915717453569297,407.8625232777193,15.124417129017054,6.2072589919251575,69.99825073022951,4.922382611919288e-07,113.70000605036684,140.03566173682628,15.288,0.0,0.0,0.0444479595865755,1.1084921261805627e-09,-0.0003661511460057,5.0723697896912267e-08,1.4691545926915382e-05,4.229038825557203,31.017264542603208,15.124533865618538,39.39272792946638
0.37,31.22218185710795,131.01039522227452,5.613102797925907,4.249164960780052,0.0007674149135003,37.28328237034959,0.001133274451316,3.1828514669894137,391.1218908297666,15.483077353331511,6.359470679857624,69.99803294268581,5.740349991123437e-07,113.70000645214331,146.75405277514704,15.288,0.0,0.0,0.0455020695186381,1.245311285088233e-09,-0.0003997125883071,5.6934243389647934e-08,1.641828325195534e-05,4.2491650299519,30.439178816713017,15.483197898584232,37.418894813348615
0.38,31.2221816281124,131.0103958424523,5.756069531572451,4.260095806433531,0.0007900626414612,38.9278000801764,0.0011607546399008,3.1735466295306622,404.8187610144602,15.87126705947922,6.521735074464384,69.99779542676283,6.659911329739736e-07,113.70000687263192,154.20298254405043,15.288,0.0,0.0,0.0466429667223463,1.3943646956867835e-09,-0.0004353006984059,6.369875435270817e-08,1.8328108041903096e-05,4.260095879559656,29.83470194713067,15.87139116222873,39.05694584372078
0.39,31.22218139339905,131.0103964781077,5.9025231349944285,4.274091258047817,0.0008133283308351,33.320076729592266,0.0011870382950339,3.164143363712209,357.64062493382744,16.24457853509073,6.678818328235205,69.9975369905506,7.690136753559805e-07,113.70000731287368,161.54010621938565,15.288,0.0,0.0,0.0477401448128051,1.5563705124515804e-09,-0.0004730068442167,7.105463478762673e-08,2.0383860516746246e-05,4.274091335289374,29.274934656826048,16.244706292406182,33.46997636540994
0.4,31.22218115316572,131.01039712870306,6.0523126585892895,4.286421841403391,0.0008363022448449,31.88018820767003,0.0012133780841982,3.1544430614236454,345.465636880754,16.62063299903514,6.836764518435374,69.99725641601981,8.840594270905819e-07,113.70000777359816,169.10340080049767,15.288,0.0,0.0,0.0488453895716005,1.7320643186450851e-09,-0.0005128553637434,7.9027539265021e-08,2.2612406375611563e-05,4.286421922834417,28.730746964325096,16.620764365084565,32.03586915718869
0.41,31.22218090752676,131.01039779392735,6.205351877049411,4.30025870409831,0.0008595777771371,35.882550741685804,0.0012389121673015,3.1445895889870297,378.94687077668647,16.987310563534386,6.99141560549392,69.9969524610574,1.0121301778427253e-06,113.70000825570062,176.64448930727934,15.288,0.0,0.0,0.0499230826371405,1.922193031274436e-09,-0.0005548883906878,8.764667734700782e-08,2.5005077415911235e-05,4.300258789847355,28.21875643368965,16.987445585695873,36.020076248499606
0.42,31.222180656535848,131.0103984736348,6.36160173428776,4.322008670726048,0.0008844838439129,40.34064925656127,0.001261804338223,3.134918999355981,416.2328240017114,17.318628721060172,7.133856886815013,69.99662385300175,1.154276942054023e-06,113.70000876021427,183.59942989625057,15.288,0.0,0.0,0.0508968652507098,2.1275184665783874e-09,-0.0005991661829955,9.694534598491077e-08,2.752657757470936e-05,4.322008761057615,27.772396468009568,17.318767655457478,40.462275036947325
0.43,31.222180400205527,131.0103991677914,6.521055075967404,4.339436441324956,0.0009085827200945,35.541853595187746,0.0012854696362701,3.124839917627212,375.9031395134336,17.662848429084132,7.280642039343927,69.99626930133451,1.3115939750280808e-06,113.70000928827632,190.96736675963504,15.288,0.0,0.0,0.0519085689713619,2.3488101247838237e-09,-0.0006457514522491,1.0695800287133593e-07,3.0255957891170616e-05,4.339436536261635,27.322335771349252,17.662991148924057,35.67895714766603
0.44,31.22218013836212,131.0103998768696,6.683849332059896,4.342209064313268,0.0009296474314902,32.82948243168077,0.0013129688908547,3.113754688841357,353.0750125389216,18.063580761318697,7.446730341918701,69.99588746395321,1.4852372182848018e-06,113.7000098413532,199.7278270846888,15.288,0.0,0.0,0.0530863610987301,2.586862292117705e-09,-0.0006947575786514,1.1773083546077225e-07,3.329010177793299e-05,4.342209163639375,26.81344244367223,18.06372678999575,32.9768158972058
0.45,31.22217987077456,131.0104006014978,6.850166573233225,4.3420317510315165,0.0009500780330031,38.11022602597878,0.001341042003417,3.1022288449712887,397.2093853562869,18.47486275310604,7.616350301328129,69.99547690348253,1.6764536248320808e-06,113.70001042108892,208.92306716049887,15.288,0.0,0.0,0.0542951637545535,2.842521175226318e-09,-0.0007463379956615,1.2932090054593452e-07,3.657529369088674e-05,4.342031854775571,26.30944884471334,18.47501199101448,38.23628058998621
0.46,31.22217959739673,131.01040134180155,7.020045503401754,4.351169003849846,0.0009725797783515,44.3937050866137,0.0013660055515545,3.09098240974522,449.7140588976434,18.844323061800488,7.771531995684422,69.99503610583268,1.8865779683531e-06,113.70001102895836,217.3591612614144,15.288,0.0,0.0,0.0553810645782081,3.1166808800591503e-09,-0.000800596194505,1.417768495237597e-07,4.001824400409673e-05,4.351169112337076,25.873596578896564,18.844475834274814,44.50118229261506
0.47,31.22217931813738,131.01040209802923,7.193559875579052,4.358630093683735,0.0009947969928181,30.22514089990685,0.0013910994973101,3.079396422776949,331.0078106302534,19.2180591098146,7.9280875671397615,69.99456352718363,2.1170044481277104e-06,113.70001166656292,226.0625808853568,15.288,0.0,0.0,0.0564795377574197,3.4102493884459798e-09,-0.0008576351980594,1.551487523304888e-07,4.3718862242359527e-05,4.35863020698899,25.44665981168229,19.218215372160817,30.381603425148434
0.48,31.22217903348153,131.01040286886197,7.370336324605091,4.365514409145237,0.001016880998596,29.779838936311712,0.001416009414045,3.067527859335786,327.2031223011574,19.5915905767454,8.084483592791102,69.99405758812365,2.369198154608765e-06,113.70001233476164,234.93171707892955,15.288,0.0,0.0,0.057577416115756,3.7241711041759195e-09,-0.0009173883913609,1.6944871263079066e-07,4.767297940601472e-05,4.365514527349481,25.03354780044292,19.59175030803913,29.937410312943754
0.49,31.22217874361868,131.01040365378466,7.5502307795521535,4.3786401372577615,0.0010404145545081,37.2489281064929,0.0014385799934191,3.0558405437943126,389.60000969812296,19.93403005898306,8.23012235628909,69.99351671352461,2.644660619562788e-06,113.700013034871,243.21198709852868,15.288,0.0,0.0,0.0585839249886784,4.059374595909599e-09,-0.0009798792959512,1.8470833984680338e-07,5.180951737438081e-05,4.378640260624215,24.667474291142685,19.934193486919103,37.37406598941686
0.5,31.22217844858332,131.0104044527036,7.733219389747018,10.862283305973476,7.048712493716937,38.426619532666095,-0.5155022453695877,2.5510393316156605,397.97031042210494,21.648253224779346,8.366269437912349,69.99293932307316,2.9449363413826395e-06,113.70001376847225,286.83546420524743,15.288,0.0,3.7577354668479273,0.0636219699320378,4.41672905964163e-09,-0.0010516197388721,1.555754818850547e-05,6.038315682368029e-05,12.925798759528409,31.330760319509128,22.752671623808418,38.5146547815855
0.51,31.22217814884109,131.01040526530593,7.91926093548511,10.781735446084372,6.951846870021573,29.5179685805998,-0.5275317975049639,2.5271651648059983,323.3984349720841,21.99297306829568,8.507441606956675,69.99228992728375,0.0001143102822649,113.7001327074354,296.03785876284286,15.288,0.0,3.772648612110904,0.0646352014332051,4.858199926608552e-09,-0.0012373842981545,0.0001388143651233,7.217968968260428e-05,12.806312681014422,30.920513437561866,23.08228927648449,29.630648367743568
0.52,31.22217784457857,131.0104060915296,8.108379128748433,10.699065377489072,6.854748915193176,35.356712744775315,-0.539909818353943,2.502507924406648,372.0984511843415,22.3463262902158,8.651551677444363,69.99153262377293,0.0004217042966902,113.70046027360632,305.6213956836924,15.288,0.0,3.7875114093791895,0.065673812176796,5.437783906650863e-09,-0.0014289709260305,0.0002650639230386,8.469311559929257e-05,12.685016558680976,30.510041337510813,23.42050096045645,35.44927622166961
0.53,31.222177535670863,131.01040693175267,8.300686153815246,10.620035340998836,6.761360569359087,37.09970217082186,-0.5523458937110984,2.477573979770906,386.5562464348624,22.69609749598924,8.794211098742103,69.99066398615649,0.0009299409987176,113.70100159258706,315.25779984842654,15.288,0.0,3.802326115112439,0.066701902510988,6.158955087956236e-09,-0.0016266422645908,0.0003944399607307,9.791603123193908e-05,12.568847057095317,30.114909248017817,23.755706196929825,37.18644053919683
0.54,31.222177222033395,131.01040778623104,8.496259629725436,10.54366726501134,6.671002094366134,32.64693020796273,-0.5648843571740053,2.4522928683390623,349.2703242098436,23.04392273443852,8.935990666308275,69.98968048444569,0.0016439515296497,113.70176191510468,324.98860117501226,15.288,0.0,3.817103439586964,0.0677242807567017,7.0252693418847005e-09,-0.0018306137993376,0.0005270442420659,0.0001118807960936,12.45661501045048,29.73238341830297,24.089435361236,32.74377630409596
0.55,31.22217690395492,131.01040865420492,8.694887487915906,10.472523419216063,6.585172129962771,34.57222724442212,-0.5773732667980888,2.426912205859284,365.2500005919907,23.383869856714625,9.074823885892396,69.98857853854989,0.0025686869146502,113.7027465131028,334.64149766427414,15.288,0.0,3.83182605237522,0.0687235126656673,8.040319615444824e-09,-0.0020407367376585,0.0006627462430615,0.0001265602985724,12.351268031328608,29.368820037343404,24.41599045602208,34.66211417937638
0.56,31.222176581449663,131.01040953566016,8.896570267198431,10.408339598666055,6.504841691272681,32.303800239084175,-0.5896903274060568,2.401637334989314,346.2265619465787,23.71137331959598,9.20911487171002,69.98735458244565,0.003709007713172,113.70396056326403,344.0741380567806,15.288,0.0,3.846493659659784,0.0696861803521526,9.207612956079048e-09,-0.0022571366173258,0.0008015904554831,0.0001419385180897,12.25477975827179,29.028391421668797,24.73095788215167,32.39831950051894
0.57,31.222176254602324,131.01041043039064,9.101253728134015,10.34171906304209,6.4241731807799605,31.9494909402156,-0.6023549310196304,2.37561101657248,343.1828296833023,24.046823399920218,9.346009593455122,69.98600501904417,0.0050697614739296,113.70540922899563,353.87143419668973,15.288,0.0,3.8610998059791375,0.0706722094556153,1.0530652689760063e-08,-0.0024798487545127,0.0009435641293068,0.0001581466819007,12.15613520312528,28.686943552592453,25.053817150812087,32.04335080018791
0.58,31.222175923404407,131.01041133844322,9.308955831127564,10.26672171302872,6.3395603777953085,41.90639343869972,-0.6157448037804883,2.348195394533106,426.1250058573153,24.40437746180373,9.490459942820308,69.98452619364781,0.0066558280556144,113.70709770894123,364.4658853729929,15.288,0.0,3.8756444425774528,0.0717232080163078,1.201295528653826e-08,-0.0027090065719957,0.0010887158893903,0.000175325992821,12.048409943559044,28.32937714748157,25.39816262792653,41.97664796423583
0.59,31.22217558747312,131.01041226088358,9.519985270215498,10.205461931822756,6.264392815609169,34.069915289063765,-0.6285364428866582,2.3215977495596145,360.68438819711065,24.7328641017116,9.624540740707316,69.98291423628277,0.0084723872776475,113.70903152228746,374.3358649045242,15.288,0.0,3.89014456834533,0.0726887863753865,1.3658200077870664e-08,-0.0029451819197,0.001237364772717,0.0001931729228623,11.95733468476118,28.01160994929785,25.714913325092148,34.15470687877116
0.6,31.22217524703032,131.01041319713315,9.734181810317253,10.128434987184203,6.180815117135103,30.337576396894004,-0.6425444419336905,2.292772024376802,329.4859594986058,25.1016977347414,9.7725488524392,69.98116520119237,0.0105246737939858,113.71121624655248,385.5758946303888,15.288,0.0,3.904589120398328,0.073772950266846,1.5470180247938333e-08,-0.0031882664713922,0.0013894061691446,0.0002122308381905,11.848569507470067,27.658956473429026,26.07069595369742,30.43087590840929
0.61,31.222174902041736,131.0104141473099,9.95158391986708,10.050412170728912,6.097758210347549,35.462844617131005,-0.656895076523839,2.263171977783504,372.0984511843297,25.47684629739041,9.922570225927194,69.97927503413533,0.0128180325815412,113.71365757792152,397.1787011456229,15.288,0.0,3.918981756903616,0.0748756814927669,1.7452732693710982e-08,-0.0034384487243432,0.0015449190875553,0.0002323003876807,11.739293127187922,27.30871830928716,26.432872793022884,35.541058043921026
0.62,31.22217455263309,131.01041511109693,10.172106192194216,10.000094495047149,6.032216342652822,43.97130214347492,-0.6696549928884896,2.236086718423479,442.86563930529206,25.78592556008792,10.049301816946446,69.97723953559976,0.0153579220192225,113.71636133681156,406.86550413293406,15.288,0.0,3.9333269015910735,0.0757842446433289,1.9609794579795265e-08,-0.0036957847497593,0.0017039008782356,0.0002527097001545,11.662719055524551,27.032583203002236,26.73171438966717,44.03321398461135
0.63,31.222174198636964,131.0104160889724,10.395889627979557,9.942779407595337,5.963422850518779,25.156748527939826,-0.6830736199531617,2.2077017435003503,286.11251274707894,26.11412713087977,10.182533083325596,69.9750546995055,0.0181495635815937,113.71933308447638,417.27956443339457,15.288,0.0,3.947601541056456,0.0767490153040317,2.1945085265497944e-08,-0.0039605668533388,0.0018664908853367,0.0002742559439303,11.57857167700823,26.74333309585928,27.0491690583603,25.262670742748735
0.64,31.22217384063749,131.01041707937188,10.622493016896536,9.873745556138411,5.888659428100213,24.707372915874515,-0.6975384114355515,2.1773376481552744,282.30782441796754,26.47503221431237,10.32702310529209,69.97271634163181,0.0211982362894417,113.72257845185813,428.8837905040864,15.288,0.0,3.961817847797082,0.0778099086719199,2.4462529012640548e-08,-0.004232240859488,0.0020323183352581,0.0002971122847486,11.481418618592162,26.42920008876924,27.398393090676944,24.812932826927007
0.65,31.222173478627848,131.01041808233614,10.85193266882702,9.825011071655762,5.826667870940534,43.28099063784816,-0.7107736437175367,2.1489022780290385,436.7781447787475,26.78468319222344,10.453434682353697,69.97022035558116,0.0245090689032901,113.72610290911524,438.9652056372129,15.288,0.0,3.975950133847328,0.0787201741906768,2.716580760541308e-08,-0.0045109929198439,0.0022014609798424,0.0003203781040569,11.408209834559187,26.169728422815407,27.69835730296993,43.34013302663735
0.66,31.222173112125013,131.01041909919874,11.084593288699065,9.772533753772382,5.7633081423999135,36.89018222783089,-0.7244712098835413,2.1194912353752384,383.51251517160017,27.10555544406456,10.583581732275103,69.96756253007776,0.028087234258178,113.72991197801284,449.5354951763504,15.288,0.0,3.9900262385589658,0.0796634267224955,3.005850787180726e-08,-0.0047975299114361,0.0023743036409628,0.0003448025484602,11.331160286061822,25.904991573871943,28.00932789435007,36.95812016909616
0.67,31.22217274132194,131.01042012945814,11.320336789456467,9.709868561076782,5.694880967150676,25.55340532149244,-0.7391554049835106,2.088181570093291,289.1562440103425,27.456121147676903,10.723919479746048,69.96473850556941,0.0319382236687037,113.73401151108534,461.22825041025806,15.288,0.0,4.004056852346348,0.0806939565152443,3.3144632440279115e-08,-0.0050917620353567,0.0025507550291565,0.000370673820482,11.242861736783102,25.619081961350783,28.34919877179888,25.64923734747043
0.68,31.222172366394823,131.01042117265803,11.559037956572324,9.651231832546658,5.629585358951067,31.786299296123445,-0.7537614246214077,2.0568113577913176,340.8999924858462,27.797660676888505,10.86093398622446,69.96174374486228,0.0360675246709997,113.7384073695506,472.7636519634344,15.288,0.0,4.01799208881256,0.0816979663822019,3.642817918444824e-08,-0.0053936430870278,0.0027307510982816,0.0003975256277635,11.15965957060489,25.347089042339277,28.680531735248472,31.861692550608865
0.69,31.222171987432407,131.0104222285787,11.800638921676196,9.603967928058257,5.571582638886765,39.030165268247934,-0.7676749677638003,2.0264707371596,401.0140726853634,28.10860482858552,10.987092839090884,69.95857386966327,0.040480492984251,113.74310526453937,483.3882441358842,15.288,0.0,4.031868782422596,0.0826120635970644,3.991303720470753e-08,-0.0057032003591542,0.0029142715527492,0.0004250328737125,11.089962719148849,25.10672727591567,28.98240833381132,39.090276404387865
0.7,31.222171604311644,131.01042329757442,12.04524526516986,9.556657489290217,5.514268995186945,32.81252003596569,-0.7817795573591274,1.995615536384301,349.27032420985284,28.420640135947696,11.11345781482424,69.9552243538682,0.0451824327051122,113.74811086532652,494.1684497140933,15.288,0.0,4.0456933402582695,0.0835293755770197,4.360297514457264e-08,-0.006020734061368,0.0031014546945346,0.0004536675346065,11.02062544357064,24.869813627464687,29.285482931563063,32.88244412685914
0.71,31.222171217095063,131.0104243794956,12.29281907715952,9.502926345595512,5.453994298503671,27.04932386068528,-0.7966118390243562,1.9632822465642257,301.33126406340574,28.7525068477432,11.24658075967705,69.95169069508735,0.0501787304326207,113.75342991893837,505.76457749965954,15.288,0.0,4.059419645911126,0.0845049808855803,4.7501902973512224e-08,-0.0063462995326716,0.0032922951653612,0.0004837715869886,10.944324525942584,24.6208416743206,29.607925054072734,27.132176265865333
0.72,31.22217082579469,131.01042547432996,12.543361584556088,9.441552832311189,5.390137211737309,33.015410895936135,-0.8123378778953129,1.9291659552071287,350.79220534145287,29.10907191875311,11.388153050888691,69.94796812641027,0.0554748983680943,113.75906831931364,518.3740438208058,15.288,0.0,4.073091147088128,0.085553184361722,5.1613799040419824e-08,-0.0066800502696136,0.0034868443163477,0.0005155154870848,10.859691014126344,24.356845533203582,29.954504358517244,33.08170084409343
0.73,31.222170430417734,131.01042658207876,12.796878008710232,9.400002124125235,5.338114614649739,41.643838488873286,-0.8265465542243902,1.897568597872064,422.320318528234,29.407015443987664,11.509087862518612,69.94405182397853,0.0610766062354292,113.76503212095436,529.0270214122793,15.288,0.0,4.086710466082997,0.0864291041876894,5.5942745795364905e-08,-0.0070221712709447,0.0036851710757641,0.0005474512117142,10.798112748335074,24.144278895120568,30.24431197993381,41.69524229306378
0.74,31.222170030911148,131.0104277029045,13.053419248158196,9.352521252447607,5.2833841204274,26.246764613830063,-0.8414577453313556,1.8645254077448228,294.48281347105944,29.72368254066333,11.636389905711727,69.93993704995654,0.0669892928878167,113.77132713478107,540.4686220955439,15.288,0.0,4.100245288764443,0.0873600619408224,6.049265977420531e-08,-0.0073728414577914,0.0038873389309993,0.0005809648593239,10.73011174156082,23.92065043423389,30.552418935108072,26.32635863212203
0.75,31.222169627638856,131.01042883583955,13.312714453465937,9.301425656983035,5.2272676099127935,30.566262143409023,-0.8569091940424187,1.8303168095082027,330.24688556441487,30.05271260937592,11.767850906374424,69.93561888245523,0.0732184422015886,113.77795922939934,552.4866636296407,15.288,0.0,4.11370380818621,0.0883273636060716,6.526773659616878e-08,-0.007731689307725,0.0040930991516793,0.000615970073461,10.658341868701845,23.69152156091625,30.87267129688409,30.633000741187637
0.76,31.22216922050035,131.01042998117433,13.574850968902908,9.257399294666758,5.17567811540627,32.869127743423185,-0.8718967466513471,1.7967559676751323,349.27032420986166,30.360207080512755,11.89163254572378,69.93109249502214,0.0797694449411692,113.78493416853009,563.8362172782884,15.288,0.0,4.12710064771136,0.0892313787362485,7.02718142286409e-08,-0.0080990369365505,0.0043025974419561,0.0006518215533585,10.594972897345064,23.48247881176316,31.172095479758703,32.929744829829296
0.77,31.2221688094472,131.0104311390578,13.839875705445364,9.215294532069825,5.1257186834475945,30.7666203243012,-0.8868817611938205,1.7630135276447,331.7687666960708,30.661924370258948,12.01323428708796,69.92635294064631,0.0866477362576568,113.79225776782371,575.0839840247609,15.288,0.0,4.140434268489948,0.0901184224452202,7.550880939161766e-08,-0.0084751104204906,0.0045159231854373,0.0006888494688695,10.534115276861268,23.281026190632605,31.46599684904407,30.829850828972564
0.78,31.222168394551367,131.01043230931202,14.107742610079924,9.167637887589793,5.073261236504191,25.35685707774382,-0.9025947618630829,1.7277483206410893,286.8734378128899,30.98227074357915,12.141183380710409,69.92139521211493,0.0938587466514741,113.79993583998012,587.1482546579138,15.288,0.0,4.153672962326688,0.0910602272589638,8.098274575299297e-08,-0.0088599301939185,0.0047330495937071,0.0007276322299951,10.467255042121122,23.069305299270432,31.778135841240704,25.431673016629237
0.79,31.22216797590808,131.01043349169626,14.378387760038091,9.117037171889397,5.019771287100199,35.83596254419294,-0.9188232141936252,1.6913410831906437,373.6203323159534,31.31342791308092,12.272751213775102,69.91621416611422,0.1014079584331985,113.80797425840044,599.7513340371116,15.288,0.0,4.166845799211301,0.0920338148402086,8.669770905923427e-08,-0.0092535107986731,0.0049539472152236,0.0007680584010731,10.39737135437753,22.853506706165263,32.10092339956328,35.887617394129535
0.8,31.22216755330633,131.01043468679856,14.65198299967135,9.077882188642624,4.973042896100197,36.30507391060826,-0.9340682288916152,1.6565469674620392,377.42502064505743,31.606457833606044,12.390845130849703,69.91080462274427,0.1093009661275067,113.81637900950032,611.0127031962068,15.288,0.0,4.179962726301317,0.0928953506886894,9.265758149697728e-08,-0.0096563881645386,0.005178874634304,0.0008089770957596,10.340778926806449,22.66770812782393,32.38664113290991,36.35484868578551
0.81,31.22216712685524,131.01043589433957,14.92845340674674,9.03188584809455,4.923132501184324,23.813963255211554,-0.9502162548384908,1.619894638195167,273.9374926939919,31.92321088758373,12.517062070864933,69.90516126623136,0.1175433170580326,113.82515604018084,623.3043945796556,15.288,0.0,4.193017038823633,0.093826620385697,9.886656703972878e-08,-0.010068501269785,0.0054077584400449,0.00085193321178,10.27672153773156,22.468452968488812,32.695583497960136,23.887901027306246
0.82,31.222166696749216,131.01043711380927,15.20765847235336,8.983251622094095,4.872315723476712,30.44013439348968,-0.9668592312165696,1.582119376521106,328.72500443277005,32.2498269310118,12.646576606910376,69.89927872139513,0.1261405319776953,113.83431127210092,636.1070174580433,15.288,0.0,4.205983264534339,0.0947868875641117,1.0532892877668218e-07,-0.0104896961395791,0.0056404757286393,0.0008966290474359,10.20996249042713,22.26572309405477,33.014246406667695,30.496552270515195
0.83,31.222166262979,131.0104383452483,15.489614273750004,8.94814880445302,4.829225134530586,38.54167797145367,-0.9821909868234155,1.5465833855189883,395.68750322465047,32.528790615950285,12.759304961818604,69.8931516119583,0.1350981272436677,113.84385061915232,647.1418471358578,15.288,0.0,4.218877058610925,0.0956071061727085,1.12048709215411e-07,-0.0109201874597463,0.0058771056916774,0.0009414749276657,10.158778311430062,22.09745787062364,33.28646568103262,38.58519871865633
0.84,31.222165825445487,131.0104395889381,15.774405080482438,8.910572632566033,4.78526555294051,24.015645127331595,-0.9979524562416554,1.5100566368938453,275.4593748256452,32.816191315174216,12.874824818887763,69.88677456789793,0.1444214552989574,113.8537798263868,658.6096987544453,15.288,0.0,4.231707802948113,0.0964521308443902,1.1902980161759805e-07,-0.0113602568546232,0.0061177617983159,0.0009880415215301,10.105052029633452,21.925875807902564,33.56698551596849,24.08375782625028
0.85,31.22216538444924,131.0104408440805,16.06180841264793,8.86244407059767,4.7361754261014655,26.13812691891548,-1.0151239827870573,1.47068635247397,292.96093233939376,33.142128966459325,13.00366471982412,69.88014218178485,0.1541158127431536,113.86410458173182,671.7390422944092,15.288,0.0,4.244465239717595,0.0974104305613127,1.2627654587542454e-07,-0.0118095186145965,0.0063621968031076,0.0010372883035598,10.039671871664126,21.73208780057029,33.885238711619934,26.19914261721396
0.86,31.22216493982308,131.01044211114072,16.35196080993359,8.822543242716579,4.691892484422942,32.58842995823643,-1.0315247018983016,1.4325594740444512,346.2265619465587,33.43807102382156,13.121883814849152,69.8732488407461,0.1641866735402962,113.87483076637147,683.7701137457968,15.288,0.0,4.257158055756523,0.0982805770352371,1.3379279011436958e-07,-0.0122684808580571,0.0066106461504671,0.001087193347824,9.983826124410928,21.559988196684067,34.17424835091827,32.636207454301164
0.87,31.22216449159724,131.01044339004997,16.644846991079252,8.786571020774844,4.650096849610852,30.386554522153816,-1.0476166713847035,1.394817301865802,327.964078366998,33.718985791858394,13.234709271641792,69.86608892999381,0.1746394182863173,113.88596416368928,695.2875831017908,15.288,0.0,4.269784762882382,0.0991065641814013,1.4158262801969328e-07,-0.0127372440678733,0.0068631238510495,0.0011381841643002,9.932642151736786,21.399394195809197,34.44861968101816,30.43658508643133
0.88,31.22216403981316,131.0104446807085,16.940442801099806,8.745426075038063,4.606001325683182,26.34119590377725,-1.0645067764243243,1.3553583470993196,294.4828134710418,34.019055367444444,13.354089017271244,69.85865679533799,0.1854793575523203,113.89751048633772,707.6974616284732,15.288,0.0,4.282323789431399,0.0999888596828118,1.49650188600569e-07,-0.0132158408647658,0.0071196075073303,0.00119142658449,9.87586155200026,21.22912196154504,34.74178533197066,26.397514514955315
0.89,31.22216358455816,131.01044598289275,17.23868898088606,8.699302930711108,4.559746637028157,28.835204447551,-1.0822098646505078,1.3141421028392355,315.028134248087,34.33840731034377,13.480073040957388,69.85094664243411,0.1967118175307426,113.90947547107189,721.0261128942685,15.288,0.0,4.2947947172392045,0.1009278390414869,1.5799964676411416e-07,-0.0137042933697913,0.007380069464632,0.001247023365122,9.81371906058154,21.049635585021655,35.05389483531927,28.88541436762967
0.9,31.2221631257626,131.01044729680217,17.53964636069497,8.666436723314341,4.520762588615527,31.791438646718728,-1.098391584088434,1.2756220970029544,339.37814235421445,34.60590237678732,13.587796105856937,69.84295263568379,0.2083422251979127,113.92186495537652,732.282240556539,15.288,0.0,4.307202232208772,0.1017144089959377,1.6663500216661725e-07,-0.0142029230119236,0.0076446397432635,0.001302426290699,9.766691147397951,20.90302787924046,35.31528551795128,31.83597410217629
0.91,31.222162663502047,131.01044862224327,17.84326401129944,8.628489277663578,4.479532957810115,24.33176805053394,-1.11538689912514,1.2353429454708735,277.7421810230789,34.89266717726225,13.702120054851818,69.83466889680192,0.220375747421422,113.93468451552064,744.4470563955606,15.288,0.0,4.3195426631177565,0.102557625579122,1.7556041308774577e-07,-0.0147117092606637,0.0079132668276568,0.0013602222689158,9.714167863361364,20.74684954348372,35.59559394899388,24.388626377732898
0.92,31.22216219798356,131.0104499586691,18.149390896672703,8.585668044547699,4.436187962035395,28.85590537148496,-1.1332112513540933,1.1932572712447107,315.02813424806214,35.19863989997853,13.823039688625924,69.82608955878065,0.232817524144992,113.9479396953113,757.5380943415614,15.288,0.0,4.331810205859568,0.1034573075931204,1.8478028451164894e-07,-0.0152303803804501,0.0081857695370995,0.0014204843154698,9.65639063987586,20.58160252974419,35.89477865349549,28.902790617233975
0.93,31.22216172912117,131.01045130632053,18.458099275718663,8.554802154031988,4.399313603034936,34.212773360431626,-1.149565328027281,1.153798163081485,359.1625070654728,35.45563252282256,13.926703877561064,69.81720871269677,0.2456726685346116,113.96163601159064,768.617575440888,15.288,0.0,4.344011101573809,0.1042130340135018,1.9429838195942825e-07,-0.0157593261326062,0.0084623115026498,0.0014805047822429,9.6122062104676,20.44586405212509,36.1459962747005,34.25151984447979
0.94,31.222161256808512,131.01045266549107,18.76947598812956,8.513443089819004,4.357456771633258,24.994003230093583,-1.1675289107073767,1.111015926276338,283.0687504837787,35.754748170990034,14.044973767332802,69.80802038610531,0.2589461421594886,113.97577883087624,781.6175372426192,15.288,0.0,4.356145188558269,0.1050925794761906,2.0411853460187618e-07,-0.0162988272983888,0.0087429970445078,0.0015440594851028,9.556471439882696,20.288142657350296,36.43855625521639,25.045911395110096
0.95,31.22216078134045,131.01045403539783,19.08330330034421,8.473764768449794,4.31681283845205,32.19861077179025,-1.185433769097486,1.0681271846642528,342.4218736174873,36.04657432089576,14.160582410291653,69.79851837914003,0.272643074368254,113.99037370295044,794.404606278056,15.288,0.0,4.368207618663289,0.1059507082284595,2.1424537432682941e-07,-0.0168484965975606,0.0090275867918565,0.0016091110170369,9.50281253443316,20.136282935397222,36.72401635379625,32.238124705645994
0.96,31.22216030242616,131.0104554168287,19.39980797690084,8.440073561997142,4.27952753331056,31.55988730878062,-1.202630547310052,1.026404334440582,337.09533515678345,36.312426234146926,14.266973461830236,69.7886966179132,0.2867684530559914,114.00542602094625,806.1411506465834,15.288,0.0,4.380207753151492,0.1067325006515446,2.2468226074385858e-07,-0.0174091015210343,0.0093164336443381,0.0016748629643083,9.456029108534368,20.000046539043662,36.984027977096325,31.599466973890774
0.97,31.22215982008897,131.01045680972797,19.7189778917031,8.403674039943063,4.24120953530324,20.39307091843709,-1.2203723697505804,0.9834026584970694,245.02188719299323,36.58871240231425,14.37689253886796,69.77854871940879,0.3013273635231156,114.02094129817488,818.429915756036,15.288,0.0,4.392142535058776,0.1075449712330692,2.354333866258999e-07,-0.0179807411636955,0.0096095454022602,0.0017429665660034,9.40640073401968,19.859579350318143,37.25431180021536,20.453208330088323
0.98,31.22215933462184,131.01045821331732,20.04059663868825,8.357473856519645,4.198338600504863,29.44975054722018,-1.2397753673514176,0.936911894838136,319.5937466429581,36.906759429199134,14.501335289424388,69.7680683578378,0.3163247625274973,114.03692490900995,832.6944214799126,15.288,0.0,4.404000348499888,0.1084801985360137,2.4650359345753745e-07,-0.0185629074808568,0.009906622867426,0.001814984160644,9.346025134530802,19.69880044859996,37.56564293189462,29.490721492592815
0.99,31.22215884587916,131.01045962799378,20.364780185458,8.328326115347473,4.164267965917223,32.1358796039311,-1.2567114228447367,0.8950538784466302,341.6609485517054,37.149674656067845,14.599344418006128,69.7572490272307,0.3317656862047709,114.05338231912138,843.6655859932141,15.288,0.0,4.415796764159189,0.109194599760648,2.5789650621727616e-07,-0.0191561782093458,0.0102079174687955,0.0018852601429222,9.30482655631123,19.578517516349542,37.80322060084527,32.17289547062847
1.0,31.22215835386145,131.0104610537596,20.69153248517297,8.289658029542721,4.1257868184414725,28.81574217227417,-1.2752777638814836,0.8497587859985846,314.2672081822764,37.4332625220336,14.71149349247064,69.74608440974589,0.3476547683841746,114.07031857015934,856.5683729918395,15.288,0.0,4.427528282427684,0.1100285595423803,2.696162118134722e-07,-0.0197605955013969,0.0105134073960033,0.0019595280343481,9.253192228850509,19.43852566185071,38.08077967336567,28.85646236648582
1.01,31.222157858752727,131.01046249012836,21.020719661294336,8.2528095679622,4.088511115680632,30.11624257921803,-1.2937080345372052,0.8045048147962461,324.9203161036979,37.70784050522708,14.820385029547264,69.73456793538915,0.3639968303413,114.0877389083916,869.1530657658474,15.288,0.0,4.439193273609978,0.1108360454408726,2.8166722029637374e-07,-0.020375956369212,0.010822949360207,0.0020353059626999,9.203748530869294,19.304436700121475,38.34951744010971,30.15475046432919
1.02,31.22215736047801,131.01046393730402,21.352402658815635,8.218643440506396,4.052844931576264,25.2213668361192,-1.3118394596216538,0.759619339774554,284.59063161540416,37.96910466419305,14.924503855934624,69.72269308463646,0.3807964724134132,114.1056483502016,881.2108188641681,15.288,0.0,4.450794529285728,0.1116044065233851,2.940532970483959e-07,-0.0210025751299169,0.0111366581982682,0.0021123657103666,9.157445272151731,19.17814516406785,38.605193301644434,25.26688127552099
1.03,31.222156859107287,131.0104653951026,21.68653271109888,8.178106263151687,4.0143638666823005,20.693605237478543,-1.3311818400487567,0.7120864779120955,247.30469339049705,38.25841526101402,15.038367942034991,69.71045332876983,0.3980581517414419,114.12405176450004,894.6622719234329,15.288,0.0,4.462329987937041,0.1124552150099788,3.0677862956845784e-07,-0.0216404096390512,0.0114544704040805,0.0021930307543503,9.104225150911793,19.039276128420838,38.88847427969885,20.748600192974468
1.04,31.22215635470413,131.01046686335815,22.023066368223063,8.14398122494503,3.979288214016427,32.63370483914224,-1.349592154259839,0.6661837180689377,345.46563688072297,38.51700908925759,15.141360276287772,69.69784191603831,0.4157864601508776,114.14295416934452,906.7681221674164,15.288,0.0,4.473801257059292,0.1132157450359571,3.198473808232164e-07,-0.0222895202697596,0.0117763740256499,0.0022740054815098,9.058275077043438,18.91649849353912,39.14157183739003,32.66839284778661
1.05,31.222155846983583,131.0104683428308,22.362220856293536,8.104769183920876,3.9420355119307833,19.867999808055423,-1.3690220283930548,0.6180000728676454,240.45625879819983,38.798089135242975,15.252145044323033,69.68485212204787,0.4339857918989565,114.16236037836671,920.0208232992132,15.288,0.0,4.485214511757644,0.1140423797798899,3.332626691805636e-07,-0.0229507069591394,0.0121027181934007,0.0023584707062698,9.006836824938528,18.784035279470253,39.416814218142,19.924697281945846
1.06,31.222155336184382,131.0104698328871,22.70382086162241,8.06130763238887,3.9030314836278728,28.110981861910595,-1.3893871889558402,0.5676840672774675,308.17968365593924,39.09853448173375,15.369651642928698,69.67147693809169,0.4526607437794667,114.18227542634672,934.2942859181238,15.288,0.0,4.496565007911461,0.1149259462455039,3.470294825897859e-07,-0.0236235498962406,0.012433252876443,0.0024463324202804,8.950846468970132,18.64376387283823,39.71114717848855,28.151020642274087
1.07,31.222154822191367,131.01047133383534,23.047956365273787,8.028240321169795,3.869291020390152,33.02479006095674,-1.4080342431916852,0.520595353834917,348.5093681440308,39.3479639986363,15.469136547109745,69.65770918673967,0.4718159585090124,114.20270440368996,946.221712712679,15.288,0.0,4.507859122219648,0.1156595666997077,3.61151509920172e-07,-0.0243085816743119,0.012768193494693,0.0025332459792864,8.906509842650658,18.528349059893056,39.95528894216555,33.05889197360828
1.08,31.22215430490312,131.01047284594415,23.39470573260333,7.993140087968502,3.8348366449241778,22.379003725854464,-1.427177876834722,0.4722640713724474,261.00157857466235,39.60548561627675,15.571366653701103,69.64354177403703,0.491455796188287,114.22365210572026,958.6158365321668,15.288,0.0,4.51909754901004,0.1164169823339972,3.756326219791573e-07,-0.0250061433058643,0.0131076584765595,0.0026229080762358,8.860062366656003,18.41001962019321,40.20741070603227,22.429437750577783
1.09,31.222153784595875,131.01047436848,23.74386545078777,7.947300572539165,3.7955530601790985,20.621942122440245,-1.4484946809511878,0.4192594949044567,246.54375332474407,39.914654487508045,15.691696326657231,69.6289674694752,0.5115845732836599,114.24512329009228,973.6079176051284,15.288,0.0,4.530273801248308,0.1173262204259181,3.904781237181529e-07,-0.0257156497630158,0.0134513194692364,0.002718293351797,8.801890376721403,18.269405620934748,40.51042260136506,20.67700201349525
1.1,31.22215326134629,131.01047590123991,24.09538143080161,7.907242364303827,3.759285339217304,40.9234875745159,-1.4688966530453187,0.3678559690403983,413.1890617385841,40.194376696062015,15.80160003021761,69.61397905512125,0.5322065266256668,114.26712262786388,987.2685018409512,15.288,0.0,4.541390009570759,0.1181489121646548,4.05692272981724e-07,-0.0264371455852641,0.0137991539571374,0.0028140489238513,8.750248411467352,18.143231041607105,40.784460266229694,40.9514933873338
1.11,31.22215273474933,131.01047744529484,24.449557181795218,7.878498599092784,3.728590210290408,30.08495177888698,-1.4872064021521805,0.320487334217927,324.1593910376397,40.41527877093553,15.890691075518465,69.59856905586082,0.5533259182918194,114.28965483298556,998.1161144461992,15.288,0.0,4.552453387741076,0.1187987151264141,4.212775601313e-07,-0.0271718794608982,0.0141517123024272,0.0029080526546072,8.7112208399064,18.043722756600868,41.0005510516173,30.123393211123332
1.12,31.22215220486557,131.01047900047965,24.806348482846456,7.829019804581974,3.6884244873333767,11.635751854357803,-1.509783533495828,0.2641004121605051,172.73281794065943,40.740064568623445,16.01631057818345,69.58273010817807,0.5749467194937808,114.31272431272988,1014.1879624664886,15.288,0.0,4.563456595779536,0.1197538891102326,4.3723865131923946e-07,-0.0279197374628004,0.0145088894964728,0.003012001381484,8.649463989430705,17.899847354386473,41.31904084376568,11.736265017538994
1.13,31.222151672291137,131.01048056521967,25.16531665748653,7.790997295944053,3.6538739626696497,35.38360307800532,-1.530227751680713,0.2118266233075651,367.5328077900705,41.00516457203127,16.120849788795418,69.5664543116763,0.597073374543927,114.33633598569422,1027.394340436765,15.288,0.0,4.574397079819043,0.1205336288927718,4.535823507965226e-07,-0.0286793935074119,0.0148700118251572,0.0031139789369754,8.600466487664587,17.78283194947117,41.5787248001872,35.417309811336374
1.14,31.222151136355208,131.0104821412806,25.52695888067153,7.760980389341654,3.6232730925683136,19.802565170045856,-1.5491209363794305,0.1625032447713733,239.69531773195544,41.22636252567986,16.209808471532934,69.54973425334508,0.6197095291420563,114.3604939275232,1038.4724981375932,15.288,0.0,4.585289183753512,0.1211843291804584,4.703095954940072e-07,-0.0294528192543952,0.0152359617215028,0.0032150960501385,8.56040381223532,17.685016279129815,41.79512566980981,19.863730019661553
1.15,31.222150597545955,131.01048372736904,25.890914737733706,7.710135476622245,3.5832767013603863,19.52607839322489,-1.5725466718670809,0.1035185893895721,237.41251153546767,41.55585341972012,16.336953124061278,69.5325624665214,0.6428586993030663,114.38520208134936,1055.101381711833,15.288,0.0,4.596119832761304,0.1221533648882746,4.874270600181647e-07,-0.0302386720481286,0.0156060583075257,0.0033271455417744,8.497555187979952,17.542703975866498,42.11834636540864,19.589572648526904
1.16,31.22215005600216,131.01048532311825,26.257084393388688,7.6821672767468705,3.5540570190058407,50.35128373779958,-1.5912109127546945,0.0541500173439911,490.0437743845894,41.7619510328708,16.4204701821314,69.51493095958124,0.6665248399066471,114.41046486695237,1065.555473054126,15.288,0.0,4.606893583938559,0.1227596957832373,5.049391822818792e-07,-0.0310369218272967,0.0159802430434599,0.0034317925304484,8.459977137655613,17.452265825778067,42.31986306167275,50.37644944254853
1.17,31.22214951083688,131.0104869308514,26.62611917559913,7.6432913787972145,3.5200482403210733,9.316854733232894,-1.6123331734480564,-0.00059751009839,153.70937929486794,42.02417323188126,16.52372612690357,69.49683219153015,0.690711155885106,114.43628591297616,1078.9404244542193,15.288,0.0,4.617624486271614,0.1235310151799823,5.22845788278789e-07,-0.0318501438774516,0.016359662064089,0.0035436986528842,8.41053126844079,17.339292456436176,42.576753350383775,9.45533715630403
1.18,31.22214896321261,131.0104885475084,26.997165636959863,7.58996749243273,3.479691418736913,24.734906315246928,-1.6368728769988,-0.062788747829075,280.02501822196746,42.364491093591965,16.65461135985258,69.47825822169408,0.7154211254202151,114.4626691450278,1096.4469325964997,15.288,0.0,4.628289664858056,0.1245319087676819,5.411573209081762e-07,-0.0326750108186594,0.0167427228754994,0.0036647846621339,8.345353929523064,17.19593729076695,42.9107438005861,24.789088036197512
1.19,31.22214841260224,131.01049017446883,27.37061169491262,7.568569585495729,3.4540688474527346,42.85707459287752,-1.6542760010440205,-0.1102980842887957,428.4078130529292,42.52661102988355,16.72236818751412,69.4592008683997,0.7406583014033276,114.48961857919387,1104.815095060567,15.288,0.0,4.638907592385109,0.1250089928745622,5.598743877155115e-07,-0.0335135269544292,0.0171303048893422,0.0037730803833703,8.315307893617353,17.124162169800815,43.068846318499126,42.889131926567316
1.2,31.222147858546247,131.0104918129231,27.74679030772388,7.521545834848214,3.41704944911153,4.853862658526159,-1.6776763179072518,-0.1706859861029296,117.1843741360236,42.82886418727538,16.839685658617565,69.43965254694255,0.7664253147094497,114.51713725540574,1120.5351124264964,15.288,0.0,4.649479526719867,0.1258980148827008,5.789991222151921e-07,-0.034366924550043,0.0175229176008656,0.0038965179403159,8.257282377105861,16.997546691002565,43.36529493303785,5.138454460375551
1.21,31.222147302215724,131.01049345980118,28.124847461661616,7.475906221195799,3.380892345656969,34.507095288452504,-1.7009413033282397,-0.2311019078349174,359.92343213200894,43.122577989714166,16.954003749910868,69.41960485821022,0.7927255390595691,114.54522901330074,1135.9154739605367,15.288,0.0,4.659988175590499,0.1267619450766753,5.985423089487753e-07,-0.0352318477154322,0.0179189780385569,0.0040218310021385,8.200893312236037,16.875303601825465,43.65333918196799,34.549764610710646
1.22,31.2221467427118,131.0104951174438,28.505437129000647,7.452085290402652,3.354717032073683,25.12169623165905,-1.7190244332140614,-0.2808388483879735,283.0687504825761,43.289019201507095,17.023109487536807,69.39904977739035,0.8195616868061638,114.57389699788996,1144.6591840193623,15.288,0.0,4.670446416587415,0.1272517576765588,6.185020173680445e-07,-0.0361113971614935,0.0183198487343329,0.0041379938486381,8.168485494500572,16.802279292368567,43.81567588592063,25.18200820062815
1.23,31.22214618038547,131.01049678492015,28.88830071585076,7.404431733648331,3.3180826801757948,10.056797233008757,-1.7430029654879629,-0.3433716114497646,159.79687382222795,43.5902479662837,17.140044630216664,69.37797965331636,0.8469358170492516,114.60314366350003,1160.602256787378,15.288,0.0,4.680837858794091,0.1281377989651422,6.388848999318908e-07,-0.0370043287988285,0.0187249106671672,0.0042696640063979,8.110111572201616,16.678389309604018,44.11115989389265,10.212498910017176
