Time,Latitude,Longitude,Altitude,Angle of Attack,Angle of Sideslip,X-Acceleration,Y-Acceleration,Z-Acceleration,Thrust,True Velocity,Ground Velocity,Pitch,Roll,Yaw,Dynamic Pressure,cp,parachute_deploy_gain,Wind Speed,Mach,omega_x,omega_y,omega_z,Cmq,Angle of Attack(total),Angle of Attack(gust),True Velocity(gust),Acceleration
0.0,31.222186000000004,131.010384,3.000000003643237,0.0,0.0,0.0,0.0,0.0,2.2828121974499247,0.0,0.0,69.99999999623421,0.0,113.69999999388332,0.0,15.288,0,0.0,0.0,0.0,0.0,0.0,-0.0,0.0,90.0,0.0,0.0
0.01,31.22218600000153,131.01038399999584,2.99999882256592,0.0,0.0,0.0,0.0,0.0,34.24218696174923,7.502283530665459e-11,7.190531319924593e-11,69.99999999623329,-4.83564628150269e-13,113.69999999388072,3.446445726795683e-21,15.288,0,0.0,2.204725565824978e-13,-3.659182332138578e-19,7.589415207398531e-19,4.811147140404426e-19,-1.5108918610345807e-31,0.0,89.9999999995224,7.502283530665459e-11,0.0
0.02,31.22218600000288,131.01038399999217,2.999997775701936,0.0,0.0,0.0,0.0,0.0,25.871876237766408,1.5320717031631675e-10,1.4674636035870463e-10,69.99999999623222,-9.67129256300373e-13,113.69999999387804,1.4372842949972735e-20,15.288,0,0.0,4.5023593667086093e-13,-7.284483346386986e-19,1.5178830414797062e-18,9.757819552369542e-19,-6.170906918166791e-31,0.0,89.99999999902465,1.5320717031631675e-10,0.0
0.03,31.22218599928065,131.01038400193067,3.000201659671132,18.81500467334555,-0.00012974450181,11.96616230539064,-1.8916256735984712e-05,3.349833086198469,180.34219359854663,0.0882870268161719,0.0553390044312322,69.99999999799445,-4.212591857125379e-12,113.69999999488518,0.0047728553458352,15.288,0,0.0,0.0002594525584132,3.2187251995663407e-17,-7.20264389268894e-10,1.2365134327422308e-11,1.6874092354518158e-13,18.815004673776716,89.46786891739345,0.0882666465974854,12.426199017587786
0.04,31.22218599548236,131.0103840121632,3.001799604587872,9.46752327608497,-4.6177622759613696e-05,55.21900012092241,3.931876292165237e-06,3.349616504302861,548.6359724538078,0.3767519978512604,0.1853356633749705,70.00000000507204,-2.4624598767003407e-11,113.70000000019972,0.086915163246288,15.288,0,0.0,0.0011071759353184,1.6174128009138757e-15,-1.3693172015529268e-08,2.7753303060112748e-11,1.3689612277852356e-11,9.467523276196548,87.63554493451223,0.3767447442872393,55.32050167054111
0.05,31.222185984749512,131.01038404118162,3.00777936418888,5.376730308971262,-2.257790939128127e-06,80.28807156553681,5.266841443842784e-05,3.348887800834877,761.6984298824644,1.018787885905993,0.4366201147110198,70.00000000894464,-1.1355399380652658e-10,113.70000001523856,0.635552918586145,15.288,0,0.0,0.0029939522895272,1.6418815498809788e-14,-9.32122351075408e-08,4.303264669380585e-11,2.5199270302492604e-10,5.3767303089717045,83.57022052969386,1.0187875312530217,80.35788377762394
0.06,31.22218596447235,131.01038409608267,3.0201664202003013,4.296730121134882,2.4863835723705905e-05,60.21296515808257,0.0001057204249726,3.347700952379021,590.4875390737208,1.721098934225416,0.7081674028809783,69.99999995523842,-3.0560354507026086e-10,113.70000004366592,1.8138247671743823,15.288,0,0.0,0.0050578622752421,8.328976953118383e-14,-3.2824985336199985e-07,5.923438275930214e-11,1.4991363363716091e-09,4.296730121206683,79.20467073327266,1.7211028398275985,60.305955550063224
0.07,31.22218593493329,131.01038417609837,3.038741944736831,3.8204913578752526,4.8016684030909405e-05,91.4060317508128,0.0001597686613101,3.346072557365335,855.2937749779139,2.4375792548422868,0.9844712334613328,69.99999973536046,-5.939103491363046e-10,113.7000000850886,3.6383156301599167,15.288,0,0.0,0.007163413150771,2.709313825263564e-13,-7.906546256197275e-07,7.920022733617308e-11,5.114174483651565e-09,3.820491358176508,74.87999294483174,2.437586797285377,91.46725557277466
0.08,31.222185894468456,131.01038428575305,3.0647976109320942,3.588632851766762,7.220043782492885e-05,19.18449428359557,0.0002119618497595,3.3440615022685813,241.2171988638848,3.1292508166901074,1.2522236515868983,69.99999919480445,-9.914748373602156e-10,113.7000001418522,5.996012698481753,15.288,0,0.0,0.0091960591623389,6.80386533246681e-13,-1.5973238302190878e-06,1.0839624626357699e-10,1.3263625118823921e-08,3.58863285249208,70.86684630658345,3.1292621579083604,19.473766155861934
0.09,31.22218584634549,131.01038441616095,3.0957981580345013,3.551302481506045,9.685468678862004e-05,57.102946699906326,0.0002554087225869,3.341892818148368,563.0937377043176,3.701810007254615,1.479132491047967,69.99999812344194,-1.4359264356978275e-09,113.7000002093888,8.390904013834115,15.288,0,0.0,0.010878666406854,1.440096519545733e-12,-2.748643691533636e-06,1.5214952332699618e-10,2.6999776649034504e-08,3.5513024828250237,67.68737872952666,3.701825221153239,57.20065357568538
0.1,31.222185790329306,131.01038456796124,3.1319266121977414,3.608446747536112,0.0001234669721807,54.26147302645416,0.0002914860332524,3.3396271157106168,538.7437595981919,4.174070299823608,1.6716491241860567,69.9999963052332,-1.902380107712657e-09,113.70000028805804,10.668380938744466,15.288,0,0.0,0.0122665227999911,2.687800116751415e-12,-4.315796035622946e-06,2.1749089204950437e-10,4.7802076800548326e-08,3.608446749645647,65.17160335282355,4.174089693970246,54.36414778470795
0.11,31.222185727066616,131.0103847393952,3.172681775073216,3.633547373470009,0.0001485939126744,42.987553988990406,0.0003293995000288,3.337005588796181,442.8656393052949,4.672024955140527,1.8729475711242067,69.99999349387662,-2.3433348587116544e-09,113.70000037699285,13.365573690709628,15.288,0,0.0,0.0137298902182575,4.5789425819531184e-12,-6.340230783164189e-06,3.1157625832417107e-10,7.860218435507205e-08,3.6335473765043056,62.62546922225161,4.672048296217748,43.116880735560244
0.12,31.22218565692512,131.0103849294629,3.2177790417108385,3.650108937861461,0.0001727442530266,46.86777100765684,0.000367618259785,3.334068179146888,475.58594813540446,5.17479364099247,2.0758708919414386,69.99998941286465,-2.702771525550512e-09,113.70000047573096,16.396890189902592,15.288,0,0.0,0.0152074069417046,7.288473386564583e-12,-8.86736416607888e-06,4.42271554299792e-10,1.217615295152289e-07,3.6501089419435786,60.16906436414164,5.174820775596283,46.986210423745625
0.13,31.222185580265183,131.0103851371844,3.2669395832841857,3.7280113734654137,0.0001995014041665,51.64515456841877,0.0003986198234033,3.3311573548369657,515.9156326236895,5.579364582999854,2.2451120211463422,69.99998375846928,-2.9114380666036422e-09,113.70000058383452,19.060875702782603,15.288,0,0.0,0.0163963474924215,1.100846422415094e-11,-1.1941028436408576e-05,6.179653149059831e-10,1.7678562106638216e-07,3.728011378795934,58.279338776943774,5.579395920607139,51.75247433579817
0.14,31.22218549718016,131.01038536230575,3.320091807147376,3.768719651034081,0.0002242721760019,48.1660778383537,0.0004326225136175,3.32784677779744,486.2390860568404,6.025734265159953,2.428648685938864,69.99997621008868,-2.890941335368725e-09,113.70000070125378,22.232643351545065,15.288,0,0.0,0.0177081261985351,1.5941871344608664e-11,-1.560901486259027e-05,8.477542742712431e-10,2.495765160917323e-07,3.7687196576976176,56.27980129251342,6.025769493750979,48.280903250602165
0.15,31.22218540777004,131.01038560455507,3.377159065217065,3.821894709649632,0.000249725644238,46.56959330999435,0.0004643042952466,3.324387732286376,472.54218587214,6.441023336496372,2.6014999612196745,69.99996641132823,-2.546763407193136e-09,113.70000082794672,25.402620271850456,15.288,0,0.0,0.0189285691155931,2.2314099732464315e-11,-1.992367942778425e-05,1.1417519574710292e-09,3.4051816697623295e-07,3.821894717796148,54.501255563441134,6.441062563308839,46.68809885900716
0.16,31.22218531193176,131.01038586421257,3.4382223512025254,3.8463320955387794,0.0002733212404609,36.974247749122085,0.0004987816203583,3.3205066466509234,391.1218908297564,6.895451966878468,2.7877331692857847,69.99995397923414,-1.77088415515292e-09,113.70000096417354,29.113317717489338,15.288,0,0.0,0.0202640360420561,3.0367358387834494e-11,-2.4945905791363795e-05,1.5114297685186711e-09,4.5643121540033697e-07,3.846332105235269,52.641145594326446,6.895494900078523,37.12304892183151
0.17,31.222185210004127,131.010386140357,3.503019838429153,3.8860314262554336,0.000297865039677,46.520531453299206,0.0005306403365217,3.31650761597812,471.78125980632376,7.314788342774694,2.9619016331667103,69.99993849340957,-4.3039914767238207e-10,113.70000110959404,32.761746921137856,15.288,0,0.0,0.0214963781445172,4.0366633128431416e-11,-3.0713078585132897e-05,1.96747427715988e-09,5.961228045584824e-07,3.886031437653654,51.00464968745696,7.314835131305714,46.63860064094784
0.18,31.22218510147516,131.01038643438045,3.571950002194137,3.9107265153396016,0.0003214293682635,38.895647526122765,0.0005639254295027,3.312149448254175,407.10156721191447,7.754626295791602,3.1430587898572058,69.9999195084231,1.6149322372810674e-09,113.70000126508234,36.81988229018681,15.288,0,0.0,0.0227889722876034,5.2593391349219385e-11,-3.731786027786564e-05,2.525509173087448e-09,7.6786585232224e-07,3.9107265285284982,49.36615848311875,7.754676785798701,39.036415444581515
0.19,31.222184986476247,131.0103867459258,3.644912152926752,3.920599115663931,0.0003437679584038,43.86258669386953,0.0005989384366483,3.307389681300437,448.9531328318269,8.219206165926856,3.332657190859447,69.99989653019398,4.538529095696477e-09,113.70000143063515,41.36350714675367,15.288,0,0.0,0.02415428010977,6.735860419174937e-11,-4.481243905342629e-05,3.199401151670645e-09,9.773118416308382e-07,3.92059913071168,47.71893898797248,8.21926016487149,43.987104227715655
0.2,31.222184864792144,131.01038707557822,3.722074668489528,3.943376465171875,0.000367328732016,40.28070981710589,0.0006315894240138,3.30251450988504,418.51563019916136,8.65238089736321,3.511445117640573,69.99986902534273,8.534090245934178e-09,113.7000016067622,45.83799876721736,15.288,0,0.0,0.025427299120469,8.499785987217288e-11,-5.328041996372527e-05,4.006766070954748e-09,1.2232205148646746e-06,3.9433764822533854,46.2587826635041,8.652438597225508,40.41586552155969
0.21,31.22218473678744,131.01038742234647,3.803156063113743,3.9664546506877016,0.000390962054969,38.67679184347145,0.0006636984664108,3.297405915846789,404.8187610144644,9.079179692250786,3.688002035198235,69.99983642883521,1.3827831253856693e-08,113.70000179318536,50.47126980736161,15.288,0,0.0,0.0266815841422463,1.0586558589671407e-10,-6.275155280099118e-05,4.961340042512481e-09,1.5117124669161171e-06,3.9664546699249135,44.88773728276958,9.079241104426773,38.817098210937615
0.22,31.2221846022986,131.01038778667507,3.8882846911135607,3.956175711337521,0.0004112685792646,46.713636108302936,0.0007011135033803,3.291572407481395,472.5421858721365,9.580256326712124,3.889976788904857,69.99979815126248,2.0662823443484168e-08,113.70000199039316,56.195522894218605,15.288,0,0.0,0.0281541581291438,1.3033127211465288e-10,-7.330053770532661e-05,6.0817207473359025e-09,1.8632831045819008e-06,3.956175732680424,43.35679625546934,9.580320928629488,46.8294591882524
0.23,31.222184460898035,131.01038816972698,3.977794004014759,3.9879066397329104,0.0004360962274406,38.89105719050748,0.0007308686121188,3.286096544282012,406.3406421461021,9.977039034039262,4.056142701351626,69.99975353557706,2.9316661139418326e-08,113.70000219928508,60.9462612310605,15.288,0,0.0,0.0293202403623685,1.5880617816859538e-10,-8.505067486192354e-05,7.393319440773217e-09,2.2514912291167663e-06,3.987906663538912,42.20670487756048,9.97710753587448,39.0296395118868
0.24,31.222184313516166,131.01038856897196,4.070963590490852,4.003523997322975,0.000459165577055,40.0792299321398,0.0007630441688766,3.280134925833028,416.2328240017114,10.408422364424831,4.234121060914368,69.99970190737699,4.010976417051318e-08,113.70000241888,66.32994780718496,15.288,0,0.0,0.030588009649109,1.91711512587616e-10,-9.795845222523724e-05,8.904557280909524e-09,2.7052895870113487e-06,4.003524023611085,41.011349410369874,10.408494489985014,40.21323112692186
0.25,31.22218416001652,131.01038898478134,4.167901030441617,4.0261356185860135,0.0004830526730531,41.17760020658354,0.0007934613160587,3.2740610008587527,425.36408079150686,10.816813039390448,4.4041629376391525,69.99964258149416,5.3372865854010094e-08,113.70000264972064,71.63651430352668,15.288,0,0.0,0.0317882126436337,2.2947426169209347e-10,-0.0001121037688082,1.0637152702866709e-08,3.217380562698304e-06,4.026135647516394,39.93186687113378,10.816888917126896,41.30755663120434
0.26,31.222184000702686,131.0103894163294,4.26837241014618,4.053359329950934,0.000507503069958,44.80261175215926,0.0008224724146494,3.2678597736729302,455.8015834241788,11.207047269494833,4.567925492611352,69.99957484039399,6.947299261165984e-08,113.70000289176392,76.89781807056055,15.288,0,0.0,0.0329350617559806,2.7254099134167665e-10,-0.0001275114371842,1.260720913253598e-08,3.7915697709142366e-06,4.053359361668992,38.945390435244384,11.207126987890645,44.921630958721536
0.27,31.22218383516388,131.01038986473338,4.372698316214008,4.0614460923241,0.0005296455772492,41.029837477288126,0.0008548809954683,3.2610328932384265,423.84219965987256,11.645685385842508,4.748226940060522,69.99949794024376,8.879821051920497e-08,113.70000314600205,83.0342688744587,15.288,0,0.0,0.0342241635563461,3.2137296827284217e-10,-0.0001442952656441,1.4842505534226832e-08,4.458527942364847e-06,4.061446126801262,37.8838346421185,11.645768582375233,41.15922617924542
0.28,31.222183663504484,131.01039032970942,4.48079961904222,4.081133040992532,0.0005533279247169,47.27661484082626,0.0008845140695959,3.254218495915602,476.3468732012221,12.047344998676092,4.915789434712848,69.99941106884992,1.1178948978424788e-07,113.70000341275257,88.85982357848233,15.288,0,0.0,0.0354045979054623,3.764736350660473e-10,-0.0001625146963723,1.7365685655384934e-08,5.194620655212288e-06,4.081133078439725,36.956255322213885,12.047431915223257,47.38848224631549
0.29,31.22218348566054,131.0103908114315,4.592727908358551,4.1001100265020245,0.0005770279952742,37.989969791857405,0.0009138463939581,3.247164755122801,397.97031042211177,12.446314684600782,5.082367374004485,69.99931338876085,1.3891902435864665e-07,113.70000369260468,94.8417675268915,15.288,0,0.0,0.0365771315767517,4.3836067907166327e-10,-0.0001822432988888,2.0202163500922312e-08,6.018074062137429e-06,4.100110067036654,36.07377590258778,12.446405323946324,38.12849176886316
0.3,31.222183301933686,131.01039130907952,4.708251093558373,4.112858061667493,0.0005998635114143,35.655053282557844,0.000944131403186,3.2397207148238625,378.1859457108711,12.860033399289696,5.253940723820665,69.99920403105713,1.707002607527005e-07,113.7000039856728,101.2505662360602,15.288,0,0.0,0.03779301412572,5.075709863465428e-10,-0.0002035013069687,2.3370674033523645e-08,6.94335970778e-06,4.112858105337573,35.19685285507256,12.860127625629724,35.80193592228613
0.31,31.222183112488807,131.0103918222051,4.827243246502713,4.136140889545823,0.0006242383343011,37.56633644061071,0.0009716215464757,3.232339252743767,394.1656220930212,13.2364445751808,5.4126574282679245,69.99908210036875,2.0768081583188525e-07,113.7000042923011,107.26326115439352,15.288,0,0.0,0.0388992619788015,5.846561731689753e-10,-0.0002263323252403,2.6893437641668458e-08,7.948283231812338e-06,4.1361409365698805,34.43286455705216,13.236542630309057,37.70514091683033
0.32,31.22218291741533,131.01039235056504,4.949637017503345,4.1622282001352975,0.0006491019906456,40.83513712643371,0.0009979686925508,3.224840963348891,421.55939346242695,13.59846554462374,5.566374262777002,69.99894668612772,2.504388718903276e-07,113.70000461297312,113.2095365840355,15.288,0,0.0,0.0399632243410653,6.701756367872645e-10,-0.00025078340164,3.0793566854276295e-08,9.047716714467492e-06,4.16222825066026,33.72644865222576,13.598567505326,40.96227562489027
0.33,31.222182716732533,131.01039289410716,5.075419569102976,4.187801887681037,0.0006739743721461,40.48743503284469,0.0010239291638211,3.217136801802925,418.5156301991682,13.956637761217308,5.718704299733134,69.99879684673242,2.995902922462564e-07,113.70000494831164,119.25032483364384,15.288,0,0.0,0.0410158804634189,7.647061680070125e-10,-0.0002769136723495,3.509664608790402e-08,1.0253455741189656e-05,4.187801941818244,33.053267359159875,13.956743628864118,40.61505097607
0.34,31.222182510255863,131.01039345333336,5.204736257784645,4.19642921746386,0.0006961879027693,31.814592723444047,0.0010535137542081,3.208669900766693,345.46563688075645,14.367047160772364,5.88887983533068,69.99863160305904,3.557915789971256e-07,113.70000529927128,126.36523219087664,15.288,0,0.0,0.042222056531773,8.688448410811866e-10,-0.0003048202762282,3.9835373705550826e-08,1.1618525957862828e-05,4.196429275109305,32.30947868183619,14.367156517712404,31.97598901989736
0.35,31.222182298183583,131.0103940277045,5.337435501771672,4.210915783240843,0.0007193441544952,34.813487415034444,0.0010813034848195,3.200164272309822,370.5765700527033,14.754132934586384,6.050986755458457,69.99844991734221,4.1975736284587617e-07,113.70000566632532,133.26448209504355,15.288,0,0.0,0.0433596939127697,9.832256819293898e-10,-0.0003345386312107,4.503361101379695e-08,1.309465610343774e-05,4.210915844572415,31.63649055965014,14.75424592890194,34.96026256388454
0.36,31.222182080444604,131.0103946174141,5.4735747500461605,4.22903876037745,0.0007431682866607,39.2632255716727,0.0011077666085529,3.1915717453569297,407.8625232777193,15.124417129017054,6.2072589919251575,69.99825073022951,4.922382611919288e-07,113.70000605036684,140.03566173682628,15.288,0,0.0,0.0444479595865755,1.1084921261805627e-09,-0.0003661511460057,5.0723697896912267e-08,1.4691545926915382e-05,4.229038825557203,31.017264542603208,15.124533865618538,39.39272792946638
0.37,31.22218185710795,131.01039522227452,5.613102797925907,4.249164960780052,0.0007674149135003,37.28328237034959,0.001133274451316,3.1828514669894137,391.1218908297666,15.483077353331511,6.359470679857624,69.99803294268581,5.740349991123437e-07,113.70000645214331,146.75405277514704,15.288,0,0.0,0.0455020695186381,1.245311285088233e-09,-0.0003997125883071,5.6934243389647934e-08,1.641828325195534e-05,4.2491650299519,30.439178816713017,15.483197898584232,37.418894813348615
0.38,31.2221816281124,131.0103958424523,5.756069531572451,4.260095806433531,0.0007900626414612,38.9278000801764,0.0011607546399008,3.1735466295306622,404.8187610144602,15.87126705947922,6.521735074464384,69.99779542676283,6.659911329739736e-07,113.70000687263192,154.20298254405043,15.288,0,0.0,0.0466429667223463,1.3943646956867835e-09,-0.0004353006984059,6.369875435270817e-08,1.8328108041903096e-05,4.260095879559656,29.83470194713067,15.87139116222873,39.05694584372078
0.39,31.22218139339905,131.0103964781077,5.9025231349944285,4.274091258047817,0.0008133283308351,33.320076729592266,0.0011870382950339,3.164143363712209,357.64062493382744,16.24457853509073,6.678818328235205,69.9975369905506,7.690136753559805e-07,113.70000731287368,161.54010621938565,15.288,0,0.0,0.0477401448128051,1.5563705124515804e-09,-0.0004730068442167,7.105463478762673e-08,2.0383860516746246e-05,4.274091335289374,29.274934656826048,16.244706292406182,33.46997636540994
0.4,31.22218115316572,131.01039712870306,6.0523126585892895,4.286421841403391,0.0008363022448449,31.88018820767003,0.0012133780841982,3.1544430614236454,345.465636880754,16.62063299903514,6.836764518435374,69.99725641601981,8.840594270905819e-07,113.70000777359816,169.10340080049767,15.288,0,0.0,0.0488453895716005,1.7320643186450851e-09,-0.0005128553637434,7.9027539265021e-08,2.2612406375611563e-05,4.286421922834417,28.730746964325096,16.620764365084565,32.03586915718869
0.41,31.22218090752676,131.01039779392735,6.205351877049411,4.30025870409831,0.0008595777771371,35.882550741685804,0.0012389121673015,3.1445895889870297,378.94687077668647,16.987310563534386,6.99141560549392,69.9969524610574,1.0121301778427253e-06,113.70000825570062,176.64448930727934,15.288,0,0.0,0.0499230826371405,1.922193031274436e-09,-0.0005548883906878,8.764667734700782e-08,2.5005077415911235e-05,4.300258789847355,28.21875643368965,16.987445585695873,36.020076248499606
0.42,31.222180656535848,131.0103984736348,6.36160173428776,4.322008670726048,0.0008844838439129,40.34064925656127,0.001261804338223,3.134918999355981,416.2328240017114,17.318628721060172,7.133856886815013,69.99662385300175,1.154276942054023e-06,113.70000876021427,183.59942989625057,15.288,0,0.0,0.0508968652507098,2.1275184665783874e-09,-0.0005991661829955,9.694534598491077e-08,2.752657757470936e-05,4.322008761057615,27.772396468009568,17.318767655457478,40.462275036947325
0.43,31.222180400205527,131.0103991677914,6.521055075967404,4.339436441324956,0.0009085827200945,35.541853595187746,0.0012854696362701,3.124839917627212,375.9031395134336,17.662848429084132,7.280642039343927,69.99626930133451,1.3115939750280808e-06,113.70000928827632,190.96736675963504,15.288,0,0.0,0.0519085689713619,2.3488101247838237e-09,-0.0006457514522491,1.0695800287133593e-07,3.0255957891170616e-05,4.339436536261635,27.322335771349252,17.662991148924057,35.67895714766603
0.44,31.22218013836212,131.0103998768696,6.683849332059896,4.342209064313268,0.0009296474314902,32.82948243168077,0.0013129688908547,3.113754688841357,353.0750125389216,18.063580761318697,7.446730341918701,69.99588746395321,1.4852372182848018e-06,113.7000098413532,199.7278270846888,15.288,0,0.0,0.0530863610987301,2.586862292117705e-09,-0.0006947575786514,1.1773083546077225e-07,3.329010177793299e-05,4.342209163639375,26.81344244367223,18.06372678999575,32.9768158972058
0.45,31.22217987077456,131.0104006014978,6.850166573233225,4.3420317510315165,0.0009500780330031,38.11022602597878,0.001341042003417,3.1022288449712887,397.2093853562869,18.47486275310604,7.616350301328129,69.99547690348253,1.6764536248320808e-06,113.70001042108892,208.92306716049887,15.288,0,0.0,0.0542951637545535,2.842521175226318e-09,-0.0007463379956615,1.2932090054593452e-07,3.657529369088674e-05,4.342031854775571,26.30944884471334,18.47501199101448,38.23628058998621
0.46,31.22217959739673,131.01040134180155,7.020045503401754,4.351169003849846,0.0009725797783515,44.3937050866137,0.0013660055515545,3.09098240974522,449.7140588976434,18.844323061800488,7.771531995684422,69.99503610583268,1.8865779683531e-06,113.70001102895836,217.3591612614144,15.288,0,0.0,0.0553810645782081,3.1166808800591503e-09,-0.000800596194505,1.417768495237597e-07,4.001824400409673e-05,4.351169112337076,25.873596578896564,18.844475834274814,44.50118229261506
0.47,31.22217931813738,131.01040209802923,7.193559875579052,4.358630093683735,0.0009947969928181,30.22514089990685,0.0013910994973101,3.079396422776949,331.0078106302534,19.2180591098146,7.9280875671397615,69.99456352718363,2.1170044481277104e-06,113.70001166656292,226.0625808853568,15.288,0,0.0,0.0564795377574197,3.4102493884459798e-09,-0.0008576351980594,1.551487523304888e-07,4.3718862242359527e-05,4.35863020698899,25.44665981168229,19.218215372160817,30.381603425148434
0.48,31.22217903348153,131.01040286886197,7.370336324605091,4.365514409145237,0.001016880998596,29.779838936311712,0.001416009414045,3.067527859335786,327.2031223011574,19.5915905767454,8.084483592791102,69.99405758812365,2.369198154608765e-06,113.70001233476164,234.93171707892955,15.288,0,0.0,0.057577416115756,3.7241711041759195e-09,-0.0009173883913609,1.6944871263079066e-07,4.767297940601472e-05,4.365514527349481,25.03354780044292,19.59175030803913,29.937410312943754
0.49,31.22217874361868,131.01040365378466,7.5502307795521535,4.3786401372577615,0.0010404145545081,37.2489281064929,0.0014385799934191,3.0558405437943126,389.60000969812296,19.93403005898306,8.23012235628909,69.99351671352461,2.644660619562788e-06,113.700013034871,243.21198709852868,15.288,0,0.0,0.0585839249886784,4.059374595909599e-09,-0.0009798792959512,1.8470833984680338e-07,5.180951737438081e-05,4.378640260624215,24.667474291142685,19.934193486919103,37.37406598941686
0.5,31.22217844858332,131.0104044527036,7.733219389747018,-10.610691349849848,15.865488118314088,38.61398251099507,-0.9082917054383136,3.901717005849171,397.97031042210494,19.432903025496493,8.36606535597106,69.99293932307316,2.9449363413826395e-06,113.70001376847225,231.13328646023783,15.288,0,7.5154709336958545,0.0571112855685355,4.416640996685587e-09,-0.0010584230784109,3.2419929184031423e-05,5.455457915924391e-05,19.01056502181152,41.20237262832523,21.89332183776496,38.82123175242298
0.51,31.222178148823893,131.01040526612184,7.919250272102685,-10.36458585613818,15.63937609823144,29.70273339982681,-0.9306928647532812,3.9114112004463375,323.3984349720841,19.75167696995768,8.5214363367559,69.99236876507081,0.0002068951318591,113.70023123913796,238.77415593189588,15.288,0,7.545295923156561,0.0580482509335512,4.842759792231753e-09,-0.0009217606290929,0.0002494275486036,4.828904276815674e-05,18.69030988220132,40.61399464294662,22.177912120253804,29.97361670217104
0.52,31.22217784437572,131.0104060946414,8.10832750491593,-10.123766203637766,15.412013625120004,35.53885657650198,-0.9537884814436692,3.921493925487823,372.0984511843415,20.079502050809413,8.679260945063545,69.99187716251245,0.0007561810912441,113.700816234874,246.76147773086407,15.288,0,7.575015587271082,0.0590118227217457,5.342291209364488e-09,-0.0007825737173223,0.0004719845390528,4.1677031652756446e-05,18.372038001565592,40.02489517290845,22.47132639604796,35.76727769680201
0.53,31.2221775351188,131.01040693866483,8.300562706825922,-9.89256438653602,15.193602435897215,37.2791628687242,-0.977008049244772,3.9314600035376266,386.5562464348624,20.404340890552305,8.835891123209553,69.99146600805369,0.001659775345186,113.70177830670046,254.8053895741031,15.288,0,7.6046346022818385,0.0599666244484436,5.9172955029740634e-09,-0.0006407422261983,0.0007003536621562,3.46750010625433e-05,18.06652038552697,39.457161883345584,22.763073712462777,37.49862539721383
0.54,31.22217722096656,131.01040779847574,8.496032361581566,-9.669608354309185,14.982480087546268,32.82364798494174,-1.000438156081464,3.9413656173698586,349.2703242098436,20.72775055037856,8.991902140708875,69.99113681893522,0.0029269075623319,113.703127278729,262.94181972645293,15.288,0,7.634174467269485,0.0609172322918705,6.569891912262332e-09,-0.0004961929317122,0.0009347362678547,2.7277537541693032e-05,17.771636953781663,38.907041533827865,23.054463598885675,33.0745688781169
0.55,31.222176902205785,131.0104086733416,8.694523283226829,-9.457190939824082,14.782382804489792,34.746129689575326,-1.0237772106245948,3.951024799770164,365.2500005919907,21.043919246371345,9.14521126792834,69.99089109187675,0.0045668797293533,113.70487305095662,271.0193460330514,15.288,0,7.663600607757827,0.0618465657644793,7.302242291827625e-09,-0.0003491391226337,0.0011748854072714,1.9485846659625093e-05,17.49172354265286,38.38340756138762,23.34025546628153,34.98502887164996
0.56,31.22217657884888,131.0104095632746,8.896034910084492,-9.256652315880832,14.595732634985104,32.47480343584955,-1.046782609659162,3.960295140120051,346.2265619465787,21.348341245510632,9.29422244008589,69.99073025476227,0.0065888537548879,113.70702537409916,278.91181309813874,15.288,0,7.692912518246039,0.0627413827624955,8.116465209608345e-09,-0.0001995774971996,0.0014208920046159,1.129955766105968e-05,17.22951710301975,37.89209336705331,23.616316792341788,32.73213328864786
0.57,31.22217625097868,131.0104104680945,9.100511934043,-9.058101761088045,14.408071044497328,32.11754675916707,-1.070484654385582,3.969805214331237,343.1828296833023,21.660915645826,9.446075112509288,69.99065570156212,0.0090020036258949,113.70959401098666,287.13341183765107,15.288,0,7.722097363809341,0.0636601653887004,9.014691602236476e-09,-4.757533782805128e-05,0.001672735912334,2.732976511612848e-06,16.967676162463718,37.39942573780792,23.90035257463907,32.37965566003273
0.58,31.22217591858493,131.01041138787377,9.307971239878876,-8.855687764625928,14.210488298372,42.07148125834444,-1.0956323817745757,3.9799943563738815,426.1250058573153,21.995517989272017,9.605718692731738,69.99066881257092,0.011815604716567,113.71258883179593,296.0668926859078,15.288,0,7.751155117001027,0.0646436934159523,9.99906926593512e-09,0.0001068742517363,0.0019305157230489,-6.234129747605076e-06,16.695627478688532,36.88443374012378,24.20488158451108,42.273517722848524
0.59,31.222175581283057,131.01041232370488,9.51872041717376,-8.67110543971173,14.036176564813848,34.23191457413857,-1.1195994626728811,3.989290550156349,360.68438819711065,22.302024067971725,9.755254854529005,69.99077107034688,0.0150395533320427,113.71602036732136,304.36956896595,15.288,0,7.780121314968674,0.0655446548130042,1.107183905399984e-08,0.0002640988073883,0.0021948545702302,-1.5619620831902056e-05,16.45265581104286,36.42505617684249,24.484834497956815,34.48176209913735
0.6,31.22217523929314,131.01041327503594,9.73259812738926,-8.47548161705672,13.840930148215348,30.496499592494526,-1.1459872198374033,3.999827357276283,329.4859594986058,22.64845692487497,9.91895745190293,69.9909639506451,0.0186838976016373,113.71989930829056,313.89253399436745,15.288,0,7.808971235320363,0.0665629661445451,1.2235339559830376e-08,0.0004239164711596,0.0024655538347427,-2.546066584582358e-05,16.18642455608326,35.9173531446968,24.80150120126019,30.779025211839723
0.61,31.22217489257916,131.0104142420116,9.949641735505864,-8.283260693356345,13.64689417398058,35.618639621356174,-1.173060683869262,4.010562276139481,372.0984511843297,23.001486207597576,10.084915927328677,69.99124894640633,0.0227589457859901,113.72423662179622,323.74755315175315,15.288,0,7.837713435225923,0.0676006714999608,1.349193874327918e-08,0.00058636540029,0.0027427722808682,-3.5765642438195484e-05,15.923125119802632,35.413320261225294,25.124924096902244,35.86290799161269
0.62,31.222174541265098,131.01041522434218,10.16976472245496,-8.120801252544403,13.49608210368601,44.12377113680064,-1.196981215908314,4.01927439804548,442.86563930529206,23.289958728634712,10.227837541546725,69.99162756421437,0.0272752611886237,113.72904354523416,331.9120015982503,15.288,0,7.866358834105776,0.0684486534829947,1.4844076093806842e-08,0.0007513884689771,0.0030265116800313,-4.640511586354363e-05,15.711963864811542,35.01249359551116,25.39036858086339,44.322618492715236
0.63,31.222174185181984,131.01041622253058,10.393107040150364,-7.9552613521643964,13.337142405958346,25.30585471244945,-1.2222173050363316,4.028566784724897,286.11251274707894,23.597519866212423,10.377503587031656,69.99210119029097,0.0322430446639016,113.73433092973032,340.72886384164445,15.288,0,7.894856552861306,0.0693527433415258,1.6294080834155372e-08,0.0009190872697425,0.0033170459557779,-5.751040333679415e-05,15.492478391197238,34.59365864847471,25.67364489803473,25.653643955729155
0.64,31.22217382491228,131.01041723503835,10.619226397685692,-7.782656711433523,13.163383189353496,24.853115403922605,-1.2495357745356563,4.0388588394810405,282.30782441796754,23.937570985489348,10.538628561523588,69.992671194655,0.0376726206548581,113.74010975586783,350.61212643214634,15.288,0,7.923233616173009,0.0703523277513051,1.7844428702038564e-08,0.0010889819185551,0.0036136614666476,-6.91217333495279e-05,15.256921712164178,34.14062647976165,25.98712860968985,25.21013815229487
0.65,31.22217346044768,131.0104182619303,10.84813808202976,-7.631461488150717,13.021105951796471,43.42319344606271,-1.2744194190321825,4.047580000308489,436.7781447787475,24.22747210147532,10.68190443988058,69.99333882223297,0.0435741008093282,113.74639078034824,359.147983327066,15.288,0,7.951444587884337,0.071204528673928,1.949745311611843e-08,0.0012611114096304,0.0039165162373382,-8.101508329844543e-05,15.059253640573123,33.76358814339593,26.255261796978395,43.6300444392243
0.66,31.22217309130388,131.0104193045619,11.08022583584832,-7.480000858630928,12.87538153757344,37.02879293170582,-1.3002271739274118,4.056643625819519,383.51251517160017,24.52868540373354,10.82915240987138,69.99410541440687,0.049957703464565,113.75318486456317,368.1256637296742,15.288,0,7.979534243563394,0.0720899831775111,2.1255410925894195e-08,0.0014358515728996,0.0042263610672946,-9.3385289240618e-05,14.858661412828624,33.379526899072125,26.53416680339199,37.27302582551983
0.67,31.222172717672304,131.01042036245693,11.315350526313903,-7.322883160127772,12.717108638912014,25.68841382457636,-1.3279995719115996,4.066616336437498,289.1562440103425,24.85944327114284,10.986802047522788,69.99497231132146,0.0568344001368734,113.7605036777312,378.1120690191472,15.288,0,8.007529142196926,0.07306227673894,2.312086425396178e-08,0.0016130413699452,0.0045430239956378,-0.0001063216592273,14.644624318769283,32.966547218869735,26.84068069186101,26.042188005493387
0.68,31.22217233972773,131.0104214351838,11.553385883190137,-7.17225106714185,12.56653985806844,31.917610944710308,-1.3556249696420395,4.076309673964516,340.8999924858462,25.18159625284118,11.141344985691404,69.99594084426788,0.0642151545202836,113.76835887671888,387.9665911112803,15.288,0,8.035337911915201,0.0740092879341215,2.5096365300888373e-08,0.0017925542416318,0.0048663875766227,-0.0001196824515142,14.440593660785837,32.57312376814391,27.139755763368505,32.20540184556412
0.69,31.222171957557546,131.01042252254635,11.79427303012074,-7.0339770514867865,12.4338904463553,39.15763987777665,-1.3818806003154005,4.085065576750316,401.0140726853634,25.473801505474828,11.285258014818192,69.99701223547001,0.072110812684459,113.7767619949138,397.01351467236486,15.288,0,8.063018525070529,0.074868289327186,2.7184431601743524e-08,0.0019743126788085,0.0051964191103169,-0.0001333443328462,14.258279972658665,32.22367651314227,27.4116184253557,39.394391930292855
0.7,31.22217157103748,131.01042362492043,12.03811661011278,-6.898297325807699,12.302901354283865,32.93608390184039,-1.4085223264401991,4.093853858347488,349.27032420985284,25.767309606701108,11.429591998997376,69.99818775709439,0.0805321093593828,113.78572443750978,406.20545559343526,15.288,0,8.090592269683292,0.0757311270383501,2.938748580366604e-08,0.0021584095667579,0.0055333926399116,-0.0001474543643946,14.078833982594928,31.879313471055468,27.68502836304869,33.21940994880338
0.71,31.222171180228887,131.01042474217897,12.284877733131196,-6.759955525664383,12.164611907479197,27.16893977989429,-1.4366185912014706,4.103238465835499,301.33126406340574,26.080665240173552,11.580876639740652,69.9994685457563,0.0894901098889135,113.79525797130556,416.1353776197389,15.288,0,8.117975278848215,0.076652304851689,3.1708088873478755e-08,0.0023447805053515,0.0058773036899512,-0.0001621307033262,13.891920489402738,31.518654385435863,27.977154836638004,27.514573005002642
0.72,31.22217078514259,131.01042587433204,12.534556662850832,-6.618221713285172,12.01747953289376,33.13105658527539,-1.466492675532668,4.113378167501688,350.79220534145287,26.41869106518316,11.740790931555038,70.00085589173568,0.09899611349235,113.80537459924624,426.98192317489634,15.288,0,8.145236111679962,0.0776459974086602,3.4148817828242125e-08,0.0025334221181211,0.0062282581917004,-0.0001774405391819,13.695835378245745,31.137740405783784,28.292581874365062,33.41762096818069
0.73,31.2221703857846,131.01042702140373,12.78715763154242,-6.494636098774862,11.899437770770232,41.75530782137564,-1.493362118872462,4.121733703477656,422.320318528234,26.6989489040846,11.880325019696238,70.00235097510925,0.1090618908709082,113.816086835804,436.0785147442245,15.288,0,8.172389269021085,0.0784699143599183,3.6712356272576406e-08,0.0027243509395197,0.0065863988758849,-0.0001928326965695,13.533964646956958,30.82788958713504,28.554700155777866,41.98481333051632
0.74,31.222169982100898,131.010428183577,13.04273063714716,-6.368697780498843,11.774745404664028,26.35401611516657,-1.5216383487018064,4.130647515893797,294.48281347105944,26.99795172673992,12.026414125846308,70.00395500591716,0.1196988179168283,113.82740676219316,445.88959238321945,15.288,0,8.199384481295132,0.0793489315288647,3.940128079374397e-08,0.0029175713964524,0.0069518544549902,-0.0002088166429613,13.365322939871074,30.50319134184619,28.834532864797342,26.71912793418338
0.75,31.222169574454128,131.0104293599078,13.301003809339855,-6.2422715339415245,11.64661618231888,30.66924355135967,-1.5509913260350112,4.13993141426683,330.24688556441487,27.309417390278583,12.176825965467671,70.00566901939692,0.1309184392577711,113.8393466484518,456.22575786792,15.288,0,8.226210790644274,0.0802645855085737,4.2218371425953424e-08,0.0031127649797386,0.0073241484418283,-0.0002253516778251,13.19359817586375,30.171298402731622,29.12629097435588,30.986240595155873
0.76,31.222169162742887,131.01043055070593,13.562063626598212,-6.123394220138742,11.529598605672703,32.967710922360325,-1.5794322860406635,4.1485539671758085,349.27032420986166,27.599752637913426,12.319768616399337,70.00749410381336,0.142732234344148,113.85191868565644,465.9662079331858,15.288,0,8.252910678871674,0.0811181431939753,4.5166186149572415e-08,0.003310025783808,0.0077035722238271,-0.0002421741073638,13.0353264179217,29.86730057607057,29.398619809314088,33.265223129043854
0.77,31.22216874691795,131.01043175613927,13.825956135104452,-6.00801673637703,11.416584122536728,30.86071136311148,-1.6078781202935617,4.156996204442185,331.7687666960708,27.88455084871044,12.460726570318652,70.009431291631,0.1551518641656843,113.86513525905356,475.62025788220257,15.288,0,8.279487018843625,0.081955434632623,4.824734876830212e-08,0.00350938520326,0.0080903066785468,-0.0002594029013137,12.882364955798815,29.57405643372382,29.66602047130453,31.180913959195355
0.78,31.222168327050376,131.01043297604983,14.092634395181316,-5.890584475732377,11.29744869230996,25.44641371742317,-1.6377798258315657,4.165989237836032,286.8734378128899,28.18802546320357,12.608182736658607,70.0114815837415,0.168189085646738,113.87900885372356,486.0167367038164,15.288,0,8.305877809236563,0.0828476256105613,5.1464564162539744e-08,0.0037107548034532,0.0084843068462572,-0.0002772655589446,12.723213430724496,29.267129754018807,29.951147770003075,25.837139163729574
0.79,31.222167903234503,131.01043421021683,14.362033580498975,-5.773107515217479,11.175766987536788,35.92092800732254,-1.6687094892880372,4.175304754564632,373.6203323159534,28.50242400143244,12.7594057387509,70.01364596424952,0.1818558494570833,113.8935521588999,496.9060353637676,15.288,0,8.332122264050618,0.0837719312081105,5.482058402753282e-08,0.0039140451262511,0.008885523248356,-0.0002957095849878,12.561946586601518,28.95503706017573,30.246798987916367,36.201254537106564
0.8,31.22216747525882,131.01043545924472,14.634324778994111,-5.665704750484524,11.070671420310584,36.38527732228077,-1.6976996190861315,4.183457012039272,377.42502064505743,28.77916707154469,12.897401517004877,70.01592543432932,0.1961644898861394,113.90877827039422,506.58900921894906,15.288,0,8.358252184235374,0.0845855710589888,5.8318054923993094e-08,0.0041194540279734,0.0092944687324817,-0.0003142420515487,12.420114521443168,28.68424732337748,30.50734380419633,36.66431374494148
0.81,31.22216704323164,131.01043672287344,14.909432185757897,-5.555385307282286,10.957780192259568,23.88937498709036,-1.728490633007269,4.19231711151896,273.9374926939919,29.0796348241566,13.043648413976571,70.0183209354948,0.2111273225938392,113.92470026160512,517.2086091485418,15.288,0,8.384254230927642,0.0854689486486351,6.19598305022471e-08,0.0043268433579414,0.0097110070613894,-0.0003334994083589,12.27020053270358,28.395520962339745,30.7904052911804,24.315950318787607
0.82,31.22216660734652,131.01043800061356,15.18721437739138,-5.445143704357022,10.842715210220932,30.51069564302185,-1.7602772648603229,4.201468295752954,328.72500443277005,29.39009158058276,13.193324229647503,70.02083335978085,0.226756733386831,113.94133127865116,528.2969962415668,15.288,0,8.41010161993089,0.0863816934435607,6.574881422523993e-08,0.0045360307943545,0.010134907671533,-0.0003533460935399,12.118542175937922,28.102500476677925,31.083113785065947,30.848881025257853
0.83,31.22216616759357,131.0104392925231,15.467686631002367,-5.345756943860464,10.746552395446868,38.607190451807575,-1.7894737873289743,4.209156127188717,395.68750322465047,29.65338063939624,13.32647098411554,70.02346353847048,0.2430652665879756,113.95868463667756,537.7903306629721,15.288,0,8.435778988819557,0.087155813544735,6.96877976147664e-08,0.0047470335157426,0.0105663355556519,-0.0003730853304255,11.988720181799438,27.85663838396883,31.331564915939328,38.87717024579759
0.84,31.222165723873434,131.0104405988975,15.750932518390291,-5.246317642891677,10.648269501675404,24.076042004889164,-1.8195351762532823,4.2170812881213084,275.4593748256452,29.92520510170787,13.46255407533328,70.02621232374133,0.2600652374983289,113.9767733961013,547.6801772693562,15.288,0,8.461327883364946,0.0879550282322611,7.377947566087734e-08,0.0049598953082285,0.0110055192154125,-0.0003933774804001,11.857137080300838,27.60663144390339,31.588219437584897,24.510207699434808
0.85,31.22216527648576,131.01044191895943,16.036728632247055,-5.141616353269936,10.537438639050164,26.193415907858007,-1.8524003702878304,4.226160357316701,292.96093233939376,30.2355069814333,13.61199478718718,70.02908034901728,0.2777690243746359,113.99561069396646,559.0817825452876,15.288,0,8.486727852501808,0.0888673423138684,7.80268568883105e-08,0.0051743162595912,0.0114519849735098,-0.0004146275483242,11.71217054801804,27.326922452840407,31.881408732644413,26.596745203494855
0.86,31.22216482526324,131.01044325318682,16.32521086124868,-5.043898905552759,10.438389967022898,32.63845502434285,-1.8837519695130631,4.2343152829319,346.2265619465587,30.51614501838284,13.75103288199922,70.03206840075268,0.2961894676022278,114.01521014748768,569.4926702334535,15.288,0,8.511996365102867,0.089692477594185,8.243264069605873e-08,0.0053904588031305,0.0119062031567582,-0.0004359445954608,11.580961148854623,27.07698984470723,32.14674817375833,32.96584131755121
0.87,31.222164370235767,131.01044460152613,16.616363185635866,-4.950189240741406,10.345443838656909,30.431193756173894,-1.914506946993788,4.2419959975816575,327.964078366998,30.781983689589097,13.884861564865815,70.03517715820381,0.3153393875281777,114.03558535281336,579.4418547883492,15.288,0,8.537132189506723,0.0904741228145735,8.699970041208446e-08,0.0056082705945101,0.0123682107550868,-0.0004574981228286,11.457118607314571,26.842989553931258,32.39822638676332,30.785019413984188
0.88,31.22216391144445,131.01044596389244,16.91016073379878,-4.85471298986676,10.246930120242602,26.38040953389272,-1.9468630714806905,4.250234982125696,294.4828134710418,31.067037737652708,14.025321359934043,70.03840723194988,0.3352316182922973,114.05674991878004,590.2066394585015,15.288,0,8.562119921453666,0.0913122537409576,9.1730945842322e-08,0.0058276645719093,0.0128379731316339,-0.0004797841431916,11.327660116675764,26.59631634952542,32.66805512485841,26.791431100228262
0.89,31.222163448976247,131.01044734007792,17.206543486262376,-4.757662816225243,10.143118137882905,28.86882557797973,-1.980856643121476,4.259030041313241,315.028134248087,31.371440611642672,14.172441434268352,70.04175921457295,0.3558791595931465,114.07871762633334,601.8121668918736,15.288,0,8.586940063526203,0.092207263182623,9.662932202950332e-08,0.006048551515434,0.0133154491598148,-0.0005028344023314,11.192905524476082,26.337589203784884,32.956408720505245,29.248456714589643
0.9,31.22216298276155,131.01044873029414,17.505571635209545,-4.6701052067449975,10.057101355080905,31.819271618277952,-2.011852543081312,4.266237684162145,339.37814235421445,31.624359750139888,14.301599007417447,70.0452336573608,0.3772954484121379,114.10150272274886,611.5374385941899,15.288,0,8.611631518604831,0.0929509593512195,1.0169770421874157e-07,0.0062709873983149,0.0138009087899008,-0.0005255140529528,11.07838518039065,26.123554884317304,33.19602576518928,32.166976559052245
0.91,31.222162512875723,131.0104501343614,17.807193555675084,-4.580823186857873,9.965616078150674,24.35376033215931,-2.04447658549748,4.273999670467046,277.7421810230789,31.89660100089124,14.437410600235484,70.04883108664544,0.3994934875274876,114.1251189819552,622.0936913238871,15.288,0,8.636187019346593,0.0937514554188389,1.0693904721289545e-07,0.0064948562591483,0.0142942602650743,-0.0005489439882797,10.958344799794231,25.89700625934131,33.45411535851887,24.810332525140737
0.92,31.222162039525312,131.01045155175063,18.11125737670949,-4.490033232350683,9.868983992378425,28.872005673016563,-2.0787583458372567,4.282310880409113,315.02813424806214,32.188118139865615,14.579839337434196,70.05255183406094,0.4224864738539979,114.14958039317112,633.4983327667461,15.288,0,8.660595023096745,0.0946086160100754,1.1235650121997493e-07,0.0067199306844354,0.0147951605150553,-0.0005731414009901,10.83316152724814,25.65866332774125,33.73068037992215,29.26178624622152
0.93,31.22216156262464,131.01045298271163,18.41783481160971,-4.407463818126192,9.788184068100051,34.222794082173586,-2.110147348842488,4.289114288975645,359.1625070654728,32.4309684522681,14.705311143185556,70.05639633819305,0.4462877141998687,114.17490104840029,643.0745920137722,15.288,0,8.684868110542919,0.0953227411959315,1.1795282489541925e-07,0.0069462920520409,0.0153039434571409,-0.0005968999878747,10.725896793639974,25.46031518160538,33.961024953514375,34.555012053370454
0.94,31.22216108206793,131.0104544275438,18.727012271776008,-4.320137647858808,9.695237718863014,24.997935946593604,-2.1447409644697166,4.297154481552004,283.0687504837787,32.71592355377844,14.845318909146272,70.06036487070001,0.4709103754481676,114.20109489344166,654.4055722460962,15.288,0,8.709006042013355,0.0961606310965338,1.2373083231663977e-07,0.0071739607549723,0.0158208220375467,-0.0006218618270483,10.60578531206606,25.23286280938171,34.23159060187988,25.455102671821884
0.95,31.22216059814931,131.0104558854853,19.03857108235525,-4.235034989841548,9.605279855958464,32.196351631813044,-2.179236537028065,4.3049388432026845,342.4218736174873,32.99374962878999,14.98277171508384,70.06445766992776,0.4963681597538059,114.22817644338676,665.5473715655631,15.288,0,8.732999185342015,0.0969775753091953,1.296938460696851e-07,0.0074026628507666,0.0163453416616865,-0.0006471163403332,10.489448192569585,25.01366275310854,34.495486086399204,32.555900060163964
0.96,31.2221601105792,131.01045735732262,19.352737814231325,-4.154448638643095,9.523551800965423,31.551293504732687,-2.212351071801968,4.311909326123875,337.09533515678345,33.24580317638234,15.111227381405914,70.06867503899134,0.5226747133954294,114.2561601408284,675.7346330190666,15.288,0,8.756866376042685,0.0977187754308536,1.3584442807822037e-07,0.0076326335293234,0.0168782064308238,-0.0006722965111384,10.382590441752315,24.815749795278457,34.73488027524558,31.921327997491026
0.97,31.22215961938128,131.01045884300953,19.66949979272848,-4.073529808024356,9.439335898233052,20.378071091425475,-2.2465658370959063,4.3191581609088345,245.02188719299323,33.508380986799985,15.243256490755895,70.07301713534679,0.5498440448781928,114.2850608194844,686.4299052783048,15.288,0,8.780605334449316,0.0984909175741103,1.4218566521668384e-07,0.0078638056665641,0.0174194435348139,-0.0006981080110034,10.273473503101773,24.612559967565435,34.98441019967622,20.95156239249337
0.98,31.222159124847806,131.0104603417881,19.988639693366263,-3.9885626810283807,9.344048408894876,29.428337201154463,-2.284088724080866,4.327622929044899,319.5937466429581,33.812744114239145,15.389649290739568,70.07748402892014,0.577890153473662,114.31489330038052,698.9350667056962,15.288,0,8.804200080215836,0.0993858875938718,1.4872105763171674e-07,0.0080958562679041,0.0179684789249905,-0.000725214200639,10.152760154447083,24.38267750538791,35.27400623485703,29.832405399838617
0.99,31.222158626834155,131.01046185405795,20.310273164832267,-3.913735116267613,9.270269906786789,32.10782293023293,-2.316754274190787,4.333783574539307,341.6609485517054,34.04227572867541,15.510088641344344,70.08207590589932,0.6068273809320757,114.34567275563312,708.4345744553306,15.288,0,8.827668572156844,0.1000609136213823,1.5545337072768312e-07,0.0083289284220922,0.0185258233876794,-0.0007511339488591,10.055908292244096,24.20717187568833,35.49210131459241,32.481707525269044
1.0,31.22215812534156,131.010463379827,20.63440374393969,-3.83500115478464,9.185754019365774,28.78112908976962,-2.3526496930481287,4.341116520693963,314.2672081822764,34.312502145165155,15.644511559567675,70.08679267236339,0.6366695027650303,114.37741376024876,719.7038664328776,15.288,0,8.85100378796615,0.100855562598626,1.623856730353369e-07,0.0085629260738289,0.0190914409810762,-0.0007783424902283,9.947816344045595,24.005783127712867,35.74922382239747,29.201603464645988
1.01,31.22215762055375,131.01046491862436,20.960896802764445,-3.758274605388293,9.10420837839761,30.0749656271988,-2.3882995802444893,4.348127532031113,324.9203161036979,34.57385565690608,15.775779245669437,70.09163427916576,0.6674308919135779,114.41013151836135,730.6864738208769,15.288,0,8.874202494918078,0.1016241396615757,1.6952130209536766e-07,0.0087976608660554,0.0196650647200628,-0.0008057449051576,9.843379881373746,23.8126305242375,35.997930988779345,30.481367183855
1.02,31.2221571123968,131.010466470656,21.28981300715641,-3.683919216939513,9.026620417553293,25.173307731220586,-2.423384001337152,4.354686585065638,284.59063161540416,34.822032084372175,15.902412904049111,70.09660056775019,0.6991257071832025,114.44384100308164,741.1906657101271,15.288,0,8.89727043873913,0.1023539931817304,1.7686316023818668e-07,0.009033153276461,0.0202469346701712,-0.0008332250296869,9.743646109100796,23.63020981002187,36.23407216152001,25.6618687433869
1.03,31.22215660094113,131.01046803574584,21.62110310056656,-3.607434764039037,8.942193038023955,20.638743674224816,-2.4608840436495494,4.362030936222356,247.30469339049705,35.098321293131555,16.038648002614966,70.10169129358313,0.73176805823538,114.47855713140032,752.9750565401566,15.288,0,8.92020351108923,0.1031664883765385,1.844144170269268e-07,0.0092692777802923,0.0208369399634869,-0.0008617618017448,9.636936245132164,23.43148091432007,36.497262260605474,21.237725975612474
1.04,31.222156086250777,131.01046961373666,21.95472312328362,-3.5350767847836866,8.866106699721353,32.571883660368215,-2.496569142505919,4.368402024889512,345.46563688072297,35.344052235096626,16.16425306096254,70.10690620514934,0.7653725777055389,114.51429537278533,763.5309805658482,15.288,0,8.943005050533335,0.1038891703948202,1.921782490828193e-07,0.0095059536764803,0.0214350747768234,-0.0008899244003628,9.53963755684537,23.254464485128345,36.731185622358126,32.95820685229907
1.05,31.22215556804323,131.0104712053752,22.290890529311167,-3.4612660693508674,8.78474200094269,19.799183737855,-2.5342945725916186,4.375386955061065,240.45625879819983,35.612344328584214,16.297539657669645,70.11224494821668,0.799953749375917,114.55107103507429,775.1416754228993,15.288,0,8.965687675774989,0.1046781766378248,2.0015722035333856e-07,0.0097433747658293,0.0220420383157157,-0.0009190455338025,9.43705500335495,23.06501106404842,36.98684829874349,20.434635711764667
1.06,31.222155046556846,131.01047281004583,22.629429204872533,-3.386480333432556,8.699137517914892,28.035132087745737,-2.573891744943713,4.382895218652761,308.17968365593924,35.900091342786055,16.437415064094377,70.11770717706362,0.8355267377740812,114.58890014546353,787.6929251902545,15.288,0,8.988241823326023,0.1055243772942739,2.083550402038224e-07,0.0099812697841168,0.0226573564708187,-0.0009490613415692,9.33032500598706,22.86564382042928,37.26130480531712,28.492162437935967
1.07,31.222154521678103,131.01047442805347,22.97042902489043,-3.3174757523005525,8.626411104277665,32.94169961316971,-2.6101279364279737,4.388818205074742,348.5093681440308,36.13698074988616,16.559694450339396,70.12329250806172,0.8721070741900022,114.62779911766252,798.096381143885,15.288,0,9.010680517656567,0.1062210964438817,2.167746611933866e-07,0.0102197270806131,0.0232814721391322,-0.0009781148966046,9.237819572064767,22.69950534792038,37.48690069850886,33.33511761620203
1.08,31.222153993307327,131.01047605966136,23.31396833109501,-3.2484291898282893,8.551980037094683,22.288604751088304,-2.6473743221950365,4.39492197036104,261.00157857466235,36.382051086063406,16.68469591491059,70.12900042868223,0.9097099902222232,114.66778404263928,808.9313013869964,15.288,0,9.03300524493211,0.1069418711497364,2.254191560259777e-07,0.0104587512763387,0.0239146338201022,-0.0010077467223013,9.143859028120811,22.529890912543586,37.720410557276125,22.871506983091777
1.09,31.222153461720296,131.01047770415553,23.65984274595803,-3.175525727280557,8.465800466132709,20.5242734954898,-2.6889375710945065,4.4024938016441375,246.54375332474407,36.6788347559401,16.82735136127714,70.1348303603081,0.9483509000086044,114.70887120089598,822.1554006497532,15.288,0,9.055202893542647,0.1078146617174674,2.342924711578454e-07,0.0106980150119673,0.0245562125917218,-0.0010391749871137,9.03771183844126,22.331310645862175,38.00380617655911,21.16265908274345
1.1,31.22215292699433,131.0104793613404,24.007997734304624,-3.1061364062114825,8.387015157197279,40.81839709178664,-2.7287267255364265,4.409117203896566,413.1890617385841,36.94629767234064,16.959815579989197,70.14078165524742,0.9880453931999504,114.75107705571055,834.1615738473661,15.288,0,9.077277861248842,0.108601275420548,2.433979545228549e-07,0.0109374256363696,0.025206185935346,-0.0010701421404592,8.939859249364458,22.15215759780363,38.25902712205142,41.146419105471736
1.11,31.222152388728343,131.01048103225747,24.35873758794901,-3.0424792514834302,8.321875169469862,29.97221257998341,-2.7644264775604275,4.413918124175796,324.1593910376397,37.15506128739277,17.072042443371537,70.14685361148045,1.0288093660064603,114.79441839277683,843.5865803788722,15.288,0,9.099251263584277,0.109215354977924,2.527379080289143e-07,0.0111772999062071,0.0258656570115349,-0.0010997543345381,8.856923274258603,22.008445105278017,38.45766715432104,30.421345366312785
1.12,31.22215184698413,131.01048271674287,24.712017830703005,-2.970901074700269,8.233678147836406,11.515527538856952,-2.8085775747503616,4.4217373960977175,172.73281794065943,37.467766509816414,17.219804977388332,70.15304539705757,1.070658437462163,114.8389116982494,857.8168465960198,15.288,0,9.121113580001587,0.1101349746711369,2.623159504806544e-07,0.0114174667036337,0.0265344328175378,-0.0011328009841621,8.749791837097032,21.806870255960725,38.75666275691885,12.650977989531581
1.13,31.222151302354817,131.01048441327129,25.067397965003,-2.905023652905291,8.159221224443971,35.25567275716492,-2.848557317085654,4.427697047818152,367.5328077900705,37.72090563539679,17.3470151661875,70.15935624222145,1.1136095339776104,114.8845748432471,869.4174599460973,15.288,0,9.142850370048158,0.1108795115110339,2.7213702148769605e-07,0.0116573708166995,0.0272112140045392,-0.0011643779054102,8.657650936365954,21.64095013094067,38.99822568758368,35.64661612967325
1.14,31.22215075417612,131.01048612355004,25.425376897911462,-2.84321018917384,8.094448838209868,19.66673823382095,-2.885518311080021,4.43227505283421,239.69531773195544,37.93023333469762,17.459121720450003,70.1657851146274,1.1576782359254592,114.93142426520389,879.0634641949114,15.288,0,9.164490499707394,0.1114952746572825,2.822025383764021e-07,0.0118975434023503,0.027897759394937,-0.0011949207742593,8.576134621153853,21.5005605071756,39.19748114084608,20.365457785799695
1.15,31.222150202934262,131.01048784632235,25.785592803264976,-2.7738525279281414,8.006784649920148,19.38253601002057,-2.931450771943519,4.439970047166503,237.41251153546767,38.2479459243646,17.60819434587617,70.1723308904924,1.202880184494598,114.97947646042796,893.8206984168088,15.288,0,9.186007788189906,0.1124296424445887,2.925173718673937e-07,0.012137418511419,0.0285927426736879,-0.0012291806529981,8.470696496195254,21.30232407682256,39.501559182924176,20.099488546423466
1.16,31.222149648768333,131.0104895812343,26.147945237591365,-2.714344923217097,7.945465816542533,50.19965257114032,-2.968036444850623,4.443920217245736,490.0437743845894,38.44234753034262,17.714956983382073,70.17899249121162,1.249232278892641,115.02874925869357,902.8983484885088,15.288,0,9.207411444398252,0.1130015470724399,3.030850950628019e-07,0.012376880968828,0.0292960799052184,-0.0012597584215983,8.393497447812988,21.172300528996136,39.68642202915822,50.48329214203846
1.17,31.222149090800656,131.01049133051967,26.513088300866105,-2.651339790076978,7.8725056810501375,9.157183129679034,-3.009510966542436,4.449437894786657,153.70937929486794,38.6929605082879,17.840838383668903,70.18576859259491,1.2967501805934578,115.07925917102943,914.6769703768342,15.288,0,9.228729755717817,0.1137386943548948,3.1390650904472786e-07,0.0126166015028303,0.0300100471692358,-0.0012924842766555,8.30431507379907,21.01321592763176,39.92568347054844,10.616433332705528
1.18,31.222148530185773,131.01049309122385,26.88016486647713,-2.583695753681164,7.784082309146587,24.56731165863155,-3.0577585170659147,4.457152217620726,280.02501822196746,39.02178995274104,17.993275522207995,70.19265787104473,1.345450488115082,115.13102369748978,930.2568661880136,15.288,0,9.249916835120167,0.1147057699580247,3.2498881386751615e-07,0.0128554284442588,0.0307315252585933,-0.001328095639117,8.199164248058654,20.81491487545564,40.24075284610393,25.154898035413783
1.19,31.22214796640277,131.01049486467306,27.249564439820404,-2.5287204232191485,7.731685070570791,42.68104900040394,-3.0919867233998377,4.459515411299596,428.4078130529292,39.17243520930616,18.08476199289227,70.19965895122027,1.3953503135895404,115.18406088183757,937.4200568289924,15.288,0,9.271009849584912,0.1151490764408799,3.3633334292080665e-07,0.0130938612522822,0.0314622847741525,-0.0013579022348041,8.132313030728287,20.710276232211925,40.383242895346825,43.02463949153068
1.2,31.22214739899869,131.01049665199835,27.621621761960167,-2.465019137497435,7.651468491709962,4.669660621986592,-3.1380719576013942,4.465890712936847,117.1843741360236,39.463357464965895,18.22399294634865,70.20677017626595,1.4464651757838247,115.23838706983592,951.3616491865728,15.288,0,9.291981676768687,0.1160047421583849,3.479423257261256e-07,0.0133321168806132,0.0322033442121493,-0.001392829060042,8.036486834597245,20.534576133819375,40.66167812842722,7.183133424593478
1.21,31.22214682913557,131.01049845024914,27.99547868165933,-2.402623239828727,7.573385433387581,34.31462943230263,-3.183930361986578,4.471888050945195,359.92343213200894,39.74582990454056,18.3601689282181,70.21398998814001,1.4988125564870936,115.29402068714204,964.9951255200784,15.288,0,9.312818142163916,0.1168355786263371,3.598232438921824e-07,0.0135690998946874,0.0329516076352106,-0.0014276826694789,7.943242611837374,20.364966960271676,40.93199340660741,34.75095665397453
1.22,31.2221462559252,131.01050026166152,28.37179247309526,-2.3485824667282733,7.519760408381319,24.92058115772856,-3.2196330446891386,4.474037127547778,283.0687504825761,39.90102309013634,18.452865543243394,70.22131660572309,1.552408896717563,115.35097905157448,972.5105995193792,15.288,0,9.333568612163196,0.1172922777305613,3.719759426049122e-07,0.0138055784163879,0.033709800285177,-0.0014581829541216,7.875971423856394,20.25967119366028,41.07883615309307,25.522899725541883
1.23,31.222145679717645,131.01050208533064,28.75030350569492,-2.2869695539691177,7.440640340116929,9.84729086604668,-3.2670056590330327,4.48000635869309,159.79687382222795,40.191182707806085,18.591375893112964,70.22874803230377,1.6072696202299732,115.40927839404554,986.6703139241706,15.288,0,9.354209048272793,0.118145730051008,3.844054131552105e-07,0.0140410587382629,0.0344767129503975,-0.0014937854655571,7.782282462372264,20.088736129322875,41.35667338519275,11.301014129298785
