Time,Latitude,Longitude,Altitude,Angle of Attack,Angle of Sideslip,X-Acceleration,Y-Acceleration,Z-Acceleration,Thrust,True Velocity,Ground Velocity,Pitch,Roll,Yaw,Dynamic Pressure,cp,cg,parachute_deploy_gain,Wind Speed,Wind Direction,Mach,omega_x,omega_y,omega_z,Cmq,Angle of Attack(total),Angle of Attack(gust),True Velocity(gust),Acceleration
0.0,31.222216000000007,131.010392,3.000000004412624,0.0,0.0,0.0,0.0,0.0,2.2828121974499247,0.0,0.0,69.99999999623412,0.0,119.9999999935444,0.0,1.274,1.0271675151847728,0,0.0,0.0,0.0,0.0,0.0,0.0,-0.0,0.0,90.0,0.0,0.0
0.01,31.22221599999084,131.01039200000497,3.000002745347096,0.0,0.0,0.0,0.0,0.0,34.242186961749226,3.465174813755316e-14,2.8705476994166025e-14,69.9999999962611,-2.1713911667908447e-11,119.99999999352175,7.352495975525499e-28,1.274,1.0271659134330349,0,0.0,0.0,1.0183245502395064e-16,-3.3305335486039093e-18,7.169286865560398e-18,5.624298769768554e-18,-7.715917190115602e-34,0.0,89.99999999999979,3.465174813755316e-14,0.0
0.02,31.222215999994315,131.0103920000094,3.0000030495639742,0.0,0.0,0.0,0.0,0.0,25.871876237766216,3.8197434737535036e-11,2.4171837235633357e-11,69.99999999628672,-1.1921727947863515e-11,119.99999999353136,8.93414285188691e-22,1.274,1.027164492361118,0,0.0,0.0,1.1225230367947217e-13,-6.657678965418802e-18,1.4338573731120796e-17,1.1241821275959074e-17,-1.7010872994127372e-30,0.0,89.99999999975682,3.8197434737535036e-11,0.0
0.03,31.222215999994315,131.0103920000094,3.0000030495639742,0.0,0.0,9.81877837424427,-2.5122800045972096e-05,3.3498614629347925,180.34219359854663,1.2659015405517447e-10,1.1364406173918436e-10,69.99999999631459,-1.6431898037347223e-11,119.99999999352724,9.812605835254651e-21,1.274,1.0271551940870716,0,0.0,0.0,3.720154642239108e-13,-9.991600645811728e-18,2.150108433310316e-17,1.6859343782149594e-17,-8.453698244545225e-30,0.0,89.99999999919412,1.2659015405517447e-10,10.374487003414373
0.04,31.222215999994315,131.0103920000094,3.0000030495639742,18.83801224594347,-0.0001111777826462,48.68248476615645,-1.016330065874988e-05,3.3497854396877287,548.635972453808,0.1556173050466994,0.0975908358443652,69.99999999633813,-2.0932768807056278e-11,119.99999999352085,0.0148286043323172,1.274,1.027133720825283,0,0.0,0.0,0.0004573186944143,-1.3322134194415637e-17,-1.04744143520903e-11,1.336824254131964e-11,5.0626055458604615e-15,18.83801224625964,89.06236267790787,0.1555998412814392,48.79759610369246
0.05,31.22221599164764,131.01039201704114,3.002326315126219,5.772385609593056,-4.395076213712875e-06,71.20344550265034,4.905512691849684e-05,3.349217396035405,761.6984298824663,0.8326471944351852,0.3620326097059287,70.00000001316391,-1.0866255162484559e-10,120.00000000231074,0.4245281043148827,1.274,1.027093426565204,0,0.0,0.0,0.0024469331205246,-5.0245994431125096e-18,-7.32924164976824e-07,2.217344936947165e-11,1.895424184525467e-09,5.772385609594774,84.74112356985832,0.8326465040582279,71.28217104309611
0.06,31.22221596664444,131.01039206837547,3.015081730143309,4.056581213689704,3.169093567502233e-05,53.16249142470188,0.0001203825427859,3.3481235983850643,590.4875390737236,1.657216205300742,0.6755452977614796,69.99999964391398,-3.9285905645317736e-10,120.0000000287861,1.6816755551786196,1.274,1.027050317124926,0,0.0,0.0,0.0048701272653724,3.095757869075056e-13,-7.483541766772344e-06,3.074135420506017e-11,3.8518749565858254e-08,4.056581213813337,79.59316473687034,1.657221183301277,53.26781792157489
0.07,31.22221592883117,131.0103921460222,3.034593611434361,4.115662018628709,6.450869598349036e-05,81.18203554989698,0.0001593212642178,3.347059402768047,855.2937749779172,2.099899704220947,0.8579771146174259,69.99999543281565,-8.233801910783518e-10,120.00000006883089,2.700101932075157,1.274,1.027003201295312,0,0.0,0.0,0.006171060252819,3.4704292086287e-12,-2.6327204536316785e-05,1.9541142932033486e-10,1.7170712165327165e-07,4.115662019133419,76.90111966094352,2.099909837223217,81.2510043180746
0.08,31.22221588914193,131.01039222747755,3.0542761843835606,3.459696193892355,8.037433511260004e-05,16.298214211652088,0.0002413456836072,3.344878926597744,241.2171988638792,3.051964775152957,1.2149999716613011,69.99998042886442,-1.0128995578004475e-09,120.00000011111383,5.703497661025892,1.274,1.0269597189470347,0,0.0,0.0,0.0089689344021769,1.458982438104473e-11,-5.702803872814215e-05,7.043261397829576e-10,5.405702492731987e-07,3.459696194824858,71.30331929508368,3.051977400323993,16.63790856991177
0.09,31.2222158241468,131.01039236098703,3.0886872184095737,4.313676956300389,0.0001337561018991,50.35975918308536,0.0002293282821279,3.344215841840564,563.0937377043203,2.893161298572128,1.191209213966114,69.99994788602814,-7.098432023887522e-10,120.00000018106356,5.125380275808925,1.274,1.026918932011013,0,0.0,0.0,0.0085022553945842,3.8672912027154325e-11,-0.0001115933708951,2.016054215232918e-09,1.0027525988343615e-06,4.313676958370176,72.2316578138625,2.893182308931483,50.47067588835877
0.1,31.2222157788302,131.01039245392113,3.109877853389092,4.035124630954496,0.0001457499816535,47.804664812504015,0.0002878217657545,3.341734392237128,538.7437595981891,3.5677148583138303,1.4531247507621967,69.99988403958329,1.9248461973355822e-09,120.0000002323013,7.7939962029572305,1.274,1.0268846934974103,0,0.0,0.0,0.0104845969583028,8.579678749070606e-11,-0.0001726817043215,3.984565639703107e-09,1.913455350430327e-06,4.0351246335824245,68.43243098813296,3.567737752667411,47.92132267234452
0.11,31.222215703308,131.01039260899836,3.148841432727305,4.043401107254707,0.0001752764476999,37.67622367577205,0.0003286462930162,3.3392563999062723,442.86563930529127,4.034183355956686,1.6436552022667772,69.99978525353545,7.302513231814865e-09,120.00000031883242,9.96528118825134,1.274,1.026848594915519,0,0.0,0.0,0.0118554331868328,1.5870341853361987e-10,-0.0002596204409236,7.232030302688121e-09,3.252930323390323e-06,4.04340111104746,65.92012987243639,4.034210888316708,37.82391391539392
0.12,31.222215627491828,131.01039276462643,3.186995101203875,4.17874459224363,0.0002066711490009,41.15991989399172,0.0003576945202315,3.336766085769504,475.58594813540793,4.361857560629481,1.7865750500940407,69.99963665601238,1.781774420198147e-08,120.00000041104812,11.649831899889556,1.274,1.0268114448194128,0,0.0,0.0,0.0128183893919737,2.682972478760441e-10,-0.0003710216542429,1.2215991071490164e-08,5.026311388647148e-06,4.178744597345269,64.21681651392016,4.361890024457652,41.29495143136631
0.13,31.22221554594398,131.01039293200228,3.2277173449026786,4.202734874672792,0.0002327160860324,45.44886120763352,0.0003953741266062,3.333578629398489,515.9156326236897,4.792165672014363,1.9646716520715424,69.99942424225341,3.613383418913551e-08,120.00000051758742,14.061726603124043,1.274,1.026779572895131,0,0.0,0.0,0.0140829618979635,4.248908088871395e-10,-0.0005056103199642,1.908859219307828e-08,7.5253154423526356e-06,4.202734881104192,62.048594618540655,4.792202226971676,45.570952718869485
0.14,31.222215454191247,131.01039312033683,3.2737880595608355,4.184830647080848,0.000257138757548,42.32232525579263,0.0004369426767266,3.329727443445437,486.2390860568421,5.269261304374574,2.158791628597544,69.99913473613935,6.515851355725497e-08,120.00000064630268,17.000925061330125,1.274,1.0267449573927567,0,0.0,0.0,0.0154850332441425,6.382432869666793e-10,-0.0006690086306358,2.8426433029675884e-08,1.0948547100483978e-05,4.184830654966803,59.74181173116622,5.269301695636157,42.45310707234106
0.15,31.222215353826755,131.0103933263496,3.3242182719560263,4.21963947489699,0.0002846467688673,40.886944113003565,0.0004726792395108,3.325585650885676,472.5421858721398,5.6781946837482895,2.329510773545807,69.99875162806286,1.0876776246115984e-07,120.00000079954532,19.742017654108928,1.274,1.0267115958081523,0,0.0,0.0,0.0166867950518804,9.204756288136623e-10,-0.000865746478554,4.08948221429571e-08,1.526771148078443e-05,4.219639484480408,57.84996018384879,5.678239395958187,41.02196629910223
0.16,31.222215247130432,131.01039354534575,3.3775922280208457,4.253495568077899,0.0003118339050386,32.26872905470846,0.0005078415214353,3.32090791922544,391.1218908297597,6.081244877834229,2.4981889727471702,69.99825581174558,1.7187028096464329e-07,120.0000009800088,22.644030778355887,1.274,1.026675762255412,0,0.0,0.0,0.0178712695992133,1.2856146928958252e-09,-0.0010961187242953,5.6923362293832417e-08,2.0702404729358337e-05,4.253495579487569,56.06022383757386,6.081293860589489,32.43916312841722
0.17,31.22221513260033,131.01039378041813,3.4348437275053194,4.364838523348639,0.0003448792023946,40.840448242802736,0.0005326487904353,3.3162727284953744,471.78125980632416,6.362544479165355,2.6250789114832647,69.99762801982864,2.5997588617291615e-07,120.00000119506798,24.78723182122683,1.274,1.0266409836796937,0,0.0,0.0,0.0186979513961862,1.747791994374917e-09,-0.0013624931601664,7.706724512977917e-08,2.6923621797558364e-05,4.364838536947241,54.85936171416122,6.362598652663785,40.97486885600156
0.18,31.222215014088988,131.01039402363364,3.4935801365785646,4.353948305387995,0.0003681615230806,33.992183768165326,0.0005718025428208,3.310131992647221,407.1015672119096,6.81502088160835,2.810667639293692,69.99684761766231,3.794979223522764e-07,120.00000144728236,28.437950785509614,1.274,1.0266048342046536,0,0.0,0.0,0.020027681385988,2.3221419748804155e-09,-0.0016616990447559,1.0147209890543081e-07,3.517105786247627e-05,4.353948320923495,52.99157233768714,6.815078712285162,34.152972512863755
0.19,31.22221488419521,131.01039429023237,3.558399965607869,4.432620772533925,0.0003996774584738,38.45149959021069,0.0005986099513107,3.304145139297767,448.95313283182486,7.1223367465208405,2.946425726785696,69.99589577323147,5.440084577183829e-07,120.00000176148238,31.060341085698347,1.274,1.026566130444714,0,0.0,0.0,0.0209308229359413,3.022391489754689e-09,-0.0020041563310821,1.3135864879722746e-07,4.433199397898183e-05,4.432620790516937,51.77883352025967,7.122399527709208,38.59320142454953
0.2,31.222214751373183,131.01039456280608,3.624052454705669,4.443889400961181,0.0004246617145652,35.23432408779927,0.0006337972852267,3.2968110145188256,418.5156301991588,7.530482904611057,3.1167566004785483,69.99474776398331,7.478025600151903e-07,120.00000211715036,34.72195181863731,1.274,1.026529240027363,0,0.0,0.0,0.0221302820454282,3.866698391504749e-09,-0.0023849544920781,1.668144671071589e-07,5.57780533277244e-05,4.443889421210987,50.22448880200342,7.530549610317194,35.38822625098952
0.21,31.222214608673173,131.01039485566503,3.6948551453492566,4.493351735844891,0.0004538195602194,33.79371564104691,0.0006629296043866,3.2891790438445727,404.8187610144608,7.868284042829251,3.2629204975089228,69.99338155599101,1.0150082652278477e-06,120.00000255293388,37.906665490338085,1.274,1.0264923657015164,0,0.0,0.0,0.0231230169900677,4.871073773182836e-09,-0.0028117605859743,2.089322918608601e-07,6.870935089180403e-05,4.493351758715364,48.992529909481824,7.868355328639073,33.95340801819282
0.22,31.22221446109996,131.01039515850383,3.767700382407304,4.5412639153933885,0.000482649303782,41.008966751568416,0.0006914639179131,3.2808061382386606,472.5421858721387,8.20057841132235,3.4071691679735228,69.9917708347139,1.3454961520984431e-06,120.00000305929996,41.175744234065135,1.274,1.0264494137127138,0,0.0,0.0,0.0240995709751246,6.054779813287368e-09,-0.0032829112061357,2.580881224843564e-07,8.3609968899004e-05,4.54126394098788,47.82515604752711,8.2006542256977,41.13999323561041
0.23,31.22221430675399,131.0103954752338,3.843768625625224,4.52371495179584,0.0005047555656171,33.98493478127787,0.0007294889663961,3.2705214710765107,406.340642146096,8.647938096586296,3.5908865300848416,69.98989017772566,1.7539876018835507e-06,120.00000365514876,45.79040229326471,1.274,1.0264133390858623,0,0.0,0.0,0.0254142776666487,7.436335125872812e-09,-0.0038001790077148,3.1489825108822685e-07,0.0001020628978177,4.523714979897577,46.31461705147579,8.648017383405135,34.14194053232237
0.24,31.222214142622448,131.0103958120587,3.92493179063287,4.57837522350066,0.0005351929930195,35.051650311058864,0.0007555049947555,3.26053011385611,416.2328240017099,8.954297884844461,3.72617527247482,69.98771316795013,2.25257161141768e-06,120.0000043564586,49.09180568115741,1.274,1.0263750048312463,0,0.0,0.0,0.0263146218848643,9.034877387788232e-09,-0.0043732521010013,3.809642748985157e-07,0.00012161410144,4.578375254714954,45.32798984252032,8.954381952763216,35.20297212911011
0.25,31.22221397517227,131.0103961556623,4.0071748888306855,4.6034117733065,0.0005618935542827,36.03738579534623,0.000785606492708,3.249069743648399,425.3640807915084,9.311611941121669,3.8789349536029696,69.98520781816889,2.8559738498748624e-06,120.00000517181904,53.08749562138344,1.274,1.0263373768840591,0,0.0,0.0,0.0273647110956883,1.0873791100894836e-08,-0.0049950711786164,4.5609738277273444e-07,0.0001444478241125,4.603411807525074,44.2165428352526,9.311700203154778,36.183554686886296
0.26,31.22221379934012,131.01039651647062,4.09364247475714,4.621386912291471,0.0005881033207375,39.29107511182762,0.0008162761165496,3.236407051295005,455.80158342417656,9.67833954512075,4.034902068846398,69.98234620927953,3.5784678110229355e-06,120.00000612171208,57.350948423913096,1.274,1.0263006300381676,0,0.0,0.0,0.0284424679130479,1.2973286442992724e-08,-0.0056712051373577,5.414206381221602e-07,0.0001704578711045,4.621386949630312,43.12063533194282,9.678431924174348,39.42414126789902
0.27,31.222213616776543,131.01039689108487,4.183310605341074,4.617158109135719,0.0006115457810536,35.90419462403674,0.0008503454714941,3.221982799915672,423.8421996598744,10.088790784535757,4.205862468567124,69.97909721779352,4.436165972465058e-06,120.000007221354,62.31798301949865,1.274,1.026260090595354,0,0.0,0.0,0.0296487219805601,1.5355910600537293e-08,-0.0064045199323113,6.379142666348734e-07,0.0002006609239367,4.617158149547818,41.94410287616451,10.08888684592241,36.048472443180565
0.28,31.22221342607797,131.0103972823952,4.277051150896916,4.642105655370123,0.0006389739579882,41.51133203546672,0.0008785747638736,3.2071101123224945,476.3468732012228,10.432377224420517,4.35383399240675,69.97542808435722,5.446665372087172e-06,120.00000849080963,66.63429581008447,1.274,1.0262212716723291,0,0.0,0.0,0.0306584788590473,1.8045308789081613e-08,-0.0072006835403936,7.469524967369969e-07,0.0002332868227611,4.642105699250441,41.0023231023774,10.432477594215127,41.63503624837164
0.29,31.22221323001776,131.01039768469093,4.373143569786686,4.62134615173668,0.0006600657405645,33.17552944492765,0.0009148746278066,3.1894209319791806,397.9703104221098,10.876662296046485,4.536381530986506,69.9713027936179,6.629751536885327e-06,120.00000994797426,72.43000748232016,1.274,1.026183007522519,0,0.0,0.0,0.0319641703260467,2.1067646517035105e-08,-0.0080566154554079,8.688043379161898e-07,0.000272130659453,4.621346198772975,39.83162628795024,10.876765978930557,33.32848872465723
0.3,31.22221302403368,131.01039810736614,4.4744193758467325,4.664362353358112,0.0006905183788532,31.08096762732793,0.0009381960428197,3.172549142946348,378.1859457108735,11.168362145070317,4.66647911311536,69.96668711012893,8.005507138509574e-06,120.00001161892672,76.36634300732833,1.274,1.0261430389738484,0,0.0,0.0,0.0328214509167604,2.4447409007156216e-08,-0.0089829108229115,1.0056222251461646e-06,0.0003115527202986,4.664362404357781,39.09908960432563,11.168470611443622,31.242464973103964
0.31,31.22221281503337,131.01039853619727,4.576593712520673,4.700143580504286,0.0007196683316923,32.79732593144512,0.0009620705970519,3.154230688182399,394.1656220930229,11.470279728974068,4.800072153432283,69.96154070456518,9.597499105113692e-06,120.00001352112182,80.55022837857167,1.274,1.0261054058068628,0,0.0,0.0,0.0337087616009043,2.8214060606649844e-08,-0.0099686353219717,1.1565909895184251e-06,0.0003550834484269,4.700143635477137,38.36463422765983,11.47039277421126,32.94865339301887
0.32,31.222212598991007,131.01039897947376,4.68216432480395,4.718667719113184,0.0007464384342556,35.7316568886908,0.0009885845337584,3.133859770838664,421.5593934624264,11.808280530415894,4.946054328851105,69.95582953472353,1.14278227255889e-05,120.00001568218067,85.36654007972253,1.274,1.026068246703101,0,0.0,0.0,0.0347021168382987,3.2392058795580455e-08,-0.0110163301561155,1.3226102501723267e-06,0.0004039614423012,4.718667778018562,37.5686120062341,11.808397780690962,35.8688218659563
0.33,31.222212376029034,131.0103994369436,4.791055524254013,4.72141404831576,0.0007708346814671,35.42013590291081,0.0010176135371143,3.1111955852784385,418.5156301991632,12.181577273013426,5.104163223586657,69.94951809396906,1.351997394754887e-05,120.00001812674968,90.84831229869296,1.274,1.0260310883392356,0,0.0,0.0,0.0357992034445943,3.700677535501642e-08,-0.0121310534481307,1.5051409581878843e-06,0.0004588955105349,4.721414111097893,36.7208578211118,12.181698355442045,35.55651229220977
0.34,31.222212145785647,131.0103999093516,4.903491659547144,4.73024573449122,0.0007962944975467,27.63851074646407,0.0010446307681611,3.0871492806781062,345.4656368807584,12.53557620048282,5.2556261014174765,69.94256797855994,1.5899658158227497e-05,120.000020882338,96.20413272674828,1.274,1.0259901535019136,0,0.0,0.0,0.0368395817555172,4.208561016221623e-08,-0.0133180771902383,1.7057647550599631e-06,0.0005184333231541,4.730245801363397,35.94841996438923,12.535701282129995,27.810389570354005
0.35,31.222211909310875,131.01040039453565,5.018822212845608,4.780248518778662,0.0008286678570753,30.332092807652543,0.0010618579815451,3.063967690608957,370.5765700527057,12.774786382148209,5.367579971644358,69.93493776125636,1.8594985713558667e-05,120.00002397748868,99.9096898192772,1.274,1.025950003202184,0,0.0,0.0,0.0375426220587071,4.7658312175989686e-08,-0.0145774693288123,1.9252724355785177e-06,0.0005782798420984,4.780248590437683,35.44790728185619,12.774916548990808,30.486451961956565
0.36,31.22221166933814,131.0104008868675,5.135354490370708,4.798132156899578,0.0008554457330409,34.32674769697476,0.0010851169437774,3.0374319611165923,407.8625232777224,13.09301701329486,5.506730645516068,69.92658597246795,2.163521613217148e-05,120.0000274401514,104.94818266210537,1.274,1.0259105142325406,0,0.0,0.0,0.0384778908056978,5.3755109608570216e-08,-0.0158991451700967,2.162609490834569e-06,0.0006464142451675,4.798132232978766,34.796094028187134,13.09315138639638,34.46087058603792
0.37,31.222211421355144,131.01040139563804,5.255882891363927,4.797392186816851,0.0008791822061288,32.551601855236584,0.00111162791192,3.0078619428913056,391.1218908297639,13.457513730739372,5.661815946371007,69.91747693543164,2.5047738471809164e-05,120.0000313040604,110.87154396328836,1.274,1.025872170958032,0,0.0,0.0,0.0395491312153729,6.040098808671168e-08,-0.0172926678053148,2.420031948898497e-06,0.0007226353721561,4.797392267189059,34.07332166419882,13.457651832357364,32.69027405888565
0.38,31.22221116634284,131.01040191882743,5.379799334000849,4.811698494594017,0.0009057112478668,34.02947987649063,0.0011338447913587,2.9774881690446744,404.81876101445977,13.77554886562956,5.800899861213392,69.90756948297444,2.886339581486796e-05,120.00003560072224,116.17243393848278,1.274,1.02583050512925,0,0.0,0.0,0.0404838339452728,6.762496638941508e-08,-0.0187646375218858,2.69955777313946e-06,0.0008026686661094,4.8116985796350695,33.46655348088405,13.775691134419684,34.15949264475229
0.39,31.222210906095896,131.01040245274032,5.505993307722699,4.813508003664984,0.000929862892873,29.00025983045028,0.0011579891265804,2.9442136901860865,357.6406249338268,14.124492165837273,5.950648592462506,69.8968186645841,3.311602501056718e-05,120.00004036395212,122.13093644173792,1.274,1.02579027384009,0,0.0,0.0,0.0415093739609825,7.545934774906889e-08,-0.020311592409804,3.0013532510753577e-06,0.0008908380763632,4.813508093268025,32.821616487639595,14.124638228358922,29.149330452482886
0.4,31.222210638473225,131.0104030017851,5.635788650457906,4.841647069358873,0.0009592124397379,27.71178845184976,0.0011749448424961,2.91135549588368,345.4656368807565,14.390874239274588,6.07193451174791,69.8851815212744,3.783947407715338e-05,120.00004563180136,126.77947425345651,1.274,1.0257493418632293,0,0.0,0.0,0.0422922854866381,8.39343718693383e-08,-0.021938519432511,3.3271332720311508e-06,0.0009803271643914,4.841647164150728,32.348088166612904,14.391024912012275,27.864299944624147
0.41,31.22221036681104,131.01040355909262,5.767123077463226,4.86553909860892,0.0009876699832274,31.306062598221665,0.0011918093836199,2.876450850006428,378.9468707766882,14.663028799871563,6.195223154320929,69.87261222561014,4.307011032901644e-05,120.0000514391194,131.6183642808765,1.274,1.025708445186429,0,0.0,0.0,0.0430921644173401,9.308325447883581e-08,-0.0236371933433427,3.6760977501392174e-06,0.0010761942383903,4.865539198612839,31.87689439156756,14.663183942709727,31.437931330109585
0.42,31.22221008906472,131.01040412887247,5.901259531771367,4.867510642114694,0.0010118258958528,35.308283402190774,0.0012128114559048,2.8374461227958245,416.23282400171047,14.9952917972178,6.33928625560071,69.85906967380902,4.884273094936628e-05,120.00005782486392,137.64909586091787,1.274,1.0256701057426505,0,0.0,0.0,0.0440686959134695,1.0293499639582845e-07,-0.0254093547296826,4.049238334851429e-06,0.0011830797791891,4.867510747027452,31.315270489291198,14.995450734457847,35.422111438762386
0.43,31.222209804115888,131.01040471342728,6.038886819939341,4.854590670645608,0.0010330089741511,31.00586934514032,0.0012363751872706,2.794478603999558,375.90313951343126,15.369430568701889,6.497852263156962,69.8445117629242,5.519340856908871e-05,120.00006482835984,144.60167924299955,1.274,1.0256308158337524,0,0.0,0.0,0.0451682983415116,1.135186446762958e-07,-0.0272634397889413,4.449073329427772e-06,0.0013010625065656,4.854590780289497,30.70250814963406,15.369592833372094,31.13154422839874
0.44,31.22220951192321,131.01040531284193,6.180028459770617,4.866912332640401,0.0010595850174406,28.57707721036899,0.0012525768202179,2.752165534925872,353.07501253892326,15.659290812546615,6.627318538707029,69.82889155423543,6.216182865383864e-05,120.00007249162944,150.1053167542629,1.274,1.025586171750536,0,0.0,0.0,0.0460202245100907,1.2486676023179565e-07,-0.0292060158163984,4.8779154055816594e-06,0.001420032405556,4.866912447705031,30.24619499837236,15.659457251771938,28.709297424144207
0.45,31.222209215425703,131.01040592106523,6.322872201489905,4.881836476567178,0.0010866574689855,33.31904824532484,0.0012669045761511,2.7082028218433374,397.2093853562887,15.934249290371609,6.751662050993672,69.81215834018458,6.97909417564726e-05,120.00008085697964,155.42080512416243,1.274,1.0255397023523487,0,0.0,0.0,0.0468283602442113,1.3701614206272197e-07,-0.0312276295846745,5.334643585560923e-06,0.0015449645531859,4.8818365972149325,29.82567893138932,15.934419982127675,33.428929688274074
0.46,31.22220891307435,131.0104065412864,6.468371919199588,4.869610441729251,0.0011078049156487,38.95909776354321,0.0012868374716666,2.6582856015412624,449.7140588976424,16.292139278621757,6.904766425053949,69.79426683863348,7.812149592850748e-05,120.00008996920153,162.4785746623087,1.274,1.02549635315424,0,0.0,0.0,0.0478802236363867,1.499987870203256e-07,-0.0333272350234362,5.819761874615242e-06,0.0016858511402973,4.869610567434908,29.29014635640275,16.292313292210977,39.04968351401366
0.47,31.22220860266524,131.01040717804253,6.6178810515614845,4.838450928223533,0.0011247917292402,26.253747818137555,0.0013104398935566,2.6026193242279367,331.0078106302504,16.710658191447514,7.078951441335346,69.77517236812905,8.719457259907165e-05,120.0000998741591,170.9309671061642,1.274,1.025453319323251,0,0.0,0.0,0.0491102725711187,1.6384464803343264e-07,-0.0355167087264168,6.3368207228363735e-06,0.0018427306558807,4.838451058652396,28.68386015667837,16.710834873319172,26.382435512333956
0.48,31.222208284201663,131.0104078313267,6.771393590864176,4.869339340099417,0.0011561785713505,25.860860976019296,0.0013165328518772,2.5543454292827983,327.20312230115803,16.911139899671,7.177575416403102,69.75482343794755,9.70562828082882e-05,120.00011062072316,175.0543877818846,1.274,1.0254092882449153,0,0.0,0.0,0.0496995461609974,1.7858865391586845e-07,-0.0378054080201581,6.88909442277235e-06,0.0019849793891693,4.869339477030596,28.40887970825325,16.911321511776286,25.986704537635287
0.49,31.22220796480208,131.01040848648364,6.924537656029012,4.881367714530694,0.0011829003785372,32.565703383222065,0.0013261973190012,2.5011623511055703,389.6000096981238,17.169005224738054,7.296160258358563,69.73316318155707,0.0001077573203115,120.000122255028,180.4309832312717,1.274,1.025367445590036,0,0.0,0.0,0.05045746454003,1.942747077649401e-07,-0.0401641298712614,7.47069711110948e-06,0.002140948887153,4.881367857509675,28.058569663954906,17.169191034294997,32.66161128464712
0.5,31.222207637929923,131.01040915697027,7.081324512896956,4.862566137860805,0.001202418260511,33.47759680712428,0.0013425340759632,2.4399894027711366,397.970310422106,17.52898693231981,7.450304424940405,69.71015149227495,0.0001193385310595,120.0001348274002,188.0736471953394,1.274,1.0253278572281015,0,0.0,0.0,0.0515154948878309,2.109295159784217e-07,-0.0426011733481599,8.084173008518589e-06,0.0023184335011768,4.862566286171007,27.57768313050809,17.529175807738486,33.56639745442473
0.51,31.22220730314019,131.01040984370235,7.24202048914867,4.8479762258125,0.001223054804074,25.49162310288008,0.0013562860883156,2.3767006597692686,323.39843497208153,17.86914397471067,7.597652147346554,69.68574349602717,0.0001318441288964,120.00014838524436,195.4407439266201,1.274,1.025286455263166,0,0.0,0.0,0.0525152689856776,2.2858192086249162e-07,-0.0451315948093539,8.734206149830708e-06,0.002503767471626,4.847976379721193,27.13799345359824,17.86933609171003,25.602178740977283
0.52,31.222206962738102,131.01041054193402,7.405210501673173,4.865306299521403,0.0012516517170965,30.733671928447727,0.0013599291289974,2.317711624364424,372.098451184342,18.08534843773428,7.701914987606457,69.65988568649581,0.0001453248538387,120.00016298000436,200.19561780583155,1.274,1.0252426840672306,0,0.0,0.0,0.0531507657929359,2.4726951523704535e-07,-0.0477531686556663,9.421346966092632e-06,0.0026812161964639,4.865306460134566,26.8699055233151,18.085545046726228,30.820940596104087
0.53,31.222206619320115,131.01041124632013,7.569307468221277,4.848802699234936,0.0012715119568563,32.301199055744725,0.0013711327835325,2.2490252325653923,386.55624643486095,18.41963113311156,7.8474319110539055,69.6325258319474,0.0001598315062727,120.0001786629144,207.6614205945027,1.274,1.0251993415311351,0,0.0,0.0,0.0541332845214831,2.67031759303889e-07,-0.0504479325599339,1.0141887756417996e-05,0.0028848299490111,4.848802865552398,26.45837260670532,18.419830861742675,32.37940050117613
0.54,31.22220626697288,131.01041196903336,7.737918664599091,4.831496690588052,0.0012913635058467,28.31291960103712,0.0013809098107221,2.177242866245296,349.2703242098436,18.75116898748492,7.992112829440902,69.60362200959217,0.0001754082864028,120.00019548734956,215.20067397992847,1.274,1.0251561018460285,0,0.0,0.0,0.0551077428911958,2.878941684235108e-07,-0.0532336286085667,1.090122304443916e-05,0.003098869611663,4.831496862756785,26.061835558272342,18.751371834390056,28.396510432451375
0.55,31.222205908994248,131.01041270328463,7.909026079894722,15.583667740966511,19.664999119857367,30.720439458472708,-1.3368252415728843,1.3946302070072405,365.2500005919912,22.576858604022103,8.113323699629928,69.57312211246325,0.0001921068626005,120.00021350480982,311.9656824561849,1.274,1.025112921033824,0,8.77241248081048,0.0,0.0663511763773331,3.0989272306468813e-07,-0.0561100530405476,1.1700476995263424e-05,0.0039326558448982,24.8978919174017,43.03553878934265,25.605539229253623,30.78112239120741
0.56,31.222205546564343,131.01041344664463,8.081909946161325,19.14522980927805,-15.383761630665797,28.72563020343404,0.8545592736928177,0.7988107934903685,346.22656194657776,23.54195682972919,8.244196224145494,69.54097415464405,0.0002099796112633,120.00023276987916,339.20145366023155,1.274,1.0250709539098009,0,8.804417249057844,255.00010927308023,0.0691876404816026,3.329453068617489e-07,-0.0676788746658307,0.0162031517425457,0.004946183542399,24.37793979979736,18.84740379971061,21.15441100292539,28.74943826965134
0.57,31.22220518050852,131.0104142056356,8.258482545612129,18.970193647644617,-15.208819378819236,28.436591887764312,1.1419211459296303,0.4527802815611495,343.1828296833045,23.813077608703605,8.358797762223995,69.50219571939748,0.0250463022753114,120.02674470608842,347.0533798582284,1.274,1.0250279191823897,0,8.836171976839461,255.00010927308023,0.0699845788554558,3.695537588691288e-07,-0.0835966626215625,0.0021001336539145,0.0061797604988766,24.137579513029014,18.69940057771437,21.45203814832757,28.463112129177915
0.58,31.22220480450832,131.0104149695006,8.436982764581645,18.788534705095564,-15.05499458257508,37.394273439921065,1.4414269612764092,0.0934596210585145,426.12500585731766,24.09317769503649,8.47691977001604,69.4542985645309,0.028201686509123,120.03011406430164,355.25970198749275,1.274,1.024981594484354,0,8.868005395768739,255.00010927308023,0.070807911405736,4.052264778674121e-07,-0.0997751686942529,-0.0121727405156124,0.0074623615659847,23.904853415246677,18.537366761617854,21.755463185305505,37.42216098096219
0.59,31.22220442419881,131.0104157459535,8.618248624451073,18.49526002931824,-14.81897335601326,30.394514251958466,1.7611109687222248,-0.3022090405164278,360.68438819710633,24.49757958056532,8.642729108305565,69.39713467627976,0.0095711529118928,120.01021441838776,367.279403948829,1.274,1.0249386802161349,0,8.899625959921863,255.00010927308023,0.0719965632441105,4.39992115108861e-07,-0.116216374597028,-0.0266415828687125,0.008837769585011,23.53639565507665,18.279884505285025,22.195686434632943,30.44699227774116
0.6,31.22220403331416,131.01041654043212,8.804490826883837,18.313004164108463,-14.664858950854606,27.07725363532052,2.083144808173534,-0.687923948635212,329.4859594986072,24.76489510803965,8.755976322814112,69.33054554206998,-0.0309284845402165,119.9669381955776,375.3318675229759,1.274,1.024891335813742,0,8.931178440074408,255.00010927308023,0.0727823366019483,4.738641684812269e-07,-0.1330115960209277,-0.041376791997331,0.0102251668867195,23.302767693921226,18.12008478803713,22.486413298944026,27.165978651291113
0.61,31.222203639452385,131.01041733836985,8.991342130445993,18.135148389540007,-14.51419722713794,31.70046074257372,2.413208911235196,-1.082393025349821,372.0984511843332,25.01887972257989,8.86417202243359,69.25431061668758,-0.093423488998075,119.90012714189652,383.06315423735794,1.274,1.0248423929069768,0,8.96302911903526,255.00010927308023,0.073528935041557,5.06872989120031e-07,-0.1500446631217109,-0.0562845095829028,0.0116526587269172,23.074519416777125,17.965529698934496,22.763300693862128,31.810601427858114
0.62,31.22220323907332,131.01041814708142,9.180933808169966,17.887225682588614,-14.311580012816435,39.35201962082933,2.7621940547731287,-1.5073502221818644,442.86563930529206,25.351802941132213,9.002993189735683,69.16826605082116,-0.1778324919566234,119.8098401857611,393.3185743955392,1.274,1.0247996097896497,0,8.99442729741693,255.00010927308023,0.0745075350803258,5.390488689900445e-07,-0.1672975136413984,-0.0713487949976118,0.0131651874147627,22.7606905766746,17.751299691212466,23.12704924777625,39.47762998112567
0.63,31.222202830258244,131.01041897053472,9.374402627622766,17.570307155900664,-14.057698590770665,22.505101812321342,3.135798276341927,-1.970011092458098,286.11251274707456,25.76967192122692,9.174754872573471,69.07224845685809,-0.2839860320220114,119.69622577754645,406.38387427203423,1.274,1.024756158874558,0,9.02572171960802,255.00010927308023,0.0757357940082106,5.704218976127249e-07,-0.1848226474672799,-0.0866090425998812,0.0147837536572625,22.362382477255355,17.477586983594882,23.58358191083659,22.80775706020358
0.64,31.22220241213469,131.0104198105823,9.57225711182114,17.449669995115975,-13.949524331601086,22.12605171300959,3.481995266468956,-2.3760316171269804,282.3078244179702,25.91891351932949,9.243147164264595,68.96605435791984,-0.4117093153741325,119.55943331642771,411.0967293445325,1.274,1.024708534665538,0,9.057108160897576,255.00010927308023,0.0761745777251395,6.010263407680439e-07,-0.2026767960098195,-0.1021083308368154,0.0163054659020328,22.20366962454014,17.37880518266236,23.74931048603236,22.52403120420663
0.65,31.222201994780388,131.01042064629686,9.768476158813348,17.266238610259574,-13.794725143578544,38.79407936429798,3.844675834132544,-2.8090482394852017,436.7781447787504,26.1409821468791,9.33994868492316,68.84943754048918,-0.5608255402075186,119.39960938821304,418.16343482222345,1.274,1.0246641738210605,0,9.088655939103452,255.00010927308023,0.0768273979846702,6.309243223574802e-07,-0.2206380266861888,-0.1176689343086432,0.0179022027766102,21.968155181169315,17.226456366434462,23.99498569293556,39.085200242608046
0.66,31.2222015691796,131.0104214965046,9.968444019939032,16.908274543695548,-13.509622307193569,33.07484252576499,4.2594882705496415,-3.326025571831479,383.5125151715984,26.596680220418182,9.528025850900397,68.72227011812316,-0.730833467242333,119.21724351861884,432.86131804496944,1.274,1.0246195561629028,0,9.119410760729329,255.00010927308023,0.0781668544248664,6.601625994823274e-07,-0.2387532290371467,-0.1333262136785121,0.0197093614106953,21.518623178016075,16.921071129982177,24.49420226886544,33.5134434896741
0.67,31.222201131294625,131.01042236985015,10.174549512697489,16.656464539754182,-13.303446943012572,22.922242788064207,4.658540808742504,-3.811039046789272,289.15624401033847,26.89588374486764,9.655719056236538,68.5843882686686,-0.921227225453519,119.01282590680913,442.646420613818,1.274,1.024572383541697,0,9.150230069483705,255.00010927308023,0.0790463885057585,6.887809277222252e-07,-0.2571918091769213,-0.1492120098406941,0.0214699100386381,21.19876801194134,16.712094336173344,24.82490919153246,23.699266560757387
0.68,31.222200690955805,131.0104232456817,10.380937959467726,16.47499887387404,-13.14985684787858,28.5161467010766,5.041229419352609,-4.267267541520312,340.89999248584934,27.080370332938383,9.738974036322627,68.43552108118158,-1.1316324988732185,118.78670095130413,448.73083151164326,1.274,1.0245245285832842,0,9.181448697857704,255.00010927308023,0.0795887756893946,7.168525331930528e-07,-0.2758177973228818,-0.1652167594776568,0.0231822481487398,20.96510442136095,16.568444032295382,25.03288165098977,29.271046940736177
0.69,31.222200246709487,131.01042412705212,10.588480682141288,16.201634217167026,-12.927225468554386,35.007328750741834,5.458684892987622,-4.776966124218228,401.0140726853658,27.39064417736665,9.872190371709337,68.27546783068482,-1.361460248854827,118.53943912704707,459.0632731570156,1.274,1.024479631064582,0,9.21218412824044,255.00010927308023,0.0805008540447399,7.444544098510372e-07,-0.2945294939321927,-0.1812582642890446,0.0250380814198044,20.61827136644031,16.344975713491017,25.377224729093644,35.750940020863446
0.7,31.22219979303564,131.0104250259456,10.800454845087309,15.880896837642965,-12.66872542188616,29.425684953082968,5.902819776478865,-5.325185613128095,349.270324209851,27.766404868506324,10.032017397678068,68.1040795313107,-1.6099568213148454,118.27178403197613,471.7354569731797,1.274,1.0244351749185203,0,9.242608666668406,255.00010927308023,0.0816054064487251,7.716501734050505e-07,-0.3134086913393686,-0.1973991906479272,0.0270079647300441,20.212742388311884,16.081346572666387,25.792581734114652,30.48067942297136
0.71,31.22219933147776,131.01042593927806,11.01594068640508,15.621997841094364,-12.45643591314535,24.247995850270165,6.329333138389238,-5.844096947070415,301.3312640634036,28.03405753583878,10.149795827446985,67.92115273616469,-1.8764118024471657,117.98442909380029,480.86387350853937,1.274,1.0243880468141104,0,9.273181274662637,255.00010927308023,0.0823922373821574,7.98513500893355e-07,-0.3324883211086774,-0.2136636470331281,0.0289277422103567,19.882993886369228,15.87670253264639,26.09278239642932,25.732843407952203
0.72,31.22219886609641,131.0104268582639,11.232529679088763,15.382943719233303,-12.258842365770883,29.57708828688192,6.749140804586115,-6.352157220665011,350.7922053414578,28.255499750053936,10.249860487333004,67.72645823705409,-2.1601040502697217,117.67807561342433,488.4804456221156,1.274,1.024337302174265,0,9.303708642451207,255.00010927308023,0.0830432600887982,8.251387692634343e-07,-0.3516693081390713,-0.2299714562115122,0.0308376028247086,19.5774085130822,15.693713234811192,26.34454339280614,30.995240836073265
0.73,31.22219839551364,131.01042778599054,11.451042933416373,15.077349211503115,-12.010781759845337,37.28095678730458,7.204176161721437,-6.9119561105617375,422.3203185282354,28.57713594103737,10.39088353278212,67.5198195335544,-2.4601663125698328,117.35357932507442,499.6541348309571,1.274,1.024292465384646,0,9.333918553112069,255.00010927308023,0.0839887598461187,8.516207442184975e-07,-0.3709002349640194,-0.2462801490278517,0.0328934818406814,19.189328791362225,15.45363950583727,26.704274171052905,38.594624372058846
0.74,31.222197916297617,131.01042873038494,11.673521081658318,14.71896908865884,-11.722475845858172,23.44397458050413,7.695302978968247,-7.52323912744196,294.4828134710563,28.98371391166256,10.567241127803536,67.30108635944673,-2.775647023555511,117.01188459665543,513.9618390128221,1.274,1.0242470321640116,0,9.363929173990924,255.00010927308023,0.0851839142384016,8.78046094526058e-07,-0.39023639784419,-0.2626316670292197,0.0350999556492514,18.73552306210233,15.168742364375802,27.15517125017212,25.79606092096456
0.75,31.222197428335903,131.01042969207023,11.900035933651756,14.481268896984888,-11.525065349870872,27.27312691981792,8.11895507883029,-8.035745966386203,330.24688556441737,29.158512057727727,10.650701677221743,67.07007243173203,-3.1056265199512847,116.653899128376,520.1685322997635,1.274,1.0241984712898409,0,9.393985806391196,255.00010927308023,0.0856978696894309,9.045080073649276e-07,-0.4097187148500351,-0.2790567557829555,0.0370737462216161,18.43057909148579,15.000336013821276,27.360342605421437,29.56880276225017
0.76,31.222196940118863,131.01043065158092,12.125544155744576,14.171070327517477,-11.2725233720559,29.28258609263975,8.586359438828168,-8.61185960997446,349.2703242098581,29.45425367403504,10.784290465962092,66.82656420113457,-3.449202936659764,116.28050921248622,530.7622176223896,1.274,1.0241522053390697,0,9.424075657243684,255.00010927308023,0.0865672847113573,9.311363400794392e-07,-0.4291575127480014,-0.2954035810263946,0.0392256952734918,18.03553924719656,14.769504717218034,27.6949709296028,31.707405170204673
0.77,31.222196442225847,131.01043163097643,12.35565500178,13.848055372318738,-11.009708163162117,27.334108944543186,9.063444262474748,-9.2018597027653,331.76876669606884,29.761323582709448,10.923834244263544,66.57045994345935,-3.8052722596014537,115.8928194681651,541.8746584057304,1.274,1.0241065975906936,0,9.453579383133048,255.00010927308023,0.0874700031100144,9.580299393370914e-07,-0.448619255437664,-0.3117234301046141,0.0414310998972065,17.62404688257661,14.53247095819414,28.04254571198855,30.231998870079995
0.78,31.22219593855697,131.01043262149463,12.588055498863149,13.53674606563894,-10.755463978037051,22.413188556415378,9.53176058938689,-9.779740232230376,286.8734378128874,30.03236773594606,11.049627578031831,66.3016181218184,-4.172793050892968,115.49186613387664,551.7772765836838,1.274,1.0240588105546735,0,9.483233004104235,255.00010927308023,0.0882668467231939,9.853036254848906e-07,-0.4680878360788008,-0.3280017882270278,0.0436217964766918,17.22666658700103,14.312539307419543,28.35280820230586,26.245929212141142
0.79,31.22219542969412,131.010433621906,12.822405377287383,13.2465294939787,-10.516846175620564,31.720056348496207,9.978723015002648,-10.328513508822835,373.6203323159581,30.243435668612005,11.151515205863184,66.01990750934695,-4.550708697584381,115.07870195369895,559.5477358837883,1.274,1.0240083170932772,0,9.512732180946852,255.00010927308023,0.0888874224651957,1.0130818538504954e-06,-0.4875146490577476,-0.3441989961401881,0.045750478496002,16.8550436927414,14.119817489701362,28.600714129748777,34.81975127802974
0.8,31.2221949166539,131.0104346298688,13.058103429268751,12.875896131121456,-10.216559464900945,32.041642618092865,10.491727069092788,-10.970678037900276,377.42502064505805,30.612870630954383,11.321326731100708,65.72522794889022,-4.937925819461197,114.65442050951128,573.2884257249174,1.274,1.0239625010683884,0,9.541974013839216,255.00010927308023,0.0899734550784847,1.0414955267069635e-06,-0.506835031142781,-0.3602625879463173,0.0481435039468974,16.38291914498959,13.8573551639024,29.01654798968205,35.45559159242991
0.81,31.222194393590872,131.0104356603874,13.298659922959033,12.5176461891497,-9.92520074396787,20.74075046688049,10.993775962879395,-11.598101052387042,273.9374926939922,30.94400859640665,11.476647796537582,65.41752158696775,-5.333310166330084,114.22016176749804,585.7444399605207,1.274,1.0239149950770308,0,9.570949573830818,255.00010927308023,0.0909469404927175,1.070653962718479e-06,-0.5261295965386734,-0.3762551533870788,0.0505156898586106,15.925628132453244,13.614934962966752,29.392747265168857,26.18315847778433
0.82,31.222193865502103,131.01043670128993,13.541094816070508,12.222596319499068,-9.681750702643,26.56030912442453,11.42574093452794,-12.12976893409154,328.725004432774,31.112493795952364,11.563672742406224,65.09668498195481,-5.735821602643917,113.7769644887766,592.1265897232645,1.274,1.0238644186635044,0,9.600087229596072,255.00010927308023,0.0914423822163591,1.1006934147474212e-06,-0.5453435603931239,-0.3921321802670598,0.0526443640035707,15.54667930812274,13.443715731568746,29.59891506732941,31.354885920417388
0.83,31.22219333546643,131.01043774455977,13.783560451360415,11.86175908529898,-9.387594096676276,33.684376520955325,11.917939980317731,-12.746331350936346,395.6875032246518,31.42095997243084,11.712340995259837,64.76265230557311,-6.144397555557656,113.32589450644106,603.9120624292931,1.274,1.0238188483711983,0,9.62902153130231,255.00010927308023,0.0923492443305519,1.1317678940033783e-06,-0.5643447849065141,-0.4077883974764434,0.0550174838056432,15.085203239164445,13.217579860415002,29.95294889440894,37.936044573568886
0.84,31.222192796156712,131.01043880988647,14.030481816590532,11.465428572329868,-9.065737390095666,20.521587207078014,12.44725680089736,-13.41513362458433,275.45937482564227,31.806376357323938,11.896520397908846,64.4154446517828,-6.5579010794818124,112.86810340864336,618.8036890153148,1.274,1.0237739661568126,0,9.657538241762705,255.00010927308023,0.0934822808400015,1.163994915645138e-06,-0.5831949120275454,-0.4232716975721128,0.0575511995842149,14.578815148345138,12.96645745428522,30.388268226036427,27.496100696837846
0.85,31.2221922493461,131.01043989330898,14.280814368924768,11.148625210550424,-8.80439820944307,22.267385735277887,12.86910757912412,-13.938484143660574,292.9609323393965,31.96864944565376,11.98424788694651,64.0550514078666,-6.975290029124039,112.4046425141032,625.1189222365236,1.274,1.0237227741398531,0,9.686149520661427,255.00010927308023,0.0939594838661897,1.1975023829145105e-06,-0.601909233358513,-0.4385932284791955,0.059699585349819,14.171342692336289,12.80830882094934,30.591094186678795,29.252892807204628
0.86,31.222191702347377,131.01044097472086,14.530133790874329,10.790757397348488,-8.511191663642252,27.87395153748257,13.32932220906115,-14.516506031007264,346.2265619465616,32.22199626462621,12.11361108971534,63.68145880340264,-7.39557767466112,111.93650627803356,635.050926416451,1.274,1.023674789281455,0,9.714701301170397,255.00010927308023,0.0947043652783398,1.2324593862777407e-06,-0.6203224201570982,-0.4536219733427541,0.0620119720233002,13.712077192340429,12.621210477996394,30.88997291735389,34.137324912991765
0.87,31.22219114743914,131.01044207597943,14.783137319730974,10.400544394909264,-8.19262513912641,25.713798245370626,13.82362308547196,-15.142942727614487,327.9640783669946,32.55059438159252,12.278693971199637,63.29476363405013,-7.817700786270313,111.46478001414944,648.053652126411,1.274,1.0236288969245204,0,9.742734175099542,255.00010927308023,0.0956704281961969,1.2689910868082288e-06,-0.6384600466173941,-0.4683777256769282,0.0644744606588977,13.211759702736162,12.41433688169173,31.268080585682952,32.88769815393943
0.88,31.222190585797577,131.0104431945786,15.039138291354131,10.024550337199807,-7.884588780538003,21.89065700402905,14.284807674947018,-15.726486392997709,294.4828134710421,32.82298759346579,12.42031926068096,62.89505500774993,-8.240675695009637,110.9904671453537,658.9290519135609,1.274,1.0235805388426191,0,9.770779606864762,255.00010927308023,0.0964713058989423,1.307224982386934e-06,-0.6563323291471143,-0.482867870752659,0.0668322831065595,12.72878293001542,12.237611020074782,31.588384537958213,30.505392451948776
0.89,31.222190020046668,131.0104443231655,15.296546989720373,9.656472238862772,-7.582234340987585,23.913289103475744,14.716175156771037,-16.272055598673198,315.02813424808807,33.052522242033845,12.544046873140871,62.48242385882461,-8.663585441857137,110.51450343617982,668.1606805009499,1.274,1.0235293752791452,0,9.798757890126735,255.00010927308023,0.097146222155435,1.3473071041863118e-06,-0.6738745670960691,-0.4970412512100616,0.0690967034625989,12.255273712404115,12.086283139266456,31.864980895970124,32.45290434456504
0.9,31.222189449850426,131.0104454629528,15.555579180763363,9.267045992689656,-7.263064497758228,26.333976741285685,15.166615868219452,-16.845914966633163,339.3781423542166,33.33287025465537,12.693124366145904,62.05701051123633,-9.08552938675978,110.0378139318166,679.5263822297834,1.274,1.0234837388140003,0,9.826496537077457,255.00010927308023,0.0979704925087348,1.389379116748218e-06,-0.6910316714066055,-0.5108544263141924,0.0714551469419601,11.754529086965736,11.928942822900176,32.1950438026423,34.74607055434811
0.91,31.22218887333557,131.0104466202778,15.817410633810708,8.86480852588398,-6.933670292436784,19.411413621520943,15.62467885695664,-17.432528929121496,277.7421810230785,33.64163123978042,12.857699721528272,61.61899928031633,-9.505636171446753,109.56129919491512,692.1561313631394,1.274,1.023436404813438,0,9.854022931399063,255.00010927308023,0.0988782811953635,1.433565419958268e-06,-0.7077967525883992,-0.5243018282047308,0.0738648029410804,11.23725986809824,11.775442458177894,32.55514926591819,30.410962382559592
0.92,31.22218829104811,131.01044779410603,16.08172967782225,8.488327342797103,-6.623675188324556,23.21327204421518,16.00988297385755,-17.923724128929837,315.0281342480675,33.83968644371265,12.971902684225752,61.1685880528786,-9.923098701861694,109.08579611888209,700.3120746487707,1.274,1.0233859136578225,0,9.881463541329383,255.00010927308023,0.0994606945980152,1.4799907483529096e-06,-0.7241489098989836,-0.5373669751624474,0.0760142682065869,10.751885412410012,11.672896586071628,32.80155793376227,33.41305491099755
0.93,31.2221877063456,131.01044897377335,16.346459764044152,8.082317136766209,-6.290709600440248,27.744623571191248,16.436173438125785,-18.472980532889743,359.16250706547066,34.13062313566476,13.132418409599635,60.70599714120821,-10.337164965143003,108.61208835967768,712.387593107644,1.274,1.0233407575091376,0,9.908785144295427,255.00010927308023,0.1003161075217261,1.5287984530239192e-06,-0.7400009448401013,-0.5499817329826803,0.0783441111171684,10.229068056388986,11.555546047941515,33.14446486839812,37.16400064798966
0.94,31.22218711444076,131.01045017573364,16.61461169087094,7.660214338857974,-5.945085536182038,19.20880712116193,16.881340643709045,-19.050322568526017,283.06875048378083,34.47282201500738,13.320362870442388,60.2315121012228,-10.747099713605111,108.14095054918911,726.7255046402198,1.274,1.0232914783978162,0,9.93577656057706,255.00010927308023,0.1013221988084311,1.580091529649767e-06,-0.7553621202508034,-0.5621534993320104,0.0807701186076145,9.685656229665604,11.439312342658246,33.540644966358755,31.88844183888319
0.95,31.22218651647515,131.01045139709086,16.885506736265523,7.268391170055944,-5.622375344035435,25.37428689642028,17.22645514480464,-19.496347053950863,342.421873617488,34.66993087873488,13.439571165397474,59.74542175660528,-11.152244919743604,107.67307935762224,735.0406891939404,1.274,1.0232418269359267,0,9.96274798226418,255.00010927308023,0.1019018508192606,1.6339747047134384e-06,-0.770217402954478,-0.5738705131458179,0.0828273345377445,9.179910326777636,11.38662773450954,33.78818691144824,36.34161169796836
0.96,31.222185916803543,131.0104526227281,17.156406118914465,6.842603197679408,-5.273517685252331,24.499785061500145,17.638816567091364,-20.03551343675392,337.09533515678265,35.00364737232359,13.628591081125156,59.248033486949645,-11.5520024759634,107.20911299714292,749.2396118319969,1.274,1.0231951201821403,0,9.98961419456126,255.00010927308023,0.1028830247129991,1.6905817423816487e-06,-0.7844699831193492,-0.5850578298730299,0.085169816974847,8.631268332105419,11.310780546427932,34.17645422169163,36.232431834222076
0.97,31.22218530887777,131.01045387691352,17.431489568715676,6.422543276692472,-4.928791940303481,14.18813508359138,18.011456598818818,-20.524507034737645,245.0218871929888,35.297358183834454,13.800417355046756,58.739726305255125,-11.945789961164662,106.74968271732789,761.8457695909709,1.274,1.0231476260761452,0,10.016127121303423,255.00010927308023,0.1037466240956806,1.7499848703427126e-06,-0.7981390301551398,-0.5957305366756936,0.0873786560619824,8.0895097543235,11.267557453369964,34.524099874307254,30.77289610973211
0.98,31.222184697198426,131.01045514393977,17.707923457999872,6.026804764836567,-4.602384619318979,21.98359874310637,18.274976440371884,-20.87061477427327,319.593746642963,35.445922372189315,13.900627335086153,58.22087538305023,-12.33310409451604,106.29533916633967,768.2519835803142,1.274,1.0230935628253934,0,10.042695539468689,255.00010927308023,0.1041836115626628,1.812282555031844e-06,-0.8111707222781028,-0.6058470468331058,0.0891767475783549,7.57800149001707,11.2884317494768,34.72375868528013,35.39542256634562
0.99,31.22218408403968,131.01045641503035,17.98424740743113,5.597069658777628,-4.250073908681012,24.0592274308648,18.626045191745263,-21.3371175875091,341.66094855170127,35.76480887576312,14.090393818418264,57.691899264183405,-12.713479460051946,105.84660020544308,782.1164452518419,1.274,1.0230490803133316,0,10.06904652221087,255.00010927308023,0.1051212191328571,1.8775840705808737e-06,-0.8234815004732116,-0.6153435942281733,0.0913421668323782,7.023731323641915,11.279474646406142,35.09782088638073,37.16246185330305
1.0,31.2221834627626,131.0104577171426,18.264783554913823,5.1667620518718245,-3.8972563701120175,20.750182090073405,18.955399756516165,-21.77784527284921,314.2672081822764,36.0795375661325,14.281149850967628,57.15327933668021,-13.08647570112131,105.40396635332284,795.9207449102298,1.274,1.022999484445133,0,10.095048795381986,255.00010927308023,0.1060466167579851,1.9459225370983043e-06,-0.835094286230045,-0.6242378437162484,0.0934429041208846,6.468603526527218,11.293699527470938,35.46782992121935,35.55491219829823
1.01,31.22218283741684,131.01045903516456,18.54694770525033,4.743641762717423,-3.5499064825015485,21.574224375132104,19.22770719073056,-22.145605976513245,324.92031610370094,36.33849643187854,14.44528224727036,56.60548976955892,-13.451727096446694,104.96786197697404,807.3652209210242,1.274,1.0229507481225095,0,10.1211092859537,255.00010927308023,0.1068081004823965,2.0173575218837763e-06,-0.8459701266403648,-0.6324999219608343,0.0953366888477671,5.922428505608175,11.346098526494062,35.78123511540245,36.408511989203774
1.02,31.22218220843788,131.01046036756955,18.83046796059252,4.314488649992504,-3.198108847120165,16.844931346212512,19.4985272428592,-22.51479820587349,284.59063161543185,36.62986901374166,14.629337727470002,56.049037643288656,-13.808909331846728,104.53867405889616,820.3421664017577,1.274,1.0229039803623294,0,10.146987996475834,255.00010927308023,0.107664863178574,2.0919480988287625e-06,-0.8560576476228644,-0.6400910793110919,0.0972444074839247,5.36873999211451,11.410709506106862,36.12777206748742,34.21783767204379
1.03,31.22218157417468,131.01046172217468,19.116461501428727,3.893083395363395,-2.852104300007967,12.444595766268828,19.6987464338094,-22.79302818963924,247.3046933904342,36.850247584574895,14.777745922940404,55.4844708274566,-14.157733218149296,104.11675958099138,830.2200069296503,1.274,1.022853416101322,0,10.172664173110828,255.00010927308023,0.1083129635567779,2.169719829495369e-06,-0.8653303715769352,-0.6469912153007791,0.0988864270383032,4.824735521982692,11.517539478804531,36.40242508622568,32.59494913177567
1.04,31.222180937267,131.0104630879596,19.403202452574813,3.474471904191332,-2.5082218778999152,22.78850109661096,19.847665168447964,-23.00610253782729,345.4656368807608,37.03212174223516,14.90725292637888,54.91236128421069,-14.497953349010777,103.70243484302787,838.4122310821593,1.274,1.0228049544826707,0,10.198241091501773,255.00010927308023,0.1088478936628072,2.250709006619115e-06,-0.8737393440472861,-0.6531636927546617,0.1003374028502223,4.284322297931886,11.656454584471668,36.63825699964493,37.980604903688466
1.05,31.22218029732356,131.01046446702065,19.69096635739304,3.037283946474053,-2.1511563940701834,11.007272232298025,20.09050927253522,-23.34850398497302,240.4562587980608,37.39421926238419,15.13923531533944,54.33331956454233,-14.829357033421044,103.2959885402505,854.864635919193,1.274,1.022755494436122,0,10.22356878315216,255.00010927308023,0.1099125577175525,2.3349298253495844e-06,-0.881248927263765,-0.6585822087615628,0.1021864792384646,3.721321242738113,11.762152286797,37.05639578573162,32.70995633078778
1.06,31.222179649983072,131.01046588128446,19.9827466798855,2.6206772445128803,-1.8090177809575216,18.045683316790875,20.15633525881584,-23.457491320530394,308.1796836557233,37.53213397374012,15.248675720880131,53.74798566365327,-15.151767907860998,102.89767707931124,861.1578327544767,1.274,1.0227013895379469,0,10.24867747771732,255.00010927308023,0.110318292642194,2.4223254391932312e-06,-0.8878604298120119,-0.6632465346759079,0.1033299341022645,3.184055891628948,11.953656047197484,37.24802133478589,35.80751927303044
1.07,31.22217900359981,131.01046729071015,20.272888024389008,2.190972164391757,-1.4581757778971605,22.10041878623139,20.306449307220383,-23.683053416315005,348.5093681440431,37.83787463841064,15.455454006785656,53.15700421096992,-15.465055146571355,102.50771253227688,875.2207505757153,1.274,1.0226540159946436,0,10.273820790322018,255.00010927308023,0.1112173210395789,2.5129304207061023e-06,-0.8935106363370876,-0.6671111734988001,0.1048316814987259,2.6316532977684965,12.11291191269924,37.60884964798651,38.23175922075193
1.08,31.222178349944627,131.0104687369554,20.567046585627995,1.7613976911148428,-1.1080388574027005,12.229923656133977,20.447481868147303,-23.90034881584985,261.0015785751465,38.17264666586049,15.6825728180233,52.561066641257874,-15.769109415032531,102.12629191041952,890.7511924705037,1.274,1.0226061614050743,0,10.29851054133544,255.00010927308023,0.1122016929250089,2.606657192947193e-06,-0.8981953757338031,-0.6701717542309434,0.1063106829891717,2.080837602227476,12.280455463562475,37.99860717790785,33.747551331946646
1.09,31.2221776922688,131.0104702051017,20.863047127440336,1.3426150481317245,-0.765671550754329,10.33177268444048,20.44752920567288,-23.932249013201865,246.54375332456465,38.34283184065481,15.816893722968162,51.960871882012405,-16.06385903127112,101.75357650912296,898.6858223220567,1.274,1.0225512795791307,0,10.323244804496287,255.00010927308023,0.1127022983574574,2.70343991390185e-06,-0.9018859303767026,-0.6724061181104907,0.1072203623887893,1.5455616391824614,12.51364789219318,38.22256401441236,33.13003954494618
1.1,31.222177033853008,131.01047167763844,21.158605321112606,0.9236936135060982,-0.4238727076357795,28.18871074011746,20.43325455071177,-23.9486152078782,413.1890617384087,38.53719932207817,15.96747429606204,51.35714225782554,-16.349258678271504,101.38970537290312,907.7943811584888,1.274,1.0224981043155532,0,10.34783892189976,255.00010927308023,0.113273986626022,2.8032528711355e-06,-0.904545486910359,-0.6737893680462343,0.1080785988128582,1.016298380489133,12.753946333479243,38.4706181601952,42.25704053881686
1.11,31.2221763715862,131.01047317204416,21.45592364819208,0.4992918905480188,-0.0806645482748896,18.16931367837528,20.576644004987727,-24.181213234246865,324.1593910379213,39.01196900968089,16.288751802605173,50.75062808270416,-16.62528670940396,101.03479822393273,930.2732450265754,1.274,1.0224548851875197,0,10.372108676768908,255.00010927308023,0.1146698815576748,2.9059983224056727e-06,-0.9061565653659506,-0.6743085992473103,0.1096018424716643,0.5057657527047055,12.9195726939612,38.99929825625335,36.58214470928827
1.12,31.22217570085517,131.0104747170502,21.75836871384014,0.0847610146546099,0.2560326686383363,1.3617700170846083,20.52811809546028,-24.15978881732625,172.7328179403806,39.25034179877242,16.471733356037397,50.14209472778408,-16.891946947816006,100.68895255460131,941.6490214808412,1.274,1.0223979224661404,0,10.396241986298651,255.00010927308023,0.1153709366709693,3.0114801602561414e-06,-0.9066960879709338,-0.6739414859488945,0.1103339869454941,0.2696981816671522,13.170699599816697,39.29055918246894,31.73252977337919
1.13,31.22217503067341,131.01047626059562,22.05951757342288,-0.3256311978989562,0.5904838157571975,22.347724838774663,20.313954747403745,-23.918734036669523,367.5328077894322,39.28977060765732,16.534821319410966,49.53232681927335,-17.149260818841206,100.35225310651388,943.5145409077866,1.274,1.0223460397860296,0,10.42051037400869,255.00010927308023,0.1154872246446232,3.1196488908837424e-06,-0.9061387449483896,-0.6726736992369163,0.1103737398907495,0.6743167353841694,13.495683904883778,39.38252194664588,38.525100919609365
1.14,31.22217436037886,131.01047780537647,22.359803773814527,-0.7325053135570873,0.9179462046105852,8.132388390495809,20.33527756432631,-23.999789163371137,239.6953177322812,39.730586492292765,16.848403216193535,48.922127944791285,-17.397270717464394,100.0247670008369,964.7772123545492,1.274,1.0223022138470996,0,10.44440054744787,255.00010927308023,0.1167833419386389,3.230431788559468e-06,-0.9044820921997376,-0.6705088088600822,0.1114048215110357,1.174369345454496,13.699217279319324,39.87477097657583,32.490754599398436
1.15,31.22217368034519,131.01047941425307,22.66635265009372,-1.1368456650307428,1.2455164009852804,7.650500656436381,20.11280524164037,-23.755541929053887,237.4125115347709,39.855720537090654,16.968512608836406,48.31230471744208,-17.636043998986807,99.70653763373636,970.8354525979588,1.274,1.0222426194541194,0,10.46795844910168,255.00010927308023,0.1171515638644388,3.343532611806504e-06,-0.9016837766970774,-0.6674061144443137,0.1114066644769485,1.6862756534233907,14.01289772026262,40.05135038731503,32.05278252079415
1.16,31.22217300332464,131.01048100587198,22.969800101074032,-1.535681158130516,1.567266936705038,35.0220904575861,19.90166575966871,-23.53052306222754,490.043774385954,40.047197134979086,17.132221079802616,47.70369570223137,-17.8656507175231,99.39761345596573,980.1575516877527,1.274,1.02219674531104,0,10.4917417860074,255.00010927308023,0.1177147916267102,3.458888832344551e-06,-0.897758148364522,-0.6633845359687544,0.1114512833621845,2.1940952617273317,14.31003365955067,40.29335214987328,46.65092320212898
