Time,Latitude,Longitude,Altitude,Angle of Attack,Angle of Sideslip,X-Acceleration,Y-Acceleration,Z-Acceleration,Thrust,True Velocity,Ground Velocity,Pitch,Roll,Yaw,Dynamic Pressure,cp,cg,parachute_deploy_gain,Wind Speed,Wind Direction,Mach,omega_x,omega_y,omega_z,Cmq,Angle of Attack(total),Angle of Attack(gust),True Velocity(gust),Acceleration
0.0,31.222216000000007,131.010392,3.000000004412624,0.0,0.0,0.0,0.0,0.0,2.2828121974499247,0.0,0.0,69.99999999623412,0.0,119.9999999935444,0.0,1.274,1.0271675151847728,0,0.0,0.0,0.0,0.0,0.0,0.0,-0.0,0.0,90.0,0.0,0.0
0.01,31.22221599999084,131.01039200000497,3.000002745347096,0.0,0.0,0.0,0.0,0.0,34.242186961749226,3.465174813755316e-14,2.8705476994166025e-14,69.9999999962611,-2.1713911667908447e-11,119.99999999352175,7.352495975525499e-28,1.274,1.0271659134330349,0,0.0,0.0,1.0183245502395064e-16,-3.3305335486039093e-18,7.169286865560398e-18,5.624298769768554e-18,-7.715917190115602e-34,0.0,89.99999999999979,3.465174813755316e-14,0.0
0.02,31.222215999994315,131.0103920000094,3.0000030495639742,0.0,0.0,0.0,0.0,0.0,25.871876237766216,3.8197434737535036e-11,2.4171837235633357e-11,69.99999999628672,-1.1921727947863515e-11,119.99999999353136,8.93414285188691e-22,1.274,1.027164492361118,0,0.0,0.0,1.1225230367947217e-13,-6.657678965418802e-18,1.4338573731120796e-17,1.1241821275959074e-17,-1.7010872994127372e-30,0.0,89.99999999975682,3.8197434737535036e-11,0.0
0.03,31.222215999994315,131.0103920000094,3.0000030495639742,0.0,0.0,9.81877837424427,-2.5122800045972096e-05,3.3498614629347925,180.34219359854663,1.2659015405517447e-10,1.1364406173918436e-10,69.99999999631459,-1.6431898037347223e-11,119.99999999352724,9.812605835254651e-21,1.274,1.0271551940870716,0,0.0,0.0,3.720154642239108e-13,-9.991600645811728e-18,2.150108433310316e-17,1.6859343782149594e-17,-8.453698244545225e-30,0.0,89.99999999919412,1.2659015405517447e-10,10.374487003414373
0.04,31.222215999994315,131.0103920000094,3.0000030495639742,18.83801224594347,-0.0001111777826462,48.68248476615645,-1.016330065874988e-05,3.3497854396877287,548.635972453808,0.1556173050466994,0.0975908358443652,69.99999999633813,-2.0932768807056278e-11,119.99999999352085,0.0148286043323172,1.274,1.027133720825283,0,0.0,0.0,0.0004573186944143,-1.3322134194415637e-17,-1.04744143520903e-11,1.336824254131964e-11,5.0626055458604615e-15,18.83801224625964,89.06236267790787,0.1555998412814392,48.79759610369246
0.05,31.22221599164764,131.01039201704114,3.002326315126219,5.772385609593056,-4.395076213712875e-06,71.20344550265034,4.905512691849684e-05,3.349217396035405,761.6984298824663,0.8326471944351852,0.3620326097059287,70.00000001316391,-1.0866255162484559e-10,120.00000000231074,0.4245281043148827,1.274,1.027093426565204,0,0.0,0.0,0.0024469331205246,-5.0245994431125096e-18,-7.32924164976824e-07,2.217344936947165e-11,1.895424184525467e-09,5.772385609594774,84.74112356985832,0.8326465040582279,71.28217104309611
0.06,31.22221596664444,131.01039206837547,3.015081730143309,4.056581213689704,3.169093567502233e-05,53.16249142470188,0.0001203825427859,3.3481235983850643,590.4875390737236,1.657216205300742,0.6755452977614796,69.99999964391398,-3.9285905645317736e-10,120.0000000287861,1.6816755551786196,1.274,1.027050317124926,0,0.0,0.0,0.0048701272653724,3.095757869075056e-13,-7.483541766772344e-06,3.074135420506017e-11,3.8518749565858254e-08,4.056581213813337,79.59316473687034,1.657221183301277,53.26781792157489
0.07,31.22221592883117,131.0103921460222,3.034593611434361,4.115662018628709,6.450869598349036e-05,81.18203554989698,0.0001593212642178,3.347059402768047,855.2937749779172,2.099899704220947,0.8579771146174259,69.99999543281565,-8.233801910783518e-10,120.00000006883089,2.700101932075157,1.274,1.027003201295312,0,0.0,0.0,0.006171060252819,3.4704292086287e-12,-2.6327204536316785e-05,1.9541142932033486e-10,1.7170712165327165e-07,4.115662019133419,76.90111966094352,2.099909837223217,81.2510043180746
0.08,31.22221588914193,131.01039222747755,3.0542761843835606,3.459696193892355,8.037433511260004e-05,16.298214211652088,0.0002413456836072,3.344878926597744,241.2171988638792,3.051964775152957,1.2149999716613011,69.99998042886442,-1.0128995578004475e-09,120.00000011111383,5.703497661025892,1.274,1.0269597189470347,0,0.0,0.0,0.0089689344021769,1.458982438104473e-11,-5.702803872814215e-05,7.043261397829576e-10,5.405702492731987e-07,3.459696194824858,71.30331929508368,3.051977400323993,16.63790856991177
0.09,31.2222158241468,131.01039236098703,3.0886872184095737,4.313676956300389,0.0001337561018991,50.35975918308536,0.0002293282821279,3.344215841840564,563.0937377043203,2.893161298572128,1.191209213966114,69.99994788602814,-7.098432023887522e-10,120.00000018106356,5.125380275808925,1.274,1.026918932011013,0,0.0,0.0,0.0085022553945842,3.8672912027154325e-11,-0.0001115933708951,2.016054215232918e-09,1.0027525988343615e-06,4.313676958370176,72.2316578138625,2.893182308931483,50.47067588835877
0.1,31.2222157788302,131.01039245392113,3.109877853389092,4.035124630954496,0.0001457499816535,47.804664812504015,0.0002878217657545,3.341734392237128,538.7437595981891,3.5677148583138303,1.4531247507621967,69.99988403958329,1.9248461973355822e-09,120.0000002323013,7.7939962029572305,1.274,1.0268846934974103,0,0.0,0.0,0.0104845969583028,8.579678749070606e-11,-0.0001726817043215,3.984565639703107e-09,1.913455350430327e-06,4.0351246335824245,68.43243098813296,3.567737752667411,47.92132267234452
0.11,31.222215703308,131.01039260899836,3.148841432727305,4.043401107254707,0.0001752764476999,37.67622367577205,0.0003286462930162,3.3392563999062723,442.86563930529127,4.034183355956686,1.6436552022667772,69.99978525353545,7.302513231814865e-09,120.00000031883242,9.96528118825134,1.274,1.026848594915519,0,0.0,0.0,0.0118554331868328,1.5870341853361987e-10,-0.0002596204409236,7.232030302688121e-09,3.252930323390323e-06,4.04340111104746,65.92012987243639,4.034210888316708,37.82391391539392
0.12,31.222215627491828,131.01039276462643,3.186995101203875,4.17874459224363,0.0002066711490009,41.15991989399172,0.0003576945202315,3.336766085769504,475.58594813540793,4.361857560629481,1.7865750500940407,69.99963665601238,1.781774420198147e-08,120.00000041104812,11.649831899889556,1.274,1.0268114448194128,0,0.0,0.0,0.0128183893919737,2.682972478760441e-10,-0.0003710216542429,1.2215991071490164e-08,5.026311388647148e-06,4.178744597345269,64.21681651392016,4.361890024457652,41.29495143136631
0.13,31.22221554594398,131.01039293200228,3.2277173449026786,4.202734874672792,0.0002327160860324,45.44886120763352,0.0003953741266062,3.333578629398489,515.9156326236897,4.792165672014363,1.9646716520715424,69.99942424225341,3.613383418913551e-08,120.00000051758742,14.061726603124043,1.274,1.026779572895131,0,0.0,0.0,0.0140829618979635,4.248908088871395e-10,-0.0005056103199642,1.908859219307828e-08,7.5253154423526356e-06,4.202734881104192,62.048594618540655,4.792202226971676,45.570952718869485
0.14,31.222215454191247,131.01039312033683,3.2737880595608355,4.184830647080848,0.000257138757548,42.32232525579263,0.0004369426767266,3.329727443445437,486.2390860568421,5.269261304374574,2.158791628597544,69.99913473613935,6.515851355725497e-08,120.00000064630268,17.000925061330125,1.274,1.0267449573927567,0,0.0,0.0,0.0154850332441425,6.382432869666793e-10,-0.0006690086306358,2.8426433029675884e-08,1.0948547100483978e-05,4.184830654966803,59.74181173116622,5.269301695636157,42.45310707234106
0.15,31.222215353826755,131.0103933263496,3.3242182719560263,4.21963947489699,0.0002846467688673,40.886944113003565,0.0004726792395108,3.325585650885676,472.5421858721398,5.6781946837482895,2.329510773545807,69.99875162806286,1.0876776246115984e-07,120.00000079954532,19.742017654108928,1.274,1.0267115958081523,0,0.0,0.0,0.0166867950518804,9.204756288136623e-10,-0.000865746478554,4.08948221429571e-08,1.526771148078443e-05,4.219639484480408,57.84996018384879,5.678239395958187,41.02196629910223
0.16,31.222215247130432,131.01039354534575,3.3775922280208457,4.253495568077899,0.0003118339050386,32.26872905470846,0.0005078415214353,3.32090791922544,391.1218908297597,6.081244877834229,2.4981889727471702,69.99825581174558,1.7187028096464329e-07,120.0000009800088,22.644030778355887,1.274,1.026675762255412,0,0.0,0.0,0.0178712695992133,1.2856146928958252e-09,-0.0010961187242953,5.6923362293832417e-08,2.0702404729358337e-05,4.253495579487569,56.06022383757386,6.081293860589489,32.43916312841722
0.17,31.22221513260033,131.01039378041813,3.4348437275053194,4.364838523348639,0.0003448792023946,40.840448242802736,0.0005326487904353,3.3162727284953744,471.78125980632416,6.362544479165355,2.6250789114832647,69.99762801982864,2.5997588617291615e-07,120.00000119506798,24.78723182122683,1.274,1.0266409836796937,0,0.0,0.0,0.0186979513961862,1.747791994374917e-09,-0.0013624931601664,7.706724512977917e-08,2.6923621797558364e-05,4.364838536947241,54.85936171416122,6.362598652663785,40.97486885600156
0.18,31.222215014088988,131.01039402363364,3.4935801365785646,4.353948305387995,0.0003681615230806,33.992183768165326,0.0005718025428208,3.310131992647221,407.1015672119096,6.81502088160835,2.810667639293692,69.99684761766231,3.794979223522764e-07,120.00000144728236,28.437950785509614,1.274,1.0266048342046536,0,0.0,0.0,0.020027681385988,2.3221419748804155e-09,-0.0016616990447559,1.0147209890543081e-07,3.517105786247627e-05,4.353948320923495,52.99157233768714,6.815078712285162,34.152972512863755
0.19,31.22221488419521,131.01039429023237,3.558399965607869,4.432620772533925,0.0003996774584738,38.45149959021069,0.0005986099513107,3.304145139297767,448.95313283182486,7.1223367465208405,2.946425726785696,69.99589577323147,5.440084577183829e-07,120.00000176148238,31.060341085698347,1.274,1.026566130444714,0,0.0,0.0,0.0209308229359413,3.022391489754689e-09,-0.0020041563310821,1.3135864879722746e-07,4.433199397898183e-05,4.432620790516937,51.77883352025967,7.122399527709208,38.59320142454953
0.2,31.222214751373183,131.01039456280608,3.624052454705669,4.443889400961181,0.0004246617145652,35.23432408779927,0.0006337972852267,3.2968110145188256,418.5156301991588,7.530482904611057,3.1167566004785483,69.99474776398331,7.478025600151903e-07,120.00000211715036,34.72195181863731,1.274,1.026529240027363,0,0.0,0.0,0.0221302820454282,3.866698391504749e-09,-0.0023849544920781,1.668144671071589e-07,5.57780533277244e-05,4.443889421210987,50.22448880200342,7.530549610317194,35.38822625098952
0.21,31.222214608673173,131.01039485566503,3.6948551453492566,4.493351735844891,0.0004538195602194,33.79371564104691,0.0006629296043866,3.2891790438445727,404.8187610144608,7.868284042829251,3.2629204975089228,69.99338155599101,1.0150082652278477e-06,120.00000255293388,37.906665490338085,1.274,1.0264923657015164,0,0.0,0.0,0.0231230169900677,4.871073773182836e-09,-0.0028117605859743,2.089322918608601e-07,6.870935089180403e-05,4.493351758715364,48.992529909481824,7.868355328639073,33.95340801819282
0.22,31.22221446109996,131.01039515850383,3.767700382407304,4.5412639153933885,0.000482649303782,41.008966751568416,0.0006914639179131,3.2808061382386606,472.5421858721387,8.20057841132235,3.4071691679735228,69.9917708347139,1.3454961520984431e-06,120.00000305929996,41.175744234065135,1.274,1.0264494137127138,0,0.0,0.0,0.0240995709751246,6.054779813287368e-09,-0.0032829112061357,2.580881224843564e-07,8.3609968899004e-05,4.54126394098788,47.82515604752711,8.2006542256977,41.13999323561041
0.23,31.22221430675399,131.0103954752338,3.843768625625224,4.52371495179584,0.0005047555656171,33.98493478127787,0.0007294889663961,3.2705214710765107,406.340642146096,8.647938096586296,3.5908865300848416,69.98989017772566,1.7539876018835507e-06,120.00000365514876,45.79040229326471,1.274,1.0264133390858623,0,0.0,0.0,0.0254142776666487,7.436335125872812e-09,-0.0038001790077148,3.1489825108822685e-07,0.0001020628978177,4.523714979897577,46.31461705147579,8.648017383405135,34.14194053232237
0.24,31.222214142622448,131.0103958120587,3.92493179063287,4.57837522350066,0.0005351929930195,35.051650311058864,0.0007555049947555,3.26053011385611,416.2328240017099,8.954297884844461,3.72617527247482,69.98771316795013,2.25257161141768e-06,120.0000043564586,49.09180568115741,1.274,1.0263750048312463,0,0.0,0.0,0.0263146218848643,9.034877387788232e-09,-0.0043732521010013,3.809642748985157e-07,0.00012161410144,4.578375254714954,45.32798984252032,8.954381952763216,35.20297212911011
0.25,31.22221397517227,131.0103961556623,4.0071748888306855,4.6034117733065,0.0005618935542827,36.03738579534623,0.000785606492708,3.249069743648399,425.3640807915084,9.311611941121669,3.8789349536029696,69.98520781816889,2.8559738498748624e-06,120.00000517181904,53.08749562138344,1.274,1.0263373768840591,0,0.0,0.0,0.0273647110956883,1.0873791100894836e-08,-0.0049950711786164,4.5609738277273444e-07,0.0001444478241125,4.603411807525074,44.2165428352526,9.311700203154778,36.183554686886296
0.26,31.22221379934012,131.01039651647062,4.09364247475714,4.621386912291471,0.0005881033207375,39.29107511182762,0.0008162761165496,3.236407051295005,455.80158342417656,9.67833954512075,4.034902068846398,69.98234620927953,3.5784678110229355e-06,120.00000612171208,57.350948423913096,1.274,1.0263006300381676,0,0.0,0.0,0.0284424679130479,1.2973286442992724e-08,-0.0056712051373577,5.414206381221602e-07,0.0001704578711045,4.621386949630312,43.12063533194282,9.678431924174348,39.42414126789902
0.27,31.222213616776543,131.01039689108487,4.183310605341074,4.617158109135719,0.0006115457810536,35.90419462403674,0.0008503454714941,3.221982799915672,423.8421996598744,10.088790784535757,4.205862468567124,69.97909721779352,4.436165972465058e-06,120.000007221354,62.31798301949865,1.274,1.026260090595354,0,0.0,0.0,0.0296487219805601,1.5355910600537293e-08,-0.0064045199323113,6.379142666348734e-07,0.0002006609239367,4.617158149547818,41.94410287616451,10.08888684592241,36.048472443180565
0.28,31.22221342607797,131.0103972823952,4.277051150896916,4.642105655370123,0.0006389739579882,41.51133203546672,0.0008785747638736,3.2071101123224945,476.3468732012228,10.432377224420517,4.35383399240675,69.97542808435722,5.446665372087172e-06,120.00000849080963,66.63429581008447,1.274,1.0262212716723291,0,0.0,0.0,0.0306584788590473,1.8045308789081613e-08,-0.0072006835403936,7.469524967369969e-07,0.0002332868227611,4.642105699250441,41.0023231023774,10.432477594215127,41.63503624837164
0.29,31.22221323001776,131.01039768469093,4.373143569786686,4.62134615173668,0.0006600657405645,33.17552944492765,0.0009148746278066,3.1894209319791806,397.9703104221098,10.876662296046485,4.536381530986506,69.9713027936179,6.629751536885327e-06,120.00000994797426,72.43000748232016,1.274,1.026183007522519,0,0.0,0.0,0.0319641703260467,2.1067646517035105e-08,-0.0080566154554079,8.688043379161898e-07,0.000272130659453,4.621346198772975,39.83162628795024,10.876765978930557,33.32848872465723
0.3,31.22221302403368,131.01039810736614,4.4744193758467325,4.664362353358112,0.0006905183788532,31.08096762732793,0.0009381960428197,3.172549142946348,378.1859457108735,11.168362145070317,4.66647911311536,69.96668711012893,8.005507138509574e-06,120.00001161892672,76.36634300732833,1.274,1.0261430389738484,0,0.0,0.0,0.0328214509167604,2.4447409007156216e-08,-0.0089829108229115,1.0056222251461646e-06,0.0003115527202986,4.664362404357781,39.09908960432563,11.168470611443622,31.242464973103964
0.31,31.22221281503337,131.01039853619727,4.576593712520673,4.700143580504286,0.0007196683316923,32.79732593144512,0.0009620705970519,3.154230688182399,394.1656220930229,11.470279728974068,4.800072153432283,69.96154070456518,9.597499105113692e-06,120.00001352112182,80.55022837857167,1.274,1.0261054058068628,0,0.0,0.0,0.0337087616009043,2.8214060606649844e-08,-0.0099686353219717,1.1565909895184251e-06,0.0003550834484269,4.700143635477137,38.36463422765983,11.47039277421126,32.94865339301887
0.32,31.222212598991007,131.01039897947376,4.68216432480395,4.718667719113184,0.0007464384342556,35.7316568886908,0.0009885845337584,3.133859770838664,421.5593934624264,11.808280530415894,4.946054328851105,69.95582953472353,1.14278227255889e-05,120.00001568218067,85.36654007972253,1.274,1.026068246703101,0,0.0,0.0,0.0347021168382987,3.2392058795580455e-08,-0.0110163301561155,1.3226102501723267e-06,0.0004039614423012,4.718667778018562,37.5686120062341,11.808397780690962,35.8688218659563
0.33,31.222212376029034,131.0103994369436,4.791055524254013,4.72141404831576,0.0007708346814671,35.42013590291081,0.0010176135371143,3.1111955852784385,418.5156301991632,12.181577273013426,5.104163223586657,69.94951809396906,1.351997394754887e-05,120.00001812674968,90.84831229869296,1.274,1.0260310883392356,0,0.0,0.0,0.0357992034445943,3.700677535501642e-08,-0.0121310534481307,1.5051409581878843e-06,0.0004588955105349,4.721414111097893,36.7208578211118,12.181698355442045,35.55651229220977
0.34,31.222212145785647,131.0103999093516,4.903491659547144,4.73024573449122,0.0007962944975467,27.63851074646407,0.0010446307681611,3.0871492806781062,345.4656368807584,12.53557620048282,5.2556261014174765,69.94256797855994,1.5899658158227497e-05,120.000020882338,96.20413272674828,1.274,1.0259901535019136,0,0.0,0.0,0.0368395817555172,4.208561016221623e-08,-0.0133180771902383,1.7057647550599631e-06,0.0005184333231541,4.730245801363397,35.94841996438923,12.535701282129995,27.810389570354005
0.35,31.222211909310875,131.01040039453565,5.018822212845608,4.780248518778662,0.0008286678570753,30.332092807652543,0.0010618579815451,3.063967690608957,370.5765700527057,12.774786382148209,5.367579971644358,69.93493776125636,1.8594985713558667e-05,120.00002397748868,99.9096898192772,1.274,1.025950003202184,0,0.0,0.0,0.0375426220587071,4.7658312175989686e-08,-0.0145774693288123,1.9252724355785177e-06,0.0005782798420984,4.780248590437683,35.44790728185619,12.774916548990808,30.486451961956565
0.36,31.22221166933814,131.0104008868675,5.135354490370708,4.798132156899578,0.0008554457330409,34.32674769697476,0.0010851169437774,3.0374319611165923,407.8625232777224,13.09301701329486,5.506730645516068,69.92658597246795,2.163521613217148e-05,120.0000274401514,104.94818266210537,1.274,1.0259105142325406,0,0.0,0.0,0.0384778908056978,5.3755109608570216e-08,-0.0158991451700967,2.162609490834569e-06,0.0006464142451675,4.798132232978766,34.796094028187134,13.09315138639638,34.46087058603792
0.37,31.222211421355144,131.01040139563804,5.255882891363927,4.797392186816851,0.0008791822061288,32.551601855236584,0.00111162791192,3.0078619428913056,391.1218908297639,13.457513730739372,5.661815946371007,69.91747693543164,2.5047738471809164e-05,120.0000313040604,110.87154396328836,1.274,1.025872170958032,0,0.0,0.0,0.0395491312153729,6.040098808671168e-08,-0.0172926678053148,2.420031948898497e-06,0.0007226353721561,4.797392267189059,34.07332166419882,13.457651832357364,32.69027405888565
0.38,31.22221116634284,131.01040191882743,5.379799334000849,4.811698494594017,0.0009057112478668,34.02947987649063,0.0011338447913587,2.9774881690446744,404.81876101445977,13.77554886562956,5.800899861213392,69.90756948297444,2.886339581486796e-05,120.00003560072224,116.17243393848278,1.274,1.02583050512925,0,0.0,0.0,0.0404838339452728,6.762496638941508e-08,-0.0187646375218858,2.69955777313946e-06,0.0008026686661094,4.8116985796350695,33.46655348088405,13.775691134419684,34.15949264475229
0.39,31.222210906095896,131.01040245274032,5.505993307722699,4.813508003664984,0.000929862892873,29.00025983045028,0.0011579891265804,2.9442136901860865,357.6406249338268,14.124492165837273,5.950648592462506,69.8968186645841,3.311602501056718e-05,120.00004036395212,122.13093644173792,1.274,1.02579027384009,0,0.0,0.0,0.0415093739609825,7.545934774906889e-08,-0.020311592409804,3.0013532510753577e-06,0.0008908380763632,4.813508093268025,32.821616487639595,14.124638228358922,29.149330452482886
0.4,31.222210638473225,131.0104030017851,5.635788650457906,4.841647069358873,0.0009592124397379,27.71178845184976,0.0011749448424961,2.91135549588368,345.4656368807565,14.390874239274588,6.07193451174791,69.8851815212744,3.783947407715338e-05,120.00004563180136,126.77947425345651,1.274,1.0257493418632293,0,0.0,0.0,0.0422922854866381,8.39343718693383e-08,-0.021938519432511,3.3271332720311508e-06,0.0009803271643914,4.841647164150728,32.348088166612904,14.391024912012275,27.864299944624147
0.41,31.22221036681104,131.01040355909262,5.767123077463226,4.86553909860892,0.0009876699832274,31.306062598221665,0.0011918093836199,2.876450850006428,378.9468707766882,14.663028799871563,6.195223154320929,69.87261222561014,4.307011032901644e-05,120.0000514391194,131.6183642808765,1.274,1.025708445186429,0,0.0,0.0,0.0430921644173401,9.308325447883581e-08,-0.0236371933433427,3.6760977501392174e-06,0.0010761942383903,4.865539198612839,31.87689439156756,14.663183942709727,31.437931330109585
0.42,31.22221008906472,131.01040412887247,5.901259531771367,4.867510642114694,0.0010118258958528,35.308283402190774,0.0012128114559048,2.8374461227958245,416.23282400171047,14.9952917972178,6.33928625560071,69.85906967380902,4.884273094936628e-05,120.00005782486392,137.64909586091787,1.274,1.0256701057426505,0,0.0,0.0,0.0440686959134695,1.0293499639582845e-07,-0.0254093547296826,4.049238334851429e-06,0.0011830797791891,4.867510747027452,31.315270489291198,14.995450734457847,35.422111438762386
0.43,31.222209804115888,131.01040471342728,6.038886819939341,4.854590670645608,0.0010330089741511,31.00586934514032,0.0012363751872706,2.794478603999558,375.90313951343126,15.369430568701889,6.497852263156962,69.8445117629242,5.519340856908871e-05,120.00006482835984,144.60167924299955,1.274,1.0256308158337524,0,0.0,0.0,0.0451682983415116,1.135186446762958e-07,-0.0272634397889413,4.449073329427772e-06,0.0013010625065656,4.854590780289497,30.70250814963406,15.369592833372094,31.13154422839874
0.44,31.22220951192321,131.01040531284193,6.180028459770617,4.866912332640401,0.0010595850174406,28.57707721036899,0.0012525768202179,2.752165534925872,353.07501253892326,15.659290812546615,6.627318538707029,69.82889155423543,6.216182865383864e-05,120.00007249162944,150.1053167542629,1.274,1.025586171750536,0,0.0,0.0,0.0460202245100907,1.2486676023179565e-07,-0.0292060158163984,4.8779154055816594e-06,0.001420032405556,4.866912447705031,30.24619499837236,15.659457251771938,28.709297424144207
0.45,31.222209215425703,131.01040592106523,6.322872201489905,4.881836476567178,0.0010866574689855,33.31904824532484,0.0012669045761511,2.7082028218433374,397.2093853562887,15.934249290371609,6.751662050993672,69.81215834018458,6.97909417564726e-05,120.00008085697964,155.42080512416243,1.274,1.0255397023523487,0,0.0,0.0,0.0468283602442113,1.3701614206272197e-07,-0.0312276295846745,5.334643585560923e-06,0.0015449645531859,4.8818365972149325,29.82567893138932,15.934419982127675,33.428929688274074
0.46,31.22220891307435,131.0104065412864,6.468371919199588,4.869610441729251,0.0011078049156487,38.95909776354321,0.0012868374716666,2.6582856015412624,449.7140588976424,16.292139278621757,6.904766425053949,69.79426683863348,7.812149592850748e-05,120.00008996920153,162.4785746623087,1.274,1.02549635315424,0,0.0,0.0,0.0478802236363867,1.499987870203256e-07,-0.0333272350234362,5.819761874615242e-06,0.0016858511402973,4.869610567434908,29.29014635640275,16.292313292210977,39.04968351401366
0.47,31.22220860266524,131.01040717804253,6.6178810515614845,4.838450928223533,0.0011247917292402,26.253747818137555,0.0013104398935566,2.6026193242279367,331.0078106302504,16.710658191447514,7.078951441335346,69.77517236812905,8.719457259907165e-05,120.0000998741591,170.9309671061642,1.274,1.025453319323251,0,0.0,0.0,0.0491102725711187,1.6384464803343264e-07,-0.0355167087264168,6.3368207228363735e-06,0.0018427306558807,4.838451058652396,28.68386015667837,16.710834873319172,26.382435512333956
0.48,31.222208284201663,131.0104078313267,6.771393590864176,4.869339340099417,0.0011561785713505,25.860860976019296,0.0013165328518772,2.5543454292827983,327.20312230115803,16.911139899671,7.177575416403102,69.75482343794755,9.70562828082882e-05,120.00011062072316,175.0543877818846,1.274,1.0254092882449153,0,0.0,0.0,0.0496995461609974,1.7858865391586845e-07,-0.0378054080201581,6.88909442277235e-06,0.0019849793891693,4.869339477030596,28.40887970825325,16.911321511776286,25.986704537635287
0.49,31.22220796480208,131.01040848648364,6.924537656029012,4.881367714530694,0.0011829003785372,32.565703383222065,0.0013261973190012,2.5011623511055703,389.6000096981238,17.169005224738054,7.296160258358563,69.73316318155707,0.0001077573203115,120.000122255028,180.4309832312717,1.274,1.025367445590036,0,0.0,0.0,0.05045746454003,1.942747077649401e-07,-0.0401641298712614,7.47069711110948e-06,0.002140948887153,4.881367857509675,28.058569663954906,17.169191034294997,32.66161128464712
0.5,31.222207637929923,131.01040915697027,7.081324512896956,4.862566137860805,0.001202418260511,33.47759680712428,0.0013425340759632,2.4399894027711366,397.970310422106,17.52898693231981,7.450304424940405,69.71015149227495,0.0001193385310595,120.0001348274002,188.0736471953394,1.274,1.0253278572281015,0,0.0,0.0,0.0515154948878309,2.109295159784217e-07,-0.0426011733481599,8.084173008518589e-06,0.0023184335011768,4.862566286171007,27.57768313050809,17.529175807738486,33.56639745442473
0.51,31.22220730314019,131.01040984370235,7.24202048914867,4.8479762258125,0.001223054804074,25.49162310288008,0.0013562860883156,2.3767006597692686,323.39843497208153,17.86914397471067,7.597652147346554,69.68574349602717,0.0001318441288964,120.00014838524436,195.4407439266201,1.274,1.025286455263166,0,0.0,0.0,0.0525152689856776,2.2858192086249162e-07,-0.0451315948093539,8.734206149830708e-06,0.002503767471626,4.847976379721193,27.13799345359824,17.86933609171003,25.602178740977283
0.52,31.222206962738102,131.01041054193402,7.405210501673173,4.865306299521403,0.0012516517170965,30.733671928447727,0.0013599291289974,2.317711624364424,372.098451184342,18.08534843773428,7.701914987606457,69.65988568649581,0.0001453248538387,120.00016298000436,200.19561780583155,1.274,1.0252426840672306,0,0.0,0.0,0.0531507657929359,2.4726951523704535e-07,-0.0477531686556663,9.421346966092632e-06,0.0026812161964639,4.865306460134566,26.8699055233151,18.085545046726228,30.820940596104087
0.53,31.222206619320115,131.01041124632013,7.569307468221277,4.848802699234936,0.0012715119568563,32.301199055744725,0.0013711327835325,2.2490252325653923,386.55624643486095,18.41963113311156,7.8474319110539055,69.6325258319474,0.0001598315062727,120.0001786629144,207.6614205945027,1.274,1.0251993415311351,0,0.0,0.0,0.0541332845214831,2.67031759303889e-07,-0.0504479325599339,1.0141887756417996e-05,0.0028848299490111,4.848802865552398,26.45837260670532,18.419830861742675,32.37940050117613
0.54,31.22220626697288,131.01041196903336,7.737918664599091,4.831496690588052,0.0012913635058467,28.31291960103712,0.0013809098107221,2.177242866245296,349.2703242098436,18.75116898748492,7.992112829440902,69.60362200959217,0.0001754082864028,120.00019548734956,215.20067397992847,1.274,1.0251561018460285,0,0.0,0.0,0.0551077428911958,2.878941684235108e-07,-0.0532336286085667,1.090122304443916e-05,0.003098869611663,4.831496862756785,26.061835558272342,18.751371834390056,28.396510432451375
0.55,31.222205908994248,131.01041270328463,7.909026079894722,6.513254524653416,3.221351441463697,30.068444254434496,-0.1684980275329739,2.0122048554421923,365.2500005919912,19.321439881558085,8.113323699629928,69.57312211246325,0.0001921068626005,120.00021350480982,228.48556729167785,1.274,1.025112921033824,0,1.2532017829729258,0.0,0.0567838195707577,3.0989272306468813e-07,-0.0561100530405476,1.1700476995263424e-05,0.0033655954893797,7.263252841114067,28.864298325220624,19.8271820386331,30.136169296172707
0.56,31.222205546564343,131.01041344664463,8.081909946161325,7.14764246906287,-2.5882265562667324,28.0462728514616,0.1045452430842739,1.871305752419296,346.22656194657776,19.741413388214024,8.249440985479161,69.54097415464405,0.0002099796112633,120.00023276987916,238.5223461070312,1.274,1.0250709539098009,0,1.2577738927225492,255.00010927308023,0.0580181937288073,3.33055098311298e-07,-0.0602110325869796,0.0020678997594897,0.0036900211741917,7.599534067225263,22.958698877016083,19.3349939680786,28.108826652592974
0.57,31.22220517743276,131.01041420478916,8.258244915209472,7.111046333668566,-2.554751011847824,27.737905871577063,0.14002912071356,1.759804558538135,343.1828296833045,20.013624319504768,8.3718473419008,69.50647648621381,0.0033802394768671,120.00361702871795,245.1414327068425,1.274,1.0250279191823897,0,1.2623102824056371,255.00010927308023,0.0588183135599917,3.590105132679409e-07,-0.0649104898518939,0.0003410765647182,0.0040328105141422,7.553819034513236,22.70141537475481,19.61245793048316,27.79402709898961
0.58,31.22220480298121,131.01041497188862,8.436478776682094,7.07087274956046,-2.5248540906022967,36.675508911006126,0.1770258111077493,1.6436553367288247,426.12500585731766,20.291279001601687,8.496447431802558,69.46928626134874,0.0038964915208004,120.00416840002876,251.9861351292314,1.274,1.024981594484354,0,1.2668518344190975,255.00010927308023,0.0596344365974454,3.8597311332657993e-07,-0.0697155355854871,-0.0014104011694499,0.004391356997794,7.50597956872941,22.44050935013743,19.894804196759896,36.712748397321675
0.59,31.22220442282476,131.01041575115312,8.617377902856024,6.982210539082659,-2.4784444075546816,29.657147451768587,0.2167406820923857,1.510396413533636,360.68438819710633,20.703289684621208,8.668711401146723,69.4293430122498,0.0017359442446708,120.00186117720496,262.31853291802435,1.274,1.0249386802161349,0,1.2713624984468588,255.00010927308023,0.0608454270184761,4.1397266358912774e-07,-0.0746268123613126,-0.0031894151343757,0.0047960804643889,7.406990581397901,22.05831305170308,20.31409794791015,29.69637467478536
0.6,31.22220403296257,131.0104165498839,8.80315462793558,6.942886956860155,-2.449995520320586,26.32195856580133,0.2566489643357225,1.3858101412419614,329.4859594986072,20.966515171666448,8.788486567676348,69.38658576643739,-0.0031261935975007,119.99666734187431,269.0264712477498,1.274,1.024891335813742,0,1.2758612204294613,255.00010927308023,0.0616191562667312,4.43031920512192e-07,-0.0796758353719605,-0.0050070067148976,0.0051855800330706,7.360485410860293,21.825050426636388,20.581788043270727,26.359663146144825
0.61,31.222203640664684,131.01041735324975,8.989443452372926,6.906048700546384,-2.4229496482944497,30.92879928479748,0.2975849762440793,1.258679027812837,372.0984511843332,21.214848171365503,8.903127685383668,69.34093532406696,-0.0107289610580283,119.98854344987753,275.432127721195,1.274,1.0248423929069768,0,1.2804004898842436,255.00010927308023,0.0623491210235519,4.7319355598768827e-07,-0.084824686562145,-0.0068493521507689,0.005585973692825,7.3168116274522,21.610080583329907,20.834365557937137,30.955830709454904
0.62,31.22220324239297,131.0104181685364,9.178376233899648,6.8389878115216165,-2.385825854186321,38.566473260078205,0.3410265240078236,1.1181749233261016,442.86563930529206,21.54814365790529,9.04816244990947,69.29233407817686,-0.0210876513230537,119.97747123680166,284.1492974868874,1.274,1.0247996097896497,0,1.2848731034739065,255.00010927308023,0.0633287907338428,5.044862070205241e-07,-0.0900680074727493,-0.008714412574459,0.0060243366507628,7.241329811613772,21.324148564730912,21.173487302478105,38.58418683825745
0.63,31.22220283623492,131.01041899968033,9.371090753270767,6.741851719098181,-2.3389136627257647,21.70850265142944,0.3877204341909196,0.9617612680436664,286.11251274707456,21.972159251948906,9.225781556980394,69.2407273309734,-0.0342118124776311,119.9634383798228,295.4366034088161,1.274,1.024756158874558,0,1.2893287958938653,255.00010927308023,0.0645750892729459,5.369321745032603e-07,-0.0954247706329043,-0.0106086221701698,0.0065081063581606,7.134269968382735,20.967733230980844,21.604865583376306,21.733255606073318
0.64,31.22220242131653,131.0104198484848,9.568097103424416,6.732474227435059,-2.322631269406928,21.32019022578533,0.4307820070976367,0.8339954589355333,282.3078244179702,22.10731102922388,9.300551378378623,69.18604934760371,-0.0501179754891739,119.94642488379564,299.07661226475653,1.274,1.024708534665538,0,1.293796259296582,255.00010927308023,0.0649724380615804,5.705572380485979e-07,-0.1009156054434296,-0.01253894948299,0.006924793303049,7.120110360355327,20.864528221794743,21.742572877067385,21.340844238849513
0.65,31.222202007713378,131.01042069419162,9.76336891146173,6.695998007379391,-2.297407620761483,37.98259540919248,0.4760186061071997,0.6942014462587361,436.7781447787504,22.320222714274752,9.403271191969791,69.1282223770715,-0.068830210845894,119.92640245384952,304.85934619238486,1.274,1.0246641738210605,0,1.2982852124914557,255.00010927308023,0.0655983208717937,6.054149477617709e-07,-0.1064655835905144,-0.0144790338674133,0.0073758518100218,7.077458397125668,20.69738554695399,21.959443463779483,37.9919210277627
0.66,31.22220158639891,131.0104215554098,9.962296798480288,6.582237211808956,-2.246265159846462,32.26265556189233,0.528107595207908,0.5175796079012411,383.5125151715984,22.782964920727224,9.595902251200974,69.06721148177995,-0.0903301301628265,119.90338802714076,317.624982019685,1.274,1.0246195561629028,0,1.302659287882516,255.00010927308023,0.0669584536139202,6.415203293876049e-07,-0.1120916722030034,-0.0164346942402062,0.0079264680523338,6.9533685816653925,20.32997612274331,22.430212794666076,32.27112843065662
0.67,31.222201153306305,131.01042244054523,10.167276838518031,6.516539557537828,-2.2119203867385155,22.113053610055715,0.5781990809375696,0.3569032440171712,289.15624401033847,23.07778914850558,9.728573647289828,69.00297182534017,-0.1146054448544957,119.87739181379516,325.8922437598195,1.274,1.024572383541697,0,1.3070411941631448,255.00010927308023,0.0678250900591673,6.78879719755436e-07,-0.1178542358553966,-0.0184264423811926,0.0084416428312372,6.880171726331988,20.10651671816525,22.7304278043905,22.123490548825814
0.68,31.222200718290853,131.01042332926482,10.372445198816656,6.483160086627163,-2.188861101514441,27.71423288832099,0.6262207841632043,0.2094626194172524,340.89999248584934,23.24978922232504,9.817219222438176,68.93542376235204,-0.1416714773311838,119.84839422136127,330.761616728006,1.274,1.0245245285832842,0,1.311480056211135,255.00010927308023,0.068330752467577,7.175422692267281e-07,-0.1237075467839472,-0.0204383133077603,0.0089267677147716,6.841199494392215,19.982968374108584,22.90604735146709,27.72209825477761
0.69,31.22220027989412,131.01042422457766,10.578674508732147,6.40915773975524,-2.1524556678603,34.21859550667213,0.6788165066773779,0.0392330567052646,401.0140726853658,23.55546299853204,9.954458644482465,68.8645137084319,-0.1715167823663043,119.8164041058998,339.5093628117584,1.274,1.024479631064582,0,1.3158470648770064,255.00010927308023,0.0692292837928096,7.575449030489143e-07,-0.1296171405820161,-0.0224584531475578,0.0094759879640462,6.759513745750359,19.758684760827578,23.21743557634292,34.225350393118234
0.7,31.222199832529288,131.0104251380535,10.789254182839176,6.314274705183736,-2.1094818811744185,28.65635184804548,0.734966415596405,-0.1466893421669464,349.270324209851,23.93011520370808,10.117141356157628,68.79020768483981,-0.2041097190923865,119.78145176657104,350.38803080211864,1.274,1.0244351749185203,0,1.3201683473994292,255.00010927308023,0.0703305501756292,7.988967761386029e-07,-0.1356134426430235,-0.0244969889129505,0.0100718481017794,6.655970832647515,19.488041214222584,23.598833419757195,28.666150676959397
0.71,31.22219937772028,131.01042606656523,11.003266149428748,6.248113394361272,-2.076449332546203,23.50401608638596,0.7889640895523513,-0.3197236114709681,301.3312640634036,24.18953202136408,10.238345506967748,68.7124540848503,-0.2394308754875765,119.7435541830382,358.0186835253836,1.274,1.0243880468141104,0,1.324512401565696,255.00010927308023,0.0710931472169737,8.416186431165566e-07,-0.1417100932231128,-0.0265582680993451,0.0106385138181909,6.58281524163823,19.30810410775379,23.86343551646029,23.519427282810803
0.72,31.2221989195712,131.01042700161503,11.218293975052031,6.191845167867708,-2.046966451732532,28.86513346874576,0.8422190703511884,-0.4882619145244402,350.7922053414578,24.39970696465977,10.341910564322095,68.63119330059392,-0.2774643238297658,119.7027243733054,364.2596047555357,1.274,1.024337302174265,0,1.3288471259846957,255.00010927308023,0.0717110263156361,8.857508838768959e-07,-0.1478736351148873,-0.0286308668918344,0.0111974492804691,6.520175809979438,19.16671201417618,24.078238621860358,28.881545367728247
0.73,31.22219845667244,131.01042794613306,11.43516370215084,6.105740733288777,-2.007967078886772,36.60893839695172,0.9001573480313197,-0.678270602643878,422.3203185282354,24.715261501182056,10.484444690764583,68.54638476680452,-0.3181748172425284,119.65899588370368,373.7344794769437,1.274,1.024292465384646,0,1.3331351679193375,255.00010927308023,0.0726386225396436,9.313210917724792e-07,-0.1540874168529602,-0.0307090707528754,0.0118186285794155,6.42625290962636,18.95310751928328,24.39991533043426,36.62628434353438
0.74,31.222197985479863,131.01042890751455,11.655932001898218,5.995716305858625,-1.9615441450598048,22.82041436857096,0.962935047535836,-0.8892308530420006,294.4828134710563,25.119527268679462,10.660139702361576,68.45799732950489,-0.3615164804643944,119.61241349234858,386.0525837901662,1.274,1.0242470321640116,0,1.3373938772482992,255.00010927308023,0.0738269511793661,9.78338097674599e-07,-0.1603735428280898,-0.0328000346918683,0.0125017174209333,6.307314279127091,18.68336265692596,24.81146882043008,22.858024572763384
0.75,31.22219750582171,131.01042988615808,11.880678135455568,5.942466642736125,-1.9338746548267625,26.70554535420065,1.0172327881372731,-1.0603935848363744,330.24688556441737,25.2796910798165,10.746319048863723,68.3659869942024,-0.4074513487397453,119.56301329178012,390.982835110948,1.274,1.0241984712898409,0,1.3416629808901044,255.00010927308023,0.0742978652178608,1.0268166636414632e-06,-0.16674943042998,-0.034909282480622,0.0130813402375669,6.248148565509957,18.58464338461179,24.975976433855,26.745940809126374
0.76,31.22219702644108,131.01043086383157,12.104323425939008,5.856066783741993,-1.8957641493190764,28.78046868706579,1.0773597608989336,-1.25788246865228,349.2703242098581,25.566221808902284,10.879631622107857,68.270299595981,-0.4559467835130266,119.5108254375818,399.8876062808525,1.274,1.0241522053390697,0,1.345932546773882,255.00010927308023,0.0751401782898327,1.0768121943285069e-06,-0.1731481481118189,-0.0370146079620609,0.0137369777929128,6.15425996619563,18.402814815533528,25.268490204281893,28.828082666152486
0.77,31.22219653756365,131.01043186096948,12.332525563705154,5.764404636913435,-1.8561762309963448,26.907142474161727,1.13898402184378,-1.4615957587478925,331.76876669606884,25.864288274429963,11.01779116269569,68.1709193134096,-0.5069366324684628,119.45591599098913,409.2572543836072,1.274,1.0241065975906936,0,1.350117425426764,255.00010927308023,0.0760164036106755,1.1283237903914376e-06,-0.1795964441490973,-0.0391246718651585,0.0144143658752357,6.054925076337969,18.21708608824472,25.572771792469464,26.970870636463395
0.78,31.222196043176808,131.01043286927583,12.56295921457319,5.678854826882646,-1.81885535467702,22.071198905186048,1.1997545964286749,-1.661339904433894,286.8734378128874,26.124044296721987,11.142204283892744,68.06781481836465,-0.560365140963305,119.39833966777594,417.5096662059688,1.274,1.0240588105546735,0,1.354323701597004,255.00010927308023,0.0767800388274196,1.1813696659495686e-06,-0.1860914136983014,-0.041238251429913,0.0150853159942966,5.962112549541044,18.059493174061096,25.83838714965909,22.166129172275475
0.79,31.22219554386164,131.0104338875499,12.795284307764474,5.604182360476825,-1.7852025392984403,31.473088801218207,1.258062020279975,-1.8507320558149445,373.6203323159581,26.320902212177177,11.243527151496435,67.96095634632745,-0.6161730427280178,119.3381548259468,423.8162123502228,1.274,1.0240083170932772,0,1.358507690558258,255.00010927308023,0.0773588181037963,1.2359738090209468e-06,-0.1926177221110431,-0.0433502438978814,0.0157316758865171,5.880785460477203,17.94426801105925,26.04052862262673,31.552547407121644
0.8,31.222195040664733,131.0104349136068,13.028896009902764,5.4914760023174845,-1.7397709637545993,31.901403693967097,1.3252110427199535,-2.0781658808444288,377.42502064505805,26.6820201540025,11.407244383532753,67.85032284615097,-0.6742924749946995,119.27542896563602,435.5155793404279,1.274,1.0239625010683884,0,1.3626608977740304,255.00010927308023,0.0784203735609328,1.2921604868251373e-06,-0.1991539935172415,-0.0454536000482307,0.016488303022873,5.759673361548296,17.728851342450913,26.408779563327997,31.996476608862896
0.81,31.22219452731501,131.01043596070969,13.267359211100729,5.3852163664587565,-1.6966439956955093,20.71862073083169,1.3913443652339237,-2.301148469683154,273.9374926939922,27.002719805135108,11.556458602262268,67.73590549362655,-0.7346447819983715,119.21024114823516,446.0374806396754,1.274,1.0239149950770308,0,1.3667700415285515,255.00010927308023,0.0793631463860588,1.3499178228516932e-06,-0.2057342469259283,-0.047559046229212,0.0172374249697585,5.645411772341514,17.542989767561586,26.736250536726136,20.89239977624021
0.82,31.222194009066207,131.01043701781694,13.507661326427648,5.310463517433444,-1.663626267855736,26.66701003071053,1.4488252334451648,-2.4884157698449547,328.725004432774,27.154344304836112,11.642022257041134,67.61767580445681,-0.7971647396419079,119.14265583165684,451.050275887978,1.274,1.0238644186635044,0,1.370903071091394,255.00010927308023,0.0798089992533846,1.4092701269115036e-06,-0.2123414515494174,-0.0496608942761334,0.0178904954439321,5.564238038429616,17.46157810545419,26.893059219202677,26.822019528340824
0.83,31.22219348923649,131.0104380778952,13.747925121647732,5.204031220662608,-1.6209402569791604,33.932480152229,1.5145016831029658,-2.7106976663913045,395.6875032246518,27.45035527805668,11.783191832083052,67.49561502607665,-0.8617783715968104,119.07274684267412,460.9270871715708,1.274,1.0238188483711983,0,1.375007215068688,255.00010927308023,0.0806792201623501,1.4702581251923982e-06,-0.2189280492785045,-0.0517439582467754,0.0186460833846366,5.449968691990943,17.296011049368737,27.195772540970225,34.07425430538599
0.84,31.22219295982396,131.01043915797027,13.992661060922584,5.080367270803637,-1.5731608477344388,20.924072772297475,1.5854884766870858,-2.955308096676178,275.45937482564227,27.82521179946353,11.955444050293014,67.3697317596776,-0.928391059508329,119.00061031206418,473.59056529448617,1.274,1.0237739661568126,0,1.3790513817580667,255.00010927308023,0.0817811851531331,1.532863202937228e-06,-0.2255218523990604,-0.0538168663475897,0.0194695156117556,5.317751125787335,17.088518768218382,27.57813131883733,21.191140626129304
0.85,31.222192422632528,131.01044025429067,14.240821375350867,4.997134751590411,-1.5380636355943405,22.835451936283825,1.6430822088031567,-3.145866064171212,292.9609323393965,27.969634450077976,12.039612206405554,67.24001855931309,-0.99691941790592,118.92633019630236,478.5081235875728,1.274,1.0237227741398531,0,1.3831117238619064,255.00010927308023,0.0822058884755555,1.5970823106457177e-06,-0.232133603738045,-0.0558827155077026,0.0201438506030187,5.227905306697274,17.01603795411423,27.728064994699075,23.10960963696527
0.86,31.22219188571796,131.0104413496607,14.487889450385214,4.893819836586473,-1.4970015243836197,28.62040581831709,1.706171855860378,-3.360171704985277,346.2265619465616,28.20734353202299,12.160402852767092,67.10646175865436,-1.067283793523887,118.84998638041176,486.6646544590816,1.274,1.023674789281455,0,1.3871698125847407,255.00010927308023,0.0829047731933635,1.6629678456286045e-06,-0.2387018437725383,-0.0579222103716117,0.0208893701112801,5.117131378056898,16.892094216552636,27.97222183562321,28.86744542722602
0.87,31.222191340467283,131.01044246253207,14.73867507228894,4.774440349181392,-1.4512085680259712,26.65180718688545,1.7742994736514992,-3.5959782147939228,327.9640783669946,28.521932097991165,12.311928498360908,66.96908313341757,-1.1393799413670187,118.7716854683712,497.56847159853766,1.274,1.0236288969245204,0,1.3911469336630176,255.00010927308023,0.0838296239986976,1.7305019726049843e-06,-0.2452410727764759,-0.0599397543430946,0.021700466623384,4.989630236756608,16.728064081605606,28.294001161619985,26.951772191646164
0.88,31.222190788054423,131.0104435904776,14.992493222162372,4.662749874769721,-1.407981259393842,23.032666054556465,1.8387866902242656,-3.818265828921643,294.4828134710421,28.778317117307783,12.44152448728337,66.82789612161315,-1.2131100761728577,118.69152712539616,506.5416630905926,1.274,1.0235805388426191,0,1.3951271534949752,255.00010927308023,0.0845834147446591,1.7996719421561397e-06,-0.2517606615416123,-0.0619379594205222,0.0224770650541138,4.87024323498261,16.598968562465036,28.557174197017712,23.419308188184683
0.89,31.22219023139048,131.01044472726613,15.247719367806244,4.555711302537106,-1.3663409928536576,25.27153787497996,1.9000728249714007,-4.029192390696487,315.02813424808807,28.990437711495968,12.554408953597166,66.68290879661193,-1.288380487156954,118.6096066674146,514.0238668266238,1.274,1.0235293752791452,0,1.399099104187074,255.00010927308023,0.0852071115828999,1.8704925607926435e-06,-0.2582391810230534,-0.0639101001739945,0.023224833057488,4.755781439834901,16.49589365552745,28.775833711973352,25.66116315812648
0.9,31.222189670054902,131.01044587382563,15.504581080676203,4.437784859289935,-1.321620149837591,27.92116232170569,1.9645829020561425,-4.25455384328226,339.3781423542166,29.254068752533044,12.688426029946276,66.53414164738189,-1.3650901307753311,118.52602749531424,523.4022453717263,1.274,1.0234837388140003,0,1.403037575158986,255.00010927308023,0.0859822107293572,1.942971330974264e-06,-0.2646588280872553,-0.0658506191406252,0.0240180443388637,4.630023748497181,16.367523849338866,29.046487553921065,28.311695812499057
0.91,31.222189101783822,131.010447035119,15.764305145782403,4.313205360601264,-1.275126139384513,21.240081713196226,2.0309023543267646,-4.488645344483022,277.7421810230785,29.546191898631857,12.83469172030474,66.38162551444839,-1.4431326588223978,118.4408989418838,533.8942230723713,1.274,1.023436404813438,0,1.4069466415955731,255.00010927308023,0.0868410600986219,2.017091799154271e-06,-0.2710223030610973,-0.067760147211989,0.0248405205405858,4.49740085669217,16.227011387388547,29.34591208681344,21.803980659150564
0.92,31.22218852709715,131.0104482100867,16.026585241468684,4.203098565295158,-1.2330667740748509,25.294449995459104,2.088502993144892,-4.689991640702344,315.0281342480675,29.725264077555035,12.936504382527245,66.22538977119721,-1.5224042933988915,118.35432771670705,540.3718253139248,1.274,1.0233859136578225,0,1.4108451098922197,255.00010927308023,0.087367640881576,2.09284195957662e-06,-0.2773267615829279,-0.0696376165096195,0.0255717652693852,4.379927256787031,16.147106457145416,29.53158935271217,25.810212453891463
0.93,31.22218794992985,131.01044939016623,16.289272627889147,4.076873097118583,-1.186474609282086,30.09025929825054,2.1523810752703687,-4.918013335481144,359.16250706547066,29.99832336055385,13.076936780860647,66.06546553133975,-1.602801908042211,118.26642001196204,550.3313608667795,1.274,1.0233407575091376,0,1.4147282623836568,255.00010927308023,0.0881704701965372,2.170240847357396e-06,-0.2835400532277915,-0.0714732934458645,0.0263841829513161,4.245731928220215,16.021270009939247,29.81196568428949,30.565393897300023
0.94,31.222187364453166,131.01045058816794,16.555513611528628,3.9415609047021767,-1.137441837496065,21.830480703316216,2.219735833191877,-5.161548162134138,283.06875048378083,30.322972179616848,13.239337124063711,65.90190261824556,-1.68421322177096,118.17729227820084,562.2930658413784,1.274,1.0232914783978162,0,1.41856482808901,255.00010927308023,0.0891249392236099,2.249252233020547e-06,-0.2896725902594426,-0.0732700950124505,0.0272458471975688,4.102150005814189,15.872695505533487,30.14431496911034,22.541931912261823
0.95,31.222186771877755,131.01045180153292,16.824623733868076,3.823834508497237,-1.0936569107060554,28.28138094756676,2.274874750850836,-5.359167583175467,342.421873617488,30.50023511432403,13.342581839452311,65.73474497366088,-1.766532037151764,118.08705458056708,568.871717864638,1.274,1.0232418269359267,0,1.4224011788767397,255.00010927308023,0.0896462206509637,2.329850527734604e-06,-0.2957249456432314,-0.075027912844312,0.0279769952910768,3.9769359332121104,15.799420772045073,30.32845432030099,28.874421909676556
0.96,31.222186177527604,131.0104530185394,17.093740001936464,3.686153714389527,-1.0443804010616795,27.70305769928823,2.339976121241123,-5.597962442475784,337.09533515678265,30.815303963101822,13.50323245928412,65.5640363499237,-1.849654695942828,117.99581448090608,580.670356616938,1.274,1.0231951201821403,0,1.426227053129615,255.00010927308023,0.0905725453054866,2.412060048481016e-06,-0.3016591124043533,-0.0767355329532254,0.0288324536176215,3.831051332682443,15.661277976129394,30.65126215764252,28.359691071050843
0.97,31.22218557312488,131.01045425756433,17.367270722205536,3.551768909111026,-0.9962134042148008,17.69651376766753,2.400948255035624,-5.822803243645224,245.0218871929888,31.089647216476862,13.648212230224829,65.38984266069396,-1.9334679030981148,117.90369045909524,591.0400668293862,1.274,1.0231476260761452,0,1.4300022173032956,255.00010927308023,0.0913791788349825,2.495822531187292e-06,-0.3074916466875601,-0.0783975380220111,0.0296507992559996,3.688662621979976,15.54581850166243,30.933170265368467,18.783934350045264
0.98,31.222184964185644,131.01045550645358,17.642252441371667,3.4324804742662165,-0.9524346434038452,25.803600046331223,2.4484829912608537,-5.997588989285889,319.593746642963,31.217229877650365,13.73302622184866,65.21222040695865,-2.0178668504197166,117.81079202242007,595.8851880442065,1.274,1.0230935628253934,0,1.433788969035454,255.00010927308023,0.0917544564802938,2.5811295039405006e-06,-0.3132047082667253,-0.08000853391331,0.0303248361682692,3.5620174692059354,15.50173633896161,31.067628683771822,26.60435900362799
0.99,31.22218435364333,131.01045675865603,17.91713829348932,3.2916082753145908,-0.9028330208832482,28.198878873202567,2.5088965435172623,-6.225086665175606,341.66094855170127,31.51621848257266,13.890358950103424,65.03123660310726,-2.102744197651969,117.71723184540916,607.338209538168,1.274,1.0230490803133316,0,1.4375459115662814,255.00010927308023,0.0926335385202113,2.667998168438675e-06,-0.3187635174978555,-0.081558579061924,0.0311578201590982,3.4130478393127874,15.379382263512984,31.37440767195932,28.986600965973402
1.0,31.222183732690183,131.01045803396266,18.19654360377937,3.1498318336608326,-0.8531673042651186,25.215510223132977,2.5676988424041087,-6.448825113128256,314.2672081822764,31.81075577345007,14.047076863308751,64.8469786179469,-2.187985761676047,117.62313059468568,618.7265045079481,1.274,1.022999484445133,0,1.4412528230127115,255.00010927308023,0.0934995472884112,2.7563467372653803e-06,-0.3241881643256684,-0.0830530629255503,0.0319833419773309,3.263219511362093,15.2622486442185,31.676745519144024,26.15343913327501
1.01,31.22218310645902,131.0104593209624,18.47774351936342,3.012314340266332,-0.8048754425358025,26.369555148820016,2.6201330706638304,-6.650395518584383,324.92031610370094,32.048835640613376,14.1809831261722,64.65952239619153,-2.273487200617919,117.5285985310378,628.0056171724779,1.274,1.0229507481225095,0,1.4449724695551744,255.00010927308023,0.0941996208041313,2.8461469599555e-06,-0.329467443657858,-0.0844885427314993,0.032746563591163,3.117894346939186,15.173488057323413,31.92241025994456,27.321169385812418
1.02,31.22218247548212,131.01046061847953,18.760455176706376,2.8700158647473275,-0.7554907743931689,21.9739804592011,2.673714882009792,-6.859180218020967,284.59063161543185,32.31925690443232,14.329746281391865,64.46895060361733,-2.3591445578942625,117.43374596307716,638.6309439608757,1.274,1.0229039803623294,0,1.4486681123988263,255.00010927308023,0.0949947602168891,2.9373837659995585e-06,-0.3345820838005239,-0.085859547331406,0.0335346073903309,2.967706170240532,15.07278621505023,32.2005881298992,23.174402295526903
1.03,31.22218183736729,131.01046193199488,19.04590068941893,2.732762248585475,-0.7075966052646466,17.90849948663542,2.719070141377955,-7.038801419526467,247.3046933904342,32.51825445861563,14.448883223723143,64.27535730359233,-2.444852508262201,117.33868522370815,646.5018444485672,1.274,1.022853416101322,0,1.4523365168707283,255.00010927308023,0.0955799739943986,3.030009006607868e-06,-0.3395267995313584,-0.0871643662601412,0.0342388016649111,2.822818224672627,15.00610853088744,32.407108269158044,19.433281290612815
1.04,31.222181195668355,131.0104632534889,19.33223156270133,2.597155211643739,-0.6602701411938511,28.58666766829841,2.758749250666177,-7.199251789715417,345.4656368807608,32.678483284595885,14.552097726289563,64.07883985568179,-2.5305084470715062,117.24352616170772,652.8706681037348,1.274,1.0228049544826707,0,1.4559938879205627,255.00010927308023,0.0960512403227732,3.1240060128301087e-06,-0.3442815144511562,-0.0883974075486142,0.0348883896493216,2.67971513803095,14.958289221350686,32.57477058889103,29.608064646942214
1.05,31.222180549772844,131.0104645843845,19.61975623866097,2.445326519296223,-0.6089977211817647,17.139982682755512,2.8127484650072057,-7.418494684035739,240.4562587980608,33.01919301952992,14.7350319474186,63.87950750947815,-2.616008829049818,117.14838024367783,666.5370445321784,1.274,1.022755494436122,0,1.4596168448596605,255.00010927308023,0.0970529967992292,3.2193428704766675e-06,-0.3488322601469264,-0.0895548379120624,0.0357171199045616,2.519975157975356,14.834732955200742,32.92353368240882,18.887154991412174
1.06,31.22217989312576,131.01046593982278,19.91178200330701,2.309946587956341,-0.561995798314129,24.50753159206432,2.84380961090082,-7.55148523723211,308.1796836557233,33.135264948237605,14.82065425720052,63.677477882446766,-2.7012512289408424,117.05335830432664,671.212592309915,1.274,1.0227013895379469,0,1.463210103776048,255.00010927308023,0.0973944868357481,3.3159061973754544e-06,-0.3531930170758967,-0.0906398268841362,0.03628972774439,2.377292867069213,14.809834416789847,33.04698827020557,25.801769069721114
1.07,31.22217923792029,131.01046729179808,20.20211379979724,2.160927477125544,-0.5118572376970262,28.88798839380541,2.8879553463663834,-7.738652631264322,348.5093681440431,33.4191463297343,14.9812709976013,63.472860725097846,-2.7861410166700407,116.95856308445316,682.7438453105124,1.274,1.0226540159946436,0,1.4668150882324995,255.00010927308023,0.0982292212091785,3.413728904946708e-06,-0.3573265871921199,-0.0916427833670365,0.0370279549599017,2.2206938454018728,14.715793387740632,33.33874505232145,30.04568028969583
1.08,31.222178571732364,131.01046866903962,20.49700856944906,2.0094017525898566,-0.461327261110691,19.337183442762736,2.932424826801575,-7.930477115768893,261.0015785751465,33.73209748327401,15.156274072966053,63.26578765381792,-2.870579435004649,116.86410259342148,695.5710250255281,1.274,1.0226061614050743,0,1.4703556511371862,255.00010927308023,0.0991494115011556,3.512691747926992e-06,-0.3612437372922928,-0.0925660295175429,0.0377833460532462,2.0616573390448143,14.612740047882236,33.65963314953126,21.104934165915648
1.09,31.22217789918119,131.0104700609951,20.794103035245765,1.8675654074013808,-0.4132663521505641,17.748617222451784,2.958660041873544,-8.054396167086772,246.54375332456465,33.880256849054724,15.258657006455328,63.05638428835029,-2.954474829960734,116.77007754109228,701.6746466084188,1.274,1.0225512795791307,0,1.47390891996487,255.00010927308023,0.099585233065115,3.612726514356611e-06,-0.3649368799812048,-0.0934071583375307,0.0383361767470552,1.9127281928157327,14.580229105469758,33.81534168513566,19.71396409068641
1.1,31.22217722538824,131.0104714557379,21.090847081902044,1.7231626085512204,-0.3647803707885185,35.90458040190235,2.9842520738574136,-8.179138108493994,413.1890617384087,34.052563171162284,15.372736316583667,62.844780918899566,-3.03773815581946,116.67658637347915,708.8096682807432,1.274,1.0224981043155532,0,1.477446039964976,255.00010927308023,0.1000920332517226,3.7138380979305736e-06,-0.3683802166749845,-0.0941599464194299,0.038893594137397,1.7613386877606816,14.539648369365183,33.99526399160451,36.945134381604454
1.11,31.222176545330644,131.01047286503336,21.389724797082987,1.5634315668072256,-0.313263747628968,26.17530720495499,3.033813506928723,-8.401628271255532,324.1593910379213,34.50524940761435,15.615639621928567,62.63112306874064,-3.1202798864053567,116.58372877315335,727.7595157810241,1.274,1.0224548851875197,0,1.4809374303694167,255.00010927308023,0.1014229737037678,3.815950866579566e-06,-0.3715684383807095,-0.0948228911470576,0.039750582077577,1.594499320193974,14.388561891211175,34.456042298366974,27.657514155776038
1.12,31.22217585102303,131.0104743078219,21.694611009809428,1.415656300962324,-0.264526701249779,9.64164842367183,3.0577131583684944,-8.527169195551169,172.7328179403806,34.721601397505125,15.752197065387836,62.41555961742395,-3.202014233284652,116.49160093389528,736.8928238235839,1.274,1.0223979224661404,0,1.4844131544921877,255.00010927308023,0.1020592588571003,3.918878851260611e-06,-0.3745144288108643,-0.095397754168719,0.0403157819694964,1.440153775901587,14.335378528523238,34.68004978805422,13.229648845457316
1.13,31.22217515728913,131.0104757492474,21.998224786696284,1.2758452832427067,-0.2174994345444186,30.88272530029897,3.0590943891511886,-8.567436393236719,367.5328077894322,34.73894030456402,15.79771454524916,62.19823222447068,-3.2828614892486887,116.40029287281178,737.60746055008,1.274,1.0223460397860296,0,1.4879176376780328,255.00010927308023,0.1021105739731264,4.022652918864169e-06,-0.3771890330423772,-0.0958780702374414,0.0406227897220839,1.294248574127684,14.362514404481274,34.704775655331346,32.19474719278938
1.14,31.222174463258224,131.01047719126103,22.301025911744127,1.1194815720532731,-0.1677212167465285,16.90865730285652,3.095942913029664,-8.751572091511916,239.6953177322812,35.157688049813125,16.030475665479134,61.97929972342656,-3.362741517937872,116.30989581784812,755.4750978925093,1.274,1.0223022138470996,0,1.4913675237080026,255.00010927308023,0.1033417813446568,4.127285956004337e-06,-0.3795725039279404,-0.0962601531060524,0.0413710500008993,1.131974300480181,14.234144786984686,35.131342500319946,19.28931228372624
1.15,31.222173751694687,131.010478674984,22.61129913786201,0.9749288066111504,-0.1201695957793439,16.644174727104385,3.098785106634085,-8.805081213004366,237.4125115347709,35.260969476089706,16.117436683879877,61.758932656508414,-3.441576391193581,116.22049925616588,759.8976324739045,1.274,1.0222426194541194,0,1.4947696722678696,255.00010927308023,0.1036457275267284,4.232516400715493e-06,-0.3816806243817968,-0.0965453614081902,0.0417217878214716,0.982306223122948,14.23097641650552,35.24209329396452,19.08298919590639
1.16,31.2221730450608,131.0104801469608,22.918210528066577,0.8279797825236119,-0.0725431046693927,44.211703842822665,3.104474309700431,-8.873539748309453,490.043774385954,35.430427743812054,16.236247421704093,61.53729264938349,-3.519293473916125,116.13218736049352,767.1964456779742,1.274,1.02219674531104,0,1.4982164652350132,255.00010927308023,0.1041441920891582,4.338408253048499e-06,-0.3834890759958712,-0.0967296629427508,0.0421196872034805,0.831151403760508,14.203857074433028,35.41903270262163,45.200135233092816
