Time,Latitude,Longitude,Altitude,Angle of Attack,Angle of Sideslip,X-Acceleration,Y-Acceleration,Z-Acceleration,Thrust,True Velocity,Ground Velocity,Pitch,Roll,Yaw,Dynamic Pressure,cp,parachute_deploy_gain,Wind Speed,Mach,omega_x,omega_y,omega_z,Cmq,Angle of Attack(total),Angle of Attack(gust),True Velocity(gust),Acceleration
0.0,31.222216000000007,131.010392,3.000000004412624,0.0,0.0,0.0,0.0,0.0,2.2828121974499247,0.0,0.0,71.99999999612658,-1.0292491154817412e-14,119.99999999354436,0.0,15.288,0,0.0,0.0,0.0,0.0,0.0,-0.0,0.0,90.0,0.0,0.0
0.01,31.22221599999862,131.01039200000284,3.0000009727369523,0.0,0.0,0.0,0.0,0.0,34.24218696174923,5.916279387578309e-11,5.734623670548936e-11,71.99999999613168,-5.86671995824671e-13,119.9999999935449,2.1432944861733093e-21,15.288,0,0.0,1.7386402909615473e-13,-3.4220131069073734e-19,7.115076756936125e-19,5.488773498207866e-19,-1.1574302492039043e-31,0.0,89.99999999962336,5.916279387578309e-11,0.0
0.02,31.22221599999738,131.01039200000537,3.0000018317022668,0.0,0.0,0.0,0.0,0.0,25.871876237766408,1.2265415415436536e-10,1.1895038237325684e-10,71.9999999961369,-1.1836364828043265e-12,119.99999999354544,9.211895886571454e-21,15.288,0,0.0,3.6044858651615574e-13,-6.979551485375437e-19,1.4162390878091906e-18,1.0909784360635388e-18,-4.776231873571785e-31,0.0,89.99999999921916,1.2265415415436536e-10,0.0
0.03,31.22221599921969,131.01039200159065,3.0001883335529382,18.80143492628821,-0.0001350810307892,10.931161642028636,-1.75114298675875e-05,3.026590975169265,180.34219359854663,0.0798232026864394,0.0478175828508887,71.99999999765336,-5.341802909786072e-12,119.99999999436793,0.0039016003969354,15.288,0,0.0,0.0002345795854893,3.788270153300133e-17,-7.771883375645477e-10,1.1422790048099072e-11,1.7057759223764537e-13,18.80143492675591,89.51882325913425,0.079801984207741,11.342422482672777
0.04,31.222215995131297,131.01039200995308,3.001692634342189,9.19442604083399,-4.49173898918486e-05,52.29595764159784,6.445392950801871e-06,3.026413589912948,548.6359724538078,0.3504174083926908,0.1601447499964056,72.00000000319055,-3.111420077280171e-11,119.99999999870242,0.0751892535633216,15.288,0,0.0,0.0010297854387864,2.0082066977226968e-15,-1.520937588847922e-08,2.5623342884322286e-11,1.4654248781413086e-11,9.19442604094277,87.798916624545,0.3504103527855857,52.383455068075136
0.05,31.222215983575865,131.01039203366796,3.0074067499493786,5.158590039700252,1.707592688632746e-06,76.26884281015512,5.843947534199429e-05,3.0258124765658088,761.6984298824644,0.9592973585397016,0.3772700771701255,72.0000000004862,-1.3608731808076822e-10,120.0000000109612,0.5634958029902841,15.288,0,0.0,0.0028191251099456,2.086299069701397e-14,-1.0551247853743037e-07,3.973493515691201e-11,2.783064866637575e-10,5.158590039700515,83.94063169874748,0.959297626767734,76.32884071402438
0.06,31.222215961742712,131.0103920785344,3.019291017943491,4.109521257467909,3.140103977270004e-05,57.06876634333886,0.0001151069734147,3.024834864051463,590.4875390737208,1.6257536642597354,0.6118982818704327,71.99999992547217,-3.5903296759057166e-10,120.00000003412836,1.6184272268450337,15.288,0,0.0,0.0047776672697797,1.0694899894620088e-13,-3.741090980393931e-07,5.521401959501359e-11,1.6723176417636091e-09,4.109521257587776,79.78719176344794,1.6257585967235286,57.148873286519276
0.07,31.222215929936205,131.01039214392435,3.0371334573469446,3.649087515174788,5.707077112564807e-05,86.89643797254193,0.0001728541558773,3.0234947746384675,855.2937749779139,2.3057260079826607,0.8506307413593818,71.99999965378231,-6.907496536790437e-10,120.00000006788592,3.255354923652711,15.288,0,0.0,0.0067759305364855,3.495199904512709e-13,-9.036515915819006e-07,7.594816279105379e-11,5.728932851326001e-09,3.6490875156204896,75.6601668283889,2.305734972638426,86.94902215090157
0.08,31.222215886364623,131.01039223353447,3.0621840248716574,3.4254446680114707,8.413075603463509e-05,17.831756866644035,0.0002285946601282,3.021841001032126,241.2171988638848,2.961944911520492,1.0819695676346892,71.99999900671328,-1.141745983122182e-09,120.00000011415082,5.371998197385977,15.288,0,0.0,0.0087043901031071,8.800530155962314e-13,-1.829098470920821e-06,1.0943386634701918e-10,1.4896287129277132e-08,3.4254446690434226,71.81713637501419,2.9619581267487467,18.085991154451033
0.09,31.22221583454733,131.01039234010327,3.0919888289029,3.389560809024919,0.0001118726864415,54.09031716446879,0.0002748660999733,3.020060228038602,563.0937377043176,3.504225426410036,1.2780161667917422,71.99999774508822,-1.634190085504106e-09,120.00000016921716,7.519080503822694,15.288,0,0.0,0.0102980157586766,1.865782139518716e-12,-3.1503298654458527e-06,1.6284478329871028e-10,3.03536411425607e-08,3.389560810868955,68.76526501308032,3.504242999330529,54.17456206384468
0.1,31.22221577423132,131.0103924641528,3.1267248829165366,3.4447939461814814,0.0001419149103147,51.372195336549765,0.0003131602029306,3.0182021883815127,538.7437595981919,3.950569597142709,1.4443465951180965,71.99999562056465,-2.1287748602259068e-09,120.00000023339832,9.55649523509932,15.288,0,0.0,0.0116097108366932,3.485956000178229e-12,-4.949356763187612e-06,2.4573266549165286e-10,5.3761299442583966e-08,3.444793949101151,66.34639928474206,3.9505918890846927,51.460781166288626
0.11,31.222215706113143,131.01039260424562,3.165907002780892,3.4691423802630394,0.0001702373452339,40.591037561894986,0.0003534470100582,3.016051659024047,442.8656393052949,4.421478635995476,1.6182620895289603,71.99999235067894,-2.5564479031457968e-09,120.00000030601664,11.970509656144712,15.288,0,0.0,0.0129935974697161,5.942887149865172e-12,-7.273722517324353e-06,3.67769289312894e-10,8.842679949465076e-08,3.4691423844348632,63.88798785789768,4.421505376815134,40.70293476011277
0.12,31.222215630588888,131.0103927595646,3.2092596514826863,3.4852659299808075,0.0001974376474727,44.30042894095728,0.000394069215595,3.013641598889868,475.58594813540446,4.896982486381051,1.793579340340896,71.99998761802138,-2.8337988279882726e-09,120.00000038673312,14.683611096353944,15.288,0,0.0,0.0143909889875706,9.464337642181618e-12,-1.017558359402848e-05,5.395790443954697e-10,1.3700793350599625e-07,3.4852659355662303,61.5068242157714,4.897013499814194,44.40281567867803
0.13,31.222215548046687,131.0103929293088,3.256512891171917,3.5606043721293616,0.0002276507019012,48.86766833507025,0.0004268800875964,3.0112558910133567,515.9156326236895,5.278566579338586,1.939796541405244,71.99998107389406,-2.8573058577484587e-09,120.00000047523812,17.061052093156064,15.288,0,0.0,0.0155123760833565,1.4300406003001044e-11,-1.3705268062305584e-05,7.724776992181392e-10,1.989112774124932e-07,3.560604379397528,59.67313531776262,5.27860233862722,48.960358155653
0.14,31.222215458587108,131.01039311327068,3.30759734332425,3.6000732663755977,0.0002555702913645,45.540290862247225,0.0004629468001456,3.0085404980032777,486.2390860568404,5.70011779273801,2.098362647205908,71.99997235012626,-2.508533681468686e-09,120.00000057154703,19.894788765881632,15.288,0,0.0,0.0167512184495524,2.071534240530911e-11,-1.7917736259613292e-05,1.0787346240473087e-09,2.8081526258393346e-07,3.6000732754351943,57.72385750323359,5.700157937625502,45.639559681930805
0.15,31.222215362317904,131.01039331122794,3.3624387479639086,3.651605404442164,0.0002842753491325,44.01308509501,0.0004965057129938,3.005703619811542,472.54218587214,6.091938849578711,2.2476968067377374,71.99996103728932,-1.6446954747148112e-09,120.00000067569304,22.723773683610247,15.288,0,0.0,0.0179026934683374,2.9002783512213203e-11,-2.287326399669318e-05,1.47199345427166e-09,3.831202693354572e-07,3.651605415492516,55.98561718911576,6.091983503446133,44.115597174664394
0.16,31.22221525912812,131.01039352340948,3.421115382839859,3.67540086436193,0.0003108411545024,34.83804992586084,0.0005330990866742,3.002517946501868,391.1218908297564,6.521183188362317,2.4085903880902046,71.99994669525161,-1.0153513453738144e-10,120.00000078796704,26.03872642002185,15.288,0,0.0,0.019164148528834,3.9478358970291335e-11,-2.864207894220033e-05,1.9677461746207517e-09,5.135466997084602e-07,3.6754008774883777,54.15946979122355,6.521232015176687,34.96719658394182
0.17,31.2222151493826,131.01039374906244,3.4833737923187487,3.7139589864597298,0.0003384978477213,43.96471427482637,0.0005668629535037,2.999235483723449,471.78125980632376,6.916861975403744,2.559060925010733,71.99992884100092,2.3206494032971838e-09,120.0000009081849,29.29426197817256,15.288,0,0.0,0.0203269651395979,5.248754693205839e-11,-3.5267097947693114e-05,2.580363454062817e-09,6.706952682968329e-07,3.713959001863866,52.549031795895466,6.916915146521327,44.06689817851128
0.18,31.22221503253009,131.01039398932429,3.549599475912623,3.7380363034619775,0.0003650282082698,36.67395661481795,0.0006021794701355,2.9956556354306425,407.10156721191447,7.332140201215607,2.71556808256092,71.99990696207136,5.837017536380516e-09,120.00000103716444,32.917216366714264,15.288,0,0.0,0.0215473823438242,6.839750892601699e-11,-4.285557247677198e-05,3.331016495775474e-09,8.639362741436378e-07,3.738036321259578,50.93050624815799,7.332197539712479,36.796100973258795
0.19,31.22221490871209,131.01039424390297,3.619694897703461,3.747799769666444,0.0003901520189829,41.42208371271829,0.0006393759928961,2.991742733214697,448.9531328318269,7.771071983754382,2.879366399937307,71.99988049019642,1.0709144790974043e-08,120.00000117502664,36.97605053227239,15.288,0,0.0,0.0228373144884866,8.761416506509219e-11,-5.146771415177372e-05,4.238406957677133e-09,1.0996552116864756e-06,3.747799789945131,49.29705748437159,7.771133268690212,41.529983675580546
0.2,31.22221477769685,131.01039451327668,3.693822889232993,3.7700519460961166,0.0004166800650969,37.99697972290605,0.0006740224661302,2.987733789228414,418.51563019916136,8.179966026035371,3.0338260708461373,71.99984881140107,1.723179577184912e-08,120.0000013223286,40.969302182777255,15.288,0,0.0,0.024038975990988,1.1057590044953188e-10,-6.120032215177249e-05,5.3263847350253015e-09,1.376394225587184e-06,3.7700519690893857,47.8457752505109,8.180031477986942,38.11426270718793
0.21,31.222214639876928,131.01039479663547,3.771710975053407,3.7926098867321474,0.0004432924407074,36.46301043881366,0.0007080907240332,2.983530483977461,404.8187610144644,8.582757448615462,3.1863584283669346,71.99981127559042,2.5745201416596626e-08,120.00000147900325,45.103059028532826,15.288,0,0.0,0.0252227064089584,1.3774582723633048e-10,-7.20875523136271e-05,6.61341033873124e-09,1.7010673350603349e-06,3.792609912601061,46.47936953648762,8.582827080829217,36.584868250565684
0.22,31.22221449507626,131.01039509434258,3.8534832466471007,3.782921298925821,0.0004660920499522,44.14577847155813,0.0007479176313898,2.978724032883548,472.5421858721365,9.056569122268344,3.360845972992861,71.99976720416048,3.661811567390422e-08,120.00000164562512,50.21995530074818,15.288,0,0.0,0.0266151520780326,1.6960703048385348e-10,-8.421592474264931e-05,8.124635526119773e-09,2.0969540034515424e-06,3.7829213275976334,44.9464484092354,9.056642335836344,44.24615863872642
0.23,31.22221434283448,131.01039540734791,3.9394622486964206,3.813874679301352,0.0004940771488601,36.66675459308932,0.000779455230549,2.974212905336642,406.3406421461021,9.430647902846331,3.5044030163419806,71.99971583979395,5.0272885112871524e-08,120.00000182313076,54.45382429059888,15.288,0,0.0,0.0277145095638672,2.0669790509245914e-10,-9.77285871729516e-05,9.894576563683824e-09,2.5339062472561444e-06,3.813874711257219,43.79476959007253,9.430725512303388,36.78718303164376
0.24,31.222214184153326,131.01039573358457,4.028950821673608,3.829256049377765,0.0005200487408944,37.802126339316736,0.0008136255607606,2.9692962675112065,416.2328240017114,9.837806876534357,3.658163422426286,71.9996564062533,6.718950080713476e-08,120.0000020109434,59.25679777340223,15.288,0,0.0,0.0289110855155543,2.4956955046738006e-10,-0.0001125744417092,1.1934277804843484e-08,3.0448209172448607e-06,3.829256084638984,42.59361542722471,9.83788856559955,37.91856374864305
0.25,31.22221401888584,131.01039607335582,4.122052964664892,3.851417709838087,0.0005469594058717,38.85163035360012,0.0008459008130282,2.964283881833675,425.36408079150686,10.22297576958679,3.8050691648373967,71.99958811418384,8.786880969336211e-08,120.00000220974424,63.98709205399403,15.288,0,0.0,0.0300430411774988,2.987811646313829e-10,-0.0001288461362054,1.4273117985167728e-08,3.621333387698252e-06,3.8514177486178034,41.50703126619192,10.223061685769354,38.96455005232871
0.26,31.222213847358866,131.0103964259872,4.218542267117083,3.8780574625554745,0.0005745172425185,42.3164797140743,0.0008766626387865,2.959162938653076,455.8015834241788,10.590779679138215,3.946551912391076,71.99951013710364,1.1286401474734325e-07,120.00000241975916,68.67355887153568,15.288,0,0.0,0.0311239685467471,3.5491769188178554e-10,-0.0001465721578858,1.6932703957058654e-08,4.267712643344226e-06,3.8780575050466,40.51245375834074,10.590869924095635,42.41981967733593
0.27,31.22221366913008,131.0103967923915,4.318728802515264,3.886188503202341,0.0005994342651313,38.70936050721014,0.0009111181036949,2.953518013741325,423.84219965987256,11.004860953238978,4.102320296019413,71.99942161756776,1.4276417094868828e-07,120.0000026420792,74.14786134434608,15.288,0,0.0,0.0323408987462391,4.1858405402174807e-10,-0.0001658847815307,1.995072923688136e-08,5.018832267232506e-06,3.886188549362022,39.43841359495857,11.00495511215316,38.8218734782956
0.28,31.22221348431185,131.01039717233687,4.422535913956003,3.90556090261878,0.0006261175699806,44.68030766832924,0.0009425767186621,2.947879457547137,476.3468732012221,11.38358114165448,4.247086834352694,71.999321619057,1.7823531611327881e-07,120.000002877279,79.33831935330025,15.288,0,0.0,0.033453914386159,4.904408325040897e-10,-0.0001868529238516,2.3357766479368094e-08,5.847713054408178e-06,3.9055609527288775,38.49894431917428,11.383679491972384,44.77744842575601
0.29,31.222213292835256,131.0103975659655,4.530013412817602,3.9242599519377537,0.0006528240665589,35.802573724660256,0.0009737210635801,2.942037024315898,397.97031042211177,11.759725774384751,4.391004157029451,71.99920917567837,2.1999186079018322e-07,120.00000312617878,84.66717879828003,15.288,0,0.0,0.0345593650464213,5.711677680739745e-10,-0.0002095620322847,2.7188189988316943e-08,6.77505090435382e-06,3.9242600061534456,37.60352534239979,11.759828319749328,35.92324968749781
0.3,31.222213095024976,131.0103979726075,4.64093665799555,3.936939025755682,0.0006785438093183,33.570228713727204,0.0010059102294455,2.93586442972183,378.1859457108711,12.149968255527943,4.539237002744259,71.99908328532703,2.6880857935396905e-07,120.00000338923812,90.3787563598417,15.288,0,0.0,0.0357062504417728,6.614698865958865e-10,-0.0002340353597042,3.1467140861055e-08,7.817263716758327e-06,3.9369390841381695,36.71173884615234,12.150074840940263,33.698361337808635
0.31,31.22221289105846,131.01039839189684,4.755183729044857,3.9598342215431432,0.0007060286581592,35.396825578217346,0.0010350810412898,2.9297385597941448,394.1656220930212,12.504537499407316,4.6763673222047455,71.99894291513503,3.255120771695107e-07,120.00000366712923,95.72967338626896,15.288,0,0.0,0.0367483036680869,7.620720834468404e-10,-0.0002603234137215,3.622454560346964e-08,8.948994505138873e-06,3.9598342843844345,35.934338386209795,12.504648402129598,35.5178635353378
0.32,31.222212681031937,131.01039882363492,4.872689374180126,3.985461429033668,0.0007340760463279,38.52097867048992,0.0010630242168685,2.9235095146848846,421.55939346242695,12.84534566718622,4.809181081594425,71.99878701464397,3.909756427278764e-07,120.0000039606604,101.01782231644016,15.288,0,0.0,0.0377499198995686,8.737098716736534e-10,-0.0002884807530145,4.1491545539590986e-08,1.0187112828155184e-05,3.98546149652875,35.21473736963424,12.845460975581933,38.631757748577954
0.33,31.22221246496604,131.01039926777932,4.9934410812554,4.010606629086,0.0007621365968788,38.18822026147908,0.0010905599149574,2.917102431053817,418.5156301991682,13.18247167592885,4.940798912752974,71.99861449732019,4.661299779655886e-07,120.000004270781,106.38859400029033,15.288,0,0.0,0.0387407190563976,9.971421990244511e-10,-0.0003185760672934,4.7302669734505256e-08,1.154498667827874e-05,4.010606701382261,34.52805863348922,13.182591392065536,38.299473293007864
0.34,31.222212242662028,131.01039972474007,5.117579377337869,4.019339771238816,0.0007871574969313,29.898022638335373,0.0011220389395318,2.910051232417875,345.46563688075645,13.569536737955724,5.0878303926024735,71.99842423285973,5.519675040347761e-07,120.0000045987411,112.72655675097128,15.288,0,0.0,0.0398782837956187,1.1331556132162459e-09,-0.0003507224668667,5.37022358302301e-08,1.308298593306914e-05,4.019339848191799,33.76700548046532,13.5696603843662,30.039310197084795
0.35,31.22221201433324,131.01040019407705,5.2449575244483055,4.033762873683395,0.000813261106463,32.76415525156106,0.0011515840876071,2.902959820469776,370.5765700527033,13.934300103976534,5.227895396154902,71.99821502296155,6.495674834876441e-07,120.000004945438,118.8669740701126,15.288,0,0.0,0.040950312688979,1.2825853697215452e-09,-0.0003849609961885,6.072234695821837e-08,1.4746020857580124e-05,4.033762955530055,33.07785186209504,13.934427850732408,32.89250745069162
0.36,31.22221177990305,131.01040067594835,5.375631006350063,4.051723629010647,0.0008401329464575,37.01692984301412,0.0011797030485285,2.8957873473716007,407.8625232777193,14.282998147928636,5.362923567977223,71.9979856440668,7.600645476620651e-07,120.00000531213882,124.88900300695136,15.288,0,0.0,0.0419751331662584,1.4462801652534363e-09,-0.0004213876232777,6.84067806399068e-08,1.654507199147348e-05,4.051723715967022,32.44322602189087,14.283130115703262,37.13002398000203
0.37,31.222211539445663,131.01040117020102,5.509550188388412,4.071639898917391,0.0008674922629137,35.12417761390579,0.0012067983861697,2.88849906286036,391.1218908297666,14.620581431527652,5.494447309446232,71.99773482653193,8.846681943540367e-07,120.00000570002652,130.86067091914967,15.288,0,0.0,0.0429672939311924,1.6251202388969355e-09,-0.0004600660652957,7.679415042686734e-08,1.849041957573993e-05,4.071639991174516,31.85023865502424,14.620717696893658,35.24274792557624
0.38,31.222211292895075,131.01040167697127,5.646763233102716,4.08264881385344,0.0008930259828975,36.695642158537446,0.0012360471443664,2.880711738179021,404.8187610144602,14.986392916850402,5.634654729559426,71.99746126698146,1.0246533537040716e-06,120.0000061105033,137.4891296153862,15.288,0,0.0,0.0440424171304414,1.8200057922063743e-09,-0.0005010869196581,8.592980519823866e-08,2.0642694281337543e-05,4.082648911356968,31.228847973200924,14.986533193043764,36.808540518115166
0.39,31.22221104018777,131.0104021963902,5.787316652586672,4.096641430700089,0.0009192713382325,31.335681548387896,0.0012640110027448,2.872831219844713,357.64062493382744,15.337978856701952,5.770390286512262,71.99716358743511,1.1813915463769678e-06,120.00000654506955,144.01394309468844,15.288,0,0.0,0.0450757388736732,2.031886352449547e-09,-0.00054455673306,9.586443829735616e-08,2.295945663566148e-05,4.096641533664766,30.65298398882095,15.338123255506089,31.4670954954126
0.4,31.222210781536543,131.01040272801887,5.931064331106764,4.109028969993624,0.0009451871856381,29.95928076777898,0.0012920492774571,2.8646905607053603,345.465636880754,15.692185018814769,5.906873567965718,71.99684037970908,1.3563276523471372e-06,120.00000700500496,150.74021066990193,15.288,0,0.0,0.0461167659598875,2.2617341782092324e-09,-0.0005905037520737,1.0663253249436129e-07,2.5471259834659164e-05,4.1090290785164525,30.09246700352443,15.692333488470696,30.095929256306363
0.41,31.222210517064383,131.01040327160345,6.077922766619747,4.122888296344507,0.0009714525997821,33.78425365340317,0.0013192264430821,2.85640971467756,378.94687077668647,16.03742529732769,6.0405139809190125,71.99649020751959,1.5509747261474075e-06,120.0000074917568,157.44375780268788,15.288,0,0.0,0.0471314487675864,2.5105374204052982e-09,-0.0006389770219162,1.1827345344180344e-07,2.816813594418537e-05,4.122888410595805,29.56469007160549,16.037577892745222,33.904791300285986
0.42,31.22221024682894,131.0104038270252,6.227854084363214,4.14444025865494,0.0009995884754813,38.04468161607466,0.0013435485656724,2.8482703202464488,416.2328240017114,16.348862540904037,6.163613566771559,71.99611159893284,1.766920641656551e-06,120.00000800692096,163.6157044470786,15.288,0,0.0,0.0480467946810589,2.779304965995011e-09,-0.0006900467934588,1.308321832549104e-07,3.100973487310896e-05,4.144440378988911,29.104646754454564,16.34901955589459,38.15115260238947
0.43,31.222209970843565,131.0104043942566,6.380851271439565,4.1618082623168045,0.0010268052928652,33.45815353250911,0.0013687230309017,2.8397750580998298,375.9031395134336,16.67263197205097,6.290467308135904,71.99570306121484,2.005818691215035e-06,120.00000855220898,170.15779512382937,15.288,0,0.0,0.0489983878509763,3.0690566816849196e-09,-0.0007437862329608,1.443552931671376e-07,3.4086145072160934e-05,4.161808388761201,28.640125213458976,16.672793262249197,33.57845085853367
0.44,31.22220968892116,131.01040497368373,6.537047157143216,4.164954087655709,0.0010505545842624,30.86574023822051,0.0013980747538988,2.830419582421933,353.0750125389216,17.050421620730056,6.433992917638883,71.99526304125902,2.269416145406482e-06,120.00000912964636,177.9537948947602,15.288,0,0.0,0.050108743779844,3.380847125286677e-09,-0.0008003278134917,1.589055036683518e-07,3.750784460406397e-05,4.164954219916419,28.113519280259386,17.050586641458253,30.99524475496968
0.45,31.22220940081287,131.01040556582012,6.696617751072218,4.165241899529329,0.0010735835484822,35.912216710755274,0.0014280646808282,2.820677244966047,397.2093853562869,17.438293672974723,6.580571293039616,71.99478987454265,2.5595995397253085e-06,120.00000974147088,186.13940823302417,15.288,0,0.0,0.0512487363629523,3.7158016249566814e-09,-0.000859850913876,1.745604864109677e-07,4.121350642664912e-05,4.1652420376426775,27.591357195572936,17.43846231108416,36.02281959036367
0.46,31.222209106468902,131.0104061707686,6.859600379555308,4.174585124444534,0.0010989881252456,41.916816790010685,0.0014546917035209,2.811153314474766,449.7140588976434,17.786187321601275,6.714685486378061,71.99428180697711,2.8783880229668832e-06,120.0000103898448,193.6374175079873,15.288,0,0.0,0.0522712438446989,4.0751091178509895e-09,-0.0009224765531151,1.9138630415982226e-07,4.50966024037632e-05,4.1745852688465686,27.13985967570823,17.786359950252297,42.01097612387663
0.47,31.22220880579083,131.01040678873238,7.026066274755745,4.1823089530633855,0.0011240727220223,28.37640408484148,0.0014814747534716,2.801325368441072,331.0078106302534,18.138167428286582,6.849989708801916,71.99373704967608,3.2278903746588286e-06,120.00001107707628,201.37401505997488,15.288,0,0.0,0.0533057667609836,4.459978104761035e-09,-0.0009883252835099,2.094509673354327e-07,4.927107017839778e-05,4.182309103852639,26.69716826759888,18.13834399721685,28.514342615617974
0.48,31.222208499300592,131.0104074186346,7.195654207463586,4.189479568102716,0.0011490100608361,27.95074823096412,0.0015080719422187,2.7912412472910484,327.2031223011574,18.48995085190441,6.98515976370584,71.99315377257649,3.6103201777021456e-06,120.00001180491516,209.25751230436188,15.288,0,0.0,0.0543397174489847,4.8716620260348906e-09,-0.0010573190976925,2.2877013380347535e-07,5.373205427420879e-05,4.189479725385959,26.268461765425428,18.4901313379827,28.089773168283216
0.49,31.222208187201936,131.01040806005494,7.368224738812109,4.202723284133339,0.001175611380853,35.08821363242469,0.0015321405723077,2.781292092003844,389.60000969812296,18.812014261754847,7.111044804193205,71.99253015042137,4.027946338669921e-06,120.0000125755114,216.60722913930897,15.288,0,0.0,0.0552863302793499,5.311396446020465e-09,-0.0011294854492155,2.4938633613154685e-07,5.8398320167141767e-05,4.202723448262914,25.88860807032205,18.81219892635871,35.1982716047702
0.5,31.22220786953184,131.01040871291724,7.5437546994244835,4.220815778795054,0.0012036252596423,36.05491615971072,0.0015540388599792,2.7714444106710974,397.97031042210494,19.10875420627192,7.229005658018125,71.99186435180009,4.483102820610566e-06,120.00001339126192,223.4908652241728,15.288,0,0.0,0.0561585257949344,5.7804122391526605e-09,-0.0012048912160576,2.713531252030471e-07,6.327866493526626e-05,4.220815950099865,25.54902500917784,19.108943271285572,36.161276053538906
0.51,31.222207546379583,131.0104093770373,7.722184419225251,4.232567510615346,0.0012298790840397,27.54004661432325,0.0015777580800203,2.761017323676155,323.3984349720841,19.430597746636646,7.354673636736509,71.99115452520388,4.978202222778502e-06,120.00001425458936,231.07869697977367,15.288,0,0.0,0.0571045034845869,6.2799518101633574e-09,-0.0012835871653678,2.947201005874635e-07,6.854585242460463e-05,4.232567688976395,25.189423168613605,19.430790935591396,27.678103017910345
0.52,31.222207217734187,131.01041005239887,7.903526606160305,6.582962951246902,-2.526946407456966,33.14597649411152,0.1563656334673384,2.599720186096131,372.0984511843415,20.133926635179595,7.481907608800456,71.99039325826638,-1.5056236864655856e-06,120.00000778499594,248.1058412697976,15.288,0,1.2571453439010984,0.0591716348979873,6.8129194988935594e-09,-0.0013992522782963,-2.443189919898916e-05,7.742595965772451e-05,7.0493073011466025,22.457247625152483,19.737123489300725,33.2481390908652
0.53,31.22220688339323,131.01041073916264,8.087894284980813,6.559159172660461,-2.4915829438108537,34.81016923773621,0.1603376912838451,2.5848570339758217,386.5562464348624,20.461764166769697,7.607567407333297,71.98955718338357,-8.612940856367661e-05,119.99991915510948,256.2468214576105,15.288,0,1.2619816566318671,0.0601352423080854,7.3743665289455e-09,-0.0015360430758358,-7.70841462480501e-05,8.637754846562296e-05,7.014514099766672,22.158447637534376,20.070510574415444,34.906375870622504
0.54,31.222206543243736,131.01041143752556,8.275362334226854,6.536280570481898,-2.4574311700449174,30.553996439442752,0.1643541864322699,2.5697170153177527,349.2703242098436,20.787659037747943,7.732515897566127,71.98864146015275,-0.000264601820668,119.99973184612772,264.4695579228157,15.288,0,1.266806880907281,0.0610931465508083,7.962953544741648e-09,-0.0016778427855217,-0.0001310956332794,9.585249814079054e-05,6.981096498823996,21.869403866263543,20.40176499111549,30.662308397426504
0.55,31.22220619758369,131.01041214686694,8.465725249059638,6.516057434891166,-2.4250782843755614,32.392408616811466,0.1683678476172215,2.554432069503835,365.2500005919907,21.10585959100118,7.85496581525297,71.98764323541182,-0.0005392608284649,119.99944339814596,272.6231116321383,15.288,0,1.2716150721112291,0.0620284438835403,8.579928458442438e-09,-0.0018245685161289,-0.0001864105497201,0.0001058283120418,6.950872591553159,21.5949209084064,20.725042911392148,32.493408668963966
0.56,31.222205846416045,131.010412867175,8.658983131227378,6.499689302675179,-2.394901528194428,30.22359692737255,0.1723408814391601,2.539112794597311,346.2265619465787,21.411944783907124,7.973539338343784,71.98655965261412,-0.000912402470702,119.99905139548056,280.5826104842923,15.288,0,1.27640592492603,0.0629281411311501,9.226529843771704e-09,-0.0019763358160407,-0.0002430483602998,0.0001162913587173,6.925091120864846,21.338150455596107,21.03586406541824,30.33055565582976
0.57,31.222205489819768,131.01041359828116,8.855083130477224,6.4810279986723165,-2.364595314431965,29.88382570052949,0.17643472969465,2.523297171905219,343.1828296833023,21.725715656701595,8.094405622619822,71.98538781926398,-0.0013863183297601,119.9985534268524,288.86074479086926,15.288,0,1.2811771373883811,0.0638504320500485,9.904023867490048e-09,-0.0021331947067245,-0.0003010038916589,0.000127358225578,6.897185280106647,21.080961599545617,21.354391321489363,29.990685159415982
0.58,31.22220512777373,131.01041434022363,9.054042204491989,6.456138143047289,-2.3327414489463614,39.39637940233533,0.1807675890220906,2.506634278213735,426.1250058573153,22.06089963686356,8.221840126109194,71.98412478753703,-0.0019633174162592,119.99794706254931,297.8368876312446,15.288,0,1.285928537259898,0.0648356609774055,1.0613696693986032e-08,-0.0022952670790617,-0.0003602983770144,0.000139145946887,6.862969427076766,20.81200097937641,21.69457469178692,39.47645630421642
0.59,31.222204759853376,131.01041509387255,9.256158472004117,6.439699913608834,-2.304611519791961,31.90747458800652,0.1849286259335788,2.490318068298357,360.68438819711065,22.36785471811315,8.340370502840262,71.98276743805715,-0.0026458550510073,119.99722971920944,306.1768037280743,15.288,0,1.2906672939153323,0.0657379334420074,1.135686564956344e-08,-0.0024629989498172,-0.0004210694264251,0.0001513889738391,6.838024818526538,20.57329773715719,22.00594479421648,32.005043622252174
0.6,31.222204386285068,131.01041585875527,9.461276562678634,6.4121275372376925,-2.273181196378656,28.340206788634408,0.1894837229839404,2.4726861106219102,329.4859594986058,22.7139020887564,8.470971923536087,71.98131258160417,-0.0034364151794423,119.99639878242078,315.71743315267327,15.288,0,1.2953887532013832,0.0667551027001248,1.2134940623236218e-08,-0.0026363365528615,-0.000483272307372,0.0001645469102729,6.801554178539445,20.30870305657221,22.35692528943664,28.448504380819355
0.61,31.22220400701941,131.01041663496807,9.669433267247628,6.383230887048901,-2.2419636667109364,33.23607192807529,0.1941611527356129,2.4545243028208223,372.0984511843297,23.066024839980383,8.603358011091938,71.97975693466242,-0.0043375369808267,119.9954515797185,325.57563373035487,15.288,0,1.3000935703827998,0.0677901342923812,1.2949346907095609e-08,-0.0028154452638538,-0.0005469414457848,0.0001784466069305,6.763965011838726,20.046257521111105,22.71394787267969,33.327149072708934
0.62,31.222203622179,131.01041742225215,9.880545591237505,6.372273819578106,-2.2176160228010886,41.364177270794016,0.1983553613547423,2.437647124146728,442.86563930529206,23.354092054190367,8.715682454326872,71.97809711881845,-0.0053518128830023,119.9943853821704,333.75175283394015,15.288,0,1.3047815946055263,0.0686369159039848,1.3801564621102936e-08,-0.003000392770493,-0.0006120763423482,0.000192539901233,6.745620734960504,19.83989845570593,23.005836709982567,41.43641670850547
0.63,31.222203231572127,131.010418220998,10.094749487513765,6.356097125075776,-2.191996682559284,23.3870670468978,0.202771654678076,2.419951694134859,286.11251274707894,23.660680603113924,8.833666058026397,71.97632980351159,-0.0064817348117238,119.9931975665642,342.56509782583856,15.288,0,1.3094495397579176,0.0695381377038609,1.4693038301958342e-08,-0.0031914235664981,-0.0006787370691313,0.0002074829405333,6.721985693353139,19.624050011062423,23.316446556225863,23.51280901130233
0.64,31.222202835815327,131.01041902992793,10.311617911636848,6.331478057190537,-2.1640395263755594,22.956803069341056,0.2075310337030651,2.401055928780425,282.30782441796754,23.99891830882104,8.961410263109858,71.97445155375325,-0.0077298058014242,119.99188549936716,352.42193999447903,15.288,0,1.3140989454912957,0.0705323822705141,1.5625340807750443e-08,-0.0033881479596338,-0.0007467645823301,0.0002234167369498,6.689663808367602,19.389793245513687,23.65907258916496,23.082957909843106
0.65,31.222202434890004,131.01041984907536,10.531166267232908,6.3200357866995525,-2.141075244735164,40.70099948562339,0.2119183081613129,2.383133862464976,436.7781447787475,24.287514162661303,9.07358838539323,71.97245907220933,-0.0090984862869829,119.99044658452422,360.9413019035978,15.288,0,1.3187181829174297,0.0713807370084697,1.6599947892033157e-08,-0.0035907296335153,-0.0008161929814403,0.0002396173640343,6.6714650776083735,19.19706136582074,23.951273118506883,40.77125942995233
0.66,31.22220202826609,131.01042067952946,10.753766177822229,6.305584767557944,-2.117577053691756,34.59415624482408,0.216467376755727,2.364563511990069,383.51251517160017,24.586968027753688,9.189037976688066,71.97034887703683,-0.0105902332053316,119.98887823751056,369.8887447627599,15.288,0,1.323322167401925,0.072261010091728,1.7618319574902978e-08,-0.0037997270438337,-0.0008871880421476,0.0002566850687547,6.650294132961609,19.000709382175305,24.25441552212215,34.675548517921605
0.67,31.22220161613946,131.01042152088078,10.979283736137477,6.283722067544442,-2.0920954745151548,23.76232318721492,0.2213436449375884,2.3448204454760915,289.1562440103425,24.91514045260551,9.313328849601236,71.9681173170377,-0.0122076789003619,119.98717768561728,379.82053226065534,15.288,0,1.3279112139507585,0.0732256939621665,1.8682091797427168e-08,-0.0040150988058348,-0.0009597109187668,0.0002748485196871,6.621515139323519,18.78872085592611,24.58658788344758,23.87876000097846
0.68,31.22220119868821,131.01042237275675,11.207597484920576,6.2641212549666845,-2.0678358040288507,29.716104273870616,0.2262116236891153,2.324933099853891,340.8999924858462,25.23457017303978,9.434792866495505,71.9657607047138,-0.0139534417878023,119.98534217038988,389.61355710479233,15.288,0,1.3324688483484828,0.0741646901739827,1.9792915546502306e-08,-0.004236835639788,-0.0010337346179172,0.0002937391488547,6.595309562512751,18.58759301438856,24.909825793286267,29.80777312771016
0.69,31.222200775996896,131.01042323497813,11.438651104099524,6.251825131517207,-2.046419611322197,36.63553533957375,0.2308766784006096,2.305522784102356,401.0140726853634,25.524393666582508,9.54692717339448,71.9632753070192,-0.0158300867617455,119.98336899189135,398.60566753647726,15.288,0,1.3370080214545554,0.0750166802790101,2.0952446023854103e-08,-0.0044649837171129,-0.0011092509555763,0.0003131049844963,6.57696859300223,18.4106184104847,25.20301116647591,36.70873450509839
0.7,31.222200347923028,131.01042410783447,11.672546334191276,6.239073581418675,-2.0252667460760607,30.694625222625422,0.235618487401928,2.285714764113649,349.27032420985284,25.815268279283984,9.65928209942875,71.96065749839651,-0.0178401655385955,119.98125545613844,407.7332528218032,15.288,0,1.341530263179309,0.0758717665259662,2.2162295313372225e-08,-0.0046997978410781,-0.0011863197985967,0.0003333195090367,6.558316728478249,18.2365566360776,25.497206366179807,30.780513732098843
0.71,31.222199914523465,131.010424991204,11.909246153514063,6.221514855844968,-2.0029581024170504,25.188074702721007,0.2406083343786674,2.2649525604408502,301.33126406340574,26.125324062116416,9.77751192549816,71.95790342391827,-0.0199862640778272,119.97899884013232,417.5767860948436,15.288,0,1.3460222629232168,0.0767832338384212,2.3424173342307167e-08,-0.0049413464844154,-0.0012649392911514,0.0003546516914219,6.5347767237828025,18.0537716064776,25.81076421762851,25.29084833890461
0.72,31.22219947580075,131.0104258850768,12.148751401727507,6.19826266662459,-1.9792477753022093,30.886768532054628,0.2458993591132404,2.2430547874689424,350.79220534145287,26.45923861535352,9.903075711250214,71.95500912776122,-0.0222710169766394,119.97659636925248,428.3094654109573,15.288,0,1.350494833702404,0.0777648304219938,2.4739821827039043e-08,-0.0051897734591796,-0.0013451319621278,0.0003772339723328,6.50542749691143,17.85995083161958,26.148400931642158,30.969085095093135
0.73,31.22219903175201,131.01042678945436,12.391066774754428,6.188263076636983,-1.960141379695043,39.12856446416991,0.2507247458322968,2.2224923156031955,422.320318528234,26.73648823494493,10.010867993826336,71.95197062746398,-0.0246971731829362,119.9740451404398,437.32228352171074,15.288,0,1.3549503422878055,0.078579893696137,2.6111021604669413e-08,-0.0054452475419042,-0.0014269281187985,0.0003999419302669,6.490131085283477,17.705222420236232,26.428650003539087,39.19243411703066
0.74,31.22219858231076,131.01042770446975,12.636241142595235,6.173811309732126,-1.939981851965085,24.4191841380358,0.255792627079401,2.2009814700033177,294.48281347105944,27.031841123755648,10.124197721670976,71.9487838761305,-0.0272673499466005,119.9713423962836,447.02715762243776,15.288,0,1.3593828295292345,0.0794481705609556,2.7539554250719493e-08,-0.0057079337387036,-0.0015103554131148,0.0004238569136851,6.470308913534709,17.542485235015704,26.72716770962713,24.519508626125962
0.75,31.222198127857578,131.0104286293329,12.884012282307005,6.156476785486369,-1.9192713600457736,28.544790050994543,0.261049350880565,2.178682759394399,330.24688556441487,27.33913539038994,10.2411540453855,71.94544475614036,-0.0299841786704324,119.96848536342684,457.2375336674876,15.288,0,1.3637863285947007,0.0803515510925522,2.9027324390992602e-08,-0.0059775705039946,-0.0015953074020096,0.0004489147464312,6.447605790180981,17.37590427023584,27.0377133279442,28.62900355208044
0.76,31.22219766827541,131.01042956428162,13.134464327602998,6.143685947627253,-1.90031528664396,30.743895759041443,0.2661753064946145,2.156645189051944,349.27032420986166,27.62562660700245,10.351521137838576,71.94194924616062,-0.0328502839422181,119.96547126790816,466.859447491414,15.288,0,1.36816966302937,0.0811937974021139,3.0576117950385204e-08,-0.0062544333783745,-0.0016818472683884,0.0004746178327264,6.429791860087518,17.224776323636807,27.327180503628124,30.820595292889053
0.77,31.22219720350331,131.010430509438,13.3876423130344,6.13189386370539,-1.8819873522045336,28.734785692005406,0.2713182495549348,2.1343869185527047,331.7687666960708,27.90654345216456,10.460045976939838,71.93829308489472,-0.0358682805028371,119.96229735561708,476.3908511592657,15.288,0,1.3725333081144415,0.0820196674507428,3.2187794463592855e-08,-0.0065387246145548,-0.0017700138893421,0.0005012247164668,6.413147820591111,17.07967178530396,27.61097472589645,28.81522392548961
0.78,31.22219673360956,131.0104314646573,13.643501392935327,6.115909503602897,-1.8626904667663848,23.56661759897904,0.2767140295881551,2.111117156324009,286.8734378128899,28.20546028994777,10.57408619879324,71.9344720703002,-0.0390408079558061,119.95896083786168,486.6391328391772,15.288,0,1.3768715460476215,0.0828984483620251,3.386426243439996e-08,-0.0068304866748292,-0.0018597962138459,0.0005291850340771,6.392243445340616,16.927126456134403,27.912921093030363,23.662604492287088
0.79,31.22219625868732,131.0104324297433,13.901979446365596,6.097514640068091,-1.8429777754179413,33.57589418248323,0.2822926783612149,2.08705651534502,373.6203323159534,28.51480870696186,10.69128524667149,71.93048191466025,-0.0423705304207594,119.9554588993946,497.35992780118073,15.288,0,1.381182293216644,0.0838078962855634,3.5607471456606475e-08,-0.0071297569930857,-0.0019511820650676,0.0005584150615239,6.368941717020098,16.77177363518129,28.2253643534239,33.64188110388317
0.8,31.22219577850208,131.0104334051771,14.163242330599177,6.08681650532928,-1.8258836669252856,34.023334986261005,0.2875735682940702,2.063824622463745,377.42502064505743,28.787359338873348,10.796896295365212,71.92631807374568,-0.0458601586350566,119.9517886831636,506.9003928676401,15.288,0,1.3854748301331965,0.0846091994585584,3.741934182410251e-08,-0.0074369829675224,-0.0020442832118858,0.0005880302290556,6.3537889667501775,16.639373791908803,28.500598745487505,34.08708544620383
0.81,31.222195293162265,131.01043439073126,14.42721729407034,6.071003625584638,-1.8075471898891209,22.0913993823094,0.293164614910871,2.0393710768262183,273.9374926939919,29.08280839910168,10.90955382426288,71.92197609024919,-0.0495123963179693,119.94794733080988,517.3454627748744,15.288,0,1.389746951062376,0.0854778111569139,3.930191553060183e-08,-0.00775214390868,-0.0021390683938415,0.0006192245917948,6.333409390239718,16.497063144598307,28.798926645016472,22.187269019623198
0.82,31.222194802867623,131.01043538598952,14.693768187566876,6.053033132635122,-1.7888614278602126,28.42018123670441,0.2989356054406536,2.014123642735288,328.72500443277005,29.387781659919973,11.025090975694695,71.91745145916252,-0.053329938967037,119.94393199127158,528.2389880591642,15.288,0,1.3939967296165214,0.086374423374879,4.1257277786879065e-08,-0.0080751449725946,-0.0022354852277942,0.0006517725150367,6.310889047908654,16.352399368162562,29.106833613024996,28.493029991061864
0.83,31.222194307600123,131.01043639098592,14.962910271684974,6.044319020400046,-1.773162426794185,36.15797445429173,0.3043005683559239,1.9900864724412968,395.68750322465047,29.646793940746605,11.12617972693392,71.91273947132096,-0.0573154669869894,119.93973983686206,537.5775053503035,15.288,0,1.3982210936573043,0.0871359579692035,4.328748561947701e-08,-0.008406182524771,-0.0023335684797197,0.0006844539517432,6.298112781109492,16.234098563812587,29.36831069588077,36.213977407085636
0.84,31.222193807246768,131.0104374059513,15.234724747656712,6.033581308852421,-1.7571128174244317,22.282894968617985,0.3098230248442666,1.9653349536322504,275.4593748256452,29.913955329004867,11.229713034111,71.90783556111309,-0.0614716063116845,119.93536808854124,547.2956076549068,15.288,0,1.4024209080284251,0.0879214512477011,4.5394561628775095e-08,-0.0087455067510634,-0.0024333672060715,0.0007184808019295,6.28332134642582,16.11355260153616,29.637991954597897,22.371543084220924
0.85,31.22219330212131,131.01043843023413,15.508996233048949,6.015081758410665,-1.7390666032229227,24.30990701512159,0.3158219475623477,1.9387523926026868,292.96093233939376,30.218286863776783,11.34476951904349,71.90273508096723,-0.0658009524848346,119.93081400036014,558.4734367265534,15.288,0,1.4065968097907176,0.0888162005911773,4.75807048937219e-08,-0.0090928375833607,-0.0025347753436367,0.0007545954497472,6.260546418960687,15.976424913022369,29.94515686281413,24.38913863641442
0.86,31.222192792038086,131.01043946421547,15.785856476447346,6.002145942466836,-1.7228758978970011,30.47046312527909,0.3215897414928278,1.9127869916012024,346.2265619465587,30.493700669536512,11.450696754378871,71.8974332096354,-0.0703061889495143,119.92607473373914,568.6847211106524,15.288,0,1.4107516813680536,0.0896259641673242,4.984797874712215e-08,-0.0094486060419809,-0.0026378947664803,0.0007912454682197,6.243652020287202,15.855980103889316,30.22311273807897,30.532135482243376
0.87,31.222192277022632,131.01044050784014,16.06529044663644,5.99175105311779,-1.7076410295254838,28.367072804646416,0.3272761495336429,1.8869259145667543,327.964078366998,30.75463895927617,11.552004463443955,71.89192506689706,-0.0749899539428385,119.92114749841149,578.4434473087243,15.288,0,1.4148853153980476,0.0903931893907973,5.2198560429615927e-08,-0.009812919579592,-0.0027427318714996,0.0008287634299488,6.229484742726242,15.744509555060542,30.486443043054805,28.43164466908707
0.88,31.222191757112736,131.01044156102745,16.347274538898844,5.977427195325588,-1.691515640798006,24.50310269440228,0.3332438521634447,1.8598928591826376,294.4828134710418,31.0340598279692,11.658998195740216,71.88620584757426,-0.0798548776681221,119.9160295042492,588.9861255438507,15.288,0,1.4189967234382337,0.0912147457368044,5.4634649921645634e-08,-0.0101858313059517,-0.0028492773165198,0.0008680505518173,6.2113180965369965,15.625953413753717,30.768395767569377,24.575847789345286
0.89,31.22219123239514,131.0104426235957,16.63175120749492,5.9592798835086125,-1.6745456340612368,26.88486933396352,0.3395006478779968,1.8316449894451985,315.028134248087,31.332069235521114,11.771718673533252,71.88027054398306,-0.084903573585154,119.91071798525276,600.3356972265291,15.288,0,1.42308556817932,0.0920909451715341,5.7158501619171124e-08,-0.0105673877785804,-0.0029575201662742,0.0009091903173564,6.189264936097028,15.50062391516778,31.06906966758504,26.94932992045556
0.9,31.22219070278941,131.01044369570903,16.918779017650724,5.950380718029479,-1.6603774335336567,29.70799347054561,0.3452775164724803,1.8049095279966487,339.37814235421445,31.580115241561995,11.868719567109393,71.87411399691221,-0.0901387241859056,119.90521010152446,609.8618436464977,15.288,0,1.427150171448936,0.092820300437639,5.977235129661064e-08,-0.0109578773564079,-0.0030675176455198,0.0009502245661291,6.176889572128405,15.400507723465244,31.319340266943936,29.764774331642684
0.91,31.222190168370627,131.01044477721027,17.208308490079197,5.9376018704236175,-1.645328847153186,22.58326408548111,0.3513407595645753,1.776965311649658,277.7421810230789,31.846740429506244,11.9714437577374,71.86773124599279,-0.0955628980292374,119.89950312418928,620.1859758979972,15.288,0,1.4311909998971035,0.0936042711944391,6.247848730016331e-08,-0.0113573107476417,-0.0031792476766233,0.0009931492724753,6.160562042395049,15.2933490845506,31.58832829779248,22.6557909330643
0.92,31.222189629353288,131.01044586765332,17.500193358978105,5.921078183450069,-1.6294532219085245,26.903948451130365,0.3576963400608654,1.747775675573901,315.02813424806214,32.13187813009944,12.07988283919026,71.86111709332859,-0.1011786341275731,119.89359436409624,631.3235833226915,15.288,0,1.4352081134560974,0.0944426619321465,6.52793235448443e-08,-0.0117654948114696,-0.0032926325286764,0.0010380258412227,6.140425515986961,15.179506613170286,31.875958717518373,26.96303226168935
0.93,31.22218908564093,131.01044696723625,17.79450326333398,5.912950837505352,-1.6160724508925108,32.01978122428851,0.3635865435311496,1.7200697582127449,359.1625070654728,32.36984849901505,12.173468960210087,71.85426637408044,-0.1069884877822229,119.88748110707388,640.6913321083724,15.288,0,1.4392035839309365,0.0951424251708156,6.817709669556436e-08,-0.0121827721060101,-0.0034077431972445,0.001082770384927,6.129061828766309,15.088346837563735,32.11603009006564,32.068009367577744
0.94,31.2221885371165,131.01044807620036,18.091321958701165,5.897023896566246,-1.6007554905494612,23.215455945243857,0.3700285547627353,1.6901711600905909,283.0687504837787,32.64840082894996,12.279678837350124,71.84717392020742,-0.1129949334677164,119.88116072360316,651.7468815609622,15.288,0,1.4431773655504094,0.0959614758821193,7.117408738716858e-08,-0.0126093975308217,-0.0035246245875472,0.0011302992820252,6.109685276727561,14.980660564767414,32.396987454550185,23.279840945060172
0.95,31.222187984087647,131.01044919390662,18.390438697572545,5.88208832116567,-1.5858990409015332,30.09597369168985,0.3764708189688862,1.6600664366314049,342.4218736174873,32.919941612844745,12.383618212407136,71.83983434442038,-0.1192005241922112,119.87463050169688,662.6142487298731,15.288,0,1.4471278624621986,0.0967599259061952,7.427284949226373e-08,-0.0130450830816228,-0.0036431739970773,0.001179045677781,6.091403474172332,14.87764305057711,32.67086098181141,30.144073767532692
0.96,31.22218742624225,131.01045032100083,18.692072541797497,5.87128387399311,-1.572332519294664,29.485910781043987,0.3826986645108675,1.6305455843461367,337.09533515678345,33.16648555734542,12.479637764002453,71.83224224726885,-0.1256077662091059,119.86788777685784,672.5568272657329,15.288,0,1.4510581775914004,0.0974849118911142,7.747559416619114e-08,-0.0134904817705221,-0.0037635437195857,0.0012283978775402,6.077461966133841,14.786753088723035,32.91953514123032,29.53343989037063
0.97,31.22218686360118,131.0104514574388,18.996211567651947,5.858308483575544,-1.558358503302956,18.8216781176442,0.3891279936372867,1.600084408370531,245.02188719299323,33.42308974711779,12.578726652079212,71.8243921056334,-0.1322192036428039,119.86092984221304,682.9840802898657,15.288,0,1.4549679281777723,0.0982394753625301,8.07848027248034e-08,-0.0139457028305574,-0.0038857371839356,0.0012796360279772,6.061335696004431,14.69284577969858,33.17833354515416,18.893577159276884
0.98,31.222186296470287,131.0104526025852,19.302646336221983,5.837982419073649,-1.5426179969923544,27.47087366299957,0.3961306180785029,1.567292059071603,319.5937466429581,33.71990233876241,12.69035943077672,71.8162783562153,-0.1390373296160852,119.85375404324743,695.1479157407291,15.288,0,1.4588544702421176,0.0991122303249321,8.420317477654777e-08,-0.0144103573279585,-0.0040096255534231,0.0013339751322929,6.037670716048197,14.583612740391647,33.477617744479545,27.518397912551006
0.99,31.222185724691883,131.01045375676625,19.6114887896026,5.82989601344038,-1.5302691571964513,30.03610808001535,0.4023316482536525,1.5372621816352927,341.6609485517054,33.94441344402813,12.779228769196376,71.80789523186374,-0.1460646670946372,119.84635769662349,704.4145911675602,15.288,0,1.462720761196986,0.0997724789959667,8.773309876691425e-08,-0.014884947047697,-0.0041353176819488,0.0013870413095303,6.02671749601932,14.505534032491456,33.70406790356704,30.078112214110714
1.0,31.22218514826413,131.01045491998548,19.92274258330006,5.8146583887868175,-1.5162061900139905,26.86573926245853,0.4090949370567408,1.5049308763799332,314.2672081822764,34.2080814403035,12.880311968264028,71.7992372537626,-0.1533035775056106,119.8387382778469,715.3789850148142,15.288,0,1.4665656348169027,0.1005478288697575,9.137709261391257e-08,-0.0153695328110923,-0.0042628035666384,0.0014432786720841,6.008430359986642,14.4125758231313,33.96994412495124,26.910966569943433
1.01,31.22218456737788,131.0104560918463,20.236278105970925,5.800556688340578,-1.502599287221754,28.10797147793479,0.4158320863390156,1.472480725664524,324.9203161036979,34.46309145083129,12.978609055370388,71.79029853931323,-0.1607564798787014,119.830893211828,726.062705863824,15.288,0,1.470388550916617,0.1012977382884751,9.5137859151366e-08,-0.0158639718695565,-0.0043920208819716,0.001500769155379,5.991372400960141,14.324321529731428,34.22709076113352,28.149585723698994
1.02,31.222183981951748,131.0104572725174,20.552154137064832,5.788235795265878,-1.4896043536974837,23.43403105749727,0.4224893563107693,1.4401158916231815,284.59063161540416,34.705306200148414,13.072815144691788,71.78107342122941,-0.1684257260771539,119.82281998086908,736.2821126163918,15.288,0,1.4741904501706995,0.1020100463257869,9.901788458911764e-08,-0.0163685504068149,-0.0045230190154854,0.0015593394138608,5.976206208621745,14.242231869877012,34.47134605397987,23.48204085341068
1.03,31.22218339205751,131.01045846184982,20.870323380764187,5.771039665120686,-1.4755123440817417,19.110886833485687,0.4295729894200487,1.4059189401513492,247.30469339049705,34.97451420868384,13.175441432412212,71.77155604268664,-0.1763135696242557,119.81451617975829,747.7262007398023,15.288,0,1.4779706474612413,0.1028017042474609,1.0301982351499701e-07,-0.0168832607113273,-0.0046557704375825,0.0016207995283369,5.95606142101455,14.150672247804088,34.7427668892061,19.167345579965218
1.04,31.222182797759704,131.0104596597095,21.1907436909579,5.75838110995994,-1.462725652822292,30.51316172129,0.4363632163336005,1.3726103101068123,345.46563688072297,35.214188122887464,13.2687182631271,71.76174052070931,-0.1844223668587235,119.8059792822964,757.9860470107117,15.288,0,1.4817296864158422,0.1035065596677957,1.0714634120311309e-07,-0.0174081800571996,-0.0047902701284992,0.001682592574895,5.940648988243316,14.071642213667989,34.98444867194527,30.54713587473591
1.05,31.222182198758155,131.01046086672085,21.51362499879575,5.741783961787026,-1.4490884510812467,18.32373548354784,0.443518230622951,1.3376861676632614,240.45625879819983,35.47550241946213,13.368733317781471,71.75162085370366,-0.1927543571641279,119.79720689220252,769.2535202198197,15.288,0,1.485469640493236,0.1042750318078927,1.1139984837491265e-07,-0.0179439997401925,-0.0049266680399604,0.0017471985418799,5.92122504333607,13.985347460633983,35.24790440362071,18.377850657111203
1.06,31.22218159530165,131.010462082367,21.83879765842386,5.721851934721154,-1.4347653965947489,26.195622757679264,0.4510093386411657,1.3012363812964405,308.17968365593924,35.75544773073326,13.474559223132852,71.74119078181579,-0.2013118803272216,119.78819650560251,781.417727811798,15.288,0,1.4891889251720531,0.1050982755989942,1.1578333331085285e-07,-0.0184903992072953,-0.0050648563691864,0.0018145518962357,5.898414458167153,13.893203378328142,35.53009886259088,26.231798970070557
1.07,31.222180987268032,131.01046330690244,22.166348557940378,5.709438243621026,-1.422464191781262,30.8883237163382,0.4579415462121,1.2666999614475698,348.5093681440308,35.98635035445346,13.564877467071492,71.73044405142184,-0.2100973335516792,119.77894554630304,791.5179396122364,15.288,0,1.4928896809186742,0.105777373432989,1.202994363534444e-07,-0.0190478504318507,-0.005204927885602,0.001881269427071,5.883399304250184,13.820364184946676,35.762933154420615,30.917677488087286
1.08,31.222180374550973,131.0104645405494,22.496353386280006,5.695347222926644,-1.409877294796959,20.72370300349568,0.4650626801939553,1.2312041535031188,261.00157857466235,36.22504956307199,13.657582853403987,71.71937429101078,-0.2191129469335534,119.769451623183,802.0276955185891,15.288,0,1.4965721447270053,0.1064793964075198,1.2495089167882358e-07,-0.0196166669181511,-0.0053469330776949,0.0019502382142862,5.866701158510145,13.74545960889521,36.00360890427977,20.76545239433055
1.09,31.22217975743875,131.01046578270905,22.828615238826472,5.673089115107314,-1.3954168345379263,19.04693398234229,0.4729415136206626,1.192522589166498,246.54375332474407,36.51340828409323,13.765897910647078,71.70797512386073,-0.2283609474480412,119.75971234005756,814.8211162272872,15.288,0,1.5002341473583551,0.10732739635504,1.2974085566502198e-07,-0.0201963879253539,-0.0054907300930293,0.0020237910578679,5.8416402287626354,13.653513341739314,36.29423838846531,19.09008847356878
1.1,31.22217913601061,131.010467033217,23.163081721043923,5.654951291725219,-1.3821101098352115,38.43261129395163,0.4805308300859084,1.154711973352169,413.1890617385841,36.7734683353186,13.865246388606003,71.69624006203969,-0.237843534844991,119.74972532851744,826.4427267046608,15.288,0,1.5038764064231065,0.1080922240202922,1.3467223146514e-07,-0.0207870787245364,-0.0056363092015816,0.0020977498403873,5.8208672512350725,13.572856823635297,36.55638804113888,38.45295671976401
1.11,31.222178509844696,131.01046829295353,23.50004627080927,5.64509499795897,-1.370943906450072,28.084363968717906,0.487430800479878,1.1193577513170652,324.1593910376397,36.97701324915749,13.94668836756268,71.68416248187583,-0.2475629140073463,119.73948821293682,835.5898913602341,15.288,0,1.507502394474029,0.108690938855189,1.3974746357220085e-07,-0.0213898158095887,-0.0057839069071029,0.0021704533713232,5.808657245392855,13.512994645593238,36.76168643192843,28.110888461379346
1.12,31.222177879005816,131.01046956178584,23.839466063522607,5.61957121868592,-1.3561167870799309,10.469878863658176,0.4958071829050056,1.0779494463309656,172.73281794065943,37.28040515470646,14.059611895023448,71.67173581190947,-0.2575211564803772,119.72899875518812,849.3302796687376,15.288,0,1.5111105339855817,0.1095831545513193,1.449696244779657e-07,-0.0220045327850041,-0.0059334768133263,0.0022510762323103,5.780374760999802,13.418954978357707,37.067406716441766,10.53689532979908
1.13,31.22217724411268,131.01047083842482,24.180916770655024,5.602445742801216,-1.3434453809089817,33.145673066749026,0.5034761481180651,1.039061432744517,367.5328077900705,37.52645008297839,14.154389966035854,71.65895301896433,-0.2677205671053378,119.71825446828106,860.5499478615213,15.288,0,1.5146984385557325,0.1103068115206379,1.503424640603553e-07,-0.0226301426763581,-0.0060847290946436,0.0023302791985614,5.760771457058672,13.34585042191723,37.31544151223527,33.16577724010931
1.14,31.222176604470825,131.01047212432113,24.52487917967789,5.591169899808239,-1.33228661609979,18.26994781835789,0.510636928090547,1.0019367651156084,239.69531773195544,37.73033184804592,14.235770307039727,71.64580746742861,-0.2781630665858726,119.70725326874684,869.8973692962811,15.288,0,1.5182708561409348,0.1109065405751692,1.5586806740125301e-07,-0.0232683364638778,-0.0062380427903639,0.0024089334071755,5.747219368361571,13.287813411038128,37.5210756141553,18.30452459473177
1.15,31.22217596058868,131.01047341841652,24.871004691967617,5.564078449983977,-1.3174958087222628,18.007424887697645,0.5193705704473619,0.958285945621148,237.41251153546767,38.038259693196856,14.350045450057332,71.63229246564448,-0.2888505167750392,119.69599313121988,884.1248685970451,15.288,0,1.521823465228725,0.1118121167755036,1.6155015173787706e-07,-0.0239180083334354,-0.0063931235381447,0.0024963187981123,5.717456079755886,13.19535891114395,37.83132617276672,18.04038272401931
1.16,31.222175312609927,131.01047472041236,25.219196692596785,5.554040516645728,-1.3068483315355848,47.439626139336426,0.5264904050329773,0.9208093824625984,490.0437743845894,38.22766725186436,14.426765015684856,71.61840086875091,-0.2997849953225436,119.68447180067032,892.9217401723325,15.288,0,1.5253575223413876,0.1123693151284687,1.6739189308979444e-07,-0.0245791617082268,-0.0065499463596882,0.0025780108067391,5.705248962267698,13.143372165177066,38.02240579465211,47.45148269870431
1.17,31.22217465962194,131.01047603221824,25.57008513599428,5.53562648598107,-1.2943395971870546,8.262724201534237,0.5344776837714718,0.8795921669414591,153.70937929486794,38.47100010984287,14.520501312471952,71.60412590100754,-0.3109682188295017,119.67268740088952,904.2949754591727,15.288,0,1.5288730200928724,0.1130850340559045,1.7339515372936869e-07,-0.0252540074170617,-0.0067090026968963,0.0026655633698853,5.684475301378873,13.074027711955477,38.26770301382269,8.326581531770051
1.18,31.22217400282681,131.01047735132505,25.922844546102368,5.506128426654609,-1.2793747475182824,22.984902722147687,0.5436605357267823,0.8332629309082535,280.02501822196746,38.78933730891228,14.638028138731409,71.58946043807023,-0.3224020404333143,119.66063790667484,919.291338714126,15.288,0,1.5323669012898038,0.1140212362768065,1.7956483111490677e-07,-0.0259397506072774,-0.0068696065023086,0.0027605058477533,5.652363044433178,12.98110383765404,38.58839029310458,23.006426211750593
1.19,31.222173341682385,131.0104786788679,26.27785010318396,5.500623677326799,-1.270075262850232,40.288073883294125,0.5504032847773414,0.7965228346496187,428.4078130529292,38.93656622000831,14.70122318593808,71.57439714063948,-0.334088351287101,119.64832125173083,926.2515246290247,15.288,0,1.5358453575898872,0.1144544741315357,1.859031309124276e-07,-0.0266381240573901,-0.0070321361519447,0.0028454895235878,5.644908588682519,12.9441855973935,38.737079602326205,40.29970582557369
1.2,31.22217267572195,131.01048001582788,26.635423905200888,5.475559771599478,-1.25637492106647,4.0069592316435845,0.5592401587962628,0.751007897303493,117.1843741360236,39.218369158393294,14.807096964071452,71.55892916453281,-0.3460285979982253,119.63573583525702,939.6752347040364,15.288,0,1.5393088127747545,0.1152833022518932,1.924126359622145e-07,-0.027350205007354,-0.0071968081733793,0.0029425977851376,5.617421497270351,12.86458926322623,39.0210340623391,4.114910047750306
1.21,31.22217200615045,131.01048135968588,26.99473987280348,5.451377181523011,-1.242996392374052,32.31927316000353,0.5680484902276046,0.7052984903545275,359.92343213200894,39.491974441263,14.910389222377564,71.54304892313894,-0.35822458265479,119.62287967955125,952.7992905455162,15.288,0,1.542751473927448,0.1160880420508916,1.990984799414521e-07,-0.0280731608625728,-0.0073629413613767,0.003041346897992,5.590875432403792,12.788502842980176,39.29674033972955,32.33195853391302
1.22,31.22217133204948,131.01048271236792,27.35643062280521,5.443640571166242,-1.2334528523887285,23.360434438744544,0.575083427434943,0.6665659767283292,283.0687504825761,39.643417910172296,14.974783655729398,71.52674925712964,-0.3706778111040061,119.60975111059489,960.0875159190964,15.288,0,1.5461803435618775,0.1165336911146887,2.05962201873888e-07,-0.0288096684818594,-0.0075311208097105,0.0031329975804425,5.581222796283206,12.751146691751252,39.44968255433764,23.37701709621491
1.23,31.222170653784875,131.01048407311262,27.72024607100212,5.417625830519608,-1.2198759775638115,8.980049508235398,0.584185115938549,0.6190510437979455,159.79687382222795,39.924265258760485,15.0803472357597,71.5100231969778,-0.3833894516283919,119.59634881338576,973.7048378364716,15.288,0,1.549591457059794,0.1173597369748678,2.130077345336145e-07,-0.0295586902628376,-0.0077010776551372,0.0032371114275082,5.552866770478638,12.674044748267256,39.73266206468959,9.020298532469436
