Time,Latitude,Longitude,Altitude,Angle of Attack,Angle of Sideslip,X-Acceleration,Y-Acceleration,Z-Acceleration,Thrust,True Velocity,Ground Velocity,Pitch,Roll,Yaw,Dynamic Pressure,cp,parachute_deploy_gain,Wind Speed,Mach,omega_x,omega_y,omega_z,Cmq,Angle of Attack(total),Angle of Attack(gust),True Velocity(gust),Acceleration
0.0,31.222186000000004,131.010384,3.000000003643237,0.0,0.0,0.0,0.0,0.0,2.2828121974499247,0.0,0.0,69.99999999623421,0.0,113.69999999388332,0.0,15.288,0.0,0.0,0.0,0.0,0.0,0.0,-0.0,0.0,90.0,0.0,0.0
0.01,31.22218600000153,131.01038399999584,2.99999882256592,0.0,0.0,0.0,0.0,0.0,34.24218696174923,7.502283530665459e-11,7.190531319924593e-11,69.99999999623329,-4.83564628150269e-13,113.69999999388072,3.446445726795683e-21,15.288,0.0,0.0,2.204725565824978e-13,-3.659182332138578e-19,7.589415207398531e-19,4.811147140404426e-19,-1.5108918610345807e-31,0.0,89.9999999995224,7.502283530665459e-11,0.0
0.02,31.22218600000288,131.01038399999217,2.999997775701936,0.0,0.0,0.0,0.0,0.0,25.871876237766408,1.5320717031631675e-10,1.4674636035870463e-10,69.99999999623222,-9.67129256300373e-13,113.69999999387804,1.4372842949972735e-20,15.288,0.0,0.0,4.5023593667086093e-13,-7.284483346386986e-19,1.5178830414797062e-18,9.757819552369542e-19,-6.170906918166791e-31,0.0,89.99999999902465,1.5320717031631675e-10,0.0
0.03,31.22218599928065,131.01038400193067,3.000201659671132,18.81500467334555,-0.00012974450181,11.96616230539064,-1.8916256735984712e-05,3.349833086198469,180.34219359854663,0.0882870268161719,0.0553390044312322,69.99999999799445,-4.212591857125379e-12,113.69999999488518,0.0047728553458352,15.288,0.0,0.0,0.0002594525584132,3.2187251995663407e-17,-7.20264389268894e-10,1.2365134327422308e-11,1.6874092354518158e-13,18.815004673776716,89.46786891739345,0.0882666465974854,12.426199017587786
0.04,31.22218599548236,131.0103840121632,3.001799604587872,9.46752327608497,-4.6177622759613696e-05,55.21900012092241,3.931876292165237e-06,3.349616504302861,548.6359724538078,0.3767519978512604,0.1853356633749705,70.00000000507204,-2.4624598767003407e-11,113.70000000019972,0.086915163246288,15.288,0.0,0.0,0.0011071759353184,1.6174128009138757e-15,-1.3693172015529268e-08,2.7753303060112748e-11,1.3689612277852356e-11,9.467523276196548,87.63554493451223,0.3767447442872393,55.32050167054111
0.05,31.222185984749512,131.01038404118162,3.00777936418888,5.376730308971262,-2.257790939128127e-06,80.28807156553681,5.266841443842784e-05,3.348887800834877,761.6984298824644,1.018787885905993,0.4366201147110198,70.00000000894464,-1.1355399380652658e-10,113.70000001523856,0.635552918586145,15.288,0.0,0.0,0.0029939522895272,1.6418815498809788e-14,-9.32122351075408e-08,4.303264669380585e-11,2.5199270302492604e-10,5.3767303089717045,83.57022052969386,1.0187875312530217,80.35788377762394
0.06,31.22218596447235,131.01038409608267,3.0201664202003013,4.296730121134882,2.4863835723705905e-05,60.21296515808257,0.0001057204249726,3.347700952379021,590.4875390737208,1.721098934225416,0.7081674028809783,69.99999995523842,-3.0560354507026086e-10,113.70000004366592,1.8138247671743823,15.288,0.0,0.0,0.0050578622752421,8.328976953118383e-14,-3.2824985336199985e-07,5.923438275930214e-11,1.4991363363716091e-09,4.296730121206683,79.20467073327266,1.7211028398275985,60.305955550063224
0.07,31.22218593493329,131.01038417609837,3.038741944736831,3.8204913578752526,4.8016684030909405e-05,91.4060317508128,0.0001597686613101,3.346072557365335,855.2937749779139,2.4375792548422868,0.9844712334613328,69.99999973536046,-5.939103491363046e-10,113.7000000850886,3.6383156301599167,15.288,0.0,0.0,0.007163413150771,2.709313825263564e-13,-7.906546256197275e-07,7.920022733617308e-11,5.114174483651565e-09,3.820491358176508,74.87999294483174,2.437586797285377,91.46725557277466
0.08,31.222185894468456,131.01038428575305,3.0647976109320942,3.588632851766762,7.220043782492885e-05,19.18449428359557,0.0002119618497595,3.3440615022685813,241.2171988638848,3.1292508166901074,1.2522236515868983,69.99999919480445,-9.914748373602156e-10,113.7000001418522,5.996012698481753,15.288,0.0,0.0,0.0091960591623389,6.80386533246681e-13,-1.5973238302190878e-06,1.0839624626357699e-10,1.3263625118823921e-08,3.58863285249208,70.86684630658345,3.1292621579083604,19.473766155861934
0.09,31.22218584634549,131.01038441616095,3.0957981580345013,3.551302481506045,9.685468678862004e-05,57.102946699906326,0.0002554087225869,3.341892818148368,563.0937377043176,3.701810007254615,1.479132491047967,69.99999812344194,-1.4359264356978275e-09,113.7000002093888,8.390904013834115,15.288,0.0,0.0,0.010878666406854,1.440096519545733e-12,-2.748643691533636e-06,1.5214952332699618e-10,2.6999776649034504e-08,3.5513024828250237,67.68737872952666,3.701825221153239,57.20065357568538
0.1,31.222185790329306,131.01038456796124,3.1319266121977414,3.608446747536112,0.0001234669721807,54.26147302645416,0.0002914860332524,3.3396271157106168,538.7437595981919,4.174070299823608,1.6716491241860567,69.9999963052332,-1.902380107712657e-09,113.70000028805804,10.668380938744466,15.288,0.0,0.0,0.0122665227999911,2.687800116751415e-12,-4.315796035622946e-06,2.1749089204950437e-10,4.7802076800548326e-08,3.608446749645647,65.17160335282355,4.174089693970246,54.36414778470795
0.11,31.222185727066616,131.0103847393952,3.172681775073216,3.633547373470009,0.0001485939126744,42.987553988990406,0.0003293995000288,3.337005588796181,442.8656393052949,4.672024955140527,1.8729475711242067,69.99999349387662,-2.3433348587116544e-09,113.70000037699285,13.365573690709628,15.288,0.0,0.0,0.0137298902182575,4.5789425819531184e-12,-6.340230783164189e-06,3.1157625832417107e-10,7.860218435507205e-08,3.6335473765043056,62.62546922225161,4.672048296217748,43.116880735560244
0.12,31.22218565692512,131.0103849294629,3.2177790417108385,3.650108937861461,0.0001727442530266,46.86777100765684,0.000367618259785,3.334068179146888,475.58594813540446,5.17479364099247,2.0758708919414386,69.99998941286465,-2.702771525550512e-09,113.70000047573096,16.396890189902592,15.288,0.0,0.0,0.0152074069417046,7.288473386564583e-12,-8.86736416607888e-06,4.42271554299792e-10,1.217615295152289e-07,3.6501089419435786,60.16906436414164,5.174820775596283,46.986210423745625
0.13,31.222185580265183,131.0103851371844,3.2669395832841857,3.7280113734654137,0.0001995014041665,51.64515456841877,0.0003986198234033,3.3311573548369657,515.9156326236895,5.579364582999854,2.2451120211463422,69.99998375846928,-2.9114380666036422e-09,113.70000058383452,19.060875702782603,15.288,0.0,0.0,0.0163963474924215,1.100846422415094e-11,-1.1941028436408576e-05,6.179653149059831e-10,1.7678562106638216e-07,3.728011378795934,58.279338776943774,5.579395920607139,51.75247433579817
0.14,31.22218549718016,131.01038536230575,3.320091807147376,3.768719651034081,0.0002242721760019,48.1660778383537,0.0004326225136175,3.32784677779744,486.2390860568404,6.025734265159953,2.428648685938864,69.99997621008868,-2.890941335368725e-09,113.70000070125378,22.232643351545065,15.288,0.0,0.0,0.0177081261985351,1.5941871344608664e-11,-1.560901486259027e-05,8.477542742712431e-10,2.495765160917323e-07,3.7687196576976176,56.27980129251342,6.025769493750979,48.280903250602165
0.15,31.22218540777004,131.01038560455507,3.377159065217065,3.821894709649632,0.000249725644238,46.56959330999435,0.0004643042952466,3.324387732286376,472.54218587214,6.441023336496372,2.6014999612196745,69.99996641132823,-2.546763407193136e-09,113.70000082794672,25.402620271850456,15.288,0.0,0.0,0.0189285691155931,2.2314099732464315e-11,-1.992367942778425e-05,1.1417519574710292e-09,3.4051816697623295e-07,3.821894717796148,54.501255563441134,6.441062563308839,46.68809885900716
0.16,31.22218531193176,131.01038586421257,3.4382223512025254,3.8463320955387794,0.0002733212404609,36.974247749122085,0.0004987816203583,3.3205066466509234,391.1218908297564,6.895451966878468,2.7877331692857847,69.99995397923414,-1.77088415515292e-09,113.70000096417354,29.113317717489338,15.288,0.0,0.0,0.0202640360420561,3.0367358387834494e-11,-2.4945905791363795e-05,1.5114297685186711e-09,4.5643121540033697e-07,3.846332105235269,52.641145594326446,6.895494900078523,37.12304892183151
0.17,31.222185210004127,131.010386140357,3.503019838429153,3.8860314262554336,0.000297865039677,46.520531453299206,0.0005306403365217,3.31650761597812,471.78125980632376,7.314788342774694,2.9619016331667103,69.99993849340957,-4.3039914767238207e-10,113.70000110959404,32.761746921137856,15.288,0.0,0.0,0.0214963781445172,4.0366633128431416e-11,-3.0713078585132897e-05,1.96747427715988e-09,5.961228045584824e-07,3.886031437653654,51.00464968745696,7.314835131305714,46.63860064094784
0.18,31.22218510147516,131.01038643438045,3.571950002194137,3.9107265153396016,0.0003214293682635,38.895647526122765,0.0005639254295027,3.312149448254175,407.10156721191447,7.754626295791602,3.1430587898572058,69.9999195084231,1.6149322372810674e-09,113.70000126508234,36.81988229018681,15.288,0.0,0.0,0.0227889722876034,5.2593391349219385e-11,-3.731786027786564e-05,2.525509173087448e-09,7.6786585232224e-07,3.9107265285284982,49.36615848311875,7.754676785798701,39.036415444581515
0.19,31.222184986476247,131.0103867459258,3.644912152926752,3.920599115663931,0.0003437679584038,43.86258669386953,0.0005989384366483,3.307389681300437,448.9531328318269,8.219206165926856,3.332657190859447,69.99989653019398,4.538529095696477e-09,113.70000143063515,41.36350714675367,15.288,0.0,0.0,0.02415428010977,6.735860419174937e-11,-4.481243905342629e-05,3.199401151670645e-09,9.773118416308382e-07,3.92059913071168,47.71893898797248,8.21926016487149,43.987104227715655
0.2,31.222184864792144,131.01038707557822,3.722074668489528,3.943376465171875,0.000367328732016,40.28070981710589,0.0006315894240138,3.30251450988504,418.51563019916136,8.65238089736321,3.511445117640573,69.99986902534273,8.534090245934178e-09,113.7000016067622,45.83799876721736,15.288,0.0,0.0,0.025427299120469,8.499785987217288e-11,-5.328041996372527e-05,4.006766070954748e-09,1.2232205148646746e-06,3.9433764822533854,46.2587826635041,8.652438597225508,40.41586552155969
0.21,31.22218473678744,131.01038742234647,3.803156063113743,3.9664546506877016,0.000390962054969,38.67679184347145,0.0006636984664108,3.297405915846789,404.8187610144644,9.079179692250786,3.688002035198235,69.99983642883521,1.3827831253856693e-08,113.70000179318536,50.47126980736161,15.288,0.0,0.0,0.0266815841422463,1.0586558589671407e-10,-6.275155280099118e-05,4.961340042512481e-09,1.5117124669161171e-06,3.9664546699249135,44.88773728276958,9.079241104426773,38.817098210937615
0.22,31.2221846022986,131.01038778667507,3.8882846911135607,3.956175711337521,0.0004112685792646,46.713636108302936,0.0007011135033803,3.291572407481395,472.5421858721365,9.580256326712124,3.889976788904857,69.99979815126248,2.0662823443484168e-08,113.70000199039316,56.195522894218605,15.288,0.0,0.0,0.0281541581291438,1.3033127211465288e-10,-7.330053770532661e-05,6.0817207473359025e-09,1.8632831045819008e-06,3.956175732680424,43.35679625546934,9.580320928629488,46.8294591882524
0.23,31.222184460898035,131.01038816972698,3.977794004014759,3.9879066397329104,0.0004360962274406,38.89105719050748,0.0007308686121188,3.286096544282012,406.3406421461021,9.977039034039262,4.056142701351626,69.99975353557706,2.9316661139418326e-08,113.70000219928508,60.9462612310605,15.288,0.0,0.0,0.0293202403623685,1.5880617816859538e-10,-8.505067486192354e-05,7.393319440773217e-09,2.2514912291167663e-06,3.987906663538912,42.20670487756048,9.97710753587448,39.0296395118868
0.24,31.222184313516166,131.01038856897196,4.070963590490852,4.003523997322975,0.000459165577055,40.0792299321398,0.0007630441688766,3.280134925833028,416.2328240017114,10.408422364424831,4.234121060914368,69.99970190737699,4.010976417051318e-08,113.70000241888,66.32994780718496,15.288,0.0,0.0,0.030588009649109,1.91711512587616e-10,-9.795845222523724e-05,8.904557280909524e-09,2.7052895870113487e-06,4.003524023611085,41.011349410369874,10.408494489985014,40.21323112692186
0.25,31.22218416001652,131.01038898478134,4.167901030441617,4.0261356185860135,0.0004830526730531,41.17760020658354,0.0007934613160587,3.2740610008587527,425.36408079150686,10.816813039390448,4.4041629376391525,69.99964258149416,5.3372865854010094e-08,113.70000264972064,71.63651430352668,15.288,0.0,0.0,0.0317882126436337,2.2947426169209347e-10,-0.0001121037688082,1.0637152702866709e-08,3.217380562698304e-06,4.026135647516394,39.93186687113378,10.816888917126896,41.30755663120434
0.26,31.222184000702686,131.0103894163294,4.26837241014618,4.053359329950934,0.000507503069958,44.80261175215926,0.0008224724146494,3.2678597736729302,455.8015834241788,11.207047269494833,4.567925492611352,69.99957484039399,6.947299261165984e-08,113.70000289176392,76.89781807056055,15.288,0.0,0.0,0.0329350617559806,2.7254099134167665e-10,-0.0001275114371842,1.260720913253598e-08,3.7915697709142366e-06,4.053359361668992,38.945390435244384,11.207126987890645,44.921630958721536
0.27,31.22218383516388,131.01038986473338,4.372698316214008,4.0614460923241,0.0005296455772492,41.029837477288126,0.0008548809954683,3.2610328932384265,423.84219965987256,11.645685385842508,4.748226940060522,69.99949794024376,8.879821051920497e-08,113.70000314600205,83.0342688744587,15.288,0.0,0.0,0.0342241635563461,3.2137296827284217e-10,-0.0001442952656441,1.4842505534226832e-08,4.458527942364847e-06,4.061446126801262,37.8838346421185,11.645768582375233,41.15922617924542
0.28,31.222183663504484,131.01039032970942,4.48079961904222,4.081133040992532,0.0005533279247169,47.27661484082626,0.0008845140695959,3.254218495915602,476.3468732012221,12.047344998676092,4.915789434712848,69.99941106884992,1.1178948978424788e-07,113.70000341275257,88.85982357848233,15.288,0.0,0.0,0.0354045979054623,3.764736350660473e-10,-0.0001625146963723,1.7365685655384934e-08,5.194620655212288e-06,4.081133078439725,36.956255322213885,12.047431915223257,47.38848224631549
0.29,31.22218348566054,131.0103908114315,4.592727908358551,4.1001100265020245,0.0005770279952742,37.989969791857405,0.0009138463939581,3.247164755122801,397.97031042211177,12.446314684600782,5.082367374004485,69.99931338876085,1.3891902435864665e-07,113.70000369260468,94.8417675268915,15.288,0.0,0.0,0.0365771315767517,4.3836067907166327e-10,-0.0001822432988888,2.0202163500922312e-08,6.018074062137429e-06,4.100110067036654,36.07377590258778,12.446405323946324,38.12849176886316
0.3,31.222183301933686,131.01039130907952,4.708251093558373,4.112858061667493,0.0005998635114143,35.655053282557844,0.000944131403186,3.2397207148238625,378.1859457108711,12.860033399289696,5.253940723820665,69.99920403105713,1.707002607527005e-07,113.7000039856728,101.2505662360602,15.288,0.0,0.0,0.03779301412572,5.075709863465428e-10,-0.0002035013069687,2.3370674033523645e-08,6.94335970778e-06,4.112858105337573,35.19685285507256,12.860127625629724,35.80193592228613
0.31,31.222183112488807,131.0103918222051,4.827243246502713,4.136140889545823,0.0006242383343011,37.56633644061071,0.0009716215464757,3.232339252743767,394.1656220930212,13.2364445751808,5.4126574282679245,69.99908210036875,2.0768081583188525e-07,113.7000042923011,107.26326115439352,15.288,0.0,0.0,0.0388992619788015,5.846561731689753e-10,-0.0002263323252403,2.6893437641668458e-08,7.948283231812338e-06,4.1361409365698805,34.43286455705216,13.236542630309057,37.70514091683033
0.32,31.22218291741533,131.01039235056504,4.949637017503345,4.1622282001352975,0.0006491019906456,40.83513712643371,0.0009979686925508,3.224840963348891,421.55939346242695,13.59846554462374,5.566374262777002,69.99894668612772,2.504388718903276e-07,113.70000461297312,113.2095365840355,15.288,0.0,0.0,0.0399632243410653,6.701756367872645e-10,-0.00025078340164,3.0793566854276295e-08,9.047716714467492e-06,4.16222825066026,33.72644865222576,13.598567505326,40.96227562489027
0.33,31.222182716732533,131.01039289410716,5.075419569102976,4.187801887681037,0.0006739743721461,40.48743503284469,0.0010239291638211,3.217136801802925,418.5156301991682,13.956637761217308,5.718704299733134,69.99879684673242,2.995902922462564e-07,113.70000494831164,119.25032483364384,15.288,0.0,0.0,0.0410158804634189,7.647061680070125e-10,-0.0002769136723495,3.509664608790402e-08,1.0253455741189656e-05,4.187801941818244,33.053267359159875,13.956743628864118,40.61505097607
0.34,31.222182510255863,131.01039345333336,5.204736257784645,4.19642921746386,0.0006961879027693,31.814592723444047,0.0010535137542081,3.208669900766693,345.46563688075645,14.367047160772364,5.88887983533068,69.99863160305904,3.557915789971256e-07,113.70000529927128,126.36523219087664,15.288,0.0,0.0,0.042222056531773,8.688448410811866e-10,-0.0003048202762282,3.9835373705550826e-08,1.1618525957862828e-05,4.196429275109305,32.30947868183619,14.367156517712404,31.97598901989736
0.35,31.222182298183583,131.0103940277045,5.337435501771672,4.210915783240843,0.0007193441544952,34.813487415034444,0.0010813034848195,3.200164272309822,370.5765700527033,14.754132934586384,6.050986755458457,69.99844991734221,4.1975736284587617e-07,113.70000566632532,133.26448209504355,15.288,0.0,0.0,0.0433596939127697,9.832256819293898e-10,-0.0003345386312107,4.503361101379695e-08,1.309465610343774e-05,4.210915844572415,31.63649055965014,14.75424592890194,34.96026256388454
0.36,31.222182080444604,131.0103946174141,5.4735747500461605,4.22903876037745,0.0007431682866607,39.2632255716727,0.0011077666085529,3.1915717453569297,407.8625232777193,15.124417129017054,6.2072589919251575,69.99825073022951,4.922382611919288e-07,113.70000605036684,140.03566173682628,15.288,0.0,0.0,0.0444479595865755,1.1084921261805627e-09,-0.0003661511460057,5.0723697896912267e-08,1.4691545926915382e-05,4.229038825557203,31.017264542603208,15.124533865618538,39.39272792946638
0.37,31.22218185710795,131.01039522227452,5.613102797925907,4.249164960780052,0.0007674149135003,37.28328237034959,0.001133274451316,3.1828514669894137,391.1218908297666,15.483077353331511,6.359470679857624,69.99803294268581,5.740349991123437e-07,113.70000645214331,146.75405277514704,15.288,0.0,0.0,0.0455020695186381,1.245311285088233e-09,-0.0003997125883071,5.6934243389647934e-08,1.641828325195534e-05,4.2491650299519,30.439178816713017,15.483197898584232,37.418894813348615
0.38,31.2221816281124,131.0103958424523,5.756069531572451,4.260095806433531,0.0007900626414612,38.9278000801764,0.0011607546399008,3.1735466295306622,404.8187610144602,15.87126705947922,6.521735074464384,69.99779542676283,6.659911329739736e-07,113.70000687263192,154.20298254405043,15.288,0.0,0.0,0.0466429667223463,1.3943646956867835e-09,-0.0004353006984059,6.369875435270817e-08,1.8328108041903096e-05,4.260095879559656,29.83470194713067,15.87139116222873,39.05694584372078
0.39,31.22218139339905,131.0103964781077,5.9025231349944285,4.274091258047817,0.0008133283308351,33.320076729592266,0.0011870382950339,3.164143363712209,357.64062493382744,16.24457853509073,6.678818328235205,69.9975369905506,7.690136753559805e-07,113.70000731287368,161.54010621938565,15.288,0.0,0.0,0.0477401448128051,1.5563705124515804e-09,-0.0004730068442167,7.105463478762673e-08,2.0383860516746246e-05,4.274091335289374,29.274934656826048,16.244706292406182,33.46997636540994
0.4,31.22218115316572,131.01039712870306,6.0523126585892895,4.286421841403391,0.0008363022448449,31.88018820767003,0.0012133780841982,3.1544430614236454,345.465636880754,16.62063299903514,6.836764518435374,69.99725641601981,8.840594270905819e-07,113.70000777359816,169.10340080049767,15.288,0.0,0.0,0.0488453895716005,1.7320643186450851e-09,-0.0005128553637434,7.9027539265021e-08,2.2612406375611563e-05,4.286421922834417,28.730746964325096,16.620764365084565,32.03586915718869
0.41,31.22218090752676,131.01039779392735,6.205351877049411,4.30025870409831,0.0008595777771371,35.882550741685804,0.0012389121673015,3.1445895889870297,378.94687077668647,16.987310563534386,6.99141560549392,69.9969524610574,1.0121301778427253e-06,113.70000825570062,176.64448930727934,15.288,0.0,0.0,0.0499230826371405,1.922193031274436e-09,-0.0005548883906878,8.764667734700782e-08,2.5005077415911235e-05,4.300258789847355,28.21875643368965,16.987445585695873,36.020076248499606
0.42,31.222180656535848,131.0103984736348,6.36160173428776,4.322008670726048,0.0008844838439129,40.34064925656127,0.001261804338223,3.134918999355981,416.2328240017114,17.318628721060172,7.133856886815013,69.99662385300175,1.154276942054023e-06,113.70000876021427,183.59942989625057,15.288,0.0,0.0,0.0508968652507098,2.1275184665783874e-09,-0.0005991661829955,9.694534598491077e-08,2.752657757470936e-05,4.322008761057615,27.772396468009568,17.318767655457478,40.462275036947325
0.43,31.222180400205527,131.0103991677914,6.521055075967404,4.339436441324956,0.0009085827200945,35.541853595187746,0.0012854696362701,3.124839917627212,375.9031395134336,17.662848429084132,7.280642039343927,69.99626930133451,1.3115939750280808e-06,113.70000928827632,190.96736675963504,15.288,0.0,0.0,0.0519085689713619,2.3488101247838237e-09,-0.0006457514522491,1.0695800287133593e-07,3.0255957891170616e-05,4.339436536261635,27.322335771349252,17.662991148924057,35.67895714766603
0.44,31.22218013836212,131.0103998768696,6.683849332059896,4.342209064313268,0.0009296474314902,32.82948243168077,0.0013129688908547,3.113754688841357,353.0750125389216,18.063580761318697,7.446730341918701,69.99588746395321,1.4852372182848018e-06,113.7000098413532,199.7278270846888,15.288,0.0,0.0,0.0530863610987301,2.586862292117705e-09,-0.0006947575786514,1.1773083546077225e-07,3.329010177793299e-05,4.342209163639375,26.81344244367223,18.06372678999575,32.9768158972058
0.45,31.22217987077456,131.0104006014978,6.850166573233225,4.3420317510315165,0.0009500780330031,38.11022602597878,0.001341042003417,3.1022288449712887,397.2093853562869,18.47486275310604,7.616350301328129,69.99547690348253,1.6764536248320808e-06,113.70001042108892,208.92306716049887,15.288,0.0,0.0,0.0542951637545535,2.842521175226318e-09,-0.0007463379956615,1.2932090054593452e-07,3.657529369088674e-05,4.342031854775571,26.30944884471334,18.47501199101448,38.23628058998621
0.46,31.22217959739673,131.01040134180155,7.020045503401754,4.351169003849846,0.0009725797783515,44.3937050866137,0.0013660055515545,3.09098240974522,449.7140588976434,18.844323061800488,7.771531995684422,69.99503610583268,1.8865779683531e-06,113.70001102895836,217.3591612614144,15.288,0.0,0.0,0.0553810645782081,3.1166808800591503e-09,-0.000800596194505,1.417768495237597e-07,4.001824400409673e-05,4.351169112337076,25.873596578896564,18.844475834274814,44.50118229261506
0.47,31.22217931813738,131.01040209802923,7.193559875579052,4.358630093683735,0.0009947969928181,30.22514089990685,0.0013910994973101,3.079396422776949,331.0078106302534,19.2180591098146,7.9280875671397615,69.99456352718363,2.1170044481277104e-06,113.70001166656292,226.0625808853568,15.288,0.0,0.0,0.0564795377574197,3.4102493884459798e-09,-0.0008576351980594,1.551487523304888e-07,4.3718862242359527e-05,4.35863020698899,25.44665981168229,19.218215372160817,30.381603425148434
0.48,31.22217903348153,131.01040286886197,7.370336324605091,4.365514409145237,0.001016880998596,29.779838936311712,0.001416009414045,3.067527859335786,327.2031223011574,19.5915905767454,8.084483592791102,69.99405758812365,2.369198154608765e-06,113.70001233476164,234.93171707892955,15.288,0.0,0.0,0.057577416115756,3.7241711041759195e-09,-0.0009173883913609,1.6944871263079066e-07,4.767297940601472e-05,4.365514527349481,25.03354780044292,19.59175030803913,29.937410312943754
0.49,31.22217874361868,131.01040365378466,7.5502307795521535,4.3786401372577615,0.0010404145545081,37.2489281064929,0.0014385799934191,3.0558405437943126,389.60000969812296,19.93403005898306,8.23012235628909,69.99351671352461,2.644660619562788e-06,113.700013034871,243.21198709852868,15.288,0.0,0.0,0.0585839249886784,4.059374595909599e-09,-0.0009798792959512,1.8470833984680338e-07,5.180951737438081e-05,4.378640260624215,24.667474291142685,19.934193486919103,37.37406598941686
0.5,31.22217844858332,131.0104044527036,7.733219389747018,-5.975920132933346,-0.0018189926515486,38.292624381698445,0.0013214722821931,3.66590598296718,397.97031042210494,19.00824404843295,8.366269437912349,69.99293932307316,2.9449363413826395e-06,113.70001376847225,221.14194560235208,15.288,0.0,3.7577354668479273,0.05586325689899,4.41672905964163e-09,-0.0010516197388721,1.555754818850547e-05,5.301941775170702e-05,5.975920408767635,25.98461713647986,19.007958321735444,38.467700093196235
0.51,31.22217814840729,131.0104052657163,7.919233031344448,-5.804150764659012,-0.0007837201791666,29.380822367196792,0.0012874192347909,3.669306932502893,323.3984349720841,19.34009703700965,8.518057837144385,69.99235820443252,2.7414384731609474e-05,113.70004023067578,228.9268161221661,15.288,0.0,3.772646808720865,0.0568386576680443,4.784860971873818e-09,-0.0009713230415323,1.5545487055496098e-05,4.982517222127636e-05,5.804150817389765,25.57827308342752,19.339973930531787,29.609061754725246
0.52,31.222177842904543,131.0104060931136,8.108271410340034,-5.636696843523566,-0.0007317053597919,35.21641948162087,0.0013096663250517,3.6728534556319214,372.0984511843415,19.680974192716626,8.67247358563801,69.99182334909607,5.186567838936814e-05,113.70006668094588,237.06348865202688,15.288,0.0,3.787503781103807,0.0578405857066607,5.122420544591969e-09,-0.0008900656728754,1.553498231330342e-05,4.6460858382182905e-05,5.636696890861972,25.17263280691424,19.68085925670748,35.40742938038935
0.53,31.222177531937778,131.01040693528623,8.300445873994764,-5.475726126720348,-0.000680945613405,36.95623696441728,0.0013315703779926,3.676254076702096,386.5562464348624,20.01830738212243,8.825633614138518,69.99133533052549,7.629958004259006e-05,113.70009312030632,245.2551754230534,15.288,0.0,3.802308875750677,0.0588321046846902,5.429082303698814e-09,-0.0008078012692135,1.5524737135560276e-05,4.2888657908626e-05,5.475726168931545,24.782603960332043,20.018200419435605,37.13863616747
0.54,31.222177215407303,131.01040779250505,8.495833024391747,-5.320420230271153,-0.0006312908527219,32.5002709184149,0.0013532290150619,3.679540249208838,349.2703242098436,20.35375644543121,8.978112276673683,69.99089472434565,0.0001007166755188,113.7001195495325,253.5388244847747,15.288,0.0,3.81707293116478,0.0598180928314797,5.704526041341465e-09,-0.000724511998358,1.5514779385250136e-05,3.91104289373193e-05,5.320420267616157,24.40562184506573,20.353657282495952,32.707898557491305
0.55,31.22217689358704,131.01040866402516,8.694219798880601,-5.171940250729317,-0.000582884283903,34.42234116604181,0.0013742817039048,3.682610212932959,365.2500005919907,20.68128068195627,9.127829956060651,69.99050208216444,0.0001251176135922,113.7001459689372,261.7591731418747,15.288,0.0,3.831778753125469,0.0607807968865779,5.948473558909809e-09,-0.0006403424573546,1.550515776590224e-05,3.512237516690872e-05,5.171940283485959,24.04735805779049,20.68118912270706,34.61876934872794
0.56,31.22217656647684,131.0104095498467,8.895605756107944,-5.030913896599291,-0.0005357348157554,32.15064748945831,0.0013944517034422,3.685388873988304,346.2265619465787,20.99622712235873,9.273190547167,69.99015790498481,0.0001495031067536,113.70017237928944,269.7870990702369,15.288,0.0,3.846426173370204,0.061706542017712,6.1606681357134045e-09,-0.0005553143995316,1.5495905814517797e-05,3.0921884194274666e-05,5.03091392505074,23.71145677443249,20.99614296933066,32.361183956839774
0.57,31.22217623414737,131.0104104497776,9.099935704309985,-4.891959098433695,-0.0004892380220954,31.793069039051414,0.0014149769692682,3.6882152333270417,343.1828296833023,21.31938455679717,9.42133483466048,69.9898626629405,0.0001738739295146,113.70019878132426,278.1502535396372,15.288,0.0,3.861008852966232,0.0626564250671464,6.3408835644886065e-09,-0.000469489402497,1.5487062334934722e-05,2.6544691864984474e-05,4.891959122838251,23.37606672606838,21.31930770746837,32.006283328924575
0.58,31.2221758965762,131.01041136387855,9.307226639640795,-4.751969908787056,-0.0004431229313384,41.74672537478467,0.0014367063289966,3.6913191809884944,426.1250058573153,21.66517304651781,9.577212849775515,69.98961680682021,0.0001982309130863,113.70022517596884,287.24059207153965,15.288,0.0,3.875526849872072,0.0636728261249135,6.488904805477771e-09,-0.0003828878054951,1.547866230445991e-05,2.1998966775542903e-05,4.751969929400396,23.02768170175178,21.66510344093053,41.90960413649535
0.59,31.222175553366032,131.01041229322996,9.517786290897488,-4.622426776545666,-0.0003984115555772,33.906932519020366,0.0014565400002523,3.693864105125389,360.68438819711065,21.981433740409965,9.722920506925044,69.9894208321051,0.0002225749276421,113.70025156472371,295.6818996223501,15.288,0.0,3.889998547047033,0.0646024534470938,6.604464719495367e-09,-0.0002953544776384,1.547072607680778e-05,1.7217075384552954e-05,4.622426793678129,22.716423965439805,21.98137115806916,34.10754618846163
0.6,31.22217520472428,131.01041323726756,9.73145344086207,-4.488057131739523,-0.0003537702640845,30.171336978323364,0.0014786616561326,3.6969756314906856,329.4859594986058,22.33889592198934,9.882736855921143,69.98927521731997,0.0002469069148792,113.70027794830789,305.3705890692122,15.288,0.0,3.904410650846617,0.0656531771101375,6.6873566699299575e-09,-0.0002070161537899,1.5463303484304145e-05,1.2263567774502868e-05,4.488057145653997,22.37544156628796,22.338840351886205,30.396993372138287
0.61,31.2221748506022,131.0104141961239,9.9482655947255,-4.3564933154308365,-0.0003099096674497,35.293344249056325,0.0015010089862658,3.7000972639390217,372.0984511843297,22.702870727156665,10.04475037974349,69.9891804376062,0.0002712278756389,113.70030432786676,315.39609225831026,15.288,0.0,3.9187679493429584,0.066723048608889,6.737361323417272e-09,-0.0001178787104232,1.5456433709696055e-05,7.0967254811181405e-06,4.356493326432583,22.03816383887643,22.70282204665994,35.48677035597962
0.62,31.222174491110817,131.01041516949687,10.168136363688156,-4.241307540437858,-0.0002677020019883,43.79840424106481,0.0015192488295081,3.702079132791863,442.86563930529206,22.999643290728063,10.183665055942305,69.98913696201956,0.0002955388795633,113.70033070439224,323.6888854806391,15.288,0.0,3.933076663274613,0.0675954218409062,6.754275884843571e-09,-2.800011696369152e-05,1.545016130406411e-05,1.7077080682805689e-06,4.241307548870837,21.76812501081412,22.99960124019592,43.95458572523797
0.63,31.222174126069376,131.010416157878,10.391205830928536,-4.125360059223518,-0.0002258572084087,24.980476553943515,0.0015384876847664,3.704275423925048,286.11251274707894,23.31599721836812,10.329264921896035,69.98914518186018,0.0003198410731943,113.7003570793722,332.6475072169174,15.288,0.0,3.9473096877045672,0.0685253511946255,6.7379402950210035e-09,6.264566466427815e-05,1.544452662409334e-05,-3.873186396586327e-06,4.125360065395492,21.487723014046505,23.315961740800788,25.253630781441334
0.64,31.222173756047933,131.01041715971706,10.617031838791275,-4.00668236065655,-0.0001844251602743,24.52777275269801,0.0015595253936507,3.7068930444548127,282.30782441796754,23.665731541247403,10.486273888011103,69.98920546624629,0.00034413568222,113.70038345331372,342.6941834454988,15.288,0.0,3.961481523063719,0.0695533920986726,6.688263173653361e-09,0.0001537754791526,1.543958863807672e-05,-9.64985941756564e-06,4.006682364894129,21.18663484407825,23.66570257181097,24.806303527191265
0.65,31.22217338102669,131.01041817506777,10.845629800539038,-3.8997214015918926,-0.0001440743566965,43.09795374803476,0.0015773644275032,3.708620118347541,436.7781447787475,23.963394914033017,10.625376198125355,69.9893181249053,0.000368424000624,113.7004098276332,351.36137852107214,15.288,0.0,3.9755714484589806,0.0704284039560618,6.605148427956308e-09,0.0002453841215811,1.5435387786592643e-05,-1.5591906872846665e-05,3.8997214042492496,20.93504804258064,23.963372282885988,43.257224632863746
0.66,31.22217300051087,131.01041920527553,11.07738358513431,-3.7934015324945984,-0.0001041795377372,36.70371818759621,0.001595716177501,3.710433072530321,383.51251517160017,24.27257393416624,10.768392833416264,69.98948344823609,0.0003927073867953,113.70043620448912,360.47847129722174,15.288,0.0,3.9895982342508858,0.0713372674352255,6.4884910564798725e-09,0.000337640124889,1.5431961191063037e-05,-2.173024637055585e-05,3.793401533923004,20.68001079577732,24.27255756968272,36.89078807678846
0.67,31.2221726146798,131.01042024985256,11.312154190020957,-3.6850712360133806,-6.4752506227242e-05,25.36355781957364,0.0016156623144724,3.712609967105572,289.1562440103425,24.612046165281505,10.921759227105412,69.98970176989866,0.0004169872756415,113.70046258516552,370.6238119309031,15.288,0.0,4.0035769310955125,0.0723351703247032,6.3382085366732465e-09,0.0004304296067354,1.5429360624859985e-05,-2.808890645377752e-05,3.685071236581426,20.407615877293853,24.61203599398161,25.633835855077784
0.68,31.22217222369637,131.01042130835592,11.549815489152268,-3.5807722121584407,-2.597974007427592e-05,31.5930408335888,0.0016349101577216,3.7145501591684407,340.8999924858462,24.942437312424,11.071964812992013,69.98997338617865,0.0004412651811903,113.7004889710538,380.6323915781199,15.288,0.0,4.017464538487418,0.0733063913797398,6.1542420595979465e-09,0.0005236579421899,1.542763609927463e-05,-3.4630730054771016e-05,3.580772212252509,20.14868772673958,24.94243323153597,31.810660393502033
0.69,31.222171827636657,131.0104223805787,11.790308747379983,-3.4833195365395766,1.220430190449804e-05,38.83342801049946,0.0016521958523998,3.7159340295241217,401.0140726853634,25.241788570055547,11.211483576521848,69.99029854305607,0.0004655426960141,113.70051536375216,389.8146750369368,15.288,0.0,4.0312850596136816,0.0741863928268286,5.9365648683132625e-09,0.0006172560992699,1.5426836767424177e-05,-4.1309557975184896e-05,3.4833195365609324,19.918538718906287,25.241790487102808,39.01081003373514
0.7,31.22217142636607,131.01042346688675,12.03373872903772,-3.3878549031338334,4.990711281265704e-05,32.61229674146426,0.0016693826489013,3.717243660068167,349.27032420985284,25.54233203806556,11.35136957203326,69.99067744107616,0.0004898214888857,113.70054176523848,399.14332926783726,15.288,0.0,4.045051571899821,0.0750699054893995,5.685171618637606e-09,0.000711241040336,1.5427012863273157e-05,-4.81650744319307e-05,3.387854903500962,19.692481840418147,25.54233987745651,32.82346419816891
0.71,31.222171019935107,131.01042456714288,12.280066684305408,-3.2918115792226392,8.70671597833083e-05,26.845644397547755,0.0016875602325384,3.718746906088481,301.33126406340574,25.863151905265862,11.498157894680416,69.99111027450905,0.0005141033107893,113.70056817731576,409.22335456029816,15.288,0.0,4.0587255670523605,0.0760130187787302,5.400077047124833e-09,0.0008055492065151,1.5428216558356116e-05,-5.5235480035379694e-05,3.2918115803728303,19.45707973017528,25.86316558174334,27.101987095395597
0.72,31.22217060834385,131.01042568134665,12.529293013096964,-3.194894088691951,0.0001235923064649,32.80831201158478,0.0017069958120126,3.720512239006756,350.79220534145287,26.20915880598342,11.653530545228534,69.99159722671985,0.000538389996593,113.70059460194756,420.23602558118125,15.288,0.0,4.072334865074441,0.0770301659102413,5.081302227998718e-09,0.0009001475470126,1.5430501287230844e-05,-6.254620996719529e-05,3.194894091079935,19.2098005241238,26.209178219817524,33.01859402342765
0.73,31.22217019158725,131.0104268095118,12.781422097840856,-3.1073482170863254,0.0001599091113183,41.43320177139892,0.0017228461665176,3.721327378678315,422.320318528234,26.4956401241228,11.788457696120483,69.99213848587803,0.0005626834707274,113.70062104120008,429.4626833886916,15.288,0.0,4.0858898724029205,0.0778723718444239,4.728866983754684e-09,0.000995012524457,1.5433922421440835e-05,-6.989187030161013e-05,3.1073482211968746,19.00812009946752,26.49566524258727,41.59998184443059
0.74,31.222169769601468,131.0104279518119,13.036504067748147,-3.0193481305442487,0.0001956928066942,26.032622309898645,0.0017396055615188,3.722311599338372,294.48281347105944,26.80125236266488,11.929892544939264,69.99273416601554,0.0005869857390861,113.70064749730932,439.4162752830368,15.288,0.0,4.099369656574165,0.0787708123468862,4.342846396667116e-09,0.0010901127854248,1.5438537822880486e-05,-7.745323855350188e-05,3.019348136880039,18.797929638432155,26.801283102019077,26.297395897666924
0.75,31.222169342737693,131.010429107292,13.294267204636585,-2.9317803957281767,0.0002309035092647,30.348630048233765,0.0017568967710158,3.723366894584352,330.24688556441487,27.119519208319733,12.075607659611666,69.99338435510757,0.000611298900896,113.7006739720223,449.9033050809468,15.288,0.0,4.112760725294823,0.0797064533416904,3.923351178062184e-09,0.0011852605899789,1.54443960132972e-05,-8.521148620449521e-05,2.931780404813015,18.58403642786945,27.11955547855815,30.576180433843113
0.76,31.2221689108852,131.01043027625315,13.55479812720198,-2.8483785590815174,0.0002658529183257,32.64796012062591,0.0017727632651291,3.7240136468525673,349.27032420986166,27.41597801526493,12.213799457949548,69.99408909911608,0.0006356251361749,113.70070046782656,459.7818596410757,15.288,0.0,4.126088238284446,0.0805780065249869,3.4704990035777357e-09,0.0012804690412035,1.5451556989153447e-05,-9.306026180703008e-05,2.848378571477967,18.388426505893,27.41601977534369,32.859664952987785
0.77,31.2221684739855,131.01043145885436,13.818143016873863,-2.767212474530569,0.0003004601398468,30.541902328800496,0.0017881136472781,3.724478665024468,331.7687666960708,27.706647288394542,12.349956335012005,69.99484842116148,0.0006599667169657,113.7007269872336,469.5710512890346,15.288,0.0,4.139353663474645,0.0814325514113099,2.9844310441191637e-09,0.0013757191614173,1.5460082133861877e-05,-0.0001010402060798,2.76721249082977,18.200296768277724,27.706694484562945,30.76815792967727
0.78,31.22216803210006,131.0104326549285,14.084255069221156,-2.685733390496272,0.0003344510252894,25.128623059090003,0.001804339223701,3.7250923832706375,286.8734378128899,28.016340604690903,12.4925721583984,69.99566231379708,0.0006843260087367,113.70075353268408,480.11478657956735,15.288,0.0,4.1525312965095855,0.0823430176402956,2.4653164745853046e-09,0.0014709344160981,1.5470029224664724e-05,-0.0001092380855655,2.6857334113052684,18.004365056396914,28.016393140135104,25.403228404385352
0.79,31.222167585313432,131.01043386424567,14.353069613043097,-2.604870308480589,0.0003678696586125,35.60422902914916,0.0018209808932051,3.725743024637824,373.6203323159534,28.337092165521465,12.638915817037676,69.99653074703618,0.0007087054741899,113.7007801066892,491.15844784891567,15.288,0.0,4.165630540323524,0.0832859933360998,1.913340302360733e-09,0.0015660383864347,1.5481455740522966e-05,-0.0001176293877905,2.604870334438562,17.805928725329757,28.337149950352316,35.79863529747631
0.8,31.22216713340616,131.01043508740258,14.624757863574148,-2.5291205282219185,0.0004014082947401,36.0697670628588,0.0018352571207123,3.725766786414592,377.42502064505743,28.619191382145253,12.77196875989316,69.9974536841468,0.000733107678464,113.70080671230008,500.9731373300995,15.288,0.0,4.1786722946695125,0.0841153734224041,1.3286883378884082e-09,0.001661086850666,1.549443871124365e-05,-0.0001260075358091,2.529120560055907,17.63402603938727,28.619254435212746,36.26168001463546
0.81,31.22216667647709,131.01043632413044,14.899244168052732,-2.4526795668794064,0.0004342402090662,23.57512977792416,0.0018506746656483,3.725999987041104,273.9374926939919,28.92545815103937,12.913238978480903,69.99843104533633,0.0007575352857718,113.7008333522218,511.7392947410712,15.288,0.0,4.191649917792301,0.085015792946569,7.115870701246373e-10,0.0017559787200205,1.550903750687518e-05,-0.0001346278364054,2.452679605296485,17.45158164951985,28.9255263613319,23.867756982473104
0.82,31.222166214709755,131.0104375739303,15.176387261190351,-2.3768959400477376,0.0004665107838772,30.1977936122184,0.0018664380333322,3.7262504114303887,328.72500443277005,29.241820606732304,13.05790274205307,69.99946271520767,0.000781991061574,113.70086002914684,522.9805424733726,15.288,0.0,4.204556431170883,0.0859458932915386,6.228535925006461e-11,0.0018505945983791,1.552530628445319e-05,-0.0001434298389981,2.376895985802167,17.267140221510402,29.24189388607488,30.426825083442644
0.83,31.22216574808572,131.0104388368522,15.456202566278852,-2.3063477150423743,0.0004991880760763,38.295739266935385,0.0018793187082361,3.7257513328525977,395.68750322465047,29.509890610499475,13.1859702821118,70.00054854947238,0.000806477873264,113.7008867461624,532.5988728354428,15.288,0.0,4.21737170840081,0.0867340632016503,-6.189496952620741e-10,0.0019449055075043,1.5543314698331782e-05,-0.0001521171736121,2.30634776903565,17.112808307605654,29.509969022779103,38.47654964425979
0.84,31.222165276498767,131.010440113185,15.738773784403628,-2.2363126633778925,0.0005314075891233,23.76612989274616,0.0018924680267381,3.7252498937476872,275.4593748256452,29.786603718522425,13.316935523600105,70.0016883461328,0.0008309986766162,113.70091350657395,542.6192957126505,15.288,0.0,4.230122631924909,0.0875476442915789,-1.3318084764760102e-09,0.0020388916923693,1.556313872858888e-05,-0.0001609590870304,2.2363127264841243,16.956505069213808,29.786687191831327,24.05631768228847
0.85,31.222164800238268,131.0104414021419,16.0238776802827,-2.164626971018915,0.0005625547320429,25.885112098833886,0.0019075499173321,3.725127386704131,292.96093233939376,30.10250672040792,13.461245798745384,70.00288186375509,0.0008555565318632,113.70094031323694,554.174695003827,15.288,0.0,4.242799000894405,0.0884764189000313,-2.0759597588323408e-09,0.0021323832106746,1.5584821166988064e-05,-0.0001701203945727,2.164627044083822,16.78229509642457,30.102595086298585,26.151780169906527
0.86,31.22216431913068,131.0104427041949,16.3116502698914,-2.096423175048508,0.0005939098799088,32.331862287748805,0.001920742954788,3.724498334573124,346.2265619465587,30.38803870002601,13.59509577535881,70.0041288569349,0.0008801546206343,113.70096716979216,564.7219985569702,15.288,0.0,4.255409570964384,0.0893159362549506,-2.851061434600574e-09,0.0022254121409023,1.560845154283334e-05,-0.0001792212846767,2.096423259137333,16.627248368601848,30.388131991171782,32.54567883033698
0.87,31.222163833198284,131.01044401928328,16.60207568164304,-2.030394755066436,0.0006252441163686,30.12641168272328,0.0019328874612057,3.7235591337476537,327.964078366998,30.658397771577395,13.723687093216853,70.0054290351783,0.0009047962288937,113.70099407971348,574.7992066251092,15.288,0.0,4.267953748059684,0.0901108656966661,-3.6567423757595436e-09,0.0023179152829606,1.56341008705747e-05,-0.0001883264684113,2.0303948512954824,16.482707989514445,30.658495984693527,30.355651487581273
0.88,31.22216334247488,131.0104453473153,16.895129191106143,-1.9641802202861,0.0006558611771537,26.07752473609576,0.0019458645472053,3.722736688366661,294.4828134710418,30.94827387116016,13.858886976667284,70.00678206621181,0.000929484747564,113.70102104656988,585.7035961963229,15.288,0.0,4.2804285741916575,0.0909631674941522,-4.492605106745509e-09,0.0024098145782939,1.5661836924479008e-05,-0.0001976387891516,1.9641803297427396,16.330856635774065,30.948376893592958,26.341907079765242
0.89,31.22216284703956,131.01044668807594,17.190750930953545,-1.8978786300671,0.0006857114199334,28.567926506593217,0.0019596637469757,3.7220174482685513,315.028134248087,31.257783325269475,14.00072939214328,70.00818758677899,0.0009542236844681,113.70104807399008,597.4602967369444,15.288,0.0,4.292818567241101,0.0918731841383242,-5.3582325800855205e-09,0.0025010315991134,1.5691727183805023e-05,-0.0002071653655579,1.897878753897062,16.1720879701155,31.25789103656744,28.809370743069152
0.9,31.22216234681665,131.010448041771,17.4890012325963,-1.8358418125052625,0.0007163995962309,31.52047652849591,0.0019703966590299,3.7205364975600106,339.37814235421445,31.514763310900275,14.124530949826609,70.00964521969053,0.0009790166830664,113.70107516596636,607.3070978918328,15.288,0.0,4.305140838332725,0.0926288139562858,-6.253188119402281e-09,0.0025915470701358,1.5723860897164224e-05,-0.0002164215516979,1.835841952237626,16.041675484799008,31.5148758426857,31.73929482984146
0.91,31.22216184187461,131.01044940821438,17.78982862222354,-1.7736251627084985,0.0007463510440813,24.057160635614864,0.0019819481236918,3.7191598266494976,277.7421810230789,31.791359567909968,14.254969252674831,70.01115451548247,0.0010038674686959,113.7011023263734,617.9963527770788,15.288,0.0,4.317395161980572,0.0934421083039736,-7.176998150424903e-09,0.0026812698029622,1.5758305645412406e-05,-0.0002258730550925,1.773625319692582,15.904010443912584,31.79147680445782,24.342948292925804
0.92,31.222161332411048,131.0104507868688,18.093081404889247,-1.7113474022451491,0.0007755124497864,28.577690540197995,0.001994298643613,3.7178743860737775,315.02813424806214,32.08750321987776,14.392014672804653,70.01271495490721,0.0010287876035112,113.7011295700473,629.545192213784,15.288,0.0,4.329575785581411,0.0943128652338415,-8.129174349514726e-09,0.002770066375372,1.579510869290908e-05,-0.0002355202534038,1.711347577907936,15.759534882093645,32.08762503708851,28.81851818777594
0.93,31.222160818335706,131.0104521779798,18.398831428148544,-1.6526612825489777,0.0008055740820775,33.9308853002525,0.0020037687181122,3.7158782565574686,359.1625070654728,32.33405364187585,14.512024244600097,70.01432609410485,0.0010537656272062,113.70115687931644,639.2380484469229,15.288,0.0,4.341689015016366,0.0950378639096639,-9.109195038227497e-09,0.0028579253155406,1.5834368420405933e-05,-0.0002448501846735,1.6526614788293923,15.640439611659415,32.33418018115675,34.133747706507954
0.94,31.222160299539567,131.0104535818438,18.707165210819184,-1.5926936273821326,0.0008342880907131,24.708520256569248,0.0020152551411358,3.7142342826467214,283.0687504837787,32.62337914005057,14.646582740507675,70.01598732524197,0.0010788133183439,113.70118426968124,650.7097796512866,15.288,0.0,4.353734746197929,0.0958885974566421,-1.0116491192588944e-08,0.0029448078313229,1.5876178898535117e-05,-0.0002545437558038,1.592693845835106,15.50375476106554,32.6235101897174,24.98612642321603
0.95,31.222159776306377,131.01045499768946,19.017864287849072,-1.5340433746096356,0.0008628653525977,31.90953345385049,0.0020260975288225,3.712360821656554,342.4218736174873,32.90538096828996,14.778554653178844,70.01769806413448,0.0011039349051712,113.70121174524472,661.9883308317799,15.288,0.0,4.365708180142761,0.0967178132597822,-1.1150523509801373e-08,0.0030305646991203,1.592057798526661e-05,-0.0002642129309804,1.534043617222835,15.372691614592291,32.9055165068626,32.12475606471815
0.96,31.2221592483468,131.01045642630348,19.33115530971036,-1.477494503452909,0.0008918535898687,31.26719091143657,0.0020353030928383,3.710053429877368,337.09533515678345,33.16112208910451,14.901470036507591,70.01945768003966,0.0011291347241297,113.70123931103718,672.2980547617758,15.288,0.0,4.377618746624422,0.0974698501375552,-1.2210660889308984e-08,0.0031152362198928,1.5967705802316313e-05,-0.0002736974295321,1.477494772566044,15.255345567380122,33.1612621811388,31.486532487513212
0.97,31.222158715679587,131.01045786763507,19.64702573995979,-1.4212949933920875,0.000920289281149,20.096788879059886,0.0020448043160537,3.707720228689323,245.02188719299323,33.42750576812668,15.02794285079263,70.02126551533266,0.0011544172649775,113.70126697181472,683.1218690716157,15.288,0.0,4.389465320347299,0.0982531767711035,-1.3296290221718744e-08,0.0031987471887454,1.6017648042286736e-05,-0.0002832834687172,1.4212952912748789,15.135196673194375,33.42765032682892,20.435951573757507
0.98,31.22215817858684,131.01045932091716,19.965258475846746,-1.3641989950312514,0.0009472427965502,29.14996240254956,0.0020562325373359,3.705690451986301,319.5937466429581,33.736270746567634,15.168813521460116,70.02312086466313,0.0011797871406838,113.70129473209064,695.7786793428414,15.288,0.0,4.401239927472395,0.0991610830615587,-1.4406810794977853e-08,0.003280932510581,1.6070431091357412e-05,-0.0002932367774317,1.3641993238321597,14.998919548758703,33.73641953911817,29.384561491097458
0.99,31.22215763692224,131.01046078654778,20.28596926950207,-1.3110142601827983,0.0009760505586312,31.832493034799707,0.0020634551737896,3.70269461695634,341.6609485517054,33.968974773966735,15.283606480553631,70.02502299586344,0.0012052491205454,113.70132259715164,705.3886561065333,15.288,0.0,4.412951557493357,0.0998454317685946,-1.554152973219167e-08,0.0033617934716855,1.612618697457511e-05,-0.0003025270128048,1.3110146234542688,14.896900321744672,33.969128091629955,32.04711476084636
1.0,31.2221570906839,131.01046226453207,20.609161783048247,-1.2569796272251232,0.0010034130779584,28.508928004087675,0.0020725327906099,3.6999804321555856,314.2672081822764,34.242949875493274,15.412416416168048,70.0269710615934,0.0012308157595211,113.7013505831695,716.7908471779143,15.288,0.0,4.424596712664267,0.100651097271319,-1.669974140623107e-08,0.0034412437626487,1.618499812098132e-05,-0.0003121647181781,1.2569800276597716,14.779241877670652,34.243107491250974,28.74802315700996
1.01,31.22215654004765,131.01046375439208,20.934701594387736,-1.2040653725081452,0.0010307519549717,29.80603084600824,0.0020808666148027,3.6970107307893927,324.9203161036979,34.507861124676594,15.53804014686796,70.02896430841268,0.0012564766395451,113.70137867320064,727.9015006433074,15.288,0.0,4.436173789087583,0.1014301296496735,-1.7880762903206223e-08,0.0035191678712754,1.6246920368366026e-05,-0.0003216930328555,1.2040658136357578,14.667142176800152,34.508023034815054,30.034436360064632
1.02,31.222155984938208,131.0104652563326,21.26264947479963,-1.1523548832207593,0.0010582221318246,24.90776120261811,0.0020882363902424,3.6937440603267406,284.59063161540416,34.75935141099235,15.658990004611828,70.03100181413208,0.001282244606654,113.70140688382956,738.5266644509064,15.288,0.0,4.447685669953508,0.1021697216916696,-1.9083820242282468e-08,0.0035955193995041,1.6312066195153683e-05,-0.0003310573620974,1.152355369044498,14.56214968077249,34.7595176361361,25.180157220926525
1.03,31.222155425421768,131.01046677017376,21.592956325847265,-1.10044581427324,0.0010845457787334,20.37668914130368,0.0020967586528161,3.690596463610656,247.30469339049705,35.039306135002306,15.789571095218296,70.03308264326144,0.0013081249083447,113.70143522054832,750.4470735737443,15.288,0.0,4.459130312660752,0.1029929890594791,-2.0308145830422468e-08,0.003670202918322,1.638051069760964e-05,-0.0003406447853623,1.1004463486450995,14.44743587436442,35.03947649505484,20.708210135473696
1.04,31.2221548615577,131.0104682957543,21.925578345931488,-1.0502423938112893,0.0011115496711036,32.31344966610296,0.0021034216815065,3.6869748551485686,345.46563688072297,35.288217433699494,15.909456515500311,70.03520583591038,0.0013341229847498,113.70146368906296,761.1226390646625,15.288,0.0,4.47050939613875,0.10372501726212,-2.155294638023745e-08,0.0037431387070493,1.6452340833273806e-05,-0.0003498709932508,1.0502429819630408,14.34664559455748,35.288392035513525,32.52311204867471
1.05,31.222154293069373,131.0104698338264,22.26073303087184,-1.0000682940386671,0.0011375776934774,19.544485377203987,0.0021109277687784,3.68340431979194,240.45625879819983,35.55995395625966,16.037045441647912,70.03737037692201,0.0013602443861615,113.70149229567248,772.8649240699459,15.288,0.0,4.481829236494312,0.1045241459074008,-2.2817330002046423e-08,0.0038143270218364,1.652773620876354e-05,-0.0003592588126431,1.0000689409700905,14.238528012546212,35.56013264654589,19.888548979219635
1.06,31.222153720186206,131.0104713837665,22.5982444816614,-0.950101019241224,0.001162686232778,27.784278931138527,0.0021190946166683,3.679840985144081,308.17968365593924,35.85134801581187,16.17125000985408,70.03957522965524,0.0013864948916108,113.7015210462012,785.5577511372242,15.288,0.0,4.493085063847537,0.1053810645515296,-2.4100505225691866e-08,0.0038836269705918,1.660673157921779e-05,-0.000368771402315,0.9501017305943164,14.124633227047978,35.85153065013822,28.02690475043251
1.07,31.22215314279568,131.01047294588062,22.93820267666717,-0.902205454783548,0.001189201595663,32.69483942147642,0.0021243903058367,3.6756173073726046,348.5093681440308,36.09115794799318,16.28774786815461,70.04181928376559,0.0014128882548003,113.70154995826988,796.0761071303981,15.288,0.0,4.504283396309572,0.1060863662502268,-2.5401556856113076e-08,0.0039510039226658,1.6689481066643436e-05,-0.0003776663858017,0.902206238464388,14.031830537535562,36.091344747342994,32.90080077899959
1.08,31.22215256080028,131.0104745204341,23.28068605012852,-0.8547293091789565,0.0012152056892431,22.045862283163945,0.0021297809861844,3.671295487325352,261.00157857466235,36.339216767882974,16.406967915371975,70.0441014762134,0.0014394149713775,113.7015790162486,807.030216108159,15.288,0.0,4.515424984662703,0.10681592328314,-2.6719571264779163e-08,0.004016393379366,1.6776120518446785e-05,-0.000386542786818,0.8547301729698097,13.937260626005587,36.33940765194625,22.349462161301624
1.09,31.22215197446585,131.01047610670415,23.62549046413677,-0.8067208503969627,0.0012391786452518,20.285752113137537,0.0021374025418336,3.6672524134619393,246.54375332474407,36.63959283977152,16.543945470726634,70.04642058715265,0.0014660890713374,113.70160823751446,820.3998351279162,15.288,0.0,4.526503284937228,0.1076992713210262,-2.8053693786132386e-08,0.0040796412757182,1.6866662740272527e-05,-0.0003958621696356,0.806721802064843,13.825006383787034,36.63978748949792,20.61456969301557
1.1,31.222151383865626,131.0104777044918,23.972561552563064,-0.7600897123032668,0.0012638627924678,40.58423451855758,0.0021432323050031,3.6627488863339086,413.1890617385841,36.91022071193726,16.670667643463286,70.0487753870869,0.0014929169696425,113.70163762878688,832.5361350965329,15.288,0.0,4.5375205022882845,0.1084951861197005,-2.9402974257003432e-08,0.0041406605585469,1.6961202432401034e-05,-0.0004047372512857,0.7600907630044802,13.725231670217502,36.91041923904044,40.74918189921198
1.11,31.22215078861204,131.01047931485104,24.322203565541106,-0.7152797103157524,0.0012903511622229,29.742572270114945,0.0021458597559075,3.65754816889078,324.1593910376397,37.12139612276975,16.77700535311857,70.05116460359855,0.0015199052729911,113.70166719764208,842.0615274363626,15.288,0.0,4.5484871956724415,0.1091163530040083,-3.0766300438795177e-08,0.0041994625819757,1.7060009653488484e-05,-0.0004128196278035,0.7152808741387686,13.647960086369665,37.12159881065632,29.966619236334967
1.12,31.22215018876572,131.0104809376172,24.674372175054927,-0.6690874987028823,0.0013129342119071,11.290498590783947,0.0021531864761475,3.653038364445487,172.73281794065943,37.43771115172777,16.91911698824974,70.05358686364768,0.0015470685557843,113.70169696234636,856.4442730167648,15.288,0.0,4.559398613986065,0.1100465814176837,-3.2142689312242e-08,0.004255929248763,1.7163169013932795e-05,-0.0004219211711667,0.669088786812625,13.534916775877251,37.43791738695149,11.866762505284113
1.13,31.2221495848956,131.01048257124327,25.02862730108644,-0.62466106173221,0.0013373289167674,35.03540839343946,0.0021572736183961,3.647816945657937,367.5328077900705,37.69370045901476,17.04053969348209,70.0560408898455,0.0015743982051775,113.70172690722688,868.1670580519595,15.288,0.0,4.570247548624587,0.1107994942030486,-3.3531292174271296e-08,0.0043098637889717,1.7270579898861744e-05,-0.0004301750031109,0.6246624932091289,13.444489332852678,37.69391052614976,35.224798287824825
1.14,31.222148976364664,131.0104842174617,25.385467657929222,-0.5815244634215295,0.0013630703771426,19.45140115987487,0.0021589140488647,3.642044363153032,239.69531773195544,37.905344001703526,17.146735955756206,70.05852519801418,0.0016019090970127,113.70175705185848,877.9135479064581,15.288,0.0,4.581048428858754,0.1114220627039495,-3.49307956865493e-08,0.0043613106814525,1.7382637913532582e-05,-0.0004377391918705,0.5815260608561215,13.37039900676089,37.90555811229766,19.789428968175564
1.15,31.22214836364104,131.0104858749997,25.74453176936992,-0.5373223783487262,0.0013845986905975,19.17221334875288,0.002165346875979,3.636918562276141,237.41251153546767,38.22654157121272,17.290191177410716,70.06103828791517,0.001629608432533,113.70178740323333,892.8240982320636,15.288,0.0,4.591788178417078,0.1123666723879218,-3.634029425176936e-08,0.0044100703667237,1.749923784764294e-05,-0.0004463684727259,0.5373241622444478,13.260439309098397,38.22675906346642,19.514121707303506
1.16,31.2221477468571,131.0104875434974,26.105719410682568,-0.4954703328515328,0.0014103701507527,49.99453119380263,0.0021655838309885,3.6306205865126087,490.0437743845894,38.42302447039816,17.391006379162157,70.06357859774,0.001657511520109,113.70181798024764,901.9945509003152,15.288,0.0,4.602471404425876,0.1129446929813397,-3.77586626867227e-08,0.0044560501727368,1.762047099684139e-05,-0.0004533248605369,0.495472340126632,13.193534772667146,38.42324601082336,50.126186368215436
1.17,31.22214712517721,131.01048922522733,26.46968432406901,-0.4534032733642701,0.0014338502183752,8.957396618130204,0.0021680948856359,3.62454380074133,153.70937929486794,38.67629951157871,17.511087103554868,70.06614459026257,0.0016856104126822,113.70184877001726,913.89323961821,15.288,0.0,4.613112244809091,0.1136896633482386,-3.918443621294605e-08,0.0044992911419266,1.7746861563665194e-05,-0.0004607249636973,0.4534055405273859,13.108779196499434,38.67652474024431,9.662933128125138
1.18,31.22214649970492,131.0104909171888,26.83557013046583,-0.4110562506697941,0.0014540889242981,24.372956200123447,0.002173845362863,3.618799005695027,280.02501822196746,39.00855337543168,17.657979476773306,70.06873458026433,0.001713920710903,113.70187979037044,929.6298509107612,15.288,0.0,4.6236877778601935,0.1146668029161812,-4.061689371093536e-08,0.0045395038446424,1.787796692234369e-05,-0.0004688195374421,0.4110588224965738,12.999706937308112,39.00878178318577,24.640144173733216
1.19,31.2221458699441,131.0104926207311,27.203766186236088,-0.3711358255634518,0.0014807977272048,42.49234608899695,0.0021709811774868,3.611557344454244,428.4078130529292,39.160750502144246,17.743381195865844,70.07134687034984,0.0017424505396877,113.701911050646,936.8650177173351,15.288,0.0,4.634203322210356,0.1151146692371637,-4.2054535329852334e-08,0.0045766975059759,1.8014225262924007e-05,-0.0004744880983456,0.3711387796334796,12.949784497793852,39.16098310530728,42.64554873972823
1.2,31.222145235469448,131.01049433701087,27.574607056569207,-0.3303595526597292,0.0015019392925523,4.486712709475912,0.0021741651229857,3.605066755179256,117.1843741360236,39.45461749415029,17.876966706592285,70.07397963783924,0.0017712157780815,113.7019425711862,950.9445934998045,15.288,0.0,4.644668217354448,0.1159789889878396,-4.349597734872919e-08,0.0046108071570527,1.8155965158756768e-05,-0.000481594405122,0.3303629667965741,12.855559711218351,39.45485341822265,5.755614821516929
1.21,31.22214459738529,131.0104960630254,27.94723542127324,-0.2902677936987018,0.001523086541348,34.137573300187405,0.0021765459084035,3.598261661100686,359.92343213200894,39.73988875732002,18.00750338188273,70.0766311453061,0.0018002092337174,113.70197433705206,964.7111258823664,15.288,0.0,4.655069142713081,0.1168180506148481,-4.494043905572972e-08,0.004641593241451,1.83027044865998e-05,-0.0004882978557839,0.2902717895886983,12.765440757056997,39.74012800319444,34.32668644866217
1.22,31.222143954852687,131.01049780105612,28.3223081281652,-0.2515999688227817,0.0015489324358781,24.74962935105336,0.0021727987221538,3.5904035450417413,283.0687504825761,39.89662069668245,18.09413035555159,70.07929946587987,0.0018294473144602,113.70200636973314,972.3006336216076,15.288,0.0,4.66542737972587,0.1172792710414102,-4.638615225162961e-08,0.0046690693645373,1.8455106740456787e-05,-0.0004931078097145,0.2516047366165372,12.716171480700767,39.89686400242049,25.00870159268219
