Time,Latitude,Longitude,Altitude,Angle of Attack,Angle of Sideslip,X-Acceleration,Y-Acceleration,Z-Acceleration,Thrust,True Velocity,Ground Velocity,Pitch,Roll,Yaw,Dynamic Pressure,cp,parachute_deploy_gain,Wind Speed,Mach,omega_x,omega_y,omega_z,Cmq
0,31.2221860000000042,131.010383999999988,3.00000000364323682,0,0,0,0,0,2.2828121974499247,0,0,69.9999999962342088,0,113.699999993883324,0,15.2880000000000003,0,0,0,0,0,0,-0
0.01,31.2221859999997946,131.010384000000556,3.00000016469923247,0,0,0,0,0,34.2421869617492334,9.11367326775851009e-12,8.66229497295429822e-12,69.9999999962370651,-4.92863947922479589e-13,113.699999993882884,5.08594204168408172e-23,15.2880000000000003,0,0,2.67827100510624443e-14,-3.65918233213857746e-19,7.58941520739853104e-19,4.81114714040442593e-19,-1.83541113936281872e-32
0.02,31.2221859999996028,131.010384000001039,3.00000030885429547,0,0,0,0,0,25.8718762377664078,1.96992978605390895e-11,1.88456988716431921e-11,69.9999999962400494,-1.04152381447771591e-12,113.699999993882386,2.37621641206600858e-22,15.2880000000000003,0,0,5.78911013494094702e-14,-7.28448334638698292e-19,1.51788304147970621e-18,9.75781955236953991e-19,-7.93451985123442364e-32
0.03,31.222185999409362,131.010384001586402,3.00018176030779937,18.6493779029494604,-0.000129237623237530007,10.7928899806483045,-1.97644583900689674e-05,3.34983967390763571,180.342193598546658,0.0785672533977095078,0.0490694047558625918,69.9999999976775626,-4.2497891361524094e-12,113.699999994705607,0.00377978965327356543,15.2880000000000003,0,0,0.000230888677896110966,2.88330015245363835e-17,-7.25223402354589416e-10,1.08188208080271277e-11,1.51197624781400831e-13
0.04,31.2221859959356287,131.010384010943454,3.00162780953569674,9.74253989061216075,-4.88763086122285772e-05,51.6475445943311158,1.54548216767323456e-06,3.34965665682309899,548.635972453807767,0.346420694310776434,0.171860503977579737,70.0000000036447574,-2.28205307288861013e-11,113.699999999565534,0.0734838809649275282,15.2880000000000003,0,0,0.00101804013696402693,1.80009747884589399e-15,-1.58734069119923437e-08,2.61929145365345784e-11,1.45916869803439425e-11
0.05,31.222185985910329,131.010384038045004,3.00715844163023283,5.5769968489095687,-4.21135943534799539e-06,75.3242160169835273,4.73080294831520123e-05,3.34902689347595528,761.698429882464552,0.947854334293939504,0.409211128642743283,70.0000000010935537,-1.04766136577077691e-10,113.700000013612069,0.55013262299765131,15.2880000000000003,0,0,0.00278549703395658196,1.95473045844392346e-14,-1.13584749331540247e-07,4.14067569904437612e-11,2.85688606727574374e-10
0.06,31.222185966868647,131.010384089593572,3.01868664272593046,4.48500474963244322,2.31139019787050305e-05,56.3605563030587007,9.71465785775115924e-05,3.34799244711343214,590.487539073720654,1.60618980149218604,0.665693519146445256,69.9999999197690244,-2.82941102348924619e-10,113.700000040305838,1.57971028663545732,15.2880000000000003,0,0,0.00472017413217633904,1.01936766184118274e-13,-4.07864410983111553e-07,5.76522069423461223e-11,1.73837509686130208e-09
0.07,31.2221859390775336,131.010384164863126,3.03600551209402658,4.00448286551149391,4.63712119495135773e-05,85.8192455386477917,0.000147926970097503541,3.34656708333141317,855.293774977913927,2.27788210706903049,0.926660947343454056,69.9999996219982279,-5.49831570978999292e-10,113.700000079276109,3.1772067926123353,15.2880000000000003,0,0,0.00669410445039518576,3.35900025920073467e-13,-9.92070622953462368e-07,7.83315922772719921e-11,5.99658406989250883e-09
0.08,31.2221859009658012,131.01038426812616,3.06033476575187802,3.77263127792190334,7.06371256062416025e-05,17.6076228145981588,0.000196957592070898702,3.34480227118667583,241.217198863884818,2.92612482887636283,1.17954495655796454,69.9999989088305909,-9.15694670892462832e-10,113.700000132739973,5.24285298735243899,15.2880000000000003,0,0,0.00859912396431777512,8.49635706706491564e-13,-2.01744800413265681e-06,1.10032289818440005e-10,1.56647792516492608e-08
0.09,31.2221858556197738,131.010384390989856,3.0892797608365723,3.74258231141200604,9.5325675231994802e-05,53.4176180048964397,0.000237730218002333866,3.34289666486112669,563.093737704317618,3.46187703891102627,1.39384941462988121,69.9999975134546446,-1.31671842773002699e-09,113.70000019638816,7.33844512707370811,15.2880000000000003,0,0,0.0101735644468633635,1.80613395740032365e-12,-3.4856561047658452e-06,1.59232278560273843e-10,3.20202005890100843e-08
0.1,31.2221858028175774,131.010384534057465,3.12301320909491364,3.81071421019783685,0.000121971080758598364,50.732831688561788,0.000271545837515448313,3.34090447591365036,538.7437595981919,3.9029133825176725,1.57567038389986336,69.999995157830341,-1.72222432289554893e-09,113.700000270567642,9.32732681847184431,15.2880000000000003,0,0,0.0114696609641860067,3.37914451533694905e-12,-5.48904943388414521e-06,2.34452541412924053e-10,5.68476506314615152e-08
0.11,31.2221857431700727,131.010384695667796,3.16106164078641116,3.84323765504598036,0.000147145408783231387,40.0848474374385688,0.000307099758177995722,3.33859717034531034,442.865639305294906,4.36819921201157246,1.76578242121538631,69.9999915253729768,-2.07703942468805025e-09,113.700000354470319,11.6837607126815346,15.2880000000000003,0,0,0.0128370221364947634,5.76365694334259916e-12,-8.08162139954488366e-06,3.4437809457680147e-10,9.36754562129998513e-08
0.12,31.2221856770245907,131.01038487487628,3.20315617196047642,3.86558564807459826,0.000171348089099210797,43.7480799143332604,0.000342946594964391399,3.33600966231316054,475.585948135404465,4.83801864946757032,1.95742650583495204,69.9999862600106582,-2.3147200577597177e-09,113.700000447673773,14.3321420062794882,15.2880000000000003,0,0,0.0142177082532951912,9.17772063248746377e-12,-1.13223702306849879e-05,4.98555567062495836e-10,1.45354343598177095e-07
0.13,31.2221856047215205,131.010385070757366,3.24903338361815308,3.95285669440916232,0.000198169826234992146,48.2585391180499741,0.000371981107240517913,3.33344523512332414,515.915632623689476,5.21512035057569623,2.1172615234944101,69.9999789703044399,-2.35265113573284059e-09,113.700000549782459,16.6533950244453948,15.2880000000000003,0,0,0.0153259223232261182,1.38588880633063252e-11,-1.52681962163171846e-05,7.07166414280215559e-10,2.11287244421402401e-07
0.14,31.2221855263490333,131.010385283071088,3.29862557546706325,3.99981420118284792,0.000223008237377726162,44.9721767850953427,0.000403855591455553264,3.33052592490198407,486.239086056840392,5.63167615200940475,2.29059513099545553,69.9999692426645623,-2.0964169591742506e-09,113.700000660771011,19.4199179783547713,15.2880000000000003,0,0,0.0165500839355928395,2.00553635588333716e-11,-1.99811439493909854e-05,9.81252131659242702e-10,2.9859131057555361e-07
0.15,31.2221854420015994,131.010385511560628,3.35186028506811029,4.05975476911301225,0.000248539990764711958,43.4637160193537753,0.000433543226731567866,3.32747422849243879,472.54218587214001,6.01888316560526437,2.45383766868271946,69.99995661705006,-1.43188768134039915e-09,113.700000780625842,22.182048585914238,15.2880000000000003,0,0,0.0176879988684610287,2.80404916713566325e-11,-2.55291719775422389e-05,1.33309260321839681e-09,4.07727088477750495e-07
0.16,31.2221853515819241,131.010385756490507,3.40881389436676407,4.08854462484130732,0.000272210944932510383,34.4023069357135967,0.000465877824565354701,3.32404684464906053,391.12189082975641,6.44303061809316624,2.62971580822363071,69.9999405987561403,-2.27841984783363582e-10,113.700000909623355,25.4183784408083007,15.2880000000000003,0,0,0.0189344747787753703,3.81042963600432359e-11,-3.19913711614788564e-05,1.77662362644707755e-09,5.46937370926295155e-07
0.17,31.2221852554099399,131.010386016990765,3.46923909377793649,4.13347468842419552,0.00029684158695823977,43.4155809381403728,0.000495744973995866601,3.3205135250562221,471.78125980632376,6.83404379119085981,2.79420112365087148,69.9999206448319882,1.67575894446247236e-09,113.700001047478835,28.5969980778046526,15.2880000000000003,0,0,0.0200835795555658371,5.05622819343119236e-11,-3.94162603380559734e-05,2.32482468580976756e-09,7.14768170397066036e-07
0.18,31.2221851530022434,131.010386294375877,3.53351204963262022,4.16207877285686756,0.000320492787063832857,36.2151660219171347,0.000526966735016640565,3.31665933612355879,407.101567211914528,7.2444022294323478,2.96528531587496236,69.9998961790314524,4.45070668055043651e-09,113.700001195059045,32.1341903991183955,15.2880000000000003,0,0,0.0212895378539265934,6.5741708189353534e-11,-4.79243856484647045e-05,2.99669991322666987e-09,9.21230820748327094e-07
0.19,31.2221850444828668,131.010386588308563,3.60153760019172342,4.17456309251139679,0.000342914278589344943,40.9041800427263027,0.00055982867240863632,3.31244583927210501,448.953132831826849,7.67810673790947895,3.14433961722118216,69.9998665624008964,8.30674092292676784e-09,113.700001352409558,36.0967170721845179,15.2880000000000003,0,0,0.0225641073333706747,8.40032927522686365e-11,-5.75836346763551867e-05,3.80911503044151526e-09,1.17316671380156179e-06
0.2,31.2221849296486234,131.01038689934137,3.67347464118590317,4.20078915399145636,0.000366573034254704516,37.5214898208491761,0.000590466919182690893,3.30812712915434881,418.515630199161365,8.08216006412957277,3.31318683933006453,69.9998311045104487,1.34800080829191884e-08,113.700001520067786,39.9955165273270055,15.2880000000000003,0,0,0.0237515420632470921,1.05728805481567758e-10,-6.85028882131185225e-05,4.78351733027568889e-09,1.4690610466811608e-06
0.21,31.2221848088436893,131.01038722653837,3.74905730552401684,4.22722562033261262,0.000390310433246848657,36.0064697775761644,0.000620601272787201603,3.30359776763142721,404.818761014464428,8.48018829437500621,3.47992805775657654,69.9997890742529592,2.02433263776548733e-08,113.700001697833756,44.0315784885794201,15.2880000000000003,0,0,0.0249212734096428447,1.31320595517854955e-10,-8.07208291683553139e-05,5.93661589182972911e-09,1.81631626331753899e-06
0.22,31.2221846819136672,131.010387570319409,3.82840670130281646,4.2176244726165093,0.000410696285369717819,43.5935627685881499,0.000655758920494764063,3.29841875767922987,472.542185872136486,8.94831461811120121,3.67066782999472752,69.9997397083127737,2.88926538075102191e-08,113.700001886238866,49.0266756129506618,15.2880000000000003,0,0,0.0262970098082033268,1.61186003536399267e-10,-9.43348117723774896e-05,7.29106197993283208e-09,2.23980539128825791e-06
0.23,31.2221845484548304,131.01038793178239,3.91183756115468473,4.25320537954326383,0.0004356497720089569,36.207459360748949,0.000683686922722525747,3.29355466128287455,406.340642146102141,9.31799902525197865,3.82760028360492655,69.9996821549030983,3.9766623706965518e-08,113.70000208621326,53.1608354775167555,15.2880000000000003,0,0,0.0273834518362109196,1.95767624418301473e-10,-0.000109505708778552874,8.87784718088286285e-09,2.70740355927931971e-06
0.24,31.2221844093456014,131.010388308538637,3.99866964940866776,4.27135264557773553,0.00045883378920767232,37.3286080087975947,0.000713911697673520317,3.2882529474867046,416.232824001711379,9.7203332459195213,3.9956861712714935,69.9996155408946805,5.32509871046438109e-08,113.700002296918697,57.8502398901668755,15.2880000000000003,0,0,0.0285658473732890855,2.35534745143307651e-10,-0.00012617657385590063,1.07071802425012536e-08,3.25424194465518317e-06
0.25,31.2221842644570167,131.010388700938847,4.08900446593793809,4.29698686981540234,0.000482848983334858658,38.3649566400252979,0.000742483922667206905,3.28284626589867479,425.364080791506922,10.1009615935159527,4.1562806652626314,69.9995389781877293,6.97479781374676735e-08,113.700002518962805,62.4689963611702623,15.2880000000000003,0,0,0.0296844577155840929,2.80933085873043406e-10,-0.000144451636124542286,1.28055329635332884e-08,3.87142965072796435e-06
0.26,31.2221841140756986,131.010389108203611,4.18262110402873155,4.32755423691547136,0.000507438991606541483,41.7865661614553829,0.000769736419800412888,3.27732087646770287,455.80158342417883,10.4644497354123782,4.31094871887776954,69.9994515368878751,8.97024502886333285e-08,113.700002752408935,67.0452443356678742,15.2880000000000003,0,0,0.0307527002093570291,3.32431765373287754e-10,-0.00016436315770221847,1.51925047864838523e-08,4.56355359993810651e-06
0.27,31.2221839578137299,131.010389531387915,4.27982215321117465,4.33742811840656994,0.000529702335486379188,38.2242911032538473,0.000800211178185602123,3.27123004841987974,423.842199659872563,10.8736118498261902,4.48123226393084195,69.9993522521519935,1.13587393208351198e-07,113.700002998306658,72.3900346549699947,15.2880000000000003,0,0,0.0319551720828357214,3.90484337603431509e-10,-0.000186059811616844751,1.79019946498730075e-08,5.36790267753501075e-06
0.28,31.2221837957695953,131.010389970223883,4.38053283172365671,4.35979025650862262,0.000553527510562852902,44.1207307275094038,0.000828072271385077072,3.26514386100193477,476.346873201222195,11.2478718916014184,4.63949182586423614,69.9992400702920463,1.41938296327408329e-07,113.700003257081931,77.4582454645660761,15.2880000000000003,0,0,0.0330550782151640757,4.55595825375374429e-10,-0.000209619220926101062,2.09616181379585756e-08,6.25569396794615011e-06
0.29,31.2221836278828384,131.010390424876022,4.48480177698289584,4.38135974025744623,0.00057737648726709299,35.3536197607625553,0.000855659611391794222,3.2588361863853601,397.970310422111766,11.6195889013503368,4.79682445966682813,69.9991139044831527,1.7532937395312496e-07,113.700003529427192,82.6616578528940948,15.2880000000000003,0,0,0.0341475147840558241,5.28268525040872464e-10,-0.000235137545717689308,2.44023887909330158e-08,7.24907222782668121e-06
0.3,31.2221834544381096,131.010390894570321,4.59240982688131272,4.39617507281761988,0.000600356665334356751,33.1490797613948018,0.000884158719714270942,3.25217107922164672,378.185945710871067,12.0052186882677852,4.95887519756831807,69.998972627127344,2.14383684192303281e-07,113.700003815596887,88.2385269149682756,15.2880000000000003,0,0,0.0352808420099011907,6.09029939588318471e-10,-0.000262641159892275291,2.82471356422800846e-08,8.36561857411674722e-06
0.31,31.2221832755909574,131.01039137888381,4.7032380575360353,4.42235615181669761,0.000624899913490765827,34.9528590290802086,0.000910025197609511073,3.24555398289468222,394.16562209302117,12.3556398803864607,5.10879227158949156,69.9988150759387651,2.59766173767152649e-07,113.700004116072961,93.4639131761651498,15.2880000000000003,0,0,0.0363107024397255479,6.98403788157463991e-10,-0.000292187019282257228,3.25229566712151178e-08,9.57826248689966157e-06
0.32,31.2221830914257232,131.010391877587324,4.81722282885169673,4.45155794779377789,0.000649944303128982049,38.0379859115142835,0.000934821026682707218,3.23882361682650144,421.559393462426954,12.6924793110791878,5.25399282922068878,69.9986400687318024,3.12179641788393281e-07,113.700004431478234,98.6283237403037703,15.2880000000000003,0,0,0.0373006526995305274,7.96905013945712519e-10,-0.000323836613651358495,3.72580440687311147e-08,1.09050644159405278e-05
0.33,31.22218290196043,131.01039239063175,4.9343519698327194,4.48019701204722054,0.000675004219851668761,37.7093551175013246,0.000959261610436717115,3.23189933669563656,418.515630199168186,13.0256844327599097,5.39788776638052958,69.9984463826819052,3.72372687880250348e-07,113.700004762578004,103.87354288045799,15.2880000000000003,0,0,0.0382799263433428877,9.05047894999210997e-10,-0.000357667290238851605,4.24836225249657193e-08,1.23603484615852587e-05
0.34,31.222182707020778,131.010392918491164,5.05476263450916541,4.49049305198152204,0.000697378143373914754,29.5227085089536203,0.000987142430045659337,3.22427911658814059,345.465636880756449,13.4081741031825317,5.55863100914667463,69.9982327456812641,4.41143957445642244e-07,113.700005110463266,110.062177258613033,15.2880000000000003,0,0,0.0394040418267209702,1.02333461745717641e-09,-0.000393806243978271305,4.82396483202145133e-08,1.40087103268591529e-05
0.35,31.2221825067937928,131.010393460657156,5.17831168393457641,4.50711781535187139,0.000720712543856854714,32.3530371383660977,0.00101333646443235357,3.21661305844837253,370.576570052703289,13.7686530554979374,5.71176159517965232,69.9979978091806316,5.19362042776584697e-07,113.700005475786654,116.058400304168075,15.2880000000000003,0,0,0.0404634764462946869,1.15232390415689195e-09,-0.000432299813734132244,5.45552399130644805e-08,1.57912776608867467e-05
0.36,31.2221823012122108,131.010394017312592,5.30505329869157727,4.52767240178778962,0.000744729708600240731,36.5526511043957356,0.00103828652712813154,3.20885713174522058,407.862523277719447,14.1132764952183631,5.85938873702120233,69.9977401961163537,6.07939829707116331e-07,113.700005859608282,121.939407863977465,15.2880000000000003,0,0,0.0414763190843316643,1.29254043868676357e-09,-0.000473255972436325862,6.14699225552327593e-08,1.77198251922661022e-05
0.37,31.222182090341061,131.010394588280832,5.43493909097431604,4.55039311415752579,0.00076918150115683735,34.6835787828593496,0.00106234372950533948,3.20097384516078431,391.121890829766642,14.446930470491731,6.00318739776240751,69.9974584775585669,7.0785096329375243e-07,113.700006262864989,127.771540530283914,15.2880000000000003,0,0,0.042456928843506235,1.4445318520011827e-09,-0.000516746496826029863,6.90186481791334769e-08,1.98053803654614999e-05
0.38,31.2221818741223878,131.010395173719473,5.56801609611825477,4.56315131642791805,0.000792019287104061913,36.2353933787001239,0.00108827974821363053,3.19255015153205646,404.818761014460279,14.8084413239345949,6.1564787166299757,69.9971511865591651,8.20121521966083772e-07,113.700006686723384,134.244380272309172,15.2880000000000003,0,0,0.0435194095147296359,1.60882660749176723e-09,-0.000562873331420229127,7.72423853301427293e-08,2.21128406351508731e-05
0.39,31.2221816525004634,131.010395773780147,5.704329739781131,4.57922628245169783,0.000815489716137310881,30.9425419640016202,0.00111309493143926189,3.18402316666385765,357.640624933827439,15.1559126959619999,6.30488433186772657,69.9968167722787769,9.45855271408966431e-07,113.700007132429306,140.616382889747683,15.2880000000000003,0,0,0.0445406353688629561,1.78596578656278109e-09,-0.000611756345505213715,8.61868943159197994e-08,2.45968452142520012e-05
0.4,31.2221814256617982,131.010396387955836,5.84373750626454935,4.59349479979191955,0.000838670682925170751,29.5834243852937959,0.00113797512888990423,3.17521289611434332,345.465636880754005,15.505969085398343,6.45410901523083158,69.9964536498379317,1.08621525395706341e-06,113.700007600947828,147.185065961143067,15.2880000000000003,0,0,0.045569462889951777,1.97653506559195414e-09,-0.000663427505461186432,9.58835144134294998e-08,2.72901174189528038e-05
0.41,31.2221811937141673,131.010397015953487,5.98615797249314241,4.60939449845229365,0.000862163931524819621,33.360545626359837,0.00116210409424792778,3.16624854525325983,378.946870776686467,15.8471768437686258,6.60022848408685459,69.9960602026584695,1.24241947051318175e-06,113.700008093413757,153.73182724817184,15.2880000000000003,0,0,0.0465722905345462151,2.18109996727848554e-09,-0.000717942131686907965,1.06367950505874699e-07,3.01820283711074823e-05
0.42,31.2221809567080335,131.010397657635991,6.13155423418529733,4.63387609959193458,0.000887317919769279608,37.5676427387571721,0.001183742077125155,3.15743374731593907,416.232824001711379,16.155026338188506,6.73482947265292431,69.9956347739890248,1.41574639558456e-06,113.700008611107208,159.760443802515937,15.2880000000000003,0,0,0.0474770882933877245,2.400206535531791e-09,-0.00077537935552726017,1.17680930846389008e-07,3.32294321368729263e-05
0.43,31.222180714655078,131.010398312971745,6.27991949833728835,4.65367427313455995,0.000911660169575580258,33.0386483003103493,0.00120612360190941372,3.14823214930187856,375.903139513433644,16.4750454055619109,6.87353555569934649,69.9951756835756242,1.60752723178871754e-06,113.700009155418982,166.15023929888028,15.2880000000000003,0,0,0.0484176551665520677,2.63438237315801404e-09,-0.000835821567166909188,1.29864614855892046e-07,3.65287677570896608e-05
0.44,31.2221804673911407,131.010398982407111,6.43138341412837455,4.65757387742934892,0.000932929976641759203,30.4788052564327749,0.00123214974254881528,3.13809943757763454,353.075012538921555,16.8483715860516412,7.03046484016701978,69.9946811832270441,1.81916859536649675e-06,113.700009728069276,173.762989227436179,15.2880000000000003,0,0,0.0495148886868988364,2.88411342836306464e-09,-0.000899417740154189794,1.42975581697416844e-07,4.01983191819108926e-05
0.45,31.2221802146980103,131.010399666535704,6.58611776122768511,4.65827001030579346,0.000953562143933252499,35.4620561517945134,0.00125873275223327787,3.12754579585638304,397.209385356286873,17.2316459864824161,7.19073264961644831,69.9941493995125938,2.05218870761162579e-06,113.700010330973456,181.755888424112015,15.2880000000000003,0,0,0.0506413642318551335,3.14987863732273609e-09,-0.000966369542842942814,1.57083782729145849e-07,4.41725079750487196e-05
0.46,31.2221799565319174,131.010400365476642,6.74415901717088939,4.66907507286434065,0.00097630283571516251,41.3913707355688842,0.0012823814722795761,3.11722412848720953,449.71405889764344,17.5754687869478978,7.33738035579407555,69.9935783582983362,2.30821229426708146e-06,113.700010965912341,189.078525726536213,15.2880000000000003,0,0,0.0516519027755614896,3.43223060675433133e-09,-0.00103681314204437207,1.7224885851047691e-07,4.83373548649469587e-05
0.47,31.2221796928065203,131.010401079464799,6.90557672428163105,4.67806301106434042,0.000998761260684927557,28.0209900204918974,0.00130616618884544979,3.10657060381263461,331.007810630253402,17.9233234115620377,7.48533101007974988,69.9929660462147325,2.5889364060732201e-06,113.700011634803886,196.634049649816575,15.2880000000000003,0,0,0.0526742959306323727,3.73170463860384924e-09,-0.0011108841623615434,1.88532207060213475e-07,5.28148505664365441e-05
0.48,31.2221794239793269,131.010401807256216,7.07001851744381948,4.68642527483421745,0.00102109091231145262,27.6007969606275125,0.00132978852885184593,3.09563681785184297,327.203122301157407,18.2709832353803314,7.63313726727991071,69.9923104035261474,2.89614261094227829e-06,113.700012338884164,204.33305198470137,15.2880000000000003,0,0,0.0536961221459722679,4.04904859899578719e-09,-0.00118849531779471017,2.05948560519311644e-07,5.75998398329450787e-05
0.49,31.2221791502289392,131.010402548365278,7.23734841566291642,4.70156796398202914,0.00104489945272251677,34.6487244505178253,0.00135120419031512233,3.08484494341801163,389.60000969812296,18.589315545984995,7.7707981814672209,69.9916093757078812,3.23165731652504743e-06,113.700013079832303,211.511801733856089,15.2880000000000003,0,0,0.0546317638991248022,4.38486615800834454e-09,-0.00126967773493266863,2.2453662401782158e-07,6.26054017926546362e-05
0.5,31.2221788715876762,131.010403302704333,7.40754387012007864,4.72212438923579736,0.00106996435823571525,35.6033845714535389,0.00137072557486675028,3.0741588573465477,397.970310422105001,18.8826594549893159,7.8998011517407587,69.9908609011483378,3.5973597360057951e-06,113.700013859590555,218.236320199079358,15.2880000000000003,0,0,0.0554939729313439212,4.73968531279909998e-09,-0.00135450679800636423,2.44344941868023912e-07,6.78409867869358833e-05
0.51,31.2221785881337617,131.010404070060673,7.5805467220577798,4.73558879650721298,0.00109346949398930206,27.1956639286467201,0.00139183542187690463,3.06284319292573448,323.39843497208409,19.200774511812984,8.03722958125224807,69.9900628955037689,3.99519228958782199e-06,113.700014680103109,225.647740475438098,15.2880000000000003,0,0,0.0564289867670437692,5.11403675587933804e-09,-0.00144303978709531136,2.65418546512062939e-07,7.34915902759761199e-05
0.52,31.2221782998839075,131.01040485046758,7.75636900758130832,-13.8554944541728293,-0.00207645937640503009,32.8578539384505603,0.000875292364083953152,3.95704673323859701,372.098451184341457,17.8355106411910249,8.17849546631129165,69.9892123481260029,1.00885073862370502e-05,113.700021568590088,194.696102700548153,15.2880000000000003,0,6.26610767645119093,0.0524167287903523557,5.51079614470115632e-09,-0.00151849057394985438,3.6263330231598897e-05,7.18341419567612504e-05
0.53,31.2221780065218262,131.010405644864306,7.93510671175667959,-13.564405100050493,-0.00201155061885950398,34.4988389093733971,0.000893550575396284122,3.9699979540875554,386.55624643486243,18.1372016211904068,8.32651535183016556,69.988401263272678,6.711268010736225e-05,113.700082667478512,201.334995984155938,15.2880000000000003,0,6.28993529079346381,0.0533034749842177594,5.90106372325640443e-09,-0.00129192175009250235,3.62289360390779258e-05,6.21487355858267896e-05
0.54,31.222177707791154,131.010406453794388,8.11682376667863537,-13.2836756479460796,-0.00194820114781516104,30.2938852094614788,0.000911676524898673399,3.9829926295207807,349.270324209843579,18.4374413839757629,8.4739608594758824,69.9877212277888106,0.000124078708174097665,113.700143712162827,208.052259217366753,15.2880000000000003,0,6.31370977202530259,0.054185961580293443,6.19606921383269679e-09,-0.00106059952523224763,3.61941014367632582e-05,5.18645136630047329e-05
0.55,31.2221774039374864,131.010407276565616,8.30131833316820078,-13.0165765130008371,-0.0018870323157339794,32.1067595735143314,0.000929434379859920569,3.99582299068411784,365.250000591990727,18.7306378819729531,8.61886526246141749,69.9871748871205455,0.000180987014328596436,113.700204702737949,214.718059053092475,15.2880000000000003,0,6.33739193878600293,0.0550477539631106863,6.39654020286121441e-09,-0.000824851059242852737,3.61588998729019917e-05,4.09768565467272451e-05
0.56,31.222177094958397,131.010408113184326,8.4885897149171754,-12.7650993023043462,-0.00182829283006118279,29.9627734758141457,0.000946638139273892087,4.00833010177153515,346.226561946578727,19.0124633540160666,8.75972231643124033,69.9867647908613293,0.000237838145791388899,113.700265639791198,221.224085048529332,15.2880000000000003,0,6.3609826374892906,0.0558761331346647877,6.50319045998525524e-09,-0.000584649518778841302,3.61233519431848068e-05,2.94806267425698254e-05
0.57,31.2221767809182325,131.010408963475243,8.67858556793966862,-12.5154259844287452,-0.00177002024000696458,29.6247572433419428,0.000964114443744508117,4.02120932430109601,343.182829683302316,19.3020977767258373,8.90326900996630144,69.986493450623982,0.000294632730446011152,113.700326523899406,228.011487053265029,15.2880000000000003,0,6.38448076421741995,0.0567274674898497894,6.51692235702696775e-09,-0.000340083833960226536,3.60874958694753928e-05,1.74094600484555909e-05
0.58,31.2221764617935591,131.010409827501888,8.87132166514834175,-12.259287572748736,-0.00171109768070890804,39.0148927205180698,0.000982433286307965404,4.03495474536461263,426.12500585731533,19.612888948015808,9.0541759621469069,69.9863633733892243,0.000351371462550676208,113.700387355832973,235.40886074099555,15.2880000000000003,0,6.40788450710175628,0.0576409855617392164,6.43866778152196858e-09,-9.11209995395635935e-05,3.60513528386022662e-05,4.73965586016304716e-06
0.59,31.2221761372070823,131.010410706289889,9.06708804116338385,-12.0274164962222567,-0.00165571285496214984,31.6176828635342417,0.000999521059724330909,4.04782107391101498,360.68438819711065,19.8965842510204425,9.19555449180395357,69.9863772529817396,0.000408055030640488081,113.700448136856565,242.26381595148888,15.2880000000000003,0,6.43122863968005021,0.0584748764644898097,6.26904592358068372e-09,0.000162802183399517067,3.60148709503872342e-05,-8.59047842462215993e-06
0.6,31.2221758073521443,131.010411599313159,9.26573232625054466,-11.7789383272067205,-0.00159832276172396418,28.0927272647695538,0.0010181808361192533,4.06219403095420173,329.48595949860578,20.218640615746633,9.35031020700591142,69.9865377928957173,0.000464684199427325062,113.700508867504894,250.165331962000465,15.2880000000000003,0,6.4544892673253802,0.0594215141053331883,6.00923865888943398e-09,0.000421409249191151956,3.59781190721855291e-05,-2.25957277471555029e-05
0.61,31.222175472180389,131.010412506703005,9.46728961740232222,-11.5343015619815876,-0.00154174381026195772,32.9241252366485426,0.00103703316757510476,4.07691465183185908,372.09845118432969,20.5469703638012895,9.50720328360520739,69.9868477453789239,0.000521259788786737686,113.700569548712508,258.351152214098931,15.2880000000000003,0,6.47766897879860082,0.06038659515637914,5.6602794027516912e-09,0.000684787243899065185,3.59411156037415321e-05,-3.7313446758984218e-05
0.62,31.222175131794156,131.010413428180811,9.67167814123201097,-11.3311330097280365,-0.00149088189675396958,40.9467534510270923,0.00105316549986563326,4.08946827976317007,442.86563930529212,20.8132003014315288,9.6423655681035747,69.9873099073282532,0.000577782682293790902,113.70063018126605,265.084306716569529,15.2880000000000003,0,6.5007664350494041,0.0611691736659676494,5.223330721026737e-09,0.000952866116925411757,3.59039016106666107e-05,-5.25925388047266524e-05
0.63,31.2221747860206698,131.010414364216132,9.87902978486335215,-11.1228615790094008,-0.00143954651979631329,23.1935723681026111,0.00107000608270928417,4.10280059732183044,286.112512747078938,21.0977485123424664,9.78390122925982197,69.9879268973795519,0.000634253901003796841,113.700690766486773,272.376644519217336,15.2880000000000003,0,6.52378520973298937,0.0620055946633311719,4.69966000532547469e-09,0.00122583938660285872,3.58664840471488379e-05,-6.85826754897057709e-05
0.64,31.2221744353955657,131.010415313352269,10.0889271651821559,-10.9034862242340438,-0.00138710720596446429,22.7658197831704641,0.00108809405804182044,4.11737970653174301,282.307824417967538,21.413467929542751,9.93625584875175782,69.9887013305965127,0.000690674552777868788,113.700751304781789,280.584001381034568,15.2880000000000003,0,6.54666012762231109,0.0629336327543611601,4.09096926631843483e-09,0.00150293188686345842,3.58289979675889279e-05,-8.53418972914992487e-05
0.65,31.2221740798980143,131.010416275645611,10.3013845776242725,-10.714136103212514,-0.00133871943268192668,40.2828069370741915,0.00110406483070438145,4.13028864543100749,436.778144778747503,21.680998055439332,10.0717734994802619,69.9896356962070456,0.000747045858122817596,113.700811797465249,287.63290693077397,15.2880000000000003,0,6.56944987057254792,0.0637200496552019213,3.39870392811845588e-09,0.00178423083230765285,3.57914632221237617e-05,-0.000102578758334850569
0.66,31.2221737190591355,131.010417252370871,10.5167638895473399,-10.5236339300631769,-0.0012903968078033924,34.2499095266399394,0.00112041836913238328,4.14370683502561565,383.512515171600171,21.9593705532120502,10.2110476141876365,69.990732483398574,0.000803369109819501975,113.700872246561516,295.060328744102208,15.2880000000000003,0,6.59213678637468892,0.0645383380591112443,2.62427175891128024e-09,0.00207039122985183113,3.57538306132155586e-05,-0.000120556450295770495
0.67,31.2221733530459495,131.010418243073673,10.7349337091553192,-10.3241126271727008,-0.00124124948144711811,23.5517730223417807,0.00113788607512651141,4.15828927794084091,289.156244010342505,22.2660628725083747,10.360143670913482,69.9919943896015582,0.000859645624968831705,113.70093265321708,303.353360962975785,15.2880000000000003,0,6.61471864615559912,0.0654398643328178015,1.76928081059452035e-09,0.00236116864457387807,3.57161677716382719e-05,-0.000139405364167538814
0.68,31.2221729820099085,131.010419247342014,10.9557748123196905,-10.1333555527754235,-0.00119344420695259991,29.4270245441960085,0.00115492154034981605,4.17268620970683823,340.899992485846269,22.564462669035052,10.5063141888467602,69.9934240615666141,0.000915876821768879328,113.700993018706001,311.532048689124508,15.2880000000000003,0,6.63721625018930617,0.0663170252941120281,8.35359042023950654e-10,0.00265637621299146974,3.56785344772624695e-05,-0.000158933122403448045
0.69,31.222172606020699,131.010420264986095,11.1792315463336482,-9.95969804129599723,-0.00114791133750662198,36.2555291859810396,0.00117066694403816503,4.18611121856342105,401.014072685363431,22.8341277979860031,10.6424603818198626,69.9950240522264551,0.000972064231279602914,113.70105334453622,319.015859977834452,15.2880000000000003,0,6.65958642988679195,0.0671097411200223676,-1.75799683360347179e-10,0.00295591001478605862,3.56409802636176105e-05,-0.000178964196212790037
0.7,31.2221722249494285,131.01042129635627,11.4054024956539948,-9.7890418792405498,-0.00110295942730899259,30.38626323894837,0.00118638155471041326,4.19968778505585938,349.270324209852845,23.1050319830988862,10.7790100133227291,69.9967968346455223,0.00102820949096643047,113.701113632608383,326.623279942202373,15.2880000000000003,0,6.68184112393341412,0.0679061046307881111,-1.26240579781036885e-09,0.00325995211576914252,3.56035219175186547e-05,-0.000199709571821569812
0.71,31.2221718388417315,131.010422341328251,11.6342508665723638,-9.61399388441919633,-0.00105777768877956006,24.9458672830771242,0.00120280499883589878,4.21409857438168256,301.331264063405797,23.3949355877659713,10.9221232352756061,69.9987449340297019,0.00108431431243222989,113.701173884652334,334.86376141373205,15.2880000000000003,0,6.70400559167152732,0.0687583140612623295,-2.42265922557535762e-09,0.00356842059454464408,3.55662089393529252e-05,-0.00022134485549696789
0.72,31.2221714476956791,131.010423399907097,11.8657768011901421,-9.43327464385587255,-0.0010122885515956425,30.5688733406392181,0.00122012158415473024,4.22952857357286316,350.79220534145287,23.7084423955143286,11.0733832939906396,70.0008708775513639,0.00114038817624697317,113.701234113529296,343.891018106659999,15.2880000000000003,0,6.72607204762232858,0.0696799005942486671,-3.65475302861970074e-09,0.00388133768329985149,3.5529079735071171e-05,-0.00024397556764932271
0.73,31.2221710515044713,131.010424472111055,12.0999841905119112,-9.27828169993174612,-0.00096982364265080917,38.7025338191279644,0.00123504208893652394,4.24297004984797699,422.320318528233997,23.9666126891713986,11.2054207772496479,70.0031773978385274,0.00119641756675934645,113.70129429923702,351.413414149035873,15.2880000000000003,0,6.74800040357369824,0.0704388577932074655,-4.95691533004770347e-09,0.00419875881180079014,3.54921704709817708e-05,-0.000266796239613409543
0.74,31.2221706502061167,131.010425558108608,12.3369200905911693,-9.11931749182058127,-0.000927180461664739962,24.1756528332491207,0.00125061647038066147,4.25720688099189637,294.482813471059444,24.2427200054437186,11.3436479708475151,70.005666942134738,0.00125241217171641762,113.701354454937942,359.548788680447558,15.2880000000000003,0,6.76984109628022868,0.0712505389813004736,-6.32718413283740451e-09,0.00452071963846297897,3.54555216060409916e-05,-0.000290556875430871431
0.75,31.2221702441297566,131.010426657004501,12.5763279811209134,-8.95905989956994731,-0.000884704231526379386,28.2451417975256511,0.00126658974994639409,4.27201655132694835,330.246885564414924,24.5307395965800055,11.4859562443447842,70.0083419864467231,0.00130837409241996616,113.701414582365317,368.134431511790694,15.2880000000000003,0,6.79157100758071675,0.072097237371691214,-7.76386566495712973e-09,0.00484670617603069533,3.54192311145727862e-05,-0.000315202451501161486
0.76,31.2221698331692572,131.010427769087215,12.8182893388465846,-8.80926834826809291,-0.00084353606694536655,30.4123925565132609,0.00128162905558247943,4.28616169531314206,349.270324209861712,24.7985274136461697,11.6212220447807173,70.0112049028486894,0.00136431322790244781,113.701474694962783,376.206978844208493,15.2880000000000003,0,6.81318886103908472,0.0728844799421310974,-9.2649197532989789e-09,0.00517690717386754765,3.5383323536337759e-05,-0.000340344260506966767
0.77,31.2221694172677502,131.01042889451125,13.0628475096428041,-8.66396067037168471,-0.000803053310453619162,28.4246728619907074,0.00129635227735817936,4.30020883938424525,331.76876669607077,25.061019705979092,11.7546196763486481,70.0142581763793146,0.00142021650382646186,113.701534773262622,384.204404729085581,15.2880000000000003,0,6.83466751160117347,0.0736561650361305525,-1.08283233412173792e-08,0.0055114050482311331,3.53478370929353997e-05,-0.000366161795666303128
0.78,31.2221689964814395,131.010430033123555,13.3099581442546935,-8.5151378734711507,-0.000762518473191731031,23.3179333347054616,0.00131170888315472098,4.31506052613983737,286.873437812889904,25.3413646784076612,11.8941500589833282,70.0175041589445897,0.00147609402128274299,113.701594830688506,392.838962137153999,15.2880000000000003,0,6.85604275586155598,0.0744803270077907115,-1.24521566786817291e-08,0.0058500773439318773,3.53128313538215625e-05,-0.000393000644117851244
0.79,31.2221685708883356,131.01043118471199,13.5595600227588093,-8.36566441439616426,-0.000722235188361807596,33.196043353631822,0.00132738740695449654,4.33043937993457106,373.620332315953419,25.6321392931142213,12.0372353888941213,70.020945209057146,0.00153195611345281497,113.701654880922689,401.89615992738868,15.2880000000000003,0,6.87731020962776363,0.0753351493433188912,-1.41345520778842328e-08,0.00619280030452573453,3.52783659988119291e-05,-0.000420787835006526157
0.8,31.222168140279944,131.010432349843228,13.8118144357998567,-8.23060035855671224,-0.000683454014088719455,33.6334360432321873,0.00134148470543226056,4.3445368376927016,377.42502064505743,25.8869082631416703,12.1678485604190101,70.0245838637498252,0.00158778974605703845,113.701714904657692,409.915175128550459,15.2880000000000003,0,6.89848645339835276,0.0760841546636515376,-1.58731932328576005e-08,0.00653994583555321963,3.52444580778080497e-05,-0.000448781619071758468
0.81,31.2221677047478394,131.010433528268237,14.06664982014712,-8.09058572305954904,-0.000644531111852075832,21.8485781358087614,0.00135639877222157312,4.35962909602038451,273.937492693991885,26.1643510841271301,12.3062464069096311,70.0284224462144067,0.00164361349467591084,113.701774927239882,418.738540156500164,15.2880000000000003,0,6.91954161530936496,0.0768998073419923239,-1.76662673669647258e-08,0.00689130692293844251,3.52111788144102448e-05,-0.000477949110174746904
0.82,31.2221672644632484,131.010434719521214,14.3239327369085352,-7.95009803892579914,-0.00060588661764724534,28.0925509373165703,0.0013715870990106474,4.37521425683741239,328.725004432770049,26.4513308701957293,12.4478787819220695,70.0324633951180289,0.00169941414532789989,113.701834928477552,427.964084721279562,15.2880000000000003,0,6.94046329036584364,0.0777434970921696139,-1.95121351746929846e-08,0.00724659861467162776,3.51786046147321149e-05,-0.000508090530256623328
0.83,31.2221668194073132,131.010435923653461,14.5836775354348553,-7.82543334944062252,-0.000568714586159645564,35.7273998344941788,0.00138483173889858099,4.38913585594067168,395.68750322465047,26.6932471112312157,12.5739251932732046,70.0367089855901241,0.00175521063013092931,113.701894934291218,435.817082114575214,15.2880000000000003,0,6.96128083755370497,0.0784547466052973735,-2.14087222239008783e-08,0.00760588223045658828,3.51467836182829793e-05,-0.000538145280917326474
0.84,31.2221663694786002,131.01043714094061,14.84596298473231,-7.70018590503489442,-0.000531731227274591422,22.0238976944296532,0.00139829331033426382,4.40348209724564654,275.459374825645227,26.9433203468911557,12.7027429299897729,70.0411614823004953,0.00181099835407051387,113.701954937086896,444.009973044641697,15.2880000000000003,0,6.98199576304148639,0.0791899770416949339,-2.33538049563639257e-08,0.00796926702229734142,3.51157635276951147e-05,-0.00056912424480263298
0.85,31.2221659149481781,131.01043837064546,15.1105783392724788,-7.56647191611691294,-0.000494466619809914051,24.0204431416012483,0.00141311857268473329,4.41939957959863872,292.960932339393764,27.2301306970503347,12.844155122178325,70.0458231036373178,0.00186677204933081617,113.702014927738503,453.501690925272214,15.2880000000000003,0,7.00259118377965706,0.0800331894852500947,-2.53461202588651331e-08,0.00833626189249929254,3.50856363835472861e-05,-0.000601655142168605757
0.86,31.222165455651254,131.010439613216022,15.3776517175175087,-7.44278748492238407,-0.00045815133642039611,30.0978028822918624,0.0014266782502829463,4.43430250021940164,346.226561946558718,27.4886158030783321,12.9757592314945089,70.0506960406139285,0.0019225513523384839,113.702074933236503,462.140534911718191,15.2880000000000003,0,7.02308158717428554,0.0807931570744501726,-2.73831589872567554e-08,0.0087071834346568143,3.50564366309817955e-05,-0.000634374888342339733
0.87,31.2221649916075421,131.010440868598721,15.6471679703319353,-7.32468821246409973,-0.000422434868375857293,28.0161605256484627,0.00143954755362726405,4.4487447546013783,327.964078366998024,27.7329784566819448,13.1024525848053894,70.0557825291926974,0.00197833185371046978,113.702134945945346,470.381364369016012,15.2880000000000003,0,7.04346598648043187,0.0815116233641250132,-2.94630036771723893e-08,0.0090819739127434157,3.50282281532453578e-05,-0.00066754560548995263
0.88,31.2221645228475992,131.010442136710338,15.9191036156565815,-7.20337538224342211,-0.00038680321478653482,24.1963014502681553,0.00145302395913913824,4.46402413193563952,294.482813471041823,27.9956863501094695,13.2353970994462227,70.0610847108846997,0.00203411696133125623,113.702194969321553,479.322676111220403,15.2880000000000003,0,7.06371234878016452,0.0822840160044650687,-3.1583875706223775e-08,0.00946051455749562925,3.50010795537734123e-05,-0.000701937932891452481
0.89,31.2221640494446468,131.010443417351752,16.1934020187353553,-7.07920427383092399,-0.00035132915428533689,26.5426684793486771,0.00146710208746806672,4.48015880213066353,315.028134248086985,28.2768483648779174,13.3746180786829232,70.0666047159940888,0.00208991020299191099,113.702255006883746,488.98586144165921,15.2880000000000003,0,7.08384765412325113,0.0831106555240563177,-3.37440576822590284e-08,0.00984268242148493913,3.497505982372621e-05,-0.000737608426974081257
0.9,31.2221635713262593,131.010444710719781,16.4701199239834359,-6.96907002774836037,-0.000316823593317776676,29.3245527391483165,0.00147909198759958011,4.49441234926295863,339.378142354214447,28.5089011241902419,13.496907240743802,70.0723447391669652,0.00214571522830197137,113.702315062483265,497.031267143301932,15.2880000000000003,0,7.10388030157655592,0.0837929612196654516,-3.59412859814364218e-08,0.0102286121418599992,3.49502253418305724e-05,-0.000772799871630127462
0.91,31.2221630885558099,131.010446016642078,16.7492086318852245,-6.8558306334785577,-0.000282427774713336801,22.2851943654839175,0.00149167851650963234,4.50951153477251321,277.742181023078899,28.7593889465329795,13.6254670502957946,70.0783067493242555,0.00220154407550605556,113.702375151688514,505.790214310774331,15.2880000000000003,0,7.12380430352416649,0.0845294576850116608,-3.81739500962319017e-08,0.0106181344158327064,3.49266509690923283e-05,-0.000809256292710977586
0.92,31.2221626013180114,131.010447334616401,17.0305249020744078,-6.73979064689544405,-0.000248219475762694801,26.5454558062940258,0.00150484956595667665,4.52545859639886405,315.028134248062145,29.0282572818474485,13.7602594682875683,70.084492809668177,0.00225738575568856965,113.702435257004808,515.27765268518931,15.2880000000000003,0,7.14361013363863684,0.0853199850195085208,-4.0441044335740023e-08,0.0110108805457957599,3.49044188888680265e-05,-0.000847011863437563037
0.93,31.2221621095270088,131.010448664876122,17.3141363638583172,-6.63598678085004945,-0.000214729367886034689,31.5905024784836215,0.00151605097759989742,4.53959774116987269,359.162507065472823,29.2507330258236031,13.8790703986853234,70.0909048568690167,0.00231325107941012659,113.702495392361271,523.191957157880665,15.2880000000000003,0,7.16330822150661994,0.0859741618528470225,-4.27400992054354661e-08,0.011407031723299571,3.48835878766514299e-05,-0.000884186851648002684
0.94,31.2221616130795994,131.010450007701849,17.6001245066545025,-6.52436552792722946,-0.000181246006625267289,22.8927765121900357,0.0015286822524221567,4.55548336877915183,283.068750483778672,29.5133501366283966,14.0115760900065069,70.0975447015314614,0.00236915442572217761,113.702555576743208,532.614079728570232,15.2880000000000003,0,7.18289838845440354,0.086746329642071629,-4.50689506540720875e-08,0.0118066620431368178,3.48642259657198602e-05,-0.000923354271797045953
0.95,31.2221611122413414,131.010451362371469,17.8882831064889061,-6.41573192476129073,-0.000148156929751926011,29.6798732129554246,0.00154089479507619597,4.57118094715614909,342.421873617487279,29.7691729225842145,14.1416694718616043,70.1044143371074568,0.00242508986436247966,113.702615799600423,541.872537171219051,15.2880000000000003,0,7.20237268387311236,0.0874985344553519673,-4.74270275136319487e-08,0.0122093180110302325,3.48464181788898906e-05,-0.000963094440500193347
0.96,31.2221606067397488,131.010452729625939,18.1788258485657899,-6.31369299004375684,-0.00011548375801275847,29.0717172514194253,0.00155199650612654924,4.58595699497129861,337.095335156783449,30.0004440084872819,14.2632845158246742,70.1115156637991532,0.0024810554557303582,113.702676056789173,550.309296283014532,15.2880000000000003,0,7.22174670650333006,0.0881785831322940833,-4.9810979255073012e-08,0.0126154611881375018,3.4830224605500489e-05,-0.00100283480115094916
0.97,31.2221600965917112,131.010454109419328,18.4717407956680262,-6.21070156961241082,-8.3046089443982837e-05,18.5375857723968167,0.00156333196051075931,4.60124308957732264,245.021887192993233,30.2417502222853756,14.3882633585550845,70.1188505026349986,0.00253707182915972234,113.702736375863211,559.181907267419547,15.2880000000000003,0,7.24101858544556354,0.0888881344204063145,-5.22191718667132127e-08,0.0130250113617166197,3.48157252726947301e-05,-0.00104368970061121183
0.98,31.2221595820613018,131.010455501033618,18.7668230135174277,-6.10089677921315854,-5.08395952330564465e-05,27.0705050233435003,0.00157604110539694229,4.61828821264935474,319.593746642958081,30.5228581833855266,14.5267645698906378,70.1264207184807304,0.00259313531319373212,113.702796749331881,569.609673780745538,15.2880000000000003,0,7.26017511316797126,0.0897146803583664942,-5.46516398801816803e-08,0.0134374242381216525,3.48030069696635941e-05,-0.00108671405535417645
0.99,31.2221590630104586,131.010456904844204,19.0641815896021356,-6.00661760657558119,-1.90457573421360473e-05,29.5967980805090249,0.00158583746675756152,4.63242154943718365,341.660948551705417,30.7327026489379449,14.6408187361263131,70.1342281609924356,0.00264925253739836707,113.70285718489724,577.452230829506789,15.2880000000000003,0,7.27923115893381656,0.0903317713323957411,-5.71054131708167902e-08,0.0138529998682728386,3.47921429935718325e-05,-0.0011279925661952597
1,31.2221585394369932,131.010458320857055,19.3638198935613133,-5.90575251727828388,1.25165107457431179e-05,26.460627682420256,0.00159695565864659251,4.64827300355668616,314.26720818227642,30.9813075489836436,14.7680369343561146,70.1422744537471061,0.00270542878702557726,113.702917688101181,586.815454475290835,15.2880000000000003,0,7.29818092313027478,0.091062796631720927,-5.95791336351119078e-08,0.0142716082208186133,3.478321727259613e-05,-0.00117144475734846454
1.01,31.2221580115052504,131.010459748625351,19.6656109825949521,-5.80763881023044082,4.37889517071173714e-05,27.680582966576651,0.00160757691460196566,4.66384212228090345,324.920316103697928,31.2214682779494659,14.8922774177854542,70.1505612982603566,0.00276167360618335229,113.702978270248678,595.931188324822187,15.2880000000000003,0,7.31702173987212934,0.0917690092213976211,-6.20720847108984094e-08,0.0146929490949772919,3.47763125823502968e-05,-0.0012153429996536306
1.02,31.2221574791442222,131.010461188342191,19.9696121056925406,-5.71288150273360884,7.48142568881210782e-05,23.0598176161459563,0.00161754514372634958,4.67894982284740735,284.590631615404163,31.4490922594703406,15.0121493267338497,70.1590903439912665,0.00281798034841113012,113.703038919864539,604.634629824658987,15.2880000000000003,0,7.33575836935650649,0.0924383796412904246,-6.45820998377000775e-08,0.0151171027487109026,3.47715129035023674e-05,-0.00125950694234200247
1.03,31.2221569424156407,131.010462639839773,20.2757768462345034,-5.61430061107470202,0.000105497097385236861,18.7853560144765659,0.00162834557846646853,4.69527461459001305,247.30469339049705,31.7034779178349346,15.1410521794532862,70.1678630175799043,0.00287437161056562423,113.703099666872674,614.437668327540791,15.2880000000000003,0,7.35438741849010391,0.0931864178496307205,-6.71081152591273514e-08,0.0155438820420694002,3.4768903361036945e-05,-0.00130550191947788525
1.04,31.2221564013747219,131.010464102968029,20.5840637862027052,-5.52191327342792082,0.000135999937753757198,30.0351736953258666,0.00163786213161937156,4.71042458316112977,345.465636880722968,31.9287874774261269,15.2599417535861335,70.1768809780700735,0.00293083551234646703,113.703160492042315,623.183591919237642,15.2880000000000003,0,7.37291165328125775,0.0938489994493950513,-6.9648761799702755e-08,0.0159731819720809742,3.47685693681553485e-05,-0.00135105217585825585
1.05,31.2221558557623204,131.010465578431763,20.8946780568036523,-5.42677087872893793,0.000166159316845888915,17.9948077943139069,0.00164799386554339384,4.72657284529809552,240.456258798199826,32.1755699206329169,15.3860545515800844,70.1861455969070249,0.00298739701184113065,113.703221428978637,632.835301659748666,15.2880000000000003,0,7.39134151638483683,0.094574704090719261,-7.22004870567949267e-08,0.016405407979150452,3.47706120410511146e-05,-0.00139829428436914348
1.06,31.2221553057929668,131.010467065647561,21.2074536161522715,-5.32961409870462788,0.00019592601815067513,25.7591950086328687,0.00165861524995524834,4.74360387913864834,308.179683655939243,32.4408596578748387,15.5183573274856155,70.1956585215399542,0.00304404518856852624,113.70328245946088,643.294535819240878,15.2880000000000003,0,7.40966909723762956,0.0953548154307629625,-7.47636556564679905e-08,0.0168401036295145572,3.47751158544749647e-05,-0.00144713606175914003
1.07,31.2221547513611242,131.010468564902624,21.5224752831418762,-5.24140882126548924,0.000225722961884829441,30.384820166357855,0.00166723263941512354,4.75860307888555489,348.509368144030759,32.6577776836360201,15.6340969277528821,70.2054212600495759,0.00310080237097543586,113.703343612971111,651.906438001452784,15.2880000000000003,0,7.42790517210655299,0.095992753155822827,-7.73355019670651539e-08,0.0172774819420511046,3.47821843918849871e-05,-0.00149460416249588422
1.08,31.2221541923756618,131.01047007644479,21.8398170155101852,-5.15274005009213276,0.000255246072098753388,20.3431430581980415,0.00167593659483887417,4.77400901773603525,261.001578574662346,32.8824861650198912,15.7523915085756983,70.2154353191300089,0.00315765852200354307,113.703404872854989,660.888306963768969,15.2880000000000003,0,7.44605096959874047,0.0966535969324005401,-7.99140457258003918e-08,0.0177176029794351465,3.47919244910112305e-05,-0.00154317608956443361
1.09,31.2221536290851809,131.010471599598105,22.1592861199740803,-5.05733969013981799,0.000284108340782233309,18.6807410746525839,0.00168623758723355902,4.79163271274634983,246.543753324744074,33.1563702501355948,15.8872799706323775,70.2257020558754874,0.00321462864899431724,113.70346625753885,671.922850706458576,15.2880000000000003,0,7.46409564020418337,0.0974589933010062276,-8.25004561426018255e-08,0.0181599024192833913,3.48044157206957972e-05,-0.00159482501374354972
1.1,31.2221530615581031,131.010473134176578,22.4808312362779823,-4.96726606767012324,0.000312912083922328439,37.8109377638886883,0.00169529061927752066,4.80809561409374986,413.189061738584087,33.4023735984472268,16.0125709857090293,70.2362227834657773,0.00327172974281352306,113.703527788442813,681.909427662048529,15.2880000000000003,0,7.482042818649699,0.0981824455522658096,-8.50935522493077867e-08,0.0186042554552261589,3.48197534195405006e-05,-0.00164592013354083262
1.11,31.2221524894324638,131.010474681164766,22.8047394397852514,-4.88624741142296859,0.000342029600449876602,27.5877215699063498,0.00170209014364233226,4.82214813772856665,324.159391037639693,33.5925855213606113,16.1188269010092498,70.2469989508199717,0.00332894961863679489,113.703589446029795,689.676435565863585,15.2880000000000003,0,7.49990997161905515,0.0987419125979008272,-8.7688172744847633e-08,0.0190513158915929168,3.48380857057303554e-05,-0.00169501689821872025
1.12,31.2221519127654581,131.010476240407257,23.1309688785903944,-4.79169977316820095,0.000369897951423245525,10.1915316200874457,0.00171224316421911748,4.84065436152516959,172.73281794065943,33.8815978138058682,16.2584823129663398,70.2580317189713668,0.00338630521536247573,113.703651251521507,701.572700884037886,15.2880000000000003,0,7.51768921691836134,0.0995918008192133164,-9.02842809742500428e-08,0.0195008164212643192,3.48595166672031745e-05,-0.00174988170523692746
1.13,31.2221513320880923,131.010477810460003,23.4591041621975975,-4.70619151286095061,0.000398082565043133879,32.5692218762129286,0.00172011131498163937,4.85668090672040975,367.532807790070478,34.1139957205843416,16.3788018301176663,70.2693224788394701,0.00344381575536691987,113.703713228581265,711.207632676306844,15.2880000000000003,0,7.53536859981531659,0.100275284130180969,-9.28856083829959886e-08,0.0199517507470487049,3.48840852296867726e-05,-0.0018025691197532587
1.14,31.2221507468064203,131.010479392938436,23.7896159640592515,-4.62708559113426077,0.000426556378009445929,17.8764839505169206,0.00172625273108877866,4.87088949040932384,239.695317731955441,34.3047746940593896,16.4849202355157267,70.2808723659835266,0.00350146659655127057,113.703775354315795,719.161753472170858,15.2880000000000003,0,7.55297199723394819,0.100836439324812691,-9.54842714541667714e-08,0.0204051912199153043,3.49119942141095163e-05,-0.00185378676948814015
1.15,31.2221501573577989,131.010480986653334,24.1221631195733401,-4.53490613115885211,0.00045348892486718527,17.6098239649526356,0.00173582104875543396,4.8897602430716729,237.412511535467729,34.5985316443121675,16.6257606207199018,70.2926822694118698,0.0035592809546454501,113.703837658092326,731.507701826721359,15.2880000000000003,0,7.57047773886969555,0.101700298592273697,-9.80847632261601875e-08,0.0208601075084737762,3.49432812375588157e-05,-0.00191128246577459428
1.16,31.2221495638656314,131.010482591269152,24.4566509904462883,-4.45892158505746927,0.000481701491974625984,46.6566384634591174,0.00174098345993812663,4.90338122127610809,490.043774384589426,34.7751496429497067,16.7268353994668892,70.3047533844034831,0.0036172633655325733,113.703900143051328,738.971397221287702,15.2880000000000003,0,7.58789343481966494,0.102219842402874475,-1.00685980088307538e-07,0.0213163324937932601,3.49780453086015323e-05,-0.00196299053285153629
1.17,31.2221489655523747,131.010484208900778,24.7936966965032539,-4.37659087836593574,0.000509000907253250728,7.97443901916506981,0.00174777873264818557,4.91944936573879321,153.709379294867944,35.0051813989000493,16.8458653254026665,70.3170865070310782,0.00367542227334739877,113.703962819139505,748.75583261442705,15.2880000000000003,0,7.60521545376698427,0.102896400813119959,-1.03278181016191751e-07,0.0217752332223570544,3.50165624697081166e-05,-0.00201844908592741217
1.18,31.222148363446447,131.010485836751343,25.1324918667037736,-4.28591544727069884,0.000534911687168860119,22.4999708991709184,0.00175690133842840678,4.93891552815525614,280.025018221967457,35.3094892029343725,16.9898131912906365,70.3296825695725261,0.00373376645951870294,113.704025694095336,761.805826304548532,15.2880000000000003,0,7.62243006078419594,0.103791298872623672,-1.05873216427798596e-07,0.0222346277330867197,3.50587274107357739e-05,-0.00207888188752807868
1.19,31.2221477570862795,131.010487476076378,25.4734040346249166,-4.21651509715924799,0.000563167734461503819,39.5727684592268432,0.00175986779682170023,4.95068716693423205,428.407813052929214,35.4446032413621595,17.0765166018203658,70.3425425324911799,0.00379230497534947114,113.70408877805248,767.622041495624671,15.2880000000000003,0,7.63956917749934838,0.104188863816794763,-1.08462232831227422e-07,0.0226955535766717974,3.51047853511573648e-05,-0.00213002742643279321
1.2,31.2221471460777629,131.010489127948006,25.8167491337574653,-4.13177946083244763,0.000589130710579247019,3.74944578878655532,0.00176717273693826043,4.96857708403031939,117.184374136023607,35.7129168378862047,17.2080368641221604,70.3556669012348692,0.00385104689660173242,113.704152081073829,779.262036833346883,15.2880000000000003,0,7.65663496920184716,0.104977974254148093,-1.11040865054144657e-07,0.0231585093951062714,3.51549538640786953e-05,-0.0021898577129859792
1.21,31.2221465314482813,131.010490789572145,26.1617177741016178,-4.04886927272179076,0.000614917662770934469,31.6900496117741923,0.00177390884262708251,4.98609804210197982,359.923432132008998,35.9731991328288885,17.336664003184044,70.3690565419152136,0.00391000179251093337,113.704215611723029,790.63603892679896,15.2880000000000003,0,7.67359833343205811,0.105743484675883875,-1.13620953009196393e-07,0.0236213926490276491,3.5209085102062944e-05,-0.00224983226912686251
1.22,31.2221459124189771,131.010492463067294,26.5089301495558765,-3.98010616839666698,0.000642581623178381653,22.8377913704464071,0.00177624621273187551,4.99804624791081231,283.068750482576149,36.1126772495585513,17.4244790412852524,70.3827119909133359,0.00396917931126871369,113.704279381206831,796.752382574475973,15.2880000000000003,0,7.69049450215780261,0.106153897590651122,-1.161895137532319e-07,0.0240857964045927443,3.52675473988685494e-05,-0.00230288257318093936
1.23,31.222145289304553,131.010494147577816,26.8581415004786237,-3.89772820305950907,0.000667759408052489558,8.63394623735210054,0.00178263914041933776,5.01590989413381294,159.796873822227951,36.3802626510406668,17.5552653661365241,70.3966334708151891,0.0040285891981128993,113.704343399281768,808.576452573394135,15.2880000000000003,0,7.70730356711985642,0.106940891397345819,-1.18751503025967887e-07,0.0245508083397828029,3.53303604832217122e-05,-0.00236465699626702778
1.24,31.2221446625388239,131.010495841923898,27.2090113829127667,-3.82113370610763603,0.000693525252588126913,38.4375597427885367,0.00178713975808393838,5.03154618517143781,418.515630199805003,36.6006126294187339,17.6699822445723527,70.4108214405181343,0.00408824164406061414,113.704407676001679,818.373392599446447,15.2880000000000003,0,7.72400165543526196,0.10758904290893205,-1.21310913837194761e-07,0.0250155248730545461,3.53975140719503932e-05,-0.00242392882763062169
1.25,31.2221440314027241,131.010497548061636,27.5621146066429965,-3.75246979025145366,0.000720485371505087202,18.3549485879219141,0.00178893903816094925,5.04378259731808587,244.260946125734876,36.7487148145655667,17.7602945486090604,70.4252760719711688,0.00414814693763587705,113.704472223156245,824.981806407921681,15.2880000000000003,0,7.74061190900522611,0.108024826004906094,-1.23855365763291426e-07,0.0254813657060773691,3.54694094085971072e-05,-0.00247897424314992175
1.26,31.2221433963786161,131.010499264679311,27.9170729093930881,-3.67033230472921401,0.000744519423825874913,10.6303169238717459,0.00179497902209529753,5.06241507489140474,177.298446336408631,37.0342511830542591,17.8965853001353317,70.4399973503212209,0.00420831554485554416,113.704537051015848,837.823209536369063,15.2880000000000003,0,7.75713224058629791,0.108864611647328677,-1.26392636668388764e-07,0.0259470763789079115,3.55459854343220599e-05,-0.00254380810948373354
1.27,31.222142757626397,131.010500991342099,28.2737628213913723,-3.60042011333122236,0.000770647846964233403,36.9460705188517551,0.00179686671876924621,5.07551955005733202,405.579686079964688,37.203061818872051,17.9935376315648128,70.4549855986523283,0.00426875850211843981,113.704602170905233,845.449629427132095,15.2880000000000003,0,7.77357096363059785,0.109361281831489077,-1.28921942113122861e-07,0.0264124011870623884,3.5627340141138999e-05,-0.00260114185586129585
