Time,Latitude,Longitude,Altitude,Angle of Attack,Angle of Sideslip,X-Acceleration,Y-Acceleration,Z-Acceleration,Thrust,True Velocity,Ground Velocity,Pitch,Roll,Yaw,Dynamic Pressure,cp,cg,parachute_deploy_gain,Wind Speed,Wind Direction,Mach,omega_x,omega_y,omega_z,Cmq,Angle of Attack(total),Angle of Attack(gust),True Velocity(gust),Acceleration
0.0,31.222216000000007,131.010392,3.000000004412624,0.0,0.0,0.0,0.0,0.0,2.2828121974499247,0.0,0.0,69.99999999623412,0.0,119.9999999935444,0.0,1.274,1.0271675151847728,0.0,0.0,0.0,0.0,0.0,0.0,0.0,-0.0,0.0,90.0,0.0,0.0
0.01,31.22221599999084,131.01039200000497,3.000002745347096,0.0,0.0,0.0,0.0,0.0,34.242186961749226,3.465174813755316e-14,2.8705476994166025e-14,69.9999999962611,-2.1713911667908447e-11,119.99999999352175,7.352495975525499e-28,1.274,1.0271659134330349,0.0,0.0,0.0,1.0183245502395064e-16,-3.3305335486039093e-18,7.169286865560398e-18,5.624298769768554e-18,-7.715917190115602e-34,0.0,89.99999999999979,3.465174813755316e-14,0.0
0.02,31.222215999994315,131.0103920000094,3.0000030495639742,0.0,0.0,0.0,0.0,0.0,25.871876237766216,3.8197434737535036e-11,2.4171837235633357e-11,69.99999999628672,-1.1921727947863515e-11,119.99999999353136,8.93414285188691e-22,1.274,1.027164492361118,0.0,0.0,0.0,1.1225230367947217e-13,-6.657678965418802e-18,1.4338573731120796e-17,1.1241821275959074e-17,-1.7010872994127372e-30,0.0,89.99999999975682,3.8197434737535036e-11,0.0
0.03,31.222215999994315,131.0103920000094,3.0000030495639742,0.0,0.0,9.81877837424427,-2.5122800045972096e-05,3.3498614629347925,180.34219359854663,1.2659015405517447e-10,1.1364406173918436e-10,69.99999999631459,-1.6431898037347223e-11,119.99999999352724,9.812605835254651e-21,1.274,1.0271551940870716,0.0,0.0,0.0,3.720154642239108e-13,-9.991600645811728e-18,2.150108433310316e-17,1.6859343782149594e-17,-8.453698244545225e-30,0.0,89.99999999919412,1.2659015405517447e-10,10.374487003414373
0.04,31.222215999994315,131.0103920000094,3.0000030495639742,18.83801224594347,-0.0001111777826462,48.68248476615645,-1.016330065874988e-05,3.3497854396877287,548.635972453808,0.1556173050466994,0.0975908358443652,69.99999999633813,-2.0932768807056278e-11,119.99999999352085,0.0148286043323172,1.274,1.027133720825283,0.0,0.0,0.0,0.0004573186944143,-1.3322134194415637e-17,-1.04744143520903e-11,1.336824254131964e-11,5.0626055458604615e-15,18.83801224625964,89.06236267790787,0.1555998412814392,48.79759610369246
0.05,31.22221599164764,131.01039201704114,3.002326315126219,5.772385609593056,-4.395076213712875e-06,71.20344550265034,4.905512691849684e-05,3.349217396035405,761.6984298824663,0.8326471944351852,0.3620326097059287,70.00000001316391,-1.0866255162484559e-10,120.00000000231074,0.4245281043148827,1.274,1.027093426565204,0.0,0.0,0.0,0.0024469331205246,-5.0245994431125096e-18,-7.32924164976824e-07,2.217344936947165e-11,1.895424184525467e-09,5.772385609594774,84.74112356985832,0.8326465040582279,71.28217104309611
0.06,31.22221596664444,131.01039206837547,3.015081730143309,4.056581213689704,3.169093567502233e-05,53.16249142470188,0.0001203825427859,3.3481235983850643,590.4875390737236,1.657216205300742,0.6755452977614796,69.99999964391398,-3.9285905645317736e-10,120.0000000287861,1.6816755551786196,1.274,1.027050317124926,0.0,0.0,0.0,0.0048701272653724,3.095757869075056e-13,-7.483541766772344e-06,3.074135420506017e-11,3.8518749565858254e-08,4.056581213813337,79.59316473687034,1.657221183301277,53.26781792157489
0.07,31.22221592883117,131.0103921460222,3.034593611434361,4.115662018628709,6.450869598349036e-05,81.18203554989698,0.0001593212642178,3.347059402768047,855.2937749779172,2.099899704220947,0.8579771146174259,69.99999543281565,-8.233801910783518e-10,120.00000006883089,2.700101932075157,1.274,1.027003201295312,0.0,0.0,0.0,0.006171060252819,3.4704292086287e-12,-2.6327204536316785e-05,1.9541142932033486e-10,1.7170712165327165e-07,4.115662019133419,76.90111966094352,2.099909837223217,81.2510043180746
0.08,31.22221588914193,131.01039222747755,3.0542761843835606,3.459696193892355,8.037433511260004e-05,16.298214211652088,0.0002413456836072,3.344878926597744,241.2171988638792,3.051964775152957,1.2149999716613011,69.99998042886442,-1.0128995578004475e-09,120.00000011111383,5.703497661025892,1.274,1.0269597189470347,0.0,0.0,0.0,0.0089689344021769,1.458982438104473e-11,-5.702803872814215e-05,7.043261397829576e-10,5.405702492731987e-07,3.459696194824858,71.30331929508368,3.051977400323993,16.63790856991177
0.09,31.2222158241468,131.01039236098703,3.0886872184095737,4.313676956300389,0.0001337561018991,50.35975918308536,0.0002293282821279,3.344215841840564,563.0937377043203,2.893161298572128,1.191209213966114,69.99994788602814,-7.098432023887522e-10,120.00000018106356,5.125380275808925,1.274,1.026918932011013,0.0,0.0,0.0,0.0085022553945842,3.8672912027154325e-11,-0.0001115933708951,2.016054215232918e-09,1.0027525988343615e-06,4.313676958370176,72.2316578138625,2.893182308931483,50.47067588835877
0.1,31.2222157788302,131.01039245392113,3.109877853389092,4.035124630954496,0.0001457499816535,47.804664812504015,0.0002878217657545,3.341734392237128,538.7437595981891,3.5677148583138303,1.4531247507621967,69.99988403958329,1.9248461973355822e-09,120.0000002323013,7.7939962029572305,1.274,1.0268846934974103,0.0,0.0,0.0,0.0104845969583028,8.579678749070606e-11,-0.0001726817043215,3.984565639703107e-09,1.913455350430327e-06,4.0351246335824245,68.43243098813296,3.567737752667411,47.92132267234452
0.11,31.222215703308,131.01039260899836,3.148841432727305,4.043401107254707,0.0001752764476999,37.67622367577205,0.0003286462930162,3.3392563999062723,442.86563930529127,4.034183355956686,1.6436552022667772,69.99978525353545,7.302513231814865e-09,120.00000031883242,9.96528118825134,1.274,1.026848594915519,0.0,0.0,0.0,0.0118554331868328,1.5870341853361987e-10,-0.0002596204409236,7.232030302688121e-09,3.252930323390323e-06,4.04340111104746,65.92012987243639,4.034210888316708,37.82391391539392
0.12,31.222215627491828,131.01039276462643,3.186995101203875,4.17874459224363,0.0002066711490009,41.15991989399172,0.0003576945202315,3.336766085769504,475.58594813540793,4.361857560629481,1.7865750500940407,69.99963665601238,1.781774420198147e-08,120.00000041104812,11.649831899889556,1.274,1.0268114448194128,0.0,0.0,0.0,0.0128183893919737,2.682972478760441e-10,-0.0003710216542429,1.2215991071490164e-08,5.026311388647148e-06,4.178744597345269,64.21681651392016,4.361890024457652,41.29495143136631
0.13,31.22221554594398,131.01039293200228,3.2277173449026786,4.202734874672792,0.0002327160860324,45.44886120763352,0.0003953741266062,3.333578629398489,515.9156326236897,4.792165672014363,1.9646716520715424,69.99942424225341,3.613383418913551e-08,120.00000051758742,14.061726603124043,1.274,1.026779572895131,0.0,0.0,0.0,0.0140829618979635,4.248908088871395e-10,-0.0005056103199642,1.908859219307828e-08,7.5253154423526356e-06,4.202734881104192,62.048594618540655,4.792202226971676,45.570952718869485
0.14,31.222215454191247,131.01039312033683,3.2737880595608355,4.184830647080848,0.000257138757548,42.32232525579263,0.0004369426767266,3.329727443445437,486.2390860568421,5.269261304374574,2.158791628597544,69.99913473613935,6.515851355725497e-08,120.00000064630268,17.000925061330125,1.274,1.0267449573927567,0.0,0.0,0.0,0.0154850332441425,6.382432869666793e-10,-0.0006690086306358,2.8426433029675884e-08,1.0948547100483978e-05,4.184830654966803,59.74181173116622,5.269301695636157,42.45310707234106
0.15,31.222215353826755,131.0103933263496,3.3242182719560263,4.21963947489699,0.0002846467688673,40.886944113003565,0.0004726792395108,3.325585650885676,472.5421858721398,5.6781946837482895,2.329510773545807,69.99875162806286,1.0876776246115984e-07,120.00000079954532,19.742017654108928,1.274,1.0267115958081523,0.0,0.0,0.0,0.0166867950518804,9.204756288136623e-10,-0.000865746478554,4.08948221429571e-08,1.526771148078443e-05,4.219639484480408,57.84996018384879,5.678239395958187,41.02196629910223
0.16,31.222215247130432,131.01039354534575,3.3775922280208457,4.253495568077899,0.0003118339050386,32.26872905470846,0.0005078415214353,3.32090791922544,391.1218908297597,6.081244877834229,2.4981889727471702,69.99825581174558,1.7187028096464329e-07,120.0000009800088,22.644030778355887,1.274,1.026675762255412,0.0,0.0,0.0,0.0178712695992133,1.2856146928958252e-09,-0.0010961187242953,5.6923362293832417e-08,2.0702404729358337e-05,4.253495579487569,56.06022383757386,6.081293860589489,32.43916312841722
0.17,31.22221513260033,131.01039378041813,3.4348437275053194,4.364838523348639,0.0003448792023946,40.840448242802736,0.0005326487904353,3.3162727284953744,471.78125980632416,6.362544479165355,2.6250789114832647,69.99762801982864,2.5997588617291615e-07,120.00000119506798,24.78723182122683,1.274,1.0266409836796937,0.0,0.0,0.0,0.0186979513961862,1.747791994374917e-09,-0.0013624931601664,7.706724512977917e-08,2.6923621797558364e-05,4.364838536947241,54.85936171416122,6.362598652663785,40.97486885600156
0.18,31.222215014088988,131.01039402363364,3.4935801365785646,4.353948305387995,0.0003681615230806,33.992183768165326,0.0005718025428208,3.310131992647221,407.1015672119096,6.81502088160835,2.810667639293692,69.99684761766231,3.794979223522764e-07,120.00000144728236,28.437950785509614,1.274,1.0266048342046536,0.0,0.0,0.0,0.020027681385988,2.3221419748804155e-09,-0.0016616990447559,1.0147209890543081e-07,3.517105786247627e-05,4.353948320923495,52.99157233768714,6.815078712285162,34.152972512863755
0.19,31.22221488419521,131.01039429023237,3.558399965607869,4.432620772533925,0.0003996774584738,38.45149959021069,0.0005986099513107,3.304145139297767,448.95313283182486,7.1223367465208405,2.946425726785696,69.99589577323147,5.440084577183829e-07,120.00000176148238,31.060341085698347,1.274,1.026566130444714,0.0,0.0,0.0,0.0209308229359413,3.022391489754689e-09,-0.0020041563310821,1.3135864879722746e-07,4.433199397898183e-05,4.432620790516937,51.77883352025967,7.122399527709208,38.59320142454953
0.2,31.222214751373183,131.01039456280608,3.624052454705669,4.443889400961181,0.0004246617145652,35.23432408779927,0.0006337972852267,3.2968110145188256,418.5156301991588,7.530482904611057,3.1167566004785483,69.99474776398331,7.478025600151903e-07,120.00000211715036,34.72195181863731,1.274,1.026529240027363,0.0,0.0,0.0,0.0221302820454282,3.866698391504749e-09,-0.0023849544920781,1.668144671071589e-07,5.57780533277244e-05,4.443889421210987,50.22448880200342,7.530549610317194,35.38822625098952
0.21,31.222214608673173,131.01039485566503,3.6948551453492566,4.493351735844891,0.0004538195602194,33.79371564104691,0.0006629296043866,3.2891790438445727,404.8187610144608,7.868284042829251,3.2629204975089228,69.99338155599101,1.0150082652278477e-06,120.00000255293388,37.906665490338085,1.274,1.0264923657015164,0.0,0.0,0.0,0.0231230169900677,4.871073773182836e-09,-0.0028117605859743,2.089322918608601e-07,6.870935089180403e-05,4.493351758715364,48.992529909481824,7.868355328639073,33.95340801819282
0.22,31.22221446109996,131.01039515850383,3.767700382407304,4.5412639153933885,0.000482649303782,41.008966751568416,0.0006914639179131,3.2808061382386606,472.5421858721387,8.20057841132235,3.4071691679735228,69.9917708347139,1.3454961520984431e-06,120.00000305929996,41.175744234065135,1.274,1.0264494137127138,0.0,0.0,0.0,0.0240995709751246,6.054779813287368e-09,-0.0032829112061357,2.580881224843564e-07,8.3609968899004e-05,4.54126394098788,47.82515604752711,8.2006542256977,41.13999323561041
0.23,31.22221430675399,131.0103954752338,3.843768625625224,4.52371495179584,0.0005047555656171,33.98493478127787,0.0007294889663961,3.2705214710765107,406.340642146096,8.647938096586296,3.5908865300848416,69.98989017772566,1.7539876018835507e-06,120.00000365514876,45.79040229326471,1.274,1.0264133390858623,0.0,0.0,0.0,0.0254142776666487,7.436335125872812e-09,-0.0038001790077148,3.1489825108822685e-07,0.0001020628978177,4.523714979897577,46.31461705147579,8.648017383405135,34.14194053232237
0.24,31.222214142622448,131.0103958120587,3.92493179063287,4.57837522350066,0.0005351929930195,35.051650311058864,0.0007555049947555,3.26053011385611,416.2328240017099,8.954297884844461,3.72617527247482,69.98771316795013,2.25257161141768e-06,120.0000043564586,49.09180568115741,1.274,1.0263750048312463,0.0,0.0,0.0,0.0263146218848643,9.034877387788232e-09,-0.0043732521010013,3.809642748985157e-07,0.00012161410144,4.578375254714954,45.32798984252032,8.954381952763216,35.20297212911011
0.25,31.22221397517227,131.0103961556623,4.0071748888306855,4.6034117733065,0.0005618935542827,36.03738579534623,0.000785606492708,3.249069743648399,425.3640807915084,9.311611941121669,3.8789349536029696,69.98520781816889,2.8559738498748624e-06,120.00000517181904,53.08749562138344,1.274,1.0263373768840591,0.0,0.0,0.0,0.0273647110956883,1.0873791100894836e-08,-0.0049950711786164,4.5609738277273444e-07,0.0001444478241125,4.603411807525074,44.2165428352526,9.311700203154778,36.183554686886296
0.26,31.22221379934012,131.01039651647062,4.09364247475714,4.621386912291471,0.0005881033207375,39.29107511182762,0.0008162761165496,3.236407051295005,455.80158342417656,9.67833954512075,4.034902068846398,69.98234620927953,3.5784678110229355e-06,120.00000612171208,57.350948423913096,1.274,1.0263006300381676,0.0,0.0,0.0,0.0284424679130479,1.2973286442992724e-08,-0.0056712051373577,5.414206381221602e-07,0.0001704578711045,4.621386949630312,43.12063533194282,9.678431924174348,39.42414126789902
0.27,31.222213616776543,131.01039689108487,4.183310605341074,4.617158109135719,0.0006115457810536,35.90419462403674,0.0008503454714941,3.221982799915672,423.8421996598744,10.088790784535757,4.205862468567124,69.97909721779352,4.436165972465058e-06,120.000007221354,62.31798301949865,1.274,1.026260090595354,0.0,0.0,0.0,0.0296487219805601,1.5355910600537293e-08,-0.0064045199323113,6.379142666348734e-07,0.0002006609239367,4.617158149547818,41.94410287616451,10.08888684592241,36.048472443180565
0.28,31.22221342607797,131.0103972823952,4.277051150896916,4.642105655370123,0.0006389739579882,41.51133203546672,0.0008785747638736,3.2071101123224945,476.3468732012228,10.432377224420517,4.35383399240675,69.97542808435722,5.446665372087172e-06,120.00000849080963,66.63429581008447,1.274,1.0262212716723291,0.0,0.0,0.0,0.0306584788590473,1.8045308789081613e-08,-0.0072006835403936,7.469524967369969e-07,0.0002332868227611,4.642105699250441,41.0023231023774,10.432477594215127,41.63503624837164
0.29,31.22221323001776,131.01039768469093,4.373143569786686,4.62134615173668,0.0006600657405645,33.17552944492765,0.0009148746278066,3.1894209319791806,397.9703104221098,10.876662296046485,4.536381530986506,69.9713027936179,6.629751536885327e-06,120.00000994797426,72.43000748232016,1.274,1.026183007522519,0.0,0.0,0.0,0.0319641703260467,2.1067646517035105e-08,-0.0080566154554079,8.688043379161898e-07,0.000272130659453,4.621346198772975,39.83162628795024,10.876765978930557,33.32848872465723
0.3,31.22221302403368,131.01039810736614,4.4744193758467325,4.664362353358112,0.0006905183788532,31.08096762732793,0.0009381960428197,3.172549142946348,378.1859457108735,11.168362145070317,4.66647911311536,69.96668711012893,8.005507138509574e-06,120.00001161892672,76.36634300732833,1.274,1.0261430389738484,0.0,0.0,0.0,0.0328214509167604,2.4447409007156216e-08,-0.0089829108229115,1.0056222251461646e-06,0.0003115527202986,4.664362404357781,39.09908960432563,11.168470611443622,31.242464973103964
0.31,31.22221281503337,131.01039853619727,4.576593712520673,4.700143580504286,0.0007196683316923,32.79732593144512,0.0009620705970519,3.154230688182399,394.1656220930229,11.470279728974068,4.800072153432283,69.96154070456518,9.597499105113692e-06,120.00001352112182,80.55022837857167,1.274,1.0261054058068628,0.0,0.0,0.0,0.0337087616009043,2.8214060606649844e-08,-0.0099686353219717,1.1565909895184251e-06,0.0003550834484269,4.700143635477137,38.36463422765983,11.47039277421126,32.94865339301887
0.32,31.222212598991007,131.01039897947376,4.68216432480395,4.718667719113184,0.0007464384342556,35.7316568886908,0.0009885845337584,3.133859770838664,421.5593934624264,11.808280530415894,4.946054328851105,69.95582953472353,1.14278227255889e-05,120.00001568218067,85.36654007972253,1.274,1.026068246703101,0.0,0.0,0.0,0.0347021168382987,3.2392058795580455e-08,-0.0110163301561155,1.3226102501723267e-06,0.0004039614423012,4.718667778018562,37.5686120062341,11.808397780690962,35.8688218659563
0.33,31.222212376029034,131.0103994369436,4.791055524254013,4.72141404831576,0.0007708346814671,35.42013590291081,0.0010176135371143,3.1111955852784385,418.5156301991632,12.181577273013426,5.104163223586657,69.94951809396906,1.351997394754887e-05,120.00001812674968,90.84831229869296,1.274,1.0260310883392356,0.0,0.0,0.0,0.0357992034445943,3.700677535501642e-08,-0.0121310534481307,1.5051409581878843e-06,0.0004588955105349,4.721414111097893,36.7208578211118,12.181698355442045,35.55651229220977
0.34,31.222212145785647,131.0103999093516,4.903491659547144,4.73024573449122,0.0007962944975467,27.63851074646407,0.0010446307681611,3.0871492806781062,345.4656368807584,12.53557620048282,5.2556261014174765,69.94256797855994,1.5899658158227497e-05,120.000020882338,96.20413272674828,1.274,1.0259901535019136,0.0,0.0,0.0,0.0368395817555172,4.208561016221623e-08,-0.0133180771902383,1.7057647550599631e-06,0.0005184333231541,4.730245801363397,35.94841996438923,12.535701282129995,27.810389570354005
0.35,31.222211909310875,131.01040039453565,5.018822212845608,4.780248518778662,0.0008286678570753,30.332092807652543,0.0010618579815451,3.063967690608957,370.5765700527057,12.774786382148209,5.367579971644358,69.93493776125636,1.8594985713558667e-05,120.00002397748868,99.9096898192772,1.274,1.025950003202184,0.0,0.0,0.0,0.0375426220587071,4.7658312175989686e-08,-0.0145774693288123,1.9252724355785177e-06,0.0005782798420984,4.780248590437683,35.44790728185619,12.774916548990808,30.486451961956565
0.36,31.22221166933814,131.0104008868675,5.135354490370708,4.798132156899578,0.0008554457330409,34.32674769697476,0.0010851169437774,3.0374319611165923,407.8625232777224,13.09301701329486,5.506730645516068,69.92658597246795,2.163521613217148e-05,120.0000274401514,104.94818266210537,1.274,1.0259105142325406,0.0,0.0,0.0,0.0384778908056978,5.3755109608570216e-08,-0.0158991451700967,2.162609490834569e-06,0.0006464142451675,4.798132232978766,34.796094028187134,13.09315138639638,34.46087058603792
0.37,31.222211421355144,131.01040139563804,5.255882891363927,4.797392186816851,0.0008791822061288,32.551601855236584,0.00111162791192,3.0078619428913056,391.1218908297639,13.457513730739372,5.661815946371007,69.91747693543164,2.5047738471809164e-05,120.0000313040604,110.87154396328836,1.274,1.025872170958032,0.0,0.0,0.0,0.0395491312153729,6.040098808671168e-08,-0.0172926678053148,2.420031948898497e-06,0.0007226353721561,4.797392267189059,34.07332166419882,13.457651832357364,32.69027405888565
0.38,31.22221116634284,131.01040191882743,5.379799334000849,4.811698494594017,0.0009057112478668,34.02947987649063,0.0011338447913587,2.9774881690446744,404.81876101445977,13.77554886562956,5.800899861213392,69.90756948297444,2.886339581486796e-05,120.00003560072224,116.17243393848278,1.274,1.02583050512925,0.0,0.0,0.0,0.0404838339452728,6.762496638941508e-08,-0.0187646375218858,2.69955777313946e-06,0.0008026686661094,4.8116985796350695,33.46655348088405,13.775691134419684,34.15949264475229
0.39,31.222210906095896,131.01040245274032,5.505993307722699,4.813508003664984,0.000929862892873,29.00025983045028,0.0011579891265804,2.9442136901860865,357.6406249338268,14.124492165837273,5.950648592462506,69.8968186645841,3.311602501056718e-05,120.00004036395212,122.13093644173792,1.274,1.02579027384009,0.0,0.0,0.0,0.0415093739609825,7.545934774906889e-08,-0.020311592409804,3.0013532510753577e-06,0.0008908380763632,4.813508093268025,32.821616487639595,14.124638228358922,29.149330452482886
0.4,31.222210638473225,131.0104030017851,5.635788650457906,4.841647069358873,0.0009592124397379,27.71178845184976,0.0011749448424961,2.91135549588368,345.4656368807565,14.390874239274588,6.07193451174791,69.8851815212744,3.783947407715338e-05,120.00004563180136,126.77947425345651,1.274,1.0257493418632293,0.0,0.0,0.0,0.0422922854866381,8.39343718693383e-08,-0.021938519432511,3.3271332720311508e-06,0.0009803271643914,4.841647164150728,32.348088166612904,14.391024912012275,27.864299944624147
0.41,31.22221036681104,131.01040355909262,5.767123077463226,4.86553909860892,0.0009876699832274,31.306062598221665,0.0011918093836199,2.876450850006428,378.9468707766882,14.663028799871563,6.195223154320929,69.87261222561014,4.307011032901644e-05,120.0000514391194,131.6183642808765,1.274,1.025708445186429,0.0,0.0,0.0,0.0430921644173401,9.308325447883581e-08,-0.0236371933433427,3.6760977501392174e-06,0.0010761942383903,4.865539198612839,31.87689439156756,14.663183942709727,31.437931330109585
0.42,31.22221008906472,131.01040412887247,5.901259531771367,4.867510642114694,0.0010118258958528,35.308283402190774,0.0012128114559048,2.8374461227958245,416.23282400171047,14.9952917972178,6.33928625560071,69.85906967380902,4.884273094936628e-05,120.00005782486392,137.64909586091787,1.274,1.0256701057426505,0.0,0.0,0.0,0.0440686959134695,1.0293499639582845e-07,-0.0254093547296826,4.049238334851429e-06,0.0011830797791891,4.867510747027452,31.315270489291198,14.995450734457847,35.422111438762386
0.43,31.222209804115888,131.01040471342728,6.038886819939341,4.854590670645608,0.0010330089741511,31.00586934514032,0.0012363751872706,2.794478603999558,375.90313951343126,15.369430568701889,6.497852263156962,69.8445117629242,5.519340856908871e-05,120.00006482835984,144.60167924299955,1.274,1.0256308158337524,0.0,0.0,0.0,0.0451682983415116,1.135186446762958e-07,-0.0272634397889413,4.449073329427772e-06,0.0013010625065656,4.854590780289497,30.70250814963406,15.369592833372094,31.13154422839874
0.44,31.22220951192321,131.01040531284193,6.180028459770617,4.866912332640401,0.0010595850174406,28.57707721036899,0.0012525768202179,2.752165534925872,353.07501253892326,15.659290812546615,6.627318538707029,69.82889155423543,6.216182865383864e-05,120.00007249162944,150.1053167542629,1.274,1.025586171750536,0.0,0.0,0.0,0.0460202245100907,1.2486676023179565e-07,-0.0292060158163984,4.8779154055816594e-06,0.001420032405556,4.866912447705031,30.24619499837236,15.659457251771938,28.709297424144207
0.45,31.222209215425703,131.01040592106523,6.322872201489905,4.881836476567178,0.0010866574689855,33.31904824532484,0.0012669045761511,2.7082028218433374,397.2093853562887,15.934249290371609,6.751662050993672,69.81215834018458,6.97909417564726e-05,120.00008085697964,155.42080512416243,1.274,1.0255397023523487,0.0,0.0,0.0,0.0468283602442113,1.3701614206272197e-07,-0.0312276295846745,5.334643585560923e-06,0.0015449645531859,4.8818365972149325,29.82567893138932,15.934419982127675,33.428929688274074
0.46,31.22220891307435,131.0104065412864,6.468371919199588,4.869610441729251,0.0011078049156487,38.95909776354321,0.0012868374716666,2.6582856015412624,449.7140588976424,16.292139278621757,6.904766425053949,69.79426683863348,7.812149592850748e-05,120.00008996920153,162.4785746623087,1.274,1.02549635315424,0.0,0.0,0.0,0.0478802236363867,1.499987870203256e-07,-0.0333272350234362,5.819761874615242e-06,0.0016858511402973,4.869610567434908,29.29014635640275,16.292313292210977,39.04968351401366
0.47,31.22220860266524,131.01040717804253,6.6178810515614845,4.838450928223533,0.0011247917292402,26.253747818137555,0.0013104398935566,2.6026193242279367,331.0078106302504,16.710658191447514,7.078951441335346,69.77517236812905,8.719457259907165e-05,120.0000998741591,170.9309671061642,1.274,1.025453319323251,0.0,0.0,0.0,0.0491102725711187,1.6384464803343264e-07,-0.0355167087264168,6.3368207228363735e-06,0.0018427306558807,4.838451058652396,28.68386015667837,16.710834873319172,26.382435512333956
0.48,31.222208284201663,131.0104078313267,6.771393590864176,4.869339340099417,0.0011561785713505,25.860860976019296,0.0013165328518772,2.5543454292827983,327.20312230115803,16.911139899671,7.177575416403102,69.75482343794755,9.70562828082882e-05,120.00011062072316,175.0543877818846,1.274,1.0254092882449153,0.0,0.0,0.0,0.0496995461609974,1.7858865391586845e-07,-0.0378054080201581,6.88909442277235e-06,0.0019849793891693,4.869339477030596,28.40887970825325,16.911321511776286,25.986704537635287
0.49,31.22220796480208,131.01040848648364,6.924537656029012,4.881367714530694,0.0011829003785372,32.565703383222065,0.0013261973190012,2.5011623511055703,389.6000096981238,17.169005224738054,7.296160258358563,69.73316318155707,0.0001077573203115,120.000122255028,180.4309832312717,1.274,1.025367445590036,0.0,0.0,0.0,0.05045746454003,1.942747077649401e-07,-0.0401641298712614,7.47069711110948e-06,0.002140948887153,4.881367857509675,28.058569663954906,17.169191034294997,32.66161128464712
0.5,31.222207637929923,131.01040915697027,7.081324512896956,4.862566137860805,0.001202418260511,33.47759680712428,0.0013425340759632,2.4399894027711366,397.970310422106,17.52898693231981,7.450304424940405,69.71015149227495,0.0001193385310595,120.0001348274002,188.0736471953394,1.274,1.0253278572281015,0.0,0.0,0.0,0.0515154948878309,2.109295159784217e-07,-0.0426011733481599,8.084173008518589e-06,0.0023184335011768,4.862566286171007,27.57768313050809,17.529175807738486,33.56639745442473
0.51,31.22220730314019,131.01040984370235,7.24202048914867,4.8479762258125,0.001223054804074,25.49162310288008,0.0013562860883156,2.3767006597692686,323.39843497208153,17.86914397471067,7.597652147346554,69.68574349602717,0.0001318441288964,120.00014838524436,195.4407439266201,1.274,1.025286455263166,0.0,0.0,0.0,0.0525152689856776,2.2858192086249162e-07,-0.0451315948093539,8.734206149830708e-06,0.002503767471626,4.847976379721193,27.13799345359824,17.86933609171003,25.602178740977283
0.52,31.222206962738102,131.01041054193402,7.405210501673173,4.865306299521403,0.0012516517170965,30.733671928447727,0.0013599291289974,2.317711624364424,372.098451184342,18.08534843773428,7.701914987606457,69.65988568649581,0.0001453248538387,120.00016298000436,200.19561780583155,1.274,1.0252426840672306,0.0,0.0,0.0,0.0531507657929359,2.4726951523704535e-07,-0.0477531686556663,9.421346966092632e-06,0.0026812161964639,4.865306460134566,26.8699055233151,18.085545046726228,30.820940596104087
0.53,31.222206619320115,131.01041124632013,7.569307468221277,4.848802699234936,0.0012715119568563,32.301199055744725,0.0013711327835325,2.2490252325653923,386.55624643486095,18.41963113311156,7.8474319110539055,69.6325258319474,0.0001598315062727,120.0001786629144,207.6614205945027,1.274,1.0251993415311351,0.0,0.0,0.0,0.0541332845214831,2.67031759303889e-07,-0.0504479325599339,1.0141887756417996e-05,0.0028848299490111,4.848802865552398,26.45837260670532,18.419830861742675,32.37940050117613
0.54,31.22220626697288,131.01041196903336,7.737918664599091,4.831496690588052,0.0012913635058467,28.31291960103712,0.0013809098107221,2.177242866245296,349.2703242098436,18.75116898748492,7.992112829440902,69.60362200959217,0.0001754082864028,120.00019548734956,215.20067397992847,1.274,1.0251561018460285,0.0,0.0,0.0,0.0551077428911958,2.878941684235108e-07,-0.0532336286085667,1.090122304443916e-05,0.003098869611663,4.831496862756785,26.061835558272342,18.751371834390056,28.396510432451375
0.55,31.222205908994248,131.01041270328463,7.909026079894722,8.147849966218669,6.326266384276886,30.11508519815417,-0.3440850018762378,1.915160648435697,365.2500005919912,19.702746418726875,8.113323699629928,69.57312211246325,0.0001921068626005,120.00021350480982,237.59283081976648,1.274,1.025112921033824,0.0,2.506403565945852,0.0,0.0579044421403214,3.0989272306468813e-07,-0.0561100530405476,1.1700476995263424e-05,0.0034320151542407,10.302365719164625,31.75367225909729,20.69445611203908,30.177882485189663
0.56,31.222205546564343,131.01041344664463,8.081909946161325,4.805878587794822,-7.430022028726672,28.06874008556536,0.3172624147782484,1.9859522187357013,346.22656194657776,19.489428970042525,8.24832211386639,69.54097415464405,0.0002099796112633,120.00023276987916,232.47208794071287,1.274,1.0250709539098009,0.0,2.5155477854450985,210.00008998959544,0.0572776347575412,3.330422384609979e-07,-0.0613846721018575,0.0041922756448518,0.0037139289854918,8.84149440669499,17.77831704221553,18.325592188485,28.140697071074054
0.57,31.22220517792294,131.01041420485907,8.258267219218348,4.800052985081448,-7.3346962477828095,27.757746626286675,0.4161868279465853,1.9087088910333256,343.1828296833045,19.758561626833924,8.37313901291773,69.50580393392642,0.0066369969333632,120.00709344978245,238.93286144122607,1.274,1.0250279191823897,0.0,2.5246205648112747,210.00008998959544,0.0580687063472716,3.606502589760187e-07,-0.0644230217420863,-0.0006038552838865,0.0039515147117853,8.758551286536644,17.588760656337715,18.609574461461552,27.826406143726054
0.58,31.22220480271358,131.01041497192887,8.436492203820128,4.788019289455828,-7.24754203185327,36.692561433105794,0.5192547064277794,1.828207022433696,426.12500585731766,20.033578522663444,8.499133523438859,69.46889305777879,0.0057018402054826,120.0060951569594,245.62629952482263,1.274,1.024981594484354,0.0,2.5337048099779813,210.00008998959544,0.058877075630195,3.869030768496454e-07,-0.0675431378721875,-0.0054700969722197,0.0042004857834622,8.679258889987581,17.389702167692683,18.898170811356813,36.74174779306594
0.59,31.222204422027737,131.01041575119464,8.617392404677002,4.741867711762279,-7.11243062148786,29.671260661772266,0.6301323737519605,1.7332671528420067,360.68438819710633,20.44261412970368,8.672811134553676,69.43019454403931,-0.0026608369849739,119.99716430313916,255.75440261171423,1.274,1.0249386802161349,0.0,2.5427256703691974,210.00008998959544,0.0600793209797575,4.118001312317954e-07,-0.0707436713079355,-0.0104132455971551,0.0044892752604475,8.541446651638614,17.103749831647715,19.328263240416163,29.728521508652353
0.6,31.222204031277126,131.0104165499091,8.803164891647203,4.72947118263383,-7.02976244918134,26.332900791662446,0.7413101631660161,1.6470755534268475,329.4859594986072,20.703319764914347,8.79402210480911,69.38966109338139,-0.0185222168492774,119.98022072430555,262.3146155257475,1.274,1.024891335813742,0.0,2.5517231542216536,210.00008998959544,0.0608456429471913,4.353312854858588e-07,-0.0740458783960968,-0.015464675096656,0.0047586672969977,8.465994098927974,16.929389111862076,19.60185559516732,26.3947733981606
0.61,31.222203637814804,131.01041735324745,8.98944624198917,4.718369448045477,-6.951303411116582,30.93638275042765,0.8553345168022009,1.5592980232202722,372.0984511843332,20.94919465433344,8.91009925968254,69.34723205025495,-0.0419963448110015,119.95513807498708,268.57736286635264,1.274,1.0248423929069768,0.0,2.5608014751195136,210.00008998959544,0.0615683818398971,4.574913051329761e-07,-0.077424893264906,-0.0205853635061976,0.005034828035935,8.394893730868187,16.770474869865367,19.859963184924684,30.987461740868827
0.62,31.22220323810716,131.0104181684956,9.178368372093894,4.68582833486473,-6.843645033414664,38.5705227165483,0.9764921267391644,1.460581354249697,442.86563930529206,21.279852793655124,9.056558420186532,69.30285983147988,-0.0731326230822456,119.9218586856976,277.1175949290365,1.274,1.0247996097896497,0.0,2.569746340271224,210.00008998959544,0.0625402988624703,4.782803937072672e-07,-0.0808773588565428,-0.0257696546114539,0.0053422523120039,8.287816311691834,16.561514399354195,20.20740986960042,38.61051744529894
0.63,31.22220283024432,131.01041899959012,9.371069109446148,4.6317358519556375,-6.707651223605342,21.708831370888536,1.1068788604831814,1.3491019891978893,286.11251274707456,21.70105806988352,9.23557706365654,69.25649754860466,-0.1119667821270066,119.8803391130706,288.19115301261047,1.274,1.024756158874558,0.0,2.5786572227791047,210.00008998959544,0.0637783362922607,4.976957958984933e-07,-0.084416330624899,-0.0310359053415714,0.0056862789301482,8.145392658084763,16.302244736238,20.649827801826444,21.778857097623753
0.64,31.22220241335859,131.01041984833446,9.56805865038086,4.638863840884089,-6.66088792961424,21.316510374681624,1.2266923969895176,1.262586696921355,282.3078244179702,21.834110803688528,9.311801815772473,69.20808954488129,-0.1585570039385188,119.83051150577828,291.7303622408188,1.274,1.024708534665538,0.0,2.587591520737203,210.00008998959544,0.0641695142992138,5.157299986532866e-07,-0.0880560388854111,-0.0364039810530713,0.0059677032603992,8.1110672536067,16.233142222131935,20.79017616607697,21.389074640058276
0.65,31.222201997498946,131.01042069396843,9.763310119953088,4.626694420207724,-6.588238020580204,37.97473527722277,1.3527019508401383,1.1661552207116477,436.7781447787504,22.044755823674265,9.41592802500309,69.15757061952178,-0.2129855753394461,119.772281771627,297.38088832011346,1.274,1.0246641738210605,0.0,2.596568683396956,210.00008998959544,0.0647887336795136,5.323921450000567e-07,-0.0917463067262941,-0.041799400902849,0.0062776674476886,8.044669875564349,16.11860490496402,21.012156814166733,38.016710009438576
0.66,31.22220157367417,131.01042155510353,9.96221476856748,4.559737765300491,-6.440347975507425,32.25046159597266,1.4982272639449876,1.0395845437978923,383.5125151715984,22.504729501230937,9.609817941735413,69.10490314725382,-0.2752170133462588,119.70568139038664,309.9144089064968,1.274,1.0246195561629028,0.0,2.605315958508619,210.00008998959544,0.0661407279627844,5.47691092569673e-07,-0.0954987665015245,-0.0472387828022593,0.0066706428168618,7.885531974024663,15.85701485690842,21.49521101343681,32.30197662855075
0.67,31.22220113785552,131.01042244014786,10.167169392024928,4.526331041436729,-6.341437837746088,22.096242551830034,1.637949728273188,0.9269059578282473,289.15624401033847,22.797184401632343,9.743798189227808,69.05004150643927,-0.3452356223052265,119.6307202817712,318.0153265345427,1.274,1.024572383541697,0.0,2.614078797854541,210.00008998959544,0.0670003990985422,5.616214328110533e-07,-0.0993547690848463,-0.0527803661037947,0.0070300353788354,7.785739947966221,15.704958906447535,21.803106128717037,22.176247853870862
0.68,31.222200699844382,131.0104233287644,10.372309137564669,4.515517835354092,-6.275456297235581,27.69255289466859,1.7717327330744332,0.8253753921766526,340.89999248584934,22.967077757151195,9.833799628550793,68.99291479838939,-0.4231067469581006,119.54732114244835,322.76657453906006,1.274,1.0245245285832842,0.0,2.6229555184791,210.00008998959544,0.0674998679648935,5.741889429230866e-07,-0.1032836183646434,-0.0583791205626522,0.0073623457712748,7.725905771218619,15.629844531917836,21.983301081218343,27.76144389687748
0.69,31.22220025819004,131.01042422396273,10.578506746887031,4.475679311571442,-6.170805128004106,34.19186131199336,1.9184944819432697,0.7054861292990418,401.0140726853658,23.27041261389428,9.972227150338584,68.93346844878171,-0.5088222366696543,119.45548488880095,331.34211524519094,1.274,1.024479631064582,0.0,2.6316883865698,210.00008998959544,0.0683915232689104,5.854090965318294e-07,-0.1072620197006348,-0.0640016472579027,0.0077467667560692,7.617939181851705,15.481286865880644,22.302977635085284,34.252908077044616
0.7,31.22219980737696,131.0104251373172,10.789052978671172,4.420681987943592,-6.04719542319982,28.62434089267536,2.0753018524254045,0.5733075756962606,349.270324209851,23.642637415251222,10.135950487367303,68.87166004395931,-0.6023187511011111,119.35527113887008,342.0200260768524,1.274,1.0244351749185203,0.0,2.6403297038742712,210.00008998959544,0.0694856534992977,5.952900406484642e-07,-0.1113111026479365,-0.0696768019708523,0.0081676299348959,7.485877051071502,15.299736818414722,22.694508737689222,28.70519902204334
0.71,31.222199348936385,131.01042606570093,11.00302989840444,4.385860752033021,-5.952600715211049,23.46645174967663,2.2259689573332166,0.4518441533663679,301.3312640634036,23.89986190311409,10.258264111307092,68.80743357623292,-0.7035699523246037,119.24669942579152,349.49547027374814,1.274,1.0243880468141104,0.0,2.6490165255674647,210.00008998959544,0.0702418052037597,6.038376401425145e-07,-0.1154406181974886,-0.0754170862930153,0.0085626216975687,7.389177552796064,15.18875309348044,22.9665107300014,23.576120517545792
0.72,31.22219888692144,131.0104270006123,11.2180200874322,4.357922721848969,-5.868441652906529,28.821767246503853,2.3745219220334337,0.3340974571766505,350.7922053414578,24.107949788202177,10.362944394118449,68.74072596660612,-0.8125616277612404,119.12977580071195,355.60049658559865,1.274,1.024337302174265,0.0,2.657684778881148,210.00008998959544,0.0708535483167846,6.11067703366901e-07,-0.1196278804313662,-0.0811903396508574,0.0089502762896386,7.305040390502672,15.109215515105005,23.187748011714262,28.921345796500404
0.73,31.22219841995032,131.01042794498332,11.434850095219518,4.3084106772036765,-5.75675348606005,36.55956005786075,2.536324163575802,0.1993813041063864,422.3203185282354,24.42127157515704,10.506327637076303,68.67148600520052,-0.9292263673303662,119.00456291065689,364.8961707799212,1.274,1.024292465384646,0.0,2.6662594936491595,210.00008998959544,0.0717745803144695,6.170001048590546e-07,-0.1238616887424407,-0.0869805693705145,0.0093872845620319,7.186103579644664,14.976743725458112,23.51852352937749,36.64797572569995
0.74,31.2221979445746,131.01042890621537,11.655578406281078,4.241422507548146,-5.62362358374804,22.76479202173122,2.711797017730288,0.0483406575492214,294.4828134710563,24.823204205115623,10.682575402417308,68.59966778413771,-1.053467989238544,118.87115386485212,376.9981630464096,1.274,1.0242470321640116,0.0,2.674775498282373,210.00008998959544,0.0729560496124792,6.21648810956224e-07,-0.1281576714494395,-0.092808246859079,0.0098725184830431,7.039671914245788,14.803073306948038,23.94126510826777,22.925791931299138
0.75,31.22219746066344,131.0104298847096,11.880285063184296,4.215109301910817,-5.545093868540631,26.64335321362037,2.863308546469764,-0.0712069592495114,330.24688556441737,24.981424500930405,10.769757824220516,68.52521500817595,-1.1852144443933137,118.72961544029675,381.81112751046464,1.274,1.0241984712898409,0.0,2.683312493017815,210.00008998959544,0.0734212493510762,6.250248950651879e-07,-0.1325283132645225,-0.0986892356628727,0.0102740578338725,6.9612991891226725,14.762820989656996,24.1117622780705,26.79686318823655
0.76,31.22219697673432,131.0104308622182,12.103887060499291,4.16468749539172,-5.436348657033408,28.711506371016803,3.03129959412932,-0.2114815203814103,349.2703242098581,25.26584630987259,10.903657419792165,68.44806273758829,-1.3244104228043831,118.57999595080776,390.5463268571039,1.274,1.0241522053390697,0.0,2.691850312030115,210.00008998959544,0.074257361968125,6.271594646749338e-07,-0.1369274019412417,-0.104560835486079,0.010735716362067,6.844443733050648,14.66045226613757,24.413187366688668,28.871856534621564
0.77,31.22219648331148,131.0104318591959,12.33204777116886,4.1103294031740685,-5.323429146772802,26.831156170368367,3.203532617168125,-0.3566001526665383,331.76876669606884,25.561824508408,11.042243351061964,68.36817212598882,-1.4709053444140003,118.42244569561704,399.74131781870335,1.274,1.0241065975906936,0.0,2.7002186505725847,210.00008998959544,0.0751274474582428,6.280728992240632e-07,-0.1413738482982586,-0.110447795904554,0.0112139399034851,6.721982303529257,14.55718499565301,24.72682478337098,27.02407678972287
0.78,31.222195984296416,131.01043286734043,12.562440213698288,4.0601886184419245,-5.217210212934277,21.98792581261584,3.373380327779601,-0.4986463173588263,286.8734378128874,25.81956152261604,11.167074637735205,68.28549212084188,-1.6245792013603155,118.257081732896,407.83402798639935,1.274,1.0240588105546735,0.0,2.7086298910760025,210.00008998959544,0.0758851463459772,6.27788687012999e-07,-0.1458660663881904,-0.1163468857953253,0.0116866710749794,6.607481487223086,14.4775745946329,25.001176089757912,22.250780312761254
0.79,31.22219548026492,131.0104338854505,12.79472420496979,4.017840785085095,-5.121761883199743,31.382264976273,3.536316030271552,-0.6327846553507706,373.6203323159581,26.014498258563474,11.268922150781751,68.19997159884308,-1.7853024072010069,118.08403104494012,414.0063039265848,1.274,1.0240083170932772,0.0,2.716996601308901,210.00008998959544,0.0764582767682526,6.263352917197362e-07,-0.1503936124927452,-0.1222438620306821,0.0121401162296741,6.506339479505574,14.433120608653455,25.211044828954265,31.587220557165423
0.8,31.22219497223408,131.01043491133882,13.028294320086896,3.9475995807625406,-4.992199708293273,31.802829811673323,3.7242076944619966,-0.7964961265654835,377.42502064505805,26.3735260491622,11.432368987585836,68.11156471425663,-1.9529207459636264,117.9034467721256,425.5030714268325,1.274,1.0239625010683884,0.0,2.725302042053962,210.00008998959544,0.0775136867042727,6.237464957173804e-07,-0.1549417804131738,-0.1281189608814606,0.0126795837758252,6.361299614097924,14.311840734085376,25.59034497614408,32.030050157022565
0.81,31.22219445426055,131.01043595829094,13.266721718280188,3.881882867405752,-4.869443382825341,20.61202166538813,3.9092759562568378,-0.9568245678284104,273.9374926939922,26.692215577817525,11.581299532838877,68.02023364000787,-2.127248549148001,117.71551564936486,435.8385170986709,1.274,1.0239149950770308,0.0,2.733519133534311,210.00008998959544,0.0784505491417796,6.200453106963714e-07,-0.1595349376484187,-0.1340028441347586,0.0132129181562186,6.2244826347503714,14.215566855832083,25.92824565895332,21.001271125581837
0.82,31.222193931385487,131.01043701525015,13.506989738592532,3.8390962761751615,-4.776173816386088,26.55209293622625,4.070021719924033,-1.0898504852063051,328.725004432774,26.842021529544084,11.667237877695106,67.92592522613536,-2.3081387944790377,117.520382452921,440.7342291365565,1.274,1.0238644186635044,0.0,2.741784229130509,210.00008998959544,0.0788910546294196,6.152632862873439e-07,-0.1641615004771277,-0.1398796296518449,0.0136720874288606,6.125057667779031,14.203903106160649,26.092650486878203,26.884316806918374
0.83,31.22219340673977,131.01043807516987,13.747217529073824,3.772935334276384,-4.654907489425232,33.809056364854555,4.2539007531502655,-1.2500652585145255,395.6875032246518,27.136087065782657,11.807896047809455,67.8285925589468,-2.495418530342537,117.31821960964471,450.4335895116508,1.274,1.0238188483711983,0.0,2.7499916395298905,210.00008998959544,0.0797555551857324,6.094445925747682e-07,-0.1687880186760162,-0.1457064529320299,0.0142110809630751,5.989312353836818,14.127108995487264,26.405700012988547,34.09854288749168
0.84,31.22219287282964,131.0104391551108,13.991925273687992,3.693926032754181,-4.518934358497058,20.79191520570704,4.4527887482284045,-1.427592150255914,275.45937482564227,27.508957789130854,11.978977950737564,67.72820842086662,-2.68885355971362,117.10926545474896,462.886365773288,1.274,1.0237739661568126,0.0,2.758079057353376,210.00008998959544,0.0808516811250339,6.02621144600048e-07,-0.1734346250375455,-0.151508048793657,0.0148026002551226,5.834170421447426,14.0183351733271,26.799860932586647,21.311243157196
0.85,31.222192331421013,131.01044025131856,14.240064480774436,3.6446232517504606,-4.419937689016018,22.69425597731665,4.614042532999926,-1.5640261206113697,292.9609323393965,27.651614722363103,12.063190313302664,67.62473310608121,-2.888241166576324,116.89372417519547,467.6885743038072,1.274,1.0237227741398531,0.0,2.766199111336271,210.00008998959544,0.081271192180975,5.948252552500226e-07,-0.1781094874616211,-0.1572934830975701,0.0152800674171354,5.726496384358215,14.019896765794952,26.958020936426767,23.21130803221265
0.86,31.222191790009006,131.01044134655794,14.487107755230182,3.580359984137054,-4.3036925894823455,28.4699887862612,4.7908336679205545,-1.7189980137671754,346.2265619465616,27.88748977339012,12.183274169243848,67.51812159830699,-3.093388248283373,116.6717893727114,475.69031633137166,1.274,1.023674789281455,0.0,2.774314909847172,210.00008998959544,0.0819646838270911,5.861086358327285e-07,-0.1827689386255316,-0.1630081810604096,0.0158131805557304,5.596125777945633,13.981624828596171,27.21210283546415,28.921398702256003
0.87,31.2221912406385,131.01044245932644,14.737877473211467,3.504088255171243,-4.173777129993145,26.49196932030337,4.981878451893709,-1.8907259439000643,327.9640783669946,28.200213649643658,12.333340183785264,67.40835534891383,-3.3040276317722785,116.44373468950484,486.406982550686,1.274,1.0236288969245204,0.0,2.7822689890995425,210.00008998959544,0.0828840513867324,5.765122285394671e-07,-0.1874236904745283,-0.168664895550898,0.0163973565681644,5.4476892183181,13.912415076448044,27.5451779612945,27.02255346876521
0.88,31.22219068447089,131.0104435871955,14.991688368260544,3.433383553324937,-4.051416772463344,22.86317450783252,5.16276214261341,-2.052521584354098,294.4828134710421,28.454794278657104,12.461689742652323,67.29540938122678,-3.519908928170972,116.20981562284156,495.216741154116,1.274,1.0235805388426191,0.0,2.7902292462806457,210.00008998959544,0.0836325360610534,5.660763332950293e-07,-0.1920809981855578,-0.1742713251290701,0.0169561099942231,5.308713820641733,13.873178127067913,27.818929415115736,23.528529626201564
0.89,31.222190124199425,131.0104447239185,15.246911714853317,3.3660468659178724,-3.9337665653035017,25.092182563768045,5.33472522949732,-2.2061105795305966,315.02813424808807,28.665154927685425,12.573491467983112,67.17925442626995,-3.740791546889896,115.97027706968368,502.55356669126974,1.274,1.0235293752791452,0.0,2.798173242269831,210.00008998959544,0.0842510574181054,5.548491533905153e-07,-0.196725768491098,-0.1798085965816375,0.0174940865240617,5.1756138084221215,13.85692280593626,28.047725661310224,25.747695877045334
0.9,31.22218955945925,131.01044587042685,15.503776126302636,3.2904616046217705,-3.8072293054274,27.73177181366155,5.515850465678534,-2.3711404392706203,339.3781423542166,28.92701036231944,12.70577780565594,67.0598707578716,-3.9664107214712696,115.72539020272292,511.764506279529,1.274,1.0234837388140003,0.0,2.8060504168582256,210.00008998959544,0.0850209350088683,5.428815676119932e-07,-0.2013454526532337,-0.1852611413965601,0.0180680128070585,5.030525706009461,13.821237838890868,28.32941218343055,28.37425032080079
0.91,31.2221889882588,131.01044703170243,15.763513586988868,3.209750253061358,-3.6756034936294686,21.04048221922848,5.702166132843894,-2.5432749295340664,277.7421810230785,29.217360547781368,12.849807553901428,66.9372468743866,-4.196483140190209,115.47544648863092,522.0765493902474,1.274,1.023436404813438,0.0,2.8138689467569304,210.00008998959544,0.0858745705469419,5.302216289925361e-07,-0.2059424401480945,-0.1906310200289509,0.0186655595615633,4.8783622180147175,13.776723835155297,28.640394032543007,21.94731960835806
0.92,31.222188411125664,131.010448206686,16.025817907457892,3.1398552391197887,-3.5569858790800297,25.08444447926901,5.86405398630655,-2.691091758825144,315.0281342480675,29.39473572948476,12.950265971171932,66.81137042253913,-4.430730203741922,115.22073250844092,528.4214106268004,1.274,1.0233859136578225,0.0,2.821666593558903,210.00008998959544,0.086396160723334,5.169189112048826e-07,-0.2105151219270491,-0.1959154637315878,0.0191953527468632,4.74322341155611,13.78440199032186,28.836364521962903,25.90093548199107
0.93,31.222187831577333,131.0104493867848,16.288532334049073,3.0576587910346844,-3.4252198968077594,29.869730685290268,6.043711057723841,-2.85969252460811,359.16250706547066,29.666061628549063,13.088159737488654,66.68223075926969,-4.668872253691978,114.96153625945956,538.2079612784602,1.274,1.0233407575091376,0.0,2.829433913656868,210.00008998959544,0.0871938924513373,5.030319873155081e-07,-0.2150403033397477,-0.201086963334547,0.019788461964835,4.590235978379575,13.754607353450956,29.12834975905226,30.608905499810408
0.94,31.22218724451452,131.01045058486108,16.554817102185837,2.968429552586651,-3.286393193847388,21.59929998387124,6.233271166384104,-3.040614055044048,283.06875048378083,29.988974713201934,13.247173720718727,66.5498326180073,-4.910598940557567,114.69817951540624,549.9743789643385,1.274,1.0232914783978162,0.0,2.837108120020208,210.00008998959544,0.0881432569292983,4.886120421131468e-07,-0.2195260718646512,-0.2061541117736825,0.0204206188700752,4.427447015174055,13.706518166785148,29.47303229314575,22.68543063419046
0.95,31.222186651085664,131.01045179835117,16.823986548417004,2.89248790314209,-3.162961288434345,28.039384165939047,6.3885785820983,-3.187371185299418,342.421873617488,30.164576637729336,13.348482202169814,66.41417674234413,-5.155614836710168,114.43096825259416,556.4196564385899,1.274,1.0232418269359267,0.0,2.844782353850257,210.00008998959544,0.0886596533938726,4.7371179593117373e-07,-0.2239734125243176,-0.2111168957384457,0.0209557712904143,4.285126401822102,13.723884192804078,29.66799215289122,28.934068773292765
0.96,31.222186055929647,131.01045301548368,17.093164564025123,2.8011385721455326,-3.0235346632045346,27.450186270025103,6.572050126943493,-3.365942048310853,337.09533515678265,30.477940141421808,13.505278960436288,66.27526437814932,-5.40362889125122,114.16020414569142,568.0257075264577,1.274,1.0231951201821403,0.0,2.8524360395548425,210.00008998959544,0.0895809627469259,4.5839498659564114e-07,-0.2283545082104578,-0.2159435101170553,0.021587081090465,4.120783089888194,13.68637975537374,30.00322482518184,28.425941233364988
0.97,31.2221854519664,131.01045425472165,17.366782305820305,2.712199516403143,-2.8874046132867983,17.432664159678293,6.744041115989493,-3.53462114045096,245.0218871929888,30.750613165518804,13.646624769146063,66.13311558830661,-5.654317420145045,113.88622508623877,578.2197415461497,1.274,1.0231476260761452,0.0,2.8599883267720503,210.00008998959544,0.0903826841355247,4.427147706239856e-07,-0.2326821994153345,-0.2206473625437109,0.0221923988433138,3.9606694439360495,13.669357424056908,30.297252660808493,19.022970769173035
0.98,31.222184843993848,131.0104555038587,17.641862585400343,2.6348216384011978,-2.764184550731565,25.52867633252824,6.878341288950509,-3.6661217381971887,319.593746642963,30.87657743676821,13.729555524242276,65.98774377659917,-5.907379007347616,113.6093453055504,582.9511859403929,1.274,1.0230935628253934,0.0,2.867564440421456,210.00008998959544,0.090753201976079,4.2673197415689403e-07,-0.2369437052026267,-0.2252132980208778,0.0226908186458836,3.8180641241883126,13.715598139998468,30.442548755227403,26.69204643292737
0.99,31.22218423448673,131.01045675630996,17.916849778422684,2.540596110009916,-2.623938124676529,27.91289670161413,7.049041906026974,-3.838241062896953,341.66094855170127,31.173906848752047,13.8823539106322,65.83917197127411,-6.162501105705204,113.32989193126654,594.2167346919738,1.274,1.0230490803133316,0.0,2.8750811867053123,210.00008998959544,0.0916274042552195,4.105142850645752e-07,-0.2411131658996246,-0.2296130291735213,0.0233118384136149,3.651734684906728,13.693877299053971,30.761883670354617,29.043947536876143
1.0,31.22218361611996,131.0104580319741,18.196387423783328,2.4455217872812254,-2.4835334530461384,24.91844272602156,7.215369467305449,-4.008283071319152,314.2672081822764,31.46680429962092,14.034274374215448,65.68744134992112,-6.419346623926484,113.04821985387044,605.418977729011,1.274,1.022999484445133,0.0,2.882497874875704,210.00008998959544,0.0924885900981461,3.9411753155252084e-07,-0.2452063387911723,-0.2338623356256371,0.0239296880743676,3.4849345391160123,13.677232011489751,31.076813926825736,26.249889097281233
1.01,31.222182993269207,131.01045931938475,18.477736225693288,2.3536139433482224,-2.34719646282684,26.061390720347145,7.363928796504341,-4.162337321451104,324.92031610370094,31.70326246511441,14.163961191215764,65.532584927322,-6.67760515056052,112.7646556583077,614.5354337796699,1.274,1.0229507481225095,0.0,2.889940786084344,210.00008998959544,0.0931838939707798,3.776041409751144e-07,-0.2492153507353397,-0.2379516305907413,0.0245030257345251,3.3235117372957124,13.68625542098392,31.334668825088418,27.39979170680184
1.02,31.2221823663947,131.01046061736042,18.760611922826687,2.2577932697597127,-2.207667171739619,21.654758946338287,7.515893176173138,-4.3226763506622445,284.59063161543185,31.972064576703644,14.307702892463652,65.37464263903024,-6.93696414123918,112.47952924538733,624.9835416001428,1.274,1.0229039803623294,0.0,2.8973360333366074,210.00008998959544,0.0939742712047973,3.610398353385348e-07,-0.2531259501230337,-0.2418654411227616,0.0250978502330344,3.157356736169163,13.684962576173724,31.6253708292038,23.326010505275836
1.03,31.222181733599417,131.01046193141815,19.046246013422365,2.165854640905669,-2.072556523058353,17.578261492805215,7.644854641318697,-4.461776529325864,247.3046933904342,32.16946506446695,14.42274275564692,65.21366551798545,-7.197103496569976,112.19317989729576,632.7074992387948,1.274,1.022853416101322,0.0,2.904677096259449,210.00008998959544,0.0945547876860802,3.444877945576648e-07,-0.2569346786354823,-0.245599146456101,0.0256320783225616,2.9973939509258454,13.714814135305478,31.843979639883734,19.681121141692458
1.04,31.222181097808587,131.01046325349168,19.332778035212044,2.075133523763559,-1.9391477394539944,28.245498824306544,7.757990049210195,-4.587202987164121,345.4656368807608,32.32810629920138,14.522310689010492,65.04970892594433,-7.457708322523336,111.90594233307918,638.9455985000153,1.274,1.0228049544826707,0.0,2.9119966116780858,210.00008998959544,0.0950213845431334,3.28015530585428e-07,-0.2606264942482538,-0.2491368502160849,0.0261278776078975,2.83986419659092,13.762250968423489,32.023563832094915,29.64855889723806
1.05,31.22218045855361,131.01046458501415,19.62051913929916,1.9711829326116408,-1.794046626658223,16.788046588832312,7.911690744868163,-4.758106985314979,240.4562587980608,32.66721169536908,14.698013914713815,64.8828400768943,-7.718457600701083,111.61815928594956,652.4023000244359,1.274,1.022755494436122,0.0,2.9192474940409845,210.00008998959544,0.0960184223014718,3.11689980431806e-07,-0.2641909162856686,-0.2524676860318335,0.0267622886837337,2.665125777953373,13.74017814913362,32.38544955744614,19.15914770533752
1.06,31.222179810744183,131.0104659412359,19.912804315234578,1.8804483698916388,-1.6616296874941223,24.144915173652247,8.000908410792198,-4.864514336101104,308.1796836557233,32.781714488883075,14.780353612733432,64.71313522668275,-7.979030658546862,111.3301744897907,656.9653808329916,1.274,1.0227013895379469,0.0,2.926439233255754,210.00008998959544,0.0963552970546321,2.955705437784917e-07,-0.267639794229931,-0.2556012552836265,0.0272059228408375,2.509204618694333,13.809304418051214,32.52074289332382,25.897006851504695
1.07,31.22217916398752,131.01046729395753,20.20338953699805,1.7783656960086212,-1.5198570047600544,28.51491653243828,8.12723417467819,-5.012975934402433,348.5093681440431,33.06400673851918,14.934151897660316,64.54066538378432,-8.239128495646636,111.04230912463748,668.3100596199016,1.274,1.0226540159946436,0.0,2.9336553463949024,210.00008998959544,0.0971853573603736,2.79730128050025e-07,-0.2709439829229937,-0.2585098120082519,0.0277781924033031,2.3391896013431097,13.813922809042394,32.82529615579382,30.071287433378654
1.08,31.22217850866334,131.01046867211835,20.498584726306152,1.673994397153698,-1.3768735080749832,18.95386298283309,8.254711182790176,-5.16600901935162,261.0015785751465,33.37537997332386,15.101385025599578,64.36552266936646,-8.498436188074852,110.75490349607531,680.9373572759838,1.274,1.0226061614050743,0.0,2.940742311118176,210.00008998959544,0.0981009065172395,2.64229018959053e-07,-0.2741128609610835,-0.2612005236790023,0.0283669281081338,2.1673713166739783,13.809608656744947,33.15912200422199,21.30907853172713
1.09,31.22217784846132,131.0104700650966,20.7960089820478,1.5775140054597048,-1.241272171481017,17.355246915304587,8.330948463842846,-5.268423308415912,246.54375332456465,33.521971417906514,15.19917273895513,64.187795636207,-8.756658751297316,110.46827737493584,686.9125005147146,1.274,1.0225512795791307,0.0,2.947855662322553,210.00008998959544,0.098532116303715,2.491317712103954e-07,-0.2771412737537798,-0.2636667536481429,0.0288054742936621,2.007216401576267,13.871498006097797,33.32700809271358,19.959097723971766
1.1,31.22217718727324,131.01047146087188,21.093088986814976,1.4787215533126212,-1.1043633929022296,35.501433659325286,8.405584917686497,-5.372442417203802,413.1890617384087,33.6927084603223,15.307919000513577,64.00757865198709,-9.013507155148076,110.18274551011552,693.9078057144662,1.274,1.0224981043155532,0.0,2.9549372329398795,210.00008998959544,0.0990343007049069,2.345084736989451e-07,-0.280008504551916,-0.265890376357333,0.0292508859401443,1.8455257051951108,13.92544705640995,33.5192462053834,36.876398782989696
1.11,31.222176521341748,131.0104728713054,21.392332649649315,1.3664497873177237,-0.958147883164555,25.76263979458973,8.548205862490118,-5.552073310197631,324.1593910379213,34.14381867084008,15.538831164098603,63.824981808140514,-9.268688333543697,109.89862882253996,712.5931197862084,1.274,1.0224548851875197,0.0,2.96192729544278,210.00008998959544,0.1003606055472209,2.204225834212023e-07,-0.2827107621956114,-0.267867240408869,0.0299277335359233,1.6688494008331498,13.872497740492024,33.99332016809397,27.705792728147983
1.12,31.222175844900168,131.0104743155078,21.69765644167408,1.2642464066258392,-0.8203306113350792,9.219853539888277,8.618605826146668,-5.658966365037124,172.7328179403806,34.3586053966395,15.668465098053092,63.640120144332485,-9.521919000419366,109.61623911428816,721.565501762493,1.274,1.0223979224661404,0.0,2.9688865248095424,210.00008998959544,0.1009922866893976,2.0693068779866625e-07,-0.2852606847253189,-0.2696034143660084,0.0303867398263524,1.5070341968290786,13.91289829940596,34.22975256789636,13.831484591471053
1.13,31.22217516891936,131.01047575832743,22.00170695425756,1.1689706251904888,-0.6877635443804911,30.45213948416072,8.625572758956045,-5.701743053633125,367.5328077894322,34.37437661108786,15.711641784484808,63.453103298768994,-9.77293404151693,109.33586966424846,722.2069849949346,1.274,1.0223460397860296,0.0,2.9759046981570587,210.00008998959544,0.1010389906219397,1.9410357546268203e-07,-0.2876339715421797,-0.2710797227051835,0.0306527176598526,1.35626154578681,14.030886996724428,34.26634556057073,32.1596514040883
1.14,31.222174492670327,131.01047720172525,22.30494671917828,1.0583779851032904,-0.546427851159163,16.469773274853026,8.733131159774981,-5.855658100084951,239.6953177322812,34.791550695835454,15.931946793322764,63.26405882892801,-10.02146476842754,109.05781955565256,739.8214955155527,1.274,1.0223022138470996,0.0,2.982813413656431,210.00008998959544,0.1022655693011866,1.8200796056963832e-07,-0.2898132634615267,-0.2722849174424396,0.0312588769003165,1.191097558504447,13.995662021981785,34.70571931081707,19.539952491344142
1.15,31.22217380391787,131.0104786872101,22.615754076641696,0.9584152999870889,-0.4120418656726158,16.197368270374746,8.744767210390036,-5.91078218837671,237.4125115347709,34.893271068343594,16.014056831735715,63.07312759396834,-10.267247394026906,108.78238430763597,744.1316499068657,1.274,1.0222426194541194,0.0,2.989626457069675,210.00008998959544,0.1025649238013476,1.706942625120531e-07,-0.291815083869711,-0.2732244132872626,0.0315658713767974,1.0432269890886203,14.082568747839533,34.82854824132221,19.33295214209373
1.16,31.22217311872568,131.01048016082973,22.92317527811752,0.8558448091677292,-0.2772340414377961,43.757465185643085,8.764727633248814,-5.978440362653196,490.043774385954,35.06115324354505,16.12611815497595,62.88044281280592,-10.51003491421069,108.50984249901424,751.2871797394516,1.274,1.02219674531104,0.0,2.9965306480137084,210.00008998959544,0.1030587524722498,1.602310414921465e-07,-0.2936171852622925,-0.2738854706290094,0.0319126747110588,0.8996239962872445,14.14462845403483,35.017605592076805,45.02530354287023
