Time,Latitude,Longitude,Altitude,Angle of Attack,Angle of Sideslip,X-Acceleration,Y-Acceleration,Z-Acceleration,Thrust,True Velocity,Ground Velocity,Pitch,Roll,Yaw,Dynamic Pressure,cp,parachute_deploy_gain,Wind Speed,Mach,omega_x,omega_y,omega_z,Cmq,Angle of Attack(total),Angle of Attack(gust),True Velocity(gust),Acceleration
0.0,31.222216000000007,131.010392,3.000000004412624,0.0,0.0,0.0,0.0,0.0,2.2828121974499247,0.0,0.0,71.99999999612658,-1.0292491154817412e-14,119.99999999354436,0.0,15.288,0,0.0,0.0,0.0,0.0,0.0,-0.0,0.0,90.0,0.0,0.0
0.01,31.22221599999862,131.01039200000284,3.0000009727369523,0.0,0.0,0.0,0.0,0.0,34.24218696174923,5.916279387578309e-11,5.734623670548936e-11,71.99999999613168,-5.86671995824671e-13,119.9999999935449,2.1432944861733093e-21,15.288,0,0.0,1.7386402909615473e-13,-3.4220131069073734e-19,7.115076756936125e-19,5.488773498207866e-19,-1.1574302492039043e-31,0.0,89.99999999962336,5.916279387578309e-11,0.0
0.02,31.22221599999738,131.01039200000537,3.0000018317022668,0.0,0.0,0.0,0.0,0.0,25.871876237766408,1.2265415415436536e-10,1.1895038237325684e-10,71.9999999961369,-1.1836364828043265e-12,119.99999999354544,9.211895886571454e-21,15.288,0,0.0,3.6044858651615574e-13,-6.979551485375437e-19,1.4162390878091906e-18,1.0909784360635388e-18,-4.776231873571785e-31,0.0,89.99999999921916,1.2265415415436536e-10,0.0
0.03,31.22221599921969,131.01039200159065,3.0001883335529382,18.80143492628821,-0.0001350810307892,10.931161642028636,-1.75114298675875e-05,3.026590975169265,180.34219359854663,0.0798232026864394,0.0478175828508887,71.99999999765336,-5.341802909786072e-12,119.99999999436793,0.0039016003969354,15.288,0,0.0,0.0002345795854893,3.788270153300133e-17,-7.771883375645477e-10,1.1422790048099072e-11,1.7057759223764537e-13,18.80143492675591,89.51882325913425,0.079801984207741,11.342422482672777
0.04,31.222215995131297,131.01039200995308,3.001692634342189,9.19442604083399,-4.49173898918486e-05,52.29595764159784,6.445392950801871e-06,3.026413589912948,548.6359724538078,0.3504174083926908,0.1601447499964056,72.00000000319055,-3.111420077280171e-11,119.99999999870242,0.0751892535633216,15.288,0,0.0,0.0010297854387864,2.0082066977226968e-15,-1.520937588847922e-08,2.5623342884322286e-11,1.4654248781413086e-11,9.19442604094277,87.798916624545,0.3504103527855857,52.383455068075136
0.05,31.222215983575865,131.01039203366796,3.0074067499493786,5.158590039700252,1.707592688632746e-06,76.26884281015512,5.843947534199429e-05,3.0258124765658088,761.6984298824644,0.9592973585397016,0.3772700771701255,72.0000000004862,-1.3608731808076822e-10,120.0000000109612,0.5634958029902841,15.288,0,0.0,0.0028191251099456,2.086299069701397e-14,-1.0551247853743037e-07,3.973493515691201e-11,2.783064866637575e-10,5.158590039700515,83.94063169874748,0.959297626767734,76.32884071402438
0.06,31.222215961742712,131.0103920785344,3.019291017943491,4.109521257467909,3.140103977270004e-05,57.06876634333886,0.0001151069734147,3.024834864051463,590.4875390737208,1.6257536642597354,0.6118982818704327,71.99999992547217,-3.5903296759057166e-10,120.00000003412836,1.6184272268450337,15.288,0,0.0,0.0047776672697797,1.0694899894620088e-13,-3.741090980393931e-07,5.521401959501359e-11,1.6723176417636091e-09,4.109521257587776,79.78719176344794,1.6257585967235286,57.148873286519276
0.07,31.222215929936205,131.01039214392435,3.0371334573469446,3.649087515174788,5.707077112564807e-05,86.89643797254193,0.0001728541558773,3.0234947746384675,855.2937749779139,2.3057260079826607,0.8506307413593818,71.99999965378231,-6.907496536790437e-10,120.00000006788592,3.255354923652711,15.288,0,0.0,0.0067759305364855,3.495199904512709e-13,-9.036515915819006e-07,7.594816279105379e-11,5.728932851326001e-09,3.6490875156204896,75.6601668283889,2.305734972638426,86.94902215090157
0.08,31.222215886364623,131.01039223353447,3.0621840248716574,3.4254446680114707,8.413075603463509e-05,17.831756866644035,0.0002285946601282,3.021841001032126,241.2171988638848,2.961944911520492,1.0819695676346892,71.99999900671328,-1.141745983122182e-09,120.00000011415082,5.371998197385977,15.288,0,0.0,0.0087043901031071,8.800530155962314e-13,-1.829098470920821e-06,1.0943386634701918e-10,1.4896287129277132e-08,3.4254446690434226,71.81713637501419,2.9619581267487467,18.085991154451033
0.09,31.22221583454733,131.01039234010327,3.0919888289029,3.389560809024919,0.0001118726864415,54.09031716446879,0.0002748660999733,3.020060228038602,563.0937377043176,3.504225426410036,1.2780161667917422,71.99999774508822,-1.634190085504106e-09,120.00000016921716,7.519080503822694,15.288,0,0.0,0.0102980157586766,1.865782139518716e-12,-3.1503298654458527e-06,1.6284478329871028e-10,3.03536411425607e-08,3.389560810868955,68.76526501308032,3.504242999330529,54.17456206384468
0.1,31.22221577423132,131.0103924641528,3.1267248829165366,3.4447939461814814,0.0001419149103147,51.372195336549765,0.0003131602029306,3.0182021883815127,538.7437595981919,3.950569597142709,1.4443465951180965,71.99999562056465,-2.1287748602259068e-09,120.00000023339832,9.55649523509932,15.288,0,0.0,0.0116097108366932,3.485956000178229e-12,-4.949356763187612e-06,2.4573266549165286e-10,5.3761299442583966e-08,3.444793949101151,66.34639928474206,3.9505918890846927,51.460781166288626
0.11,31.222215706113143,131.01039260424562,3.165907002780892,3.4691423802630394,0.0001702373452339,40.591037561894986,0.0003534470100582,3.016051659024047,442.8656393052949,4.421478635995476,1.6182620895289603,71.99999235067894,-2.5564479031457968e-09,120.00000030601664,11.970509656144712,15.288,0,0.0,0.0129935974697161,5.942887149865172e-12,-7.273722517324353e-06,3.67769289312894e-10,8.842679949465076e-08,3.4691423844348632,63.88798785789768,4.421505376815134,40.70293476011277
0.12,31.222215630588888,131.0103927595646,3.2092596514826863,3.4852659299808075,0.0001974376474727,44.30042894095728,0.000394069215595,3.013641598889868,475.58594813540446,4.896982486381051,1.793579340340896,71.99998761802138,-2.8337988279882726e-09,120.00000038673312,14.683611096353944,15.288,0,0.0,0.0143909889875706,9.464337642181618e-12,-1.017558359402848e-05,5.395790443954697e-10,1.3700793350599625e-07,3.4852659355662303,61.5068242157714,4.897013499814194,44.40281567867803
0.13,31.222215548046687,131.0103929293088,3.256512891171917,3.5606043721293616,0.0002276507019012,48.86766833507025,0.0004268800875964,3.0112558910133567,515.9156326236895,5.278566579338586,1.939796541405244,71.99998107389406,-2.8573058577484587e-09,120.00000047523812,17.061052093156064,15.288,0,0.0,0.0155123760833565,1.4300406003001044e-11,-1.3705268062305584e-05,7.724776992181392e-10,1.989112774124932e-07,3.560604379397528,59.67313531776262,5.27860233862722,48.960358155653
0.14,31.222215458587108,131.01039311327068,3.30759734332425,3.6000732663755977,0.0002555702913645,45.540290862247225,0.0004629468001456,3.0085404980032777,486.2390860568404,5.70011779273801,2.098362647205908,71.99997235012626,-2.508533681468686e-09,120.00000057154703,19.894788765881632,15.288,0,0.0,0.0167512184495524,2.071534240530911e-11,-1.7917736259613292e-05,1.0787346240473087e-09,2.8081526258393346e-07,3.6000732754351943,57.72385750323359,5.700157937625502,45.639559681930805
0.15,31.222215362317904,131.01039331122794,3.3624387479639086,3.651605404442164,0.0002842753491325,44.01308509501,0.0004965057129938,3.005703619811542,472.54218587214,6.091938849578711,2.2476968067377374,71.99996103728932,-1.6446954747148112e-09,120.00000067569304,22.723773683610247,15.288,0,0.0,0.0179026934683374,2.9002783512213203e-11,-2.287326399669318e-05,1.47199345427166e-09,3.831202693354572e-07,3.651605415492516,55.98561718911576,6.091983503446133,44.115597174664394
0.16,31.22221525912812,131.01039352340948,3.421115382839859,3.67540086436193,0.0003108411545024,34.83804992586084,0.0005330990866742,3.002517946501868,391.1218908297564,6.521183188362317,2.4085903880902046,71.99994669525161,-1.0153513453738144e-10,120.00000078796704,26.03872642002185,15.288,0,0.0,0.019164148528834,3.9478358970291335e-11,-2.864207894220033e-05,1.9677461746207517e-09,5.135466997084602e-07,3.6754008774883777,54.15946979122355,6.521232015176687,34.96719658394182
0.17,31.2222151493826,131.01039374906244,3.4833737923187487,3.7139589864597298,0.0003384978477213,43.96471427482637,0.0005668629535037,2.999235483723449,471.78125980632376,6.916861975403744,2.559060925010733,71.99992884100092,2.3206494032971838e-09,120.0000009081849,29.29426197817256,15.288,0,0.0,0.0203269651395979,5.248754693205839e-11,-3.5267097947693114e-05,2.580363454062817e-09,6.706952682968329e-07,3.713959001863866,52.549031795895466,6.916915146521327,44.06689817851128
0.18,31.22221503253009,131.01039398932429,3.549599475912623,3.7380363034619775,0.0003650282082698,36.67395661481795,0.0006021794701355,2.9956556354306425,407.10156721191447,7.332140201215607,2.71556808256092,71.99990696207136,5.837017536380516e-09,120.00000103716444,32.917216366714264,15.288,0,0.0,0.0215473823438242,6.839750892601699e-11,-4.285557247677198e-05,3.331016495775474e-09,8.639362741436378e-07,3.738036321259578,50.93050624815799,7.332197539712479,36.796100973258795
0.19,31.22221490871209,131.01039424390297,3.619694897703461,3.747799769666444,0.0003901520189829,41.42208371271829,0.0006393759928961,2.991742733214697,448.9531328318269,7.771071983754382,2.879366399937307,71.99988049019642,1.0709144790974043e-08,120.00000117502664,36.97605053227239,15.288,0,0.0,0.0228373144884866,8.761416506509219e-11,-5.146771415177372e-05,4.238406957677133e-09,1.0996552116864756e-06,3.747799789945131,49.29705748437159,7.771133268690212,41.529983675580546
0.2,31.22221477769685,131.01039451327668,3.693822889232993,3.7700519460961166,0.0004166800650969,37.99697972290605,0.0006740224661302,2.987733789228414,418.51563019916136,8.179966026035371,3.0338260708461373,71.99984881140107,1.723179577184912e-08,120.0000013223286,40.969302182777255,15.288,0,0.0,0.024038975990988,1.1057590044953188e-10,-6.120032215177249e-05,5.3263847350253015e-09,1.376394225587184e-06,3.7700519690893857,47.8457752505109,8.180031477986942,38.11426270718793
0.21,31.222214639876928,131.01039479663547,3.771710975053407,3.7926098867321474,0.0004432924407074,36.46301043881366,0.0007080907240332,2.983530483977461,404.8187610144644,8.582757448615462,3.1863584283669346,71.99981127559042,2.5745201416596626e-08,120.00000147900325,45.103059028532826,15.288,0,0.0,0.0252227064089584,1.3774582723633048e-10,-7.20875523136271e-05,6.61341033873124e-09,1.7010673350603349e-06,3.792609912601061,46.47936953648762,8.582827080829217,36.584868250565684
0.22,31.22221449507626,131.01039509434258,3.8534832466471007,3.782921298925821,0.0004660920499522,44.14577847155813,0.0007479176313898,2.978724032883548,472.5421858721365,9.056569122268344,3.360845972992861,71.99976720416048,3.661811567390422e-08,120.00000164562512,50.21995530074818,15.288,0,0.0,0.0266151520780326,1.6960703048385348e-10,-8.421592474264931e-05,8.124635526119773e-09,2.0969540034515424e-06,3.7829213275976334,44.9464484092354,9.056642335836344,44.24615863872642
0.23,31.22221434283448,131.01039540734791,3.9394622486964206,3.813874679301352,0.0004940771488601,36.66675459308932,0.000779455230549,2.974212905336642,406.3406421461021,9.430647902846331,3.5044030163419806,71.99971583979395,5.0272885112871524e-08,120.00000182313076,54.45382429059888,15.288,0,0.0,0.0277145095638672,2.0669790509245914e-10,-9.77285871729516e-05,9.894576563683824e-09,2.5339062472561444e-06,3.813874711257219,43.79476959007253,9.430725512303388,36.78718303164376
0.24,31.222214184153326,131.01039573358457,4.028950821673608,3.829256049377765,0.0005200487408944,37.802126339316736,0.0008136255607606,2.9692962675112065,416.2328240017114,9.837806876534357,3.658163422426286,71.9996564062533,6.718950080713476e-08,120.0000020109434,59.25679777340223,15.288,0,0.0,0.0289110855155543,2.4956955046738006e-10,-0.0001125744417092,1.1934277804843484e-08,3.0448209172448607e-06,3.829256084638984,42.59361542722471,9.83788856559955,37.91856374864305
0.25,31.22221401888584,131.01039607335582,4.122052964664892,3.851417709838087,0.0005469594058717,38.85163035360012,0.0008459008130282,2.964283881833675,425.36408079150686,10.22297576958679,3.8050691648373967,71.99958811418384,8.786880969336211e-08,120.00000220974424,63.98709205399403,15.288,0,0.0,0.0300430411774988,2.987811646313829e-10,-0.0001288461362054,1.4273117985167728e-08,3.621333387698252e-06,3.8514177486178034,41.50703126619192,10.223061685769354,38.96455005232871
0.26,31.222213847358866,131.0103964259872,4.218542267117083,3.8780574625554745,0.0005745172425185,42.3164797140743,0.0008766626387865,2.959162938653076,455.8015834241788,10.590779679138215,3.946551912391076,71.99951013710364,1.1286401474734325e-07,120.00000241975916,68.67355887153568,15.288,0,0.0,0.0311239685467471,3.5491769188178554e-10,-0.0001465721578858,1.6932703957058654e-08,4.267712643344226e-06,3.8780575050466,40.51245375834074,10.590869924095635,42.41981967733593
0.27,31.22221366913008,131.0103967923915,4.318728802515264,3.886188503202341,0.0005994342651313,38.70936050721014,0.0009111181036949,2.953518013741325,423.84219965987256,11.004860953238978,4.102320296019413,71.99942161756776,1.4276417094868828e-07,120.0000026420792,74.14786134434608,15.288,0,0.0,0.0323408987462391,4.1858405402174807e-10,-0.0001658847815307,1.995072923688136e-08,5.018832267232506e-06,3.886188549362022,39.43841359495857,11.00495511215316,38.8218734782956
0.28,31.22221348431185,131.01039717233687,4.422535913956003,3.90556090261878,0.0006261175699806,44.68030766832924,0.0009425767186621,2.947879457547137,476.3468732012221,11.38358114165448,4.247086834352694,71.999321619057,1.7823531611327881e-07,120.000002877279,79.33831935330025,15.288,0,0.0,0.033453914386159,4.904408325040897e-10,-0.0001868529238516,2.3357766479368094e-08,5.847713054408178e-06,3.9055609527288775,38.49894431917428,11.383679491972384,44.77744842575601
0.29,31.222213292835256,131.0103975659655,4.530013412817602,3.9242599519377537,0.0006528240665589,35.802573724660256,0.0009737210635801,2.942037024315898,397.97031042211177,11.759725774384751,4.391004157029451,71.99920917567837,2.1999186079018322e-07,120.00000312617878,84.66717879828003,15.288,0,0.0,0.0345593650464213,5.711677680739745e-10,-0.0002095620322847,2.7188189988316943e-08,6.77505090435382e-06,3.9242600061534456,37.60352534239979,11.759828319749328,35.92324968749781
0.3,31.222213095024976,131.0103979726075,4.64093665799555,3.936939025755682,0.0006785438093183,33.570228713727204,0.0010059102294455,2.93586442972183,378.1859457108711,12.149968255527943,4.539237002744259,71.99908328532703,2.6880857935396905e-07,120.00000338923812,90.3787563598417,15.288,0,0.0,0.0357062504417728,6.614698865958865e-10,-0.0002340353597042,3.1467140861055e-08,7.817263716758327e-06,3.9369390841381695,36.71173884615234,12.150074840940263,33.698361337808635
0.31,31.22221289105846,131.01039839189684,4.755183729044857,3.9598342215431432,0.0007060286581592,35.396825578217346,0.0010350810412898,2.9297385597941448,394.1656220930212,12.504537499407316,4.6763673222047455,71.99894291513503,3.255120771695107e-07,120.00000366712923,95.72967338626896,15.288,0,0.0,0.0367483036680869,7.620720834468404e-10,-0.0002603234137215,3.622454560346964e-08,8.948994505138873e-06,3.9598342843844345,35.934338386209795,12.504648402129598,35.5178635353378
0.32,31.222212681031937,131.01039882363492,4.872689374180126,3.985461429033668,0.0007340760463279,38.52097867048992,0.0010630242168685,2.9235095146848846,421.55939346242695,12.84534566718622,4.809181081594425,71.99878701464397,3.909756427278764e-07,120.0000039606604,101.01782231644016,15.288,0,0.0,0.0377499198995686,8.737098716736534e-10,-0.0002884807530145,4.1491545539590986e-08,1.0187112828155184e-05,3.98546149652875,35.21473736963424,12.845460975581933,38.631757748577954
0.33,31.22221246496604,131.01039926777932,4.9934410812554,4.010606629086,0.0007621365968788,38.18822026147908,0.0010905599149574,2.917102431053817,418.5156301991682,13.18247167592885,4.940798912752974,71.99861449732019,4.661299779655886e-07,120.000004270781,106.38859400029033,15.288,0,0.0,0.0387407190563976,9.971421990244511e-10,-0.0003185760672934,4.7302669734505256e-08,1.154498667827874e-05,4.010606701382261,34.52805863348922,13.182591392065536,38.299473293007864
0.34,31.222212242662028,131.01039972474007,5.117579377337869,4.019339771238816,0.0007871574969313,29.898022638335373,0.0011220389395318,2.910051232417875,345.46563688075645,13.569536737955724,5.0878303926024735,71.99842423285973,5.519675040347761e-07,120.0000045987411,112.72655675097128,15.288,0,0.0,0.0398782837956187,1.1331556132162459e-09,-0.0003507224668667,5.37022358302301e-08,1.308298593306914e-05,4.019339848191799,33.76700548046532,13.5696603843662,30.039310197084795
0.35,31.22221201433324,131.01040019407705,5.2449575244483055,4.033762873683395,0.000813261106463,32.76415525156106,0.0011515840876071,2.902959820469776,370.5765700527033,13.934300103976534,5.227895396154902,71.99821502296155,6.495674834876441e-07,120.000004945438,118.8669740701126,15.288,0,0.0,0.040950312688979,1.2825853697215452e-09,-0.0003849609961885,6.072234695821837e-08,1.4746020857580124e-05,4.033762955530055,33.07785186209504,13.934427850732408,32.89250745069162
0.36,31.22221177990305,131.01040067594835,5.375631006350063,4.051723629010647,0.0008401329464575,37.01692984301412,0.0011797030485285,2.8957873473716007,407.8625232777193,14.282998147928636,5.362923567977223,71.9979856440668,7.600645476620651e-07,120.00000531213882,124.88900300695136,15.288,0,0.0,0.0419751331662584,1.4462801652534363e-09,-0.0004213876232777,6.84067806399068e-08,1.654507199147348e-05,4.051723715967022,32.44322602189087,14.283130115703262,37.13002398000203
0.37,31.222211539445663,131.01040117020102,5.509550188388412,4.071639898917391,0.0008674922629137,35.12417761390579,0.0012067983861697,2.88849906286036,391.1218908297666,14.620581431527652,5.494447309446232,71.99773482653193,8.846681943540367e-07,120.00000570002652,130.86067091914967,15.288,0,0.0,0.0429672939311924,1.6251202388969355e-09,-0.0004600660652957,7.679415042686734e-08,1.849041957573993e-05,4.071639991174516,31.85023865502424,14.620717696893658,35.24274792557624
0.38,31.222211292895075,131.01040167697127,5.646763233102716,4.08264881385344,0.0008930259828975,36.695642158537446,0.0012360471443664,2.880711738179021,404.8187610144602,14.986392916850402,5.634654729559426,71.99746126698146,1.0246533537040716e-06,120.0000061105033,137.4891296153862,15.288,0,0.0,0.0440424171304414,1.8200057922063743e-09,-0.0005010869196581,8.592980519823866e-08,2.0642694281337543e-05,4.082648911356968,31.228847973200924,14.986533193043764,36.808540518115166
0.39,31.22221104018777,131.0104021963902,5.787316652586672,4.096641430700089,0.0009192713382325,31.335681548387896,0.0012640110027448,2.872831219844713,357.64062493382744,15.337978856701952,5.770390286512262,71.99716358743511,1.1813915463769678e-06,120.00000654506955,144.01394309468844,15.288,0,0.0,0.0450757388736732,2.031886352449547e-09,-0.00054455673306,9.586443829735616e-08,2.295945663566148e-05,4.096641533664766,30.65298398882095,15.338123255506089,31.4670954954126
0.4,31.222210781536543,131.01040272801887,5.931064331106764,4.109028969993624,0.0009451871856381,29.95928076777898,0.0012920492774571,2.8646905607053603,345.465636880754,15.692185018814769,5.906873567965718,71.99684037970908,1.3563276523471372e-06,120.00000700500496,150.74021066990193,15.288,0,0.0,0.0461167659598875,2.2617341782092324e-09,-0.0005905037520737,1.0663253249436129e-07,2.5471259834659164e-05,4.1090290785164525,30.09246700352443,15.692333488470696,30.095929256306363
0.41,31.222210517064383,131.01040327160345,6.077922766619747,4.122888296344507,0.0009714525997821,33.78425365340317,0.0013192264430821,2.85640971467756,378.94687077668647,16.03742529732769,6.0405139809190125,71.99649020751959,1.5509747261474075e-06,120.0000074917568,157.44375780268788,15.288,0,0.0,0.0471314487675864,2.5105374204052982e-09,-0.0006389770219162,1.1827345344180344e-07,2.816813594418537e-05,4.122888410595805,29.56469007160549,16.037577892745222,33.904791300285986
0.42,31.22221024682894,131.0104038270252,6.227854084363214,4.14444025865494,0.0009995884754813,38.04468161607466,0.0013435485656724,2.8482703202464488,416.2328240017114,16.348862540904037,6.163613566771559,71.99611159893284,1.766920641656551e-06,120.00000800692096,163.6157044470786,15.288,0,0.0,0.0480467946810589,2.779304965995011e-09,-0.0006900467934588,1.308321832549104e-07,3.100973487310896e-05,4.144440378988911,29.104646754454564,16.34901955589459,38.15115260238947
0.43,31.222209970843565,131.0104043942566,6.380851271439565,4.1618082623168045,0.0010268052928652,33.45815353250911,0.0013687230309017,2.8397750580998298,375.9031395134336,16.67263197205097,6.290467308135904,71.99570306121484,2.005818691215035e-06,120.00000855220898,170.15779512382937,15.288,0,0.0,0.0489983878509763,3.0690566816849196e-09,-0.0007437862329608,1.443552931671376e-07,3.4086145072160934e-05,4.161808388761201,28.640125213458976,16.672793262249197,33.57845085853367
0.44,31.22220968892116,131.01040497368373,6.537047157143216,4.164954087655709,0.0010505545842624,30.86574023822051,0.0013980747538988,2.830419582421933,353.0750125389216,17.050421620730056,6.433992917638883,71.99526304125902,2.269416145406482e-06,120.00000912964636,177.9537948947602,15.288,0,0.0,0.050108743779844,3.380847125286677e-09,-0.0008003278134917,1.589055036683518e-07,3.750784460406397e-05,4.164954219916419,28.113519280259386,17.050586641458253,30.99524475496968
0.45,31.22220940081287,131.01040556582012,6.696617751072218,4.165241899529329,0.0010735835484822,35.912216710755274,0.0014280646808282,2.820677244966047,397.2093853562869,17.438293672974723,6.580571293039616,71.99478987454265,2.5595995397253085e-06,120.00000974147088,186.13940823302417,15.288,0,0.0,0.0512487363629523,3.7158016249566814e-09,-0.000859850913876,1.745604864109677e-07,4.121350642664912e-05,4.1652420376426775,27.591357195572936,17.43846231108416,36.02281959036367
0.46,31.222209106468902,131.0104061707686,6.859600379555308,4.174585124444534,0.0010989881252456,41.916816790010685,0.0014546917035209,2.811153314474766,449.7140588976434,17.786187321601275,6.714685486378061,71.99428180697711,2.8783880229668832e-06,120.0000103898448,193.6374175079873,15.288,0,0.0,0.0522712438446989,4.0751091178509895e-09,-0.0009224765531151,1.9138630415982226e-07,4.50966024037632e-05,4.1745852688465686,27.13985967570823,17.786359950252297,42.01097612387663
0.47,31.22220880579083,131.01040678873238,7.026066274755745,4.1823089530633855,0.0011240727220223,28.37640408484148,0.0014814747534716,2.801325368441072,331.0078106302534,18.138167428286582,6.849989708801916,71.99373704967608,3.2278903746588286e-06,120.00001107707628,201.37401505997488,15.288,0,0.0,0.0533057667609836,4.459978104761035e-09,-0.0009883252835099,2.094509673354327e-07,4.927107017839778e-05,4.182309103852639,26.69716826759888,18.13834399721685,28.514342615617974
0.48,31.222208499300592,131.0104074186346,7.195654207463586,4.189479568102716,0.0011490100608361,27.95074823096412,0.0015080719422187,2.7912412472910484,327.2031223011574,18.48995085190441,6.98515976370584,71.99315377257649,3.6103201777021456e-06,120.00001180491516,209.25751230436188,15.288,0,0.0,0.0543397174489847,4.8716620260348906e-09,-0.0010573190976925,2.2877013380347535e-07,5.373205427420879e-05,4.189479725385959,26.268461765425428,18.4901313379827,28.089773168283216
0.49,31.222208187201936,131.01040806005494,7.368224738812109,4.202723284133339,0.001175611380853,35.08821363242469,0.0015321405723077,2.781292092003844,389.60000969812296,18.812014261754847,7.111044804193205,71.99253015042137,4.027946338669921e-06,120.0000125755114,216.60722913930897,15.288,0,0.0,0.0552863302793499,5.311396446020465e-09,-0.0011294854492155,2.4938633613154685e-07,5.8398320167141767e-05,4.202723448262914,25.88860807032205,18.81219892635871,35.1982716047702
0.5,31.22220786953184,131.01040871291724,7.5437546994244835,4.220815778795054,0.0012036252596423,36.05491615971072,0.0015540388599792,2.7714444106710974,397.97031042210494,19.10875420627192,7.229005658018125,71.99186435180009,4.483102820610566e-06,120.00001339126192,223.4908652241728,15.288,0,0.0,0.0561585257949344,5.7804122391526605e-09,-0.0012048912160576,2.713531252030471e-07,6.327866493526626e-05,4.220815950099865,25.54902500917784,19.108943271285572,36.161276053538906
0.51,31.222207546379583,131.0104093770373,7.722184419225251,4.232567510615346,0.0012298790840397,27.54004661432325,0.0015777580800203,2.761017323676155,323.3984349720841,19.430597746636646,7.354673636736509,71.99115452520388,4.978202222778502e-06,120.00001425458936,231.07869697977367,15.288,0,0.0,0.0571045034845869,6.2799518101633574e-09,-0.0012835871653678,2.947201005874635e-07,6.854585242460463e-05,4.232567688976395,25.189423168613605,19.430790935591396,27.678103017910345
0.52,31.222207217924407,131.01041005223252,7.903549823821924,21.36946952674213,-0.0018597003147603,33.68210156695679,0.0010322116247148,1.3095236396868228,372.0984511843415,23.6702904081183,7.474714035642857,71.99034997201142,4.860856250725815e-05,120.00006048085189,342.91556416104385,15.288,0,7.542874806852103,0.0695646610670616,6.857671277026537e-09,-0.0016760555569237,4.1043928935576335e-05,0.0001090320274909,21.36946960387588,29.4873678856924,23.669998287076016,33.70754840084268
0.53,31.222206884366454,131.01041073800465,8.088028255228386,21.16336546824377,-0.0018113884355731,35.35076691936612,0.0010518716561765,1.2639018706630212,386.5562464348624,24.00209548976726,7.5897169037985215,71.98924275424777,0.000120893375804,120.00013684316988,352.59053520347385,15.288,0,7.5719085497838785,0.0705399504459345,7.65952474594811e-09,-0.0022512109649064,4.09911108967061e-05,0.0001484977088736,21.1633655422049,29.16748482174137,24.00181095753721,35.37335396640315
0.54,31.22220654560813,131.01041143447904,8.275698765365034,20.96329678064393,-0.0017640583172149,31.09904755447463,0.001071361596834,1.217635021129886,349.2703242098436,24.332260789159065,7.703809696899269,71.98780201060467,0.000193072618052,120.00021309996986,362.3509719440676,15.288,0,7.600889180896601,0.0715104272802911,8.699227854725137e-09,-0.0028419399962272,4.0938130141797336e-05,0.0001900395262175,20.96329685152463,28.85668225274641,24.331983691526617,31.12287575061103
0.55,31.22220620195825,131.01041214101895,8.46635687027889,20.77370287624459,-0.0017180664921386,32.94190421876704,0.0010904043870321,1.1711842277189444,365.2500005919907,24.6553388917012,7.815218260161028,71.98601892938846,0.0002651420300335,120.00028924641532,372.0304671198924,15.288,0,7.629780395289717,0.0724600819585964,9.982423092468245e-09,-0.003447756428216,4.0885084427331126e-05,0.0002336071735477,20.773702944149232,28.56060651953244,24.655069018447733,32.96271723087557
0.56,31.222205853430268,131.01041285759723,8.660003679674611,20.5975823925868,-0.0016736051554555,30.777532374891383,0.0011087843200448,1.1249255188516545,346.2265619465787,24.967126859233645,7.922565626332013,71.98388478446579,0.0003370973428948,120.0003652779754,381.4921582629274,15.288,0,7.65857977521472,0.0733765623151766,1.1514634605696482e-08,-0.0040689212075209,4.083200693325859e-05,0.0002791762016917,20.597582457624515,28.28306964307613,24.96686396995061,30.798083669927475
0.57,31.222205500113382,131.0104135840302,8.856587318443337,20.418383152148166,-0.0016293637823463,30.44214810229468,0.0011274552645575,1.0772745596122444,343.1828296833023,25.28626655114852,8.032026533880167,71.98139081420315,0.0004089342513083,120.00044118999712,391.29987107088687,15.288,0,7.687272969825014,0.0743146553666,1.3301380830205657e-08,-0.0047054508952001,4.0778952038711167e-05,0.0003269702998309,20.418383214383205,28.003108123911684,25.28601061128412,30.461203240022982
0.58,31.222205141996515,131.0104143203412,9.056125716423953,20.225656816302383,-0.0015845684031951,39.95900571273291,0.0011470766256057,1.0270522111964444,426.1250058573153,25.62574907813969,8.147879252532526,71.97852810865172,0.0004806563287608,120.00051698880064,401.8695484565592,15.288,0,7.715858449740064,0.0753125414612652,1.5348215351632783e-08,-0.0053576262511851,4.072595313567021e-05,0.0003772793283731,20.225656875773527,27.70743575106864,25.625500174716997,39.97220253013999
0.59,31.22220477866562,131.01041506738494,9.258917970462878,20.05819912552809,-0.0015420973504115,32.47442830560269,0.0011652495658202,0.9783175196279073,360.68438819711065,25.93868412621668,8.254631389003308,71.97528734776691,0.0005522431595875,120.00059264816396,411.73651505109177,15.288,0,7.744378775828917,0.0762324132212837,1.766096112845001e-08,-0.006026899677318,4.067295380278009e-05,0.000429583382229,20.058199182365502,27.44523271081777,25.938441894131348,32.489161274227236
0.6,31.22220441035744,131.01041582467352,9.4648096773993,19.864216557093137,-0.0014981209246902,28.911358758405168,0.0011852162635151,0.925455117691482,329.4859594986058,26.288729605508447,8.373277292676928,71.97165889980018,0.000623706100455,120.00066818492888,422.91600016847366,15.288,0,7.772805603669237,0.0772613577253825,2.024560370581622e-08,-0.0067128973195905,4.0620045962135154e-05,0.000484927247971,19.86421661130405,27.150753936071208,26.288494281223915,28.926166939931917
0.61,31.222204037032977,131.01041659228778,9.67383859712136,19.66958609647721,-0.0014545806094777,33.81136749699875,0.0012053831998582,0.8711436983407641,372.0984511843297,26.644696922028263,8.493528803063306,71.96763305719587,0.000695024427161,120.00074357208564,434.4379635801625,15.288,0,7.801142476010541,0.0783077138267933,2.31081989557523e-08,-0.0074160373958521,4.05672600266796e-05,0.0005429639087022,19.66958614813119,26.856805120919216,26.644468437040448,33.822588085674504
0.62,31.2222036588254,131.0104173699536,9.885922686411943,19.524522325009585,-0.0014149854377894,41.94371210816974,0.00122237652115,0.8214442778188376,442.86563930529206,26.940031772575527,8.593529820525047,71.96319971270172,0.0007662094934797,120.00081882663868,444.11307852285086,15.288,0,7.829388128382463,0.0791758807450762,2.6254968446356064e-08,-0.0081363822520545,4.0514655253720605e-05,0.0006022944618008,19.52452237428296,26.62724014901644,26.939809507182733,41.95175511952737
0.63,31.22220327555242,131.01041815804737,10.101198802659564,19.3682068179717,-0.0013749699722336,23.97073999220481,0.0012401629659007,0.7693186666095264,286.11251274707894,27.252987977404054,8.699010484787056,71.95834915652995,0.0008372482267688,120.00089393227482,454.481936905097,15.288,0,7.857520626711392,0.0800958434158219,2.9691830783903705e-08,-0.0088746218065688,4.0462245322142896e-05,0.0006645603465414,19.368206864903694,26.38476783163898,27.25277199762589,23.983082131425164
0.64,31.22220288784071,131.01041895527675,10.31924083378642,19.19238414596492,-0.0013340646636547,23.544496447671424,0.0012593748718183,0.713523905219366,282.30782441796754,27.596115486818395,8.814109316471917,71.95307151246364,0.0009081361304677,120.00096888363088,465.9884928424298,15.288,0,7.885555788511514,0.08110448600386,3.3424932663696684e-08,-0.0096292046834788,4.041020719741248e-05,0.0007301292105688,19.192384190583144,26.11876826070601,27.59590593243108,23.555305791344697
0.65,31.22220249568084,131.01041976166155,10.540065045185388,19.05290502633988,-0.0012960184964316,41.29276231349754,0.0012761080914427,0.6612686562913933,436.7781447787475,27.89207661927185,8.913472413672,71.94735706193225,0.0009788687898116,120.00104367613277,476.0272064666008,15.288,0,7.913405047720025,0.0819745146548286,3.7460122996781634e-08,-0.0104005395855595,4.035857281969812e-05,0.0007970560513204,19.05290506878196,25.90042356936144,27.8918730411625,41.2980568228488
0.66,31.222202098550827,131.0104205782791,10.764043865463156,18.907832747613984,-0.0012579412824115,35.18990339083137,0.0012932585198068,0.6071710037470647,383.51251517160017,28.19842613846036,9.015936235155957,71.94119596055363,0.0010494411087626,120.00111830483476,486.5309512500784,15.288,0,7.941183886235517,0.0828750820241313,4.180315484671825e-08,-0.0111904027113691,4.0307283042792585e-05,0.0008669885999247,18.907832787929344,25.676241975929283,28.1982285415058,35.195141127098125
0.67,31.22220169665616,131.01042140470602,10.991044258055892,18.745858872898463,-0.0012191628162159,24.36192739166695,0.0013116793104316,0.5495427641430976,289.1562440103425,28.532201597442743,9.12709418664152,71.9345776928706,0.0011198568672351,120.0011927762919,498.1060720522253,15.288,0,7.968865926043251,0.0838562617545271,4.6460385267078886e-08,-0.0119984704495076,4.025642919699216e-05,0.0009405773256757,18.74585891111864,25.43180034587129,28.53201009179541,24.368124778221592
0.68,31.222201290184305,131.01042224055587,11.220945626463037,18.59175819422304,-0.0011812917977964,30.31951596757637,0.001329575169888,0.491771363440937,340.8999924858462,28.85769366430344,9.23527110867079,71.92749181017507,0.0011901026082777,120.00126707333082,509.524319999389,15.288,0,7.996378877727338,0.0848131042997218,5.143812760766989e-08,-0.0128245328810775,4.0206093453678106e-05,0.0010167798274223,18.591758230425288,25.198703413686687,28.85750810742177,30.323503909505398
0.69,31.22220087922867,131.01042308563635,11.453692470603606,18.45829482904741,-0.0011450545301934,37.2427504071483,0.0013459461145626,0.4358569885414327,401.0140726853634,29.154994803457992,9.333953867795508,71.91992791085636,0.001260172232699,120.00134118900849,520.0653393143833,15.288,0,8.023791225500668,0.0856871008735735,5.6742579309970233e-08,-0.0136685738545063,4.015634437149237e-05,0.0010948388822045,18.458294863326667,24.993132856076997,29.154814938713,37.24530079104176
0.7,31.22220046365459,131.0104239402258,11.689387279395795,18.325510537750148,-0.0011091880961945,31.305564987368104,0.0013622555538356,0.3789558241215397,349.27032420985284,29.45332404523776,9.432706036749105,71.91187563751949,0.0013300616525997,120.00141511939412,530.750943909904,15.288,0,8.051093835522439,0.0865641265385675,6.23797584084292e-08,-0.0145312877270307,4.0107206302296393e-05,0.0011758248344041,18.325510570165516,24.789654857872403,29.45314981437905,31.307858574976084
0.71,31.222200043527195,131.0104248041901,11.927993807394133,18.18232451257823,-0.0010730665415023,25.802615359864348,0.0013793670849104,0.3192937421657286,301.33126406340574,29.76998863485525,9.537204252245552,71.90332437298078,0.0013997653117768,120.001488858338,542.2125066983863,15.288,0,8.078226541085956,0.0874950479755687,6.835591221768345e-08,-0.0154127284352903,4.005874654307317e-05,0.0012605278785069,18.18232454317267,24.574174716805118,29.76982007795708,25.804590866850557
0.72,31.22219961885716,131.01042567750778,12.16951364463955,18.026643416669472,-0.0010366091903766,31.504784199366632,0.0013974984259613,0.2563024688806251,350.79220534145287,30.109543588150057,9.648921005558272,71.89426319767833,0.0014692899360973,120.0015624167043,554.6390780137726,15.288,0,8.105258447335377,0.0884932531020996,7.467738682880502e-08,-0.0163132040994603,4.001101779768364e-05,0.0013493593711397,18.02664344548421,24.34391390334246,30.109380757959208,31.505826768349017
0.73,31.222199189649928,131.0104265601679,12.413952238424542,17.906075560923696,-0.0010024466647975,39.75009396052174,0.0014128079654394,0.1978992206857707,422.320318528234,30.39491820853687,9.74267093600291,71.88468094788554,0.0015386142122742,120.00163576672831,565.1892387692818,15.288,0,8.132194563580502,0.0893322278311159,8.135071274998384e-08,-0.0172330982346363,3.9964070680438206e-05,0.0014389255882895,17.906075588064432,24.159608267504904,30.39476074458299,39.750586611619724
0.74,31.222198755846104,131.01042745229347,12.661359139526311,17.775880395153262,-0.0009680711200127,25.044087304192264,0.0014288552656802,0.1367888505525461,294.48281347105944,30.69761174098032,9.841836726742564,71.87456658457332,0.0016077493052124,120.00170892547617,576.4886824859768,15.288,0,8.158964402145015,0.0902221115232312,8.838218994894578e-08,-0.0181727797471139,3.991795861337583e-05,0.0015324616908787,17.775880420662514,23.96422709371407,30.69745967672439,25.044460907179996
0.75,31.22219831783537,131.01042835308093,12.911472908188276,17.64010447387154,-0.0009337487017472,29.17295595320336,0.0014453476147752,0.0734891439087793,330.24688556441487,31.01177706424397,9.944527273740436,71.86390911500251,0.0016766722903077,120.0017818625126,588.3347263828849,15.288,0,8.185598068585941,0.0911457193388083,9.577842417199904e-08,-0.0191312020280777,3.9872814523082656e-05,0.001629754372165,17.6401044977989,23.762848689209125,31.01163039134089,29.173048551545747
0.76,31.222197875507167,131.0104292627587,13.16437830520544,17.51719650176305,-0.0009004122443901,31.37527337343217,0.0014607234461008,0.0113333806061724,349.27032420986166,31.30601886714712,10.040479872519304,71.85269739289609,0.0017453944113453,120.00185459507132,599.5374472204018,15.288,0,8.212116446861677,0.0920107785206294,1.0354563179719605e-07,-0.020109098160555,3.982867102088527e-05,0.001729271295718,17.51719652417881,23.57900301971505,31.30587743072252,31.37527545435786
0.77,31.22219742880703,131.0104301814395,13.420120985247328,17.398215249624933,-0.0008675688403004,29.369286639992826,0.0014757042664825,-0.0512084072063499,331.7687666960708,31.59491695069732,10.134458405018844,71.84092025050496,0.0018139001739512,120.00192710343984,610.6388047885308,15.288,0,8.238515632905324,0.0928601399685479,1.1169011819318881e-07,-0.0211069521753841,3.9785578011396666e-05,0.0018317861630494,17.398215270586803,23.401269859843797,31.59478067330257,29.3693313206265
0.78,31.22219697781013,131.01043110896856,13.678656735690785,17.27023625142887,-0.0008346028812968,24.20409286179923,0.0014914042243932,-0.1166014158434509,286.8734378128899,31.90108052271162,10.23386688877021,71.82856635661646,0.0018821881135213,120.00199938712308,622.5152100199446,15.288,0,8.264735253740056,0.093760254154276,1.202183369118866e-07,-0.022124721263965,3.974361467178679e-05,0.0019386724941468,17.270236270980934,23.21317579048075,31.9009494235976,24.20437376543883
0.79,31.22219652261673,131.0104320451395,13.93992406366456,17.13778560568492,-0.0008017581805335,34.21622058972533,0.0015074608875098,-0.184149212045936,373.6203323159534,32.2173000117347,10.336350509565095,71.815624223835,0.0019502532378083,120.00207144073588,634.9018119749079,15.288,0,8.290830675160743,0.0946899318752703,1.291368307218103e-07,-0.0231623473364057,3.970286081285414e-05,0.0020496611145612,17.137785623876585,23.02041755223427,32.21717407185421,34.21671615818033
0.8,31.22219606299703,131.01043299042666,14.204089315306447,17.02559154756798,-0.0007701245847099,34.666476449661296,0.0015216355610798,-0.2487841877016612,377.42502064505743,32.498156244531714,10.427060742500156,71.80208202761013,0.0020180904920488,120.0021432591802,646.0032621290975,15.288,0,8.316821445223187,0.0955156816763512,1.384519649291268e-07,-0.0242210891402541,3.966333467351221e-05,0.0021619802561533,17.025591564469927,22.854589444963565,32.49803527364483,34.66736917221072
0.81,31.222195599066144,131.01043394459285,14.47108032833702,16.90218531167139,-0.0007382830445201,22.737188240816785,0.001536746447958,-0.3169028010966102,273.9374926939919,32.801047540142804,10.524757776044796,71.78792795321029,0.0020856948591092,120.00221483702414,658.0843428981598,15.288,0,8.342694094572119,0.096406203157954,1.481704684316062e-07,-0.0253006936091167,3.962513046560447e-05,0.0022793359418403,16.902185327324943,22.675459502912727,32.80093157091336,22.73939662447686
0.82,31.222195131031206,131.0104349072111,14.740761577628303,16.77478249647705,-0.0007065911310591,29.06847965548203,0.0015521595483351,-0.3871413325114121,328.72500443277005,33.11310981073193,10.62526818330394,71.77315012089434,0.0021530613406151,120.00228616875404,670.6482905343053,15.288,0,8.3684041132668,0.0973236876334818,1.582991496136712e-07,-0.0264006728442215,3.958835136540738e-05,0.0024009986439856,16.77478251093099,22.492257650240155,33.11299881965661,29.071057605489873
0.83,31.222194658879754,131.0104358783076,15.013148831527133,16.671047001348814,-0.0006761529614674,36.80875210464536,0.0015652602623715,-0.4532996620885724,395.68750322465047,33.38089196775056,10.711128166972223,71.75773651450993,0.0022201849387426,120.00235724909044,681.5212426197031,15.288,0,8.393970994038067,0.0981110353449919,1.688445794362906e-07,-0.0275214650504326,3.955305884829874e-05,0.0025231035558176,16.671047014671533,22.340341578829165,33.380785757891736,36.811543224034004
0.84,31.22219418250248,131.01043685810788,15.28832367871124,16.563539804579516,-0.0006458126078528,22.935999308141977,0.0015785914870013,-0.5213445376984805,275.4593748256452,33.656510865655925,10.799354173629636,71.7416752909036,0.0022870607377333,120.00242807294173,692.8037470372086,15.288,0,8.419418310362113,0.0989214243388418,1.7981310861774205e-07,-0.0286636758717314,3.951931042112664e-05,0.002649446094353,16.563539816816935,22.18459280444365,33.6564094216487,22.941923783371532
0.85,31.222193702220967,131.010437845949,15.566071367788382,16.438474602563506,-0.0006151013814599,24.96513372800949,0.0015935124053614,-0.5946847858185417,292.96093233939376,33.967974821851506,10.899136207197603,71.72495458247201,0.0023536838660227,120.00249863479615,705.6669393443769,15.288,0,8.444725563917302,0.0998371754773408,1.912116404537232e-07,-0.0298262388251114,3.9487232576134726e-05,0.0027823430410111,16.43847461375403,22.00734414157048,33.967878201952445,24.972215652423852
0.86,31.222193217852467,131.0104388422082,15.846523967172743,16.327910101644143,-0.0005852045415251,31.12781784554772,0.0016069161049247,-0.6657611403740576,346.2265619465587,34.25154759113413,10.989628708711084,71.70756209771491,0.0024200493902653,120.00256892961704,717.4789471173004,15.288,0,8.469909811923129,0.1006709586237147,2.0304652827335173e-07,-0.0310103152255421,3.945686245939562e-05,0.0029168709207578,16.327910111845803,21.84960914598144,34.251455667419705,31.134936715911447
0.87,31.222192729427007,131.01043984682374,16.129666860927017,16.224459925413555,-0.000555809473424,29.02645887428837,0.0016194804287818,-0.7361772220580957,327.964078366998,34.52113367096351,11.075378410074691,71.68948557556074,0.0024861524392591,120.00263895220068,728.7978008641877,15.288,0,8.494969592221345,0.1014636408058918,2.153244210211621e-07,-0.0322160391773856,3.942828131912173e-05,0.0030540505109415,16.224459934678038,21.70193171818398,34.521046364615586,29.035792985653895
0.88,31.22219223698666,131.01044085970912,16.415476838731514,16.112612754404573,-0.0005263921241162,25.16433966137636,0.0016327415532244,-0.8098137991206442,294.4828134710418,34.808542533674654,11.166807362744471,71.67071274988139,0.0025519881965829,120.00270869738505,740.9633248430093,15.288,0,8.519868801458582,0.1023087155714937,2.2805200728647293e-07,-0.0334433852623538,3.940157692933251e-05,0.0031967095005525,16.11261276277522,21.544465881201337,34.80845984819315,25.177366654362615
0.89,31.22219174062304,131.0104418806756,16.70389677906997,15.992716756930765,-0.0004970031201196,27.54777705235205,0.0016466966813425,-0.8867800932179077,315.028134248087,35.11391843916996,11.263977614689765,71.65123121177076,0.0026175518720382,120.002778159979,754.000434335225,15.288,0,8.544628093433873,0.1032066074450065,2.412360420488895e-07,-0.0346923066098433,3.937683790976239e-05,0.0033450879653157,15.99271676445182,21.37761125959247,35.11384037010241,27.56204640754078
0.9,31.2221912402584,131.01044290988375,16.99498551827115,15.895691599565684,-0.0004685612014139,30.372503551525245,0.0016581538692389,-0.9588149603162393,339.37814235421445,35.370980534547854,11.345177938378484,71.63102818515414,0.0026828386505212,120.002847334944,765.0592339923894,15.288,0,8.569266090725042,0.1039625041862665,2.5488313776379e-07,-0.0359634918065979,3.935413026871785e-05,0.0034929460752217,15.895691606293555,21.240975020270437,35.37090693312645,30.38763401229214
0.91,31.222190735971555,131.01044394717124,17.288693932665343,15.790413693398936,-0.0004401169331948,23.249183061548656,0.0016702978262459,-1.0341551049473598,277.7421810230789,35.645994376476565,11.432119080748969,71.61009125920918,0.0027478438726978,120.00291621723336,776.9804309492483,15.288,0,8.593775367421486,0.104771172997588,2.690000236556891e-07,-0.0372567803778201,3.933354945669208e-05,0.0036465883072659,15.79041369937641,21.094665011535746,35.645925243070366,23.27217206451483
0.92,31.22219022798347,131.01044499208257,17.58487622939085,15.67725637220917,-0.0004117275352507,27.571084274154053,0.0016831190735309,-1.1128808241531165,315.02813424806214,35.93892038278404,11.524823388916456,71.58840789099779,0.0028125629225894,120.0029848016894,789.7803274806352,15.288,0,8.618144276848318,0.1056324979608018,2.835937751613676e-07,-0.0385713936923185,3.931520734008798e-05,0.0038061743954364,15.677256377480134,20.93913170892132,35.93885570877404,27.593535377224907
0.93,31.22218971619868,131.01044604481484,17.88360219922581,15.584612472886551,-0.0003841053320247,32.688043509951896,0.0016935767955577,-1.1867892341375808,359.1625070654728,36.186157656924,11.602419916052282,71.56596542212036,0.0028769912292731,120.00305308353836,800.6611215728074,15.288,0,8.642385037624267,0.1063595419179306,2.9867068540886165e-07,-0.0399081729328243,3.9299169155966026e-05,0.0039650638193997,15.58461247750265,20.810791501154288,36.18609732179954,32.7095805546781
0.94,31.22218920049958,131.0104471056106,18.18495565605716,15.47460272271148,-0.000356295232305,23.88459796582256,0.0017057177091714,-1.2669024045063144,283.0687504837787,36.47268987204898,11.692793035324218,71.54275134170805,0.0029411243358701,120.00312105814636,813.3675027719395,15.288,0,8.666497183811046,0.1072020913248743,3.142370866655812e-07,-0.0412676924569346,3.928551232318755e-05,0.004132484896378,15.474602726713028,20.6610436047963,36.47263390532476,23.918174357609153
0.95,31.222188681201978,131.01044817381887,18.48872640982425,15.367746261631408,-0.0003288211929633,30.76583121143309,0.0017173436149717,-1.3472499359428451,342.4218736174873,36.75242309089735,11.780848682928513,71.51875269277485,0.0030049577737344,120.00318872039706,825.8677613784316,15.288,0,8.690470972307134,0.108024665440504,3.3030038096466485e-07,-0.0426488886884704,3.927435559726312e-05,0.0043034258256748,15.367746265064495,20.516191595931215,36.75237143978514,30.795315479299077
0.96,31.222188157988896,131.0104492500934,18.79513329535384,15.271246196809496,-0.0003017897775243,30.156337045877663,0.0017276238904832,-1.4254841138166507,337.09533515678345,37.00790141050238,11.860817284293308,71.49395655298036,0.0030684871633034,120.00325606594409,837.3647886251232,15.288,0,8.714324804474636,0.1087759569050311,3.4686638260551615e-07,-0.0440535104135443,3.926575208578086e-05,0.0044759252406434,15.271246199720506,20.38550014036048,37.007854005474975,30.190009472804103
0.97,31.222187630882647,131.01045033438828,19.10416452281336,15.170484807161772,-0.0002748921632602,19.49246108582831,0.0017381642573603,-1.5061369972005345,245.02188719299323,37.27311731592668,11.94388075200326,71.46834972148326,0.0031317081603554,120.00332309010908,849.3844778831169,15.288,0,8.738056208143856,0.1095558782351159,3.639419619376258e-07,-0.0454816747476924,3.9259798324222285e-05,0.0046540079291739,15.170484809593844,20.25018804469212,37.27307413596665,19.550562417948036
0.98,31.222187100197047,131.0104514260566,19.415611167980025,15.05361704938976,-0.0002479712650319,28.14175601870709,0.0017503355469553,-1.5932970916979472,319.5937466429581,37.57735721598761,12.03973480218682,71.44191902587322,0.0031946165289293,120.00338978800988,863.2813591325154,15.288,0,8.761646963803706,0.1104505106011959,3.815348255879664e-07,-0.0469320293813616,3.925661814843852e-05,0.0048414731838366,15.053617051384906,20.094992797066062,37.57731826475239,28.186823703683327
0.99,31.22218656577181,131.01045252542892,19.729585057278346,14.965506298422037,-0.0002217448547987,30.70699729572396,0.0017589998141152,-1.671894243926254,341.6609485517054,37.81137390737842,12.112366741543264,71.4146509826498,0.0032572080619987,120.00345615529992,874.0408212988987,15.288,0,8.785106875759533,0.1111387457735062,3.996511707853472e-07,-0.0484058410820478,3.92562850193602e-05,0.00502445656046,14.965506300027306,19.97762460844287,37.81133907577808,30.752478215203286
1.0,31.22218602760464,131.0104536325101,20.046089833954788,14.8617472336094,-0.0001955004764793,27.53629175451105,0.0017692331247002,-1.756907941484949,314.2672081822764,38.08340415523954,12.197458437147768,71.38653264907126,0.0033194787798542,120.00352218769729,886.6355110315643,15.288,0,8.808441108724585,0.1119387224362124,4.18297710443793e-07,-0.0499030867058436,3.925889988426552e-05,0.0052169759649793,14.861747234866314,19.840947567983168,38.08337344609651,27.592283200826135
1.01,31.2221854858916,131.01045474689593,20.36499619852768,14.761265953406172,-0.0001695339007884,28.777957458491343,0.0017788560354487,-1.841872472075992,324.9203161036979,38.34700887886743,12.279719430648328,71.35755056558003,0.0033814247046968,120.00358788070412,898.9246377449242,15.288,0,8.831646312059362,0.1127139425989154,4.374817624355777e-07,-0.0514231467035278,3.926457163233303e-05,0.0054129311757195,14.761265954358096,19.709297593817887,38.34698224854456,28.836839855477535
1.02,31.22218494054864,131.0104558687597,20.686362766064388,14.665469472625476,-0.000143836781153,24.10324878403532,0.0017876788688534,-1.92618028456906,284.59063161540416,38.59815395780294,12.357805805240028,71.3276914825803,0.0034430420167175,120.0036532302852,910.7096925273032,15.288,0,8.854727886441145,0.1134525485382662,4.572096670399106e-07,-0.0529666436546172,3.927339201994175e-05,0.0056117452194707,14.665469473315358,19.584494100329664,38.59813136397419,24.18009048017725
1.03,31.22218439164853,131.01045699795145,21.01014227720613,14.559324177097746,-0.0001182679283882,19.77905253852508,0.0017974920463292,-2.0154328531052887,247.30469339049705,38.875542785245614,12.444540606454735,71.29694221986989,0.0035043270328831,120.00371823237576,923.8177793345684,15.288,0,8.877681629622776,0.1142683021532297,4.774882937515349e-07,-0.0545333444744363,3.9285465589157615e-05,0.0058190762851597,14.559324177567731,19.447144977058027,38.87552420776287,19.88147107580546
1.04,31.22218383925714,131.01045813433552,21.336292632238976,14.464017071967348,-9.301288445508684e-05,31.180101556908976,0.0018057459421958,-2.101667697094861,345.46563688072297,39.12418023910251,12.52172478705598,71.26528915879499,0.0035652761031986,120.0037828829481,935.6432348212614,15.288,0,8.90051060479139,0.1149995545363673,4.983245338129643e-07,-0.0561232560568201,3.930089403566637e-05,0.0060268440910446,14.464017072260049,19.32456760928632,39.12416562867279,31.25085188389091
1.05,31.22218328306277,131.01045927855432,21.66502302326005,14.360502451843558,-6.791377346359405e-05,18.989153074198168,0.0018147299144496,-2.1921785751075284,240.45625879819983,39.39387077522165,12.605843326005363,71.23271883899754,0.0036258857354016,120.00384717854163,948.5568816665376,15.288,0,8.923226911170286,0.1157926982235633,5.197239153787693e-07,-0.0577381438420155,3.931976957016302e-05,0.0062428026799364,14.36050245200074,19.192195469489597,39.39386010735106,19.115270980913007
1.06,31.2221827233208,131.01046043008148,21.996164140137367,14.25019348105194,-4.302541895667208e-05,26.85923611227089,0.0018242993550739,-2.286670884768023,308.17968365593924,39.68171058150661,12.695988177285072,71.19921722624483,0.0036861524608694,120.00391111510557,962.4385818617212,15.288,0,8.945821048513443,0.1166391983741825,5.416944325671448e-07,-0.059376865702414,3.934220900696732e-05,0.0064666889992657,14.250193481115554,19.051814999787656,39.6817038230896,26.956398713441498
1.07,31.22218215990332,131.01046158918064,22.32980246199928,14.157206028333766,-1.8405514116214408e-05,31.54996807376512,0.001831432315263,-2.375170626911017,348.5093681440308,39.92175864972035,12.77022234133666,71.16476998729203,0.0037460728866287,120.00397468907572,974.0868174589388,15.288,0,8.96830552001825,0.1173452300710385,5.642424442965452e-07,-0.0610405335161644,3.9368316635716825e-05,0.0066878787202667,14.157206028345508,18.934615889774477,39.92175575858896,31.639246582633465
1.08,31.222181592697023,131.01046275608527,22.666013166412164,14.06103468746062,6.031564414502192e-06,21.38309168457636,0.0018386590039739,-2.466002447242985,261.00157857466235,40.16938328109895,12.846941151524147,71.12936308894834,0.0038056438253832,120.00403789708318,986.176478084016,15.288,0,8.990681586055707,0.1180735409975416,5.873745022428933e-07,-0.0627298005370615,3.939820570689539e-05,0.0069153704374538,14.061034687461891,18.81409783922201,40.16938422853488,21.52481780274746
1.09,31.2221810219981,131.01046393018487,23.004599743141984,13.947423247375289,3.022839501338768e-05,19.703696041537707,0.0018478216437316,-2.565548035144362,246.54375332474407,40.4654339828987,12.939830678912491,71.09298237122893,0.0038648622190725,120.00410073544953,1000.733855060008,15.288,0,9.012936308840615,0.1189442043576213,6.110990130190309e-07,-0.0644431356285027,3.943199245345632e-05,0.0071563755048847,13.9474232474074,18.67175200447893,40.465438731163886,19.87001957302475
1.1,31.222180447886497,131.01046511131457,23.345509732695955,13.84347107469237,5.419788749755252e-05,39.08652833870029,0.0018554653080477,-2.6620983148095068,413.1890617385841,40.73388678420058,13.023556524920725,71.05561355071869,0.0039237251374515,120.00416320085787,1014.0226834431556,15.288,0,9.035067632623434,0.1197337558599281,6.354230698157729e-07,-0.0661804870794164,3.946978755827024e-05,0.0073978214328135,13.843471074796394,18.542676841626864,40.73389529758484,39.177078355238336
1.11,31.22217986991937,131.01046630038698,23.68903517969551,13.758148809205112,7.806007604474755e-05,28.735246538429752,0.0018603541859853,-2.751132075754368,324.1593910376397,40.947157649947926,13.088808094603632,71.01724210356912,0.0039822297573339,120.0042252906606,1024.6349298990583,15.288,0,9.0570929843778,0.1203611138151302,6.60351481934043e-07,-0.0679446190191531,3.951171529195775e-05,0.0076345339550181,13.758148809422275,18.43858315984484,40.947169911596,28.866643808789085
1.12,31.22217928815876,131.01046749727408,24.035132961941084,13.639149135325686,0.0001015289387228,11.11722676355398,0.0018693330280868,-2.857000867816109,172.73281794065943,41.25790650828355,13.186716171218407,70.977853796625,0.0040403734800252,120.004287001898,1040.2113132502657,15.288,0,9.079009891455629,0.1212750105513324,6.858918363624007e-07,-0.0697350996416881,3.955790018469762e-05,0.0078949226249206,13.639149135696387,18.29152543769474,41.25792245641195,11.478466289770113
1.13,31.22217870324857,131.01046870064891,24.38338015144081,13.538981353131309,0.0001248782063981,33.7893089127954,0.0018755240163285,-2.9551559158127456,367.5328077900705,41.512659038389565,13.265948844206164,70.93743326616561,0.0040981536707644,120.00434833094155,1053.0615971180273,15.288,0,9.100803978831454,0.1220243190747161,7.120546209786276e-07,-0.0715486629335315,3.960844078768569e-05,0.0081499850474674,13.538981353696464,18.1696746771788,41.51267865421236,33.91828926712944
1.14,31.222178114456728,131.0104699120198,24.734255090527423,13.451930483155367,0.0001481769785558,18.9096305801323,0.001879595002419,-3.0477987744995287,239.69531773195544,41.72618964384482,13.33132474505776,70.89596639138374,0.0041555680847835,120.00440927604664,1063.8869660135972,15.288,0,9.122503493736913,0.1226524669301352,7.388425754325565e-07,-0.0733897253099104,3.966349134942656e-05,0.0084024142628549,13.451930483956431,18.0657023474262,41.72621291943018,19.15367352702329
1.15,31.222177522309952,131.01047113030128,25.08741012279,13.33123028047526,0.0001708865413926,18.64263019064276,0.0018878741540436,-3.1584584931338138,237.41251153546767,42.04142568853417,13.431013515323707,70.85343904851499,0.0042126146663454,120.00446983430916,1079.9861124564186,15.288,0,9.144082501695948,0.1235795831997128,7.662658729185255e-07,-0.0752549985009695,3.972314780492176e-05,0.0086807680890786,13.331230281550663,17.91862961812876,42.04145253132932,18.90829246764453
1.16,31.22217692695577,131.01047235518922,25.44274870852911,13.247683767434356,0.00019384017593,48.070275993428304,0.0018907464928914,-3.2510912250876425,490.0437743845894,42.24076462550624,13.4917378645639,70.80983602287695,0.0042692913406876,120.00453000320717,1090.2146629870203,15.288,0,9.165549919424793,0.1241660322888815,7.943319089656739e-07,-0.0771442306201783,3.97875242818138e-05,0.0089405815049774,13.247683768827118,17.82076834736488,42.240795073849874,48.18008957871637
1.17,31.22217632742597,131.0104735886783,25.80089719480422,13.146591554327962,0.0002163942533638,8.888342651959935,0.001895625045174,-3.353787358805427,153.70937929486794,42.49282871941708,13.570244802460216,70.76514325555236,0.0043255964126288,120.00458978181184,1103.2268453181675,15.288,0,9.1869334012445,0.1249074753967815,8.230419402616601e-07,-0.0790631856218021,3.985682880101833e-05,0.00921733886755,13.146591556077524,17.70082198904255,42.49286271054692,9.500027807334437
1.18,31.22217572498124,131.01047482817083,26.16103351344333,13.02236149542234,0.0002383041827846,23.60501537689128,0.0019033914529654,-3.470325859529291,280.02501822196746,42.81832040532783,13.673787301049998,70.71934590421326,0.0043815282626326,120.00464916687326,1120.1540844173771,15.288,0,9.208187680119693,0.1258647682666508,8.52411117089236e-07,-0.0810040104291453,3.993107573374953e-05,0.0095156120341228,13.022361497565075,17.55130696356521,42.81835783806133,23.858749257609684
1.19,31.222175119044667,131.01047607485532,26.523530489064644,12.94956612878134,0.0002609449595279,40.902675613665146,0.0019035605560138,-3.5593356023745675,428.4078130529292,42.97629190301107,13.72063643237752,70.67242869968265,0.0044370853753141,120.0047081572208,1128.3953047814805,15.288,0,9.229349154517712,0.1263296434568519,8.824418337248966e-07,-0.0829711144536872,4.00104585770695e-05,0.0097823077132254,12.949566131365549,17.469917360285077,42.97633289214946,41.057249614539344
1.2,31.222174509111856,131.01047732977045,26.88870767312283,12.835699574713765,0.0002826190361655,4.615388292340089,0.0019091038667083,-3.67242606498022,117.1843741360236,43.266031343228114,13.812255473393252,70.62437786496777,0.0044922666854262,120.00476675207426,1143.621404544812,15.288,0,9.25042021383274,0.1271818623066432,9.131382867758592e-07,-0.0849671268101357,4.009516898540935e-05,0.0100848214654085,12.83569957777292,17.335502690985024,43.2660757369225,5.898179883361785
1.21,31.22217389645453,131.01047859029623,27.255742869375545,12.724181294336356,0.0003040706558764,32.921204143638434,0.0019139671671927,-3.785453362444376,359.92343213200894,43.54777137852649,13.90139991354574,70.5751779109184,0.0045470710632379,120.00482494867218,1158.523133566004,15.288,0,9.271366647048168,0.1280105762675568,9.4451614461127e-07,-0.0869841753076228,4.0185176494574674e-05,0.0103910896831861,12.724181297909633,17.20484756646517,43.54781914183342,33.13812521989782
1.22,31.22217328008975,131.01047985845727,27.62526446192883,12.647541705430807,0.0003261790482825,23.95572039965353,0.0019133737107674,-3.878413354039129,283.0687504825761,43.709751979816815,13.949783202919257,70.52481432848957,0.0046014977239598,120.0048827470338,1167.1162341741203,15.288,0,9.292202707783282,0.1284872611556567,9.765743661439362e-07,-0.0890291202216564,4.0280761117771856e-05,0.0106745583697142,12.647541709568335,17.120888930338023,43.70980321590191,24.267645820560432
