Time,Latitude,Longitude,Altitude,Angle of Attack,Angle of Sideslip,X-Acceleration,Y-Acceleration,Z-Acceleration,Thrust,True Velocity,Ground Velocity,Pitch,Roll,Yaw,Dynamic Pressure,cp,parachute_deploy_gain,Wind Speed,Mach,omega_x,omega_y,omega_z,Cmq,Angle of Attack(total),Angle of Attack(gust),True Velocity(gust),Acceleration
0.0,31.222186000000004,131.010384,3.000000003643237,0.0,0.0,0.0,0.0,0.0,2.2828121974499247,0.0,0.0,69.99999999623421,0.0,113.69999999388332,0.0,15.288,0,0.0,0.0,0.0,0.0,0.0,-0.0,0.0,90.0,0.0,0.0
0.01,31.22218600000153,131.01038399999584,2.99999882256592,0.0,0.0,0.0,0.0,0.0,34.24218696174923,7.502283530665459e-11,7.190531319924593e-11,69.99999999623329,-4.83564628150269e-13,113.69999999388072,3.446445726795683e-21,15.288,0,0.0,2.204725565824978e-13,-3.659182332138578e-19,7.589415207398531e-19,4.811147140404426e-19,-1.5108918610345807e-31,0.0,89.9999999995224,7.502283530665459e-11,0.0
0.02,31.22218600000288,131.01038399999217,2.999997775701936,0.0,0.0,0.0,0.0,0.0,25.871876237766408,1.5320717031631675e-10,1.4674636035870463e-10,69.99999999623222,-9.67129256300373e-13,113.69999999387804,1.4372842949972735e-20,15.288,0,0.0,4.5023593667086093e-13,-7.284483346386986e-19,1.5178830414797062e-18,9.757819552369542e-19,-6.170906918166791e-31,0.0,89.99999999902465,1.5320717031631675e-10,0.0
0.03,31.22218599928065,131.01038400193067,3.000201659671132,18.81500467334555,-0.00012974450181,11.96616230539064,-1.8916256735984712e-05,3.349833086198469,180.34219359854663,0.0882870268161719,0.0553390044312322,69.99999999799445,-4.212591857125379e-12,113.69999999488518,0.0047728553458352,15.288,0,0.0,0.0002594525584132,3.2187251995663407e-17,-7.20264389268894e-10,1.2365134327422308e-11,1.6874092354518158e-13,18.815004673776716,89.46786891739345,0.0882666465974854,12.426199017587786
0.04,31.22218599548236,131.0103840121632,3.001799604587872,9.46752327608497,-4.6177622759613696e-05,55.21900012092241,3.931876292165237e-06,3.349616504302861,548.6359724538078,0.3767519978512604,0.1853356633749705,70.00000000507204,-2.4624598767003407e-11,113.70000000019972,0.086915163246288,15.288,0,0.0,0.0011071759353184,1.6174128009138757e-15,-1.3693172015529268e-08,2.7753303060112748e-11,1.3689612277852356e-11,9.467523276196548,87.63554493451223,0.3767447442872393,55.32050167054111
0.05,31.222185984749512,131.01038404118162,3.00777936418888,5.376730308971262,-2.257790939128127e-06,80.28807156553681,5.266841443842784e-05,3.348887800834877,761.6984298824644,1.018787885905993,0.4366201147110198,70.00000000894464,-1.1355399380652658e-10,113.70000001523856,0.635552918586145,15.288,0,0.0,0.0029939522895272,1.6418815498809788e-14,-9.32122351075408e-08,4.303264669380585e-11,2.5199270302492604e-10,5.3767303089717045,83.57022052969386,1.0187875312530217,80.35788377762394
0.06,31.22218596447235,131.01038409608267,3.0201664202003013,4.296730121134882,2.4863835723705905e-05,60.21296515808257,0.0001057204249726,3.347700952379021,590.4875390737208,1.721098934225416,0.7081674028809783,69.99999995523842,-3.0560354507026086e-10,113.70000004366592,1.8138247671743823,15.288,0,0.0,0.0050578622752421,8.328976953118383e-14,-3.2824985336199985e-07,5.923438275930214e-11,1.4991363363716091e-09,4.296730121206683,79.20467073327266,1.7211028398275985,60.305955550063224
0.07,31.22218593493329,131.01038417609837,3.038741944736831,3.8204913578752526,4.8016684030909405e-05,91.4060317508128,0.0001597686613101,3.346072557365335,855.2937749779139,2.4375792548422868,0.9844712334613328,69.99999973536046,-5.939103491363046e-10,113.7000000850886,3.6383156301599167,15.288,0,0.0,0.007163413150771,2.709313825263564e-13,-7.906546256197275e-07,7.920022733617308e-11,5.114174483651565e-09,3.820491358176508,74.87999294483174,2.437586797285377,91.46725557277466
0.08,31.222185894468456,131.01038428575305,3.0647976109320942,3.588632851766762,7.220043782492885e-05,19.18449428359557,0.0002119618497595,3.3440615022685813,241.2171988638848,3.1292508166901074,1.2522236515868983,69.99999919480445,-9.914748373602156e-10,113.7000001418522,5.996012698481753,15.288,0,0.0,0.0091960591623389,6.80386533246681e-13,-1.5973238302190878e-06,1.0839624626357699e-10,1.3263625118823921e-08,3.58863285249208,70.86684630658345,3.1292621579083604,19.473766155861934
0.09,31.22218584634549,131.01038441616095,3.0957981580345013,3.551302481506045,9.685468678862004e-05,57.102946699906326,0.0002554087225869,3.341892818148368,563.0937377043176,3.701810007254615,1.479132491047967,69.99999812344194,-1.4359264356978275e-09,113.7000002093888,8.390904013834115,15.288,0,0.0,0.010878666406854,1.440096519545733e-12,-2.748643691533636e-06,1.5214952332699618e-10,2.6999776649034504e-08,3.5513024828250237,67.68737872952666,3.701825221153239,57.20065357568538
0.1,31.222185790329306,131.01038456796124,3.1319266121977414,3.608446747536112,0.0001234669721807,54.26147302645416,0.0002914860332524,3.3396271157106168,538.7437595981919,4.174070299823608,1.6716491241860567,69.9999963052332,-1.902380107712657e-09,113.70000028805804,10.668380938744466,15.288,0,0.0,0.0122665227999911,2.687800116751415e-12,-4.315796035622946e-06,2.1749089204950437e-10,4.7802076800548326e-08,3.608446749645647,65.17160335282355,4.174089693970246,54.36414778470795
0.11,31.222185727066616,131.0103847393952,3.172681775073216,3.633547373470009,0.0001485939126744,42.987553988990406,0.0003293995000288,3.337005588796181,442.8656393052949,4.672024955140527,1.8729475711242067,69.99999349387662,-2.3433348587116544e-09,113.70000037699285,13.365573690709628,15.288,0,0.0,0.0137298902182575,4.5789425819531184e-12,-6.340230783164189e-06,3.1157625832417107e-10,7.860218435507205e-08,3.6335473765043056,62.62546922225161,4.672048296217748,43.116880735560244
0.12,31.22218565692512,131.0103849294629,3.2177790417108385,3.650108937861461,0.0001727442530266,46.86777100765684,0.000367618259785,3.334068179146888,475.58594813540446,5.17479364099247,2.0758708919414386,69.99998941286465,-2.702771525550512e-09,113.70000047573096,16.396890189902592,15.288,0,0.0,0.0152074069417046,7.288473386564583e-12,-8.86736416607888e-06,4.42271554299792e-10,1.217615295152289e-07,3.6501089419435786,60.16906436414164,5.174820775596283,46.986210423745625
0.13,31.222185580265183,131.0103851371844,3.2669395832841857,3.7280113734654137,0.0001995014041665,51.64515456841877,0.0003986198234033,3.3311573548369657,515.9156326236895,5.579364582999854,2.2451120211463422,69.99998375846928,-2.9114380666036422e-09,113.70000058383452,19.060875702782603,15.288,0,0.0,0.0163963474924215,1.100846422415094e-11,-1.1941028436408576e-05,6.179653149059831e-10,1.7678562106638216e-07,3.728011378795934,58.279338776943774,5.579395920607139,51.75247433579817
0.14,31.22218549718016,131.01038536230575,3.320091807147376,3.768719651034081,0.0002242721760019,48.1660778383537,0.0004326225136175,3.32784677779744,486.2390860568404,6.025734265159953,2.428648685938864,69.99997621008868,-2.890941335368725e-09,113.70000070125378,22.232643351545065,15.288,0,0.0,0.0177081261985351,1.5941871344608664e-11,-1.560901486259027e-05,8.477542742712431e-10,2.495765160917323e-07,3.7687196576976176,56.27980129251342,6.025769493750979,48.280903250602165
0.15,31.22218540777004,131.01038560455507,3.377159065217065,3.821894709649632,0.000249725644238,46.56959330999435,0.0004643042952466,3.324387732286376,472.54218587214,6.441023336496372,2.6014999612196745,69.99996641132823,-2.546763407193136e-09,113.70000082794672,25.402620271850456,15.288,0,0.0,0.0189285691155931,2.2314099732464315e-11,-1.992367942778425e-05,1.1417519574710292e-09,3.4051816697623295e-07,3.821894717796148,54.501255563441134,6.441062563308839,46.68809885900716
0.16,31.22218531193176,131.01038586421257,3.4382223512025254,3.8463320955387794,0.0002733212404609,36.974247749122085,0.0004987816203583,3.3205066466509234,391.1218908297564,6.895451966878468,2.7877331692857847,69.99995397923414,-1.77088415515292e-09,113.70000096417354,29.113317717489338,15.288,0,0.0,0.0202640360420561,3.0367358387834494e-11,-2.4945905791363795e-05,1.5114297685186711e-09,4.5643121540033697e-07,3.846332105235269,52.641145594326446,6.895494900078523,37.12304892183151
0.17,31.222185210004127,131.010386140357,3.503019838429153,3.8860314262554336,0.000297865039677,46.520531453299206,0.0005306403365217,3.31650761597812,471.78125980632376,7.314788342774694,2.9619016331667103,69.99993849340957,-4.3039914767238207e-10,113.70000110959404,32.761746921137856,15.288,0,0.0,0.0214963781445172,4.0366633128431416e-11,-3.0713078585132897e-05,1.96747427715988e-09,5.961228045584824e-07,3.886031437653654,51.00464968745696,7.314835131305714,46.63860064094784
0.18,31.22218510147516,131.01038643438045,3.571950002194137,3.9107265153396016,0.0003214293682635,38.895647526122765,0.0005639254295027,3.312149448254175,407.10156721191447,7.754626295791602,3.1430587898572058,69.9999195084231,1.6149322372810674e-09,113.70000126508234,36.81988229018681,15.288,0,0.0,0.0227889722876034,5.2593391349219385e-11,-3.731786027786564e-05,2.525509173087448e-09,7.6786585232224e-07,3.9107265285284982,49.36615848311875,7.754676785798701,39.036415444581515
0.19,31.222184986476247,131.0103867459258,3.644912152926752,3.920599115663931,0.0003437679584038,43.86258669386953,0.0005989384366483,3.307389681300437,448.9531328318269,8.219206165926856,3.332657190859447,69.99989653019398,4.538529095696477e-09,113.70000143063515,41.36350714675367,15.288,0,0.0,0.02415428010977,6.735860419174937e-11,-4.481243905342629e-05,3.199401151670645e-09,9.773118416308382e-07,3.92059913071168,47.71893898797248,8.21926016487149,43.987104227715655
0.2,31.222184864792144,131.01038707557822,3.722074668489528,3.943376465171875,0.000367328732016,40.28070981710589,0.0006315894240138,3.30251450988504,418.51563019916136,8.65238089736321,3.511445117640573,69.99986902534273,8.534090245934178e-09,113.7000016067622,45.83799876721736,15.288,0,0.0,0.025427299120469,8.499785987217288e-11,-5.328041996372527e-05,4.006766070954748e-09,1.2232205148646746e-06,3.9433764822533854,46.2587826635041,8.652438597225508,40.41586552155969
0.21,31.22218473678744,131.01038742234647,3.803156063113743,3.9664546506877016,0.000390962054969,38.67679184347145,0.0006636984664108,3.297405915846789,404.8187610144644,9.079179692250786,3.688002035198235,69.99983642883521,1.3827831253856693e-08,113.70000179318536,50.47126980736161,15.288,0,0.0,0.0266815841422463,1.0586558589671407e-10,-6.275155280099118e-05,4.961340042512481e-09,1.5117124669161171e-06,3.9664546699249135,44.88773728276958,9.079241104426773,38.817098210937615
0.22,31.2221846022986,131.01038778667507,3.8882846911135607,3.956175711337521,0.0004112685792646,46.713636108302936,0.0007011135033803,3.291572407481395,472.5421858721365,9.580256326712124,3.889976788904857,69.99979815126248,2.0662823443484168e-08,113.70000199039316,56.195522894218605,15.288,0,0.0,0.0281541581291438,1.3033127211465288e-10,-7.330053770532661e-05,6.0817207473359025e-09,1.8632831045819008e-06,3.956175732680424,43.35679625546934,9.580320928629488,46.8294591882524
0.23,31.222184460898035,131.01038816972698,3.977794004014759,3.9879066397329104,0.0004360962274406,38.89105719050748,0.0007308686121188,3.286096544282012,406.3406421461021,9.977039034039262,4.056142701351626,69.99975353557706,2.9316661139418326e-08,113.70000219928508,60.9462612310605,15.288,0,0.0,0.0293202403623685,1.5880617816859538e-10,-8.505067486192354e-05,7.393319440773217e-09,2.2514912291167663e-06,3.987906663538912,42.20670487756048,9.97710753587448,39.0296395118868
0.24,31.222184313516166,131.01038856897196,4.070963590490852,4.003523997322975,0.000459165577055,40.0792299321398,0.0007630441688766,3.280134925833028,416.2328240017114,10.408422364424831,4.234121060914368,69.99970190737699,4.010976417051318e-08,113.70000241888,66.32994780718496,15.288,0,0.0,0.030588009649109,1.91711512587616e-10,-9.795845222523724e-05,8.904557280909524e-09,2.7052895870113487e-06,4.003524023611085,41.011349410369874,10.408494489985014,40.21323112692186
0.25,31.22218416001652,131.01038898478134,4.167901030441617,4.0261356185860135,0.0004830526730531,41.17760020658354,0.0007934613160587,3.2740610008587527,425.36408079150686,10.816813039390448,4.4041629376391525,69.99964258149416,5.3372865854010094e-08,113.70000264972064,71.63651430352668,15.288,0,0.0,0.0317882126436337,2.2947426169209347e-10,-0.0001121037688082,1.0637152702866709e-08,3.217380562698304e-06,4.026135647516394,39.93186687113378,10.816888917126896,41.30755663120434
0.26,31.222184000702686,131.0103894163294,4.26837241014618,4.053359329950934,0.000507503069958,44.80261175215926,0.0008224724146494,3.2678597736729302,455.8015834241788,11.207047269494833,4.567925492611352,69.99957484039399,6.947299261165984e-08,113.70000289176392,76.89781807056055,15.288,0,0.0,0.0329350617559806,2.7254099134167665e-10,-0.0001275114371842,1.260720913253598e-08,3.7915697709142366e-06,4.053359361668992,38.945390435244384,11.207126987890645,44.921630958721536
0.27,31.22218383516388,131.01038986473338,4.372698316214008,4.0614460923241,0.0005296455772492,41.029837477288126,0.0008548809954683,3.2610328932384265,423.84219965987256,11.645685385842508,4.748226940060522,69.99949794024376,8.879821051920497e-08,113.70000314600205,83.0342688744587,15.288,0,0.0,0.0342241635563461,3.2137296827284217e-10,-0.0001442952656441,1.4842505534226832e-08,4.458527942364847e-06,4.061446126801262,37.8838346421185,11.645768582375233,41.15922617924542
0.28,31.222183663504484,131.01039032970942,4.48079961904222,4.081133040992532,0.0005533279247169,47.27661484082626,0.0008845140695959,3.254218495915602,476.3468732012221,12.047344998676092,4.915789434712848,69.99941106884992,1.1178948978424788e-07,113.70000341275257,88.85982357848233,15.288,0,0.0,0.0354045979054623,3.764736350660473e-10,-0.0001625146963723,1.7365685655384934e-08,5.194620655212288e-06,4.081133078439725,36.956255322213885,12.047431915223257,47.38848224631549
0.29,31.22218348566054,131.0103908114315,4.592727908358551,4.1001100265020245,0.0005770279952742,37.989969791857405,0.0009138463939581,3.247164755122801,397.97031042211177,12.446314684600782,5.082367374004485,69.99931338876085,1.3891902435864665e-07,113.70000369260468,94.8417675268915,15.288,0,0.0,0.0365771315767517,4.3836067907166327e-10,-0.0001822432988888,2.0202163500922312e-08,6.018074062137429e-06,4.100110067036654,36.07377590258778,12.446405323946324,38.12849176886316
0.3,31.222183301933686,131.01039130907952,4.708251093558373,4.112858061667493,0.0005998635114143,35.655053282557844,0.000944131403186,3.2397207148238625,378.1859457108711,12.860033399289696,5.253940723820665,69.99920403105713,1.707002607527005e-07,113.7000039856728,101.2505662360602,15.288,0,0.0,0.03779301412572,5.075709863465428e-10,-0.0002035013069687,2.3370674033523645e-08,6.94335970778e-06,4.112858105337573,35.19685285507256,12.860127625629724,35.80193592228613
0.31,31.222183112488807,131.0103918222051,4.827243246502713,4.136140889545823,0.0006242383343011,37.56633644061071,0.0009716215464757,3.232339252743767,394.1656220930212,13.2364445751808,5.4126574282679245,69.99908210036875,2.0768081583188525e-07,113.7000042923011,107.26326115439352,15.288,0,0.0,0.0388992619788015,5.846561731689753e-10,-0.0002263323252403,2.6893437641668458e-08,7.948283231812338e-06,4.1361409365698805,34.43286455705216,13.236542630309057,37.70514091683033
0.32,31.22218291741533,131.01039235056504,4.949637017503345,4.1622282001352975,0.0006491019906456,40.83513712643371,0.0009979686925508,3.224840963348891,421.55939346242695,13.59846554462374,5.566374262777002,69.99894668612772,2.504388718903276e-07,113.70000461297312,113.2095365840355,15.288,0,0.0,0.0399632243410653,6.701756367872645e-10,-0.00025078340164,3.0793566854276295e-08,9.047716714467492e-06,4.16222825066026,33.72644865222576,13.598567505326,40.96227562489027
0.33,31.222182716732533,131.01039289410716,5.075419569102976,4.187801887681037,0.0006739743721461,40.48743503284469,0.0010239291638211,3.217136801802925,418.5156301991682,13.956637761217308,5.718704299733134,69.99879684673242,2.995902922462564e-07,113.70000494831164,119.25032483364384,15.288,0,0.0,0.0410158804634189,7.647061680070125e-10,-0.0002769136723495,3.509664608790402e-08,1.0253455741189656e-05,4.187801941818244,33.053267359159875,13.956743628864118,40.61505097607
0.34,31.222182510255863,131.01039345333336,5.204736257784645,4.19642921746386,0.0006961879027693,31.814592723444047,0.0010535137542081,3.208669900766693,345.46563688075645,14.367047160772364,5.88887983533068,69.99863160305904,3.557915789971256e-07,113.70000529927128,126.36523219087664,15.288,0,0.0,0.042222056531773,8.688448410811866e-10,-0.0003048202762282,3.9835373705550826e-08,1.1618525957862828e-05,4.196429275109305,32.30947868183619,14.367156517712404,31.97598901989736
0.35,31.222182298183583,131.0103940277045,5.337435501771672,4.210915783240843,0.0007193441544952,34.813487415034444,0.0010813034848195,3.200164272309822,370.5765700527033,14.754132934586384,6.050986755458457,69.99844991734221,4.1975736284587617e-07,113.70000566632532,133.26448209504355,15.288,0,0.0,0.0433596939127697,9.832256819293898e-10,-0.0003345386312107,4.503361101379695e-08,1.309465610343774e-05,4.210915844572415,31.63649055965014,14.75424592890194,34.96026256388454
0.36,31.222182080444604,131.0103946174141,5.4735747500461605,4.22903876037745,0.0007431682866607,39.2632255716727,0.0011077666085529,3.1915717453569297,407.8625232777193,15.124417129017054,6.2072589919251575,69.99825073022951,4.922382611919288e-07,113.70000605036684,140.03566173682628,15.288,0,0.0,0.0444479595865755,1.1084921261805627e-09,-0.0003661511460057,5.0723697896912267e-08,1.4691545926915382e-05,4.229038825557203,31.017264542603208,15.124533865618538,39.39272792946638
0.37,31.22218185710795,131.01039522227452,5.613102797925907,4.249164960780052,0.0007674149135003,37.28328237034959,0.001133274451316,3.1828514669894137,391.1218908297666,15.483077353331511,6.359470679857624,69.99803294268581,5.740349991123437e-07,113.70000645214331,146.75405277514704,15.288,0,0.0,0.0455020695186381,1.245311285088233e-09,-0.0003997125883071,5.6934243389647934e-08,1.641828325195534e-05,4.2491650299519,30.439178816713017,15.483197898584232,37.418894813348615
0.38,31.2221816281124,131.0103958424523,5.756069531572451,4.260095806433531,0.0007900626414612,38.9278000801764,0.0011607546399008,3.1735466295306622,404.8187610144602,15.87126705947922,6.521735074464384,69.99779542676283,6.659911329739736e-07,113.70000687263192,154.20298254405043,15.288,0,0.0,0.0466429667223463,1.3943646956867835e-09,-0.0004353006984059,6.369875435270817e-08,1.8328108041903096e-05,4.260095879559656,29.83470194713067,15.87139116222873,39.05694584372078
0.39,31.22218139339905,131.0103964781077,5.9025231349944285,4.274091258047817,0.0008133283308351,33.320076729592266,0.0011870382950339,3.164143363712209,357.64062493382744,16.24457853509073,6.678818328235205,69.9975369905506,7.690136753559805e-07,113.70000731287368,161.54010621938565,15.288,0,0.0,0.0477401448128051,1.5563705124515804e-09,-0.0004730068442167,7.105463478762673e-08,2.0383860516746246e-05,4.274091335289374,29.274934656826048,16.244706292406182,33.46997636540994
0.4,31.22218115316572,131.01039712870306,6.0523126585892895,4.286421841403391,0.0008363022448449,31.88018820767003,0.0012133780841982,3.1544430614236454,345.465636880754,16.62063299903514,6.836764518435374,69.99725641601981,8.840594270905819e-07,113.70000777359816,169.10340080049767,15.288,0,0.0,0.0488453895716005,1.7320643186450851e-09,-0.0005128553637434,7.9027539265021e-08,2.2612406375611563e-05,4.286421922834417,28.730746964325096,16.620764365084565,32.03586915718869
0.41,31.22218090752676,131.01039779392735,6.205351877049411,4.30025870409831,0.0008595777771371,35.882550741685804,0.0012389121673015,3.1445895889870297,378.94687077668647,16.987310563534386,6.99141560549392,69.9969524610574,1.0121301778427253e-06,113.70000825570062,176.64448930727934,15.288,0,0.0,0.0499230826371405,1.922193031274436e-09,-0.0005548883906878,8.764667734700782e-08,2.5005077415911235e-05,4.300258789847355,28.21875643368965,16.987445585695873,36.020076248499606
0.42,31.222180656535848,131.0103984736348,6.36160173428776,4.322008670726048,0.0008844838439129,40.34064925656127,0.001261804338223,3.134918999355981,416.2328240017114,17.318628721060172,7.133856886815013,69.99662385300175,1.154276942054023e-06,113.70000876021427,183.59942989625057,15.288,0,0.0,0.0508968652507098,2.1275184665783874e-09,-0.0005991661829955,9.694534598491077e-08,2.752657757470936e-05,4.322008761057615,27.772396468009568,17.318767655457478,40.462275036947325
0.43,31.222180400205527,131.0103991677914,6.521055075967404,4.339436441324956,0.0009085827200945,35.541853595187746,0.0012854696362701,3.124839917627212,375.9031395134336,17.662848429084132,7.280642039343927,69.99626930133451,1.3115939750280808e-06,113.70000928827632,190.96736675963504,15.288,0,0.0,0.0519085689713619,2.3488101247838237e-09,-0.0006457514522491,1.0695800287133593e-07,3.0255957891170616e-05,4.339436536261635,27.322335771349252,17.662991148924057,35.67895714766603
0.44,31.22218013836212,131.0103998768696,6.683849332059896,4.342209064313268,0.0009296474314902,32.82948243168077,0.0013129688908547,3.113754688841357,353.0750125389216,18.063580761318697,7.446730341918701,69.99588746395321,1.4852372182848018e-06,113.7000098413532,199.7278270846888,15.288,0,0.0,0.0530863610987301,2.586862292117705e-09,-0.0006947575786514,1.1773083546077225e-07,3.329010177793299e-05,4.342209163639375,26.81344244367223,18.06372678999575,32.9768158972058
0.45,31.22217987077456,131.0104006014978,6.850166573233225,4.3420317510315165,0.0009500780330031,38.11022602597878,0.001341042003417,3.1022288449712887,397.2093853562869,18.47486275310604,7.616350301328129,69.99547690348253,1.6764536248320808e-06,113.70001042108892,208.92306716049887,15.288,0,0.0,0.0542951637545535,2.842521175226318e-09,-0.0007463379956615,1.2932090054593452e-07,3.657529369088674e-05,4.342031854775571,26.30944884471334,18.47501199101448,38.23628058998621
0.46,31.22217959739673,131.01040134180155,7.020045503401754,4.351169003849846,0.0009725797783515,44.3937050866137,0.0013660055515545,3.09098240974522,449.7140588976434,18.844323061800488,7.771531995684422,69.99503610583268,1.8865779683531e-06,113.70001102895836,217.3591612614144,15.288,0,0.0,0.0553810645782081,3.1166808800591503e-09,-0.000800596194505,1.417768495237597e-07,4.001824400409673e-05,4.351169112337076,25.873596578896564,18.844475834274814,44.50118229261506
0.47,31.22217931813738,131.01040209802923,7.193559875579052,4.358630093683735,0.0009947969928181,30.22514089990685,0.0013910994973101,3.079396422776949,331.0078106302534,19.2180591098146,7.9280875671397615,69.99456352718363,2.1170044481277104e-06,113.70001166656292,226.0625808853568,15.288,0,0.0,0.0564795377574197,3.4102493884459798e-09,-0.0008576351980594,1.551487523304888e-07,4.3718862242359527e-05,4.35863020698899,25.44665981168229,19.218215372160817,30.381603425148434
0.48,31.22217903348153,131.01040286886197,7.370336324605091,4.365514409145237,0.001016880998596,29.779838936311712,0.001416009414045,3.067527859335786,327.2031223011574,19.5915905767454,8.084483592791102,69.99405758812365,2.369198154608765e-06,113.70001233476164,234.93171707892955,15.288,0,0.0,0.057577416115756,3.7241711041759195e-09,-0.0009173883913609,1.6944871263079066e-07,4.767297940601472e-05,4.365514527349481,25.03354780044292,19.59175030803913,29.937410312943754
0.49,31.22217874361868,131.01040365378466,7.5502307795521535,4.3786401372577615,0.0010404145545081,37.2489281064929,0.0014385799934191,3.0558405437943126,389.60000969812296,19.93403005898306,8.23012235628909,69.99351671352461,2.644660619562788e-06,113.700013034871,243.21198709852868,15.288,0,0.0,0.0585839249886784,4.059374595909599e-09,-0.0009798792959512,1.8470833984680338e-07,5.180951737438081e-05,4.378640260624215,24.667474291142685,19.934193486919103,37.37406598941686
0.5,31.22217844858332,131.0104044527036,7.733219389747018,-0.3287375079557772,-5.169038487361605,38.27619925627146,0.3150622095258943,3.3473756735795925,397.97031042210494,19.66472126896348,8.366361539570502,69.99293932307316,2.9449363413826395e-06,113.70001376847225,236.6806305795448,15.288,0,2.5051569778986185,0.0577925753318441,4.416751211901175e-09,-0.0010494275467989,1.0298120881856823e-05,5.473617944217536e-05,5.17945304848937,19.337569754772403,18.85387157316527,38.423581530119485
0.51,31.222178148303342,131.01040526547803,7.919237057701001,-0.2452375226902906,-5.091593033016599,29.36512974249362,0.3227516014166521,3.3426356247575644,323.3984349720841,20.0021200950627,8.514887215497081,69.99233994418026,-3.361761807383072e-05,113.69997527863958,244.86766024526105,15.288,0,2.515098040311643,0.0587842788272691,4.774025597958301e-09,-0.0010451967603057,-6.457110689228154e-05,5.5449872755821616e-05,5.097480030415558,19.05068587660784,19.203386767134354,29.55652595129541
0.52,31.222177842547527,131.01040609220146,8.10828923764745,-0.165206928938708,-5.015287327168912,35.20146494723516,0.3307489513483513,3.337750807919213,372.0984511843415,20.34841514815733,8.66616544620598,69.99174273094808,-0.0001893223302459,113.69981000098863,253.41520305302248,15.288,0,2.525003356650334,0.0598021337299446,5.085685683670592e-09,-0.0010420264994594,-0.0001413541239461,5.623775012784705e-05,5.018000653638527,18.76375030993682,19.561621301418167,35.36089803378881
0.53,31.22217753117407,131.01040693325723,8.30048742993579,-0.087963805303362,-4.942127568736807,36.94203586736656,0.3387813365960431,3.332681232117215,386.5562464348624,20.69106927366788,8.81612850607462,69.99114706398676,-0.0004672602544176,113.69951464517688,262.01692245208034,15.288,0,2.534874565403676,0.0608092947560784,5.3510869998899956e-09,-0.0010399650982769,-0.0002201413491572,5.707057772701413e-05,4.942908388532974,18.487715706776093,19.915723975376952,37.09360525770891
0.54,31.222177214080368,131.0104077889077,8.495908522954345,-0.0133474920572914,-4.871541466909384,32.48683770460603,0.3468787914510117,3.3274269618635874,349.2703242098436,21.0317506482201,8.965349606780137,69.99055229355262,-0.0008706053252584,113.69908583256176,270.71116680711566,15.288,0,2.5447188802805445,0.0618106646371739,5.569583984077676e-09,-0.0010390662229155,-0.0003010002011257,5.795902511848385e-05,4.871559708127384,18.220825393079732,20.267452353091684,32.65863927244837
0.55,31.22217689153739,131.01040865839963,8.694339732403838,0.0588224292140541,-4.804733353945327,34.40969371061835,0.3549380716255908,3.321994408395564,365.2500005919907,21.364417613548813,9.111753160818552,69.98995773757537,-0.001402550410553,113.6985201637844,279.3374502848788,15.288,0,2.5545248256112143,0.0627884872941628,5.7405738500512535e-09,-0.0010393854983625,-0.0003838445622922,5.889275313067403e-05,4.805092565829911,17.967088156856846,20.61057612023613,34.57150053357055
0.56,31.22217656354222,131.010409541725,8.895780901246049,0.1287632323438931,-4.742470195526002,32.13880640997295,0.3628764661820622,3.316395141808607,346.2265619465787,21.684421805116266,9.253743102715386,69.98936268282365,-0.0020662344027918,113.69781429727756,287.76259429761643,15.288,0,2.564292277529409,0.0637291014282325,5.8634852991904765e-09,-0.0010409767883236,-0.0004687041420685,5.986522750647824e-05,4.744213912139927,17.729106479776725,20.94032666060859,32.31150001971495
0.57,31.222176230162724,131.0104104386838,9.100177108113218,0.1965102891555515,-4.680000837678843,31.78204390414188,0.3710473865826906,3.310597593274019,343.1828296833023,22.01256525239415,9.398461760217048,69.98876638478573,-0.0028647941947649,113.69696489346026,296.531910705795,15.288,0,2.574016998944744,0.0646936427903907,5.937780952248473e-09,-0.0010438940409215,-0.0005555706790508,6.09402590465852e-05,4.684115521137102,17.491646165009744,21.278249617137156,31.956158206400275
0.58,31.22217589137376,131.010411349329,9.307545623531167,0.2619115038501204,-4.614415458302622,41.73651792711473,0.3797068577484063,3.3045632565010106,426.1250058573153,22.363270429593527,9.55085965323881,69.98816806760877,-0.0038013949961336,113.695968582702,306.04980464050806,15.288,0,2.583699018432746,0.0657244985634147,5.962934841606043e-09,-0.0010481924813683,-0.0006444765504905,6.21648556066255e-05,4.6218264010440935,17.245204670238106,21.639223052434364,41.86885769034554
0.59,31.22217554677524,131.01041227473263,9.518194456632466,0.325605402452113,-4.5565352885867165,33.897573020262854,0.3879560885687527,3.298397824477302,360.68438819711065,22.68437201882068,9.69302623789706,69.98756692061426,-0.0048794074592866,113.694821777211,314.8953248815216,15.288,0,2.5933504233475566,0.0666683580050678,5.938350430127362e-09,-0.0010539393135159,-0.0007356331905742,6.34018827287361e-05,4.568129717403595,17.024941632290655,21.969387335846008,34.05987954763238
0.6,31.222175196571698,131.01041321432234,9.731962668545538,0.3867238117593689,-4.491943434256511,30.16281732521141,0.3970266312721585,3.291935706678424,329.4859594986058,23.046607648758183,9.849245838246947,69.98696209773456,-0.0061022469182803,113.6935208407304,325.02576776683395,15.288,0,2.6029626287416354,0.067733115715654,5.863487017898253e-09,-0.0010611897852386,-0.0008289713390844,6.485611698742488e-05,4.508525766359386,16.783890222602103,22.341737415388774,30.344522072969237
0.61,31.22217484071156,131.01041416822235,9.948888043800816,0.4457168498657366,-4.427857968474242,35.28567515536545,0.406324679456213,3.285243014647252,372.0984511843297,23.415283574634923,10.007606169851016,69.98635271713053,-0.0074734099654428,113.69206205082692,335.50081014415514,15.288,0,2.6125386905802617,0.0688168088471462,5.737786764381444e-09,-0.0010700061311654,-0.000924543752361,6.643967749213998e-05,4.450190338283346,16.5454993874174,22.720449380744057,35.440609370895395
0.62,31.22217447930299,131.0104151361224,10.168884480890563,0.5041963393343701,-4.377902946628324,43.79163686776916,0.4145404432075936,3.2785431050995446,442.86563930529206,23.71670298096576,10.142809349326392,69.9857378592103,-0.0089964722494174,113.69044160063868,344.1867793665587,15.288,0,2.622082533151239,0.0697028443415216,5.560701762401709e-09,-0.0010804466784145,-0.001022349584181,6.795013228091101e-05,4.406784909323984,16.354693477987638,23.029692546227096,43.91614905965241
0.63,31.222174112162584,131.01041611850624,10.392092332388888,0.5606561083384308,-4.325381922396904,24.97461538599388,0.4231996444662686,3.27159026934898,286.11251274707894,24.037639126301503,10.284640692024023,69.98511657524702,-0.0106748777713406,113.68865582375687,353.55734863968377,15.288,0,2.631576602292452,0.0706462461830915,5.3317490698934005e-09,-0.0010925826916877,-0.0011224808249384,6.964171728906195e-05,4.361498214661582,16.15676673754751,23.358854890987388,25.19154251942301
0.64,31.22217373985765,131.0104171138157,10.61806970705362,0.6146746076972219,-4.268137431284887,24.52281374770488,0.4325631419046926,3.2643181016971536,282.30782441796754,24.391884893966854,10.437834790347807,69.98448787979501,-0.0125121041749422,113.68670101682908,364.0470753563335,15.288,0,2.641030276252488,0.071687551722762,5.0505035205761605e-09,-0.0011064425278233,-0.0012246930621871,7.156293479568139e-05,4.3120903126595325,15.94428661038646,23.722067328910736,24.742903581540823
0.65,31.222173362365865,131.01041812209715,10.846832287541588,0.6684729771295049,-4.22115444362718,43.093940489188284,0.4410914904192431,3.2570284591053773,436.7781447787475,24.69401977691841,10.573069784774452,69.98385075825931,-0.0145115453927707,113.68457356635204,373.11341631488347,15.288,0,2.6504291120939096,0.0725757109950543,4.716556800899779e-09,-0.0011220876783397,-0.0013290388530873,7.347218664751503e-05,4.273662619874814,15.767093851210634,24.03156203934779,43.21909882184084
0.66,31.22217297919009,131.0104191446893,11.078764180394195,0.7205228131276123,-4.173112741642802,36.7006595142616,0.4499293755543934,3.2494978708153472,383.51251517160017,25.0076117642169,10.712164019167812,69.98320416150676,-0.0166766305713203,113.682269821934,382.6414791552487,15.288,0,2.65978677573782,0.0734975499905792,4.329500688231183e-09,-0.0011396169867452,-0.0014357724811947,7.556589670795638e-05,4.234749665617628,15.587624330693094,24.352680161010845,36.846981988178904
0.67,31.22217259050703,131.01042018109652,11.313726657418163,0.770227102340611,-4.121077999546793,25.36145167552679,0.4594306410165658,3.241633376149041,289.1562440103425,25.35142833657592,10.86155876767212,69.98254699063256,-0.0190110274874768,113.67978587816248,393.2264089335492,15.288,0,2.669112750937958,0.0745082268624814,3.8889128371130146e-09,-0.00115908275478,-0.0015448340942399,7.791153957296285e-05,4.192315620501566,15.39589740165462,24.70464893014693,25.571908308715425
0.68,31.222172196476887,131.01042123086833,11.551593857981343,0.8188039981890073,-4.07159060687508,31.591907603266808,0.4688764354387647,3.233587485999456,340.8999924858462,25.68611115554691,11.00774271156358,69.98187811119402,-0.0215183937833976,113.67711784033298,403.6682631212466,15.288,0,2.6783774879059647,0.0754920672580873,3.394399545008476e-09,-0.0011805376294764,-0.0016561824243,8.039946911685101e-05,4.152970155191661,15.213915712927772,25.04708535190705,31.76042441710547
0.69,31.22217179717329,131.01042229379047,11.792307303401437,0.867053799681286,-4.027930020886841,38.83330013193324,0.4778510980792087,3.225476989784457,401.0140726853634,25.989724215022022,11.143188113931773,69.98119635657055,-0.0242023340530604,113.67426187021428,413.2579281883552,15.288,0,2.6875986363181505,0.0763846004097042,2.845610162269767e-09,-0.0012040388467555,-0.0017698050473753,8.29673311338267e-05,4.120044130395172,15.052627622469188,25.357539475758795,38.96995307439273
0.7,31.222171392459344,131.01042337022233,12.035972003540662,0.9140158170697276,-3.9848474833156553,32.61318864965982,0.4869520961152191,3.217157321298936,349.27032420985284,26.294482926414343,11.278951037583289,69.98050052797203,-0.0270664123901638,113.67121417286263,422.9966810609713,15.288,0,2.696784122822476,0.0772805080981299,2.24223066112175e-09,-0.0012296668468101,-0.0018857938161672,8.572488021848544e-05,4.088164249627997,14.894405145589324,25.669049038468824,32.77510179194259
0.71,31.2221709823832,131.01042446001955,12.282549453112791,0.9590720801412363,-3.9394595023005183,26.847560330390685,0.4965423732973967,3.208515144612609,301.33126406340574,26.61945054738448,11.421571396503657,69.97978938351673,-0.0301142831355644,113.66797085689636,433.50646663648246,15.288,0,2.7059071041036065,0.0782358182183924,1.5839545773666027e-09,-0.0012574834373269,-0.0020041459262728,8.874540277831598e-05,4.054344641369991,14.729652304304592,26.001129146426788,27.043162157108327
0.72,31.22217056694253,131.01042556317503,12.532040302529278,1.0019728974754931,-3.8912714570633327,32.811253001916285,0.5067309232765604,3.199505605884021,350.79220534145287,26.969534842533285,11.572733865510004,69.97906163815485,-0.0333496786283633,113.66452794785576,444.97325978673126,15.288,0,2.714988337783901,0.0792649555528376,8.7047883987141e-10,-0.0012875592263189,-0.0021248960519916,9.206080549742916e-05,4.018009352386074,14.556453572675457,26.35876513493189,32.97077396583902
0.73,31.222170146129915,131.01042667969543,12.784449182726688,1.0459221520863715,-3.852471655360135,41.4372167259688,0.5158943090172466,3.190618113720951,422.320318528234,27.26010339332401,11.703392418597092,69.97831595676928,-0.036776467969499,113.66088132558384,454.60213583163113,15.288,0,2.7240336942493646,0.0801191807601458,1.0148884386557879e-10,-0.0013199683860354,-0.0022480911879895,9.539258129357463e-05,3.9917216693786566,14.416144202409034,26.655414433450165,41.56307400662984
0.74,31.22216971987937,131.01042780974797,13.039826456510465,1.0880645037078431,-3.8115701907434367,26.03771606989609,0.525530395737204,3.181400744490997,294.48281347105944,27.569740620495825,11.840514787635287,69.97755094278453,-0.0403983767215285,113.65702702541591,464.9766927267873,15.288,0,2.733027729927993,0.0810294577613786,-7.232493453215706e-10,-0.0013547878981188,-0.0023737737351655,9.901862936656004e-05,3.963610058781783,14.269857647166454,26.971462083460093,26.236618513642654
0.75,31.22216928853953,131.01042895237046,13.297900668124376,1.1286443075990116,-3.769597819120311,30.354810974219784,0.5355265283216519,3.1718746170698515,330.24688556441487,27.891972896104008,11.98187945206656,69.97676526766857,-0.0442191864895678,113.65296101389968,475.8976162382723,15.288,0,2.7419642855093853,0.0819767603661906,-1.60397064899486e-09,-0.001392035920635,-0.0025017807613401,0.000102927597329,3.934700388325897,14.121023802629864,27.30027294042712,30.524778894032337
0.76,31.22216885199765,131.010430107858,13.558758654944135,1.1690662299225858,-3.7312201767831663,32.6552560049014,0.5452083801452008,3.162266667347367,349.27032420986166,28.19237855767284,12.1156727992065,69.97595745901818,-0.0482426278781639,113.64867932072508,486.1917863355637,15.288,0,2.7508587597492244,0.0828599207227968,-2.540854515742845e-09,-0.0014318028508569,-0.0026322097073216,0.0001070055294299,3.9098321229077215,13.98550013726751,27.60669403787886,32.812542227002865
0.77,31.222168410193284,131.01043127636373,13.822446817078188,1.2087396279578544,-3.6941524361141873,30.55033195659956,0.5548870564448675,3.1524774932978183,331.7687666960708,28.48696177042641,12.24738629300372,69.97512603805025,-0.0524724834710391,113.64417791719936,496.3927718718161,15.288,0,2.7597121229090487,0.0837259762040932,-3.534066425662601e-09,-0.0014741718513709,-0.0027651205516447,0.000111320341124,3.886616592560416,13.855503099944409,27.907087617786445,30.717564953127187
0.78,31.22216796318575,131.01043245771444,14.088918586668852,1.2466549894445489,-3.6551524780767006,25.138191261790745,0.56505440016762,3.14232093351678,286.8734378128899,28.800504910463687,12.385523386594826,69.97426948539719,-0.0569125534374999,113.6394527555382,507.3670658628185,15.288,0,2.7685052790885107,0.0846477647503377,-4.583750620418232e-09,-0.0015192033755965,-0.0029004967346448,0.0001159805559117,3.861629104341176,13.719982611206982,28.22674426195532,25.340128792860135
0.79,31.22216751105749,131.01043365167396,14.35810951616388,1.2831303561588048,-3.6153624461978966,35.61494503003508,0.5755646568303363,3.1318394701020926,373.6203323159534,29.12505121631889,12.527353803291655,69.97338623662996,-0.0615666877685743,113.6344997346784,518.8528876420224,15.288,0,2.7772482612650005,0.0856019010447294,-5.6900385028430924e-09,-0.0015669561566988,-0.003038320138316,0.0001209710592561,3.836024418294322,13.58272800864625,28.557528195247187,35.757013334912386
0.8,31.22216705358736,131.0104348588341,14.63019102356564,1.3203836676107858,-3.580902346758928,36.08166873531013,0.5854129845471497,3.1214221157976176,377.42502064505743,29.410954978513978,12.65583758400678,69.9724746736248,-0.066438849641344,113.62931463328428,529.0756175720747,15.288,0,2.7859531695115884,0.0864424706954342,-6.8530428594534235e-09,-0.0016175565027732,-0.0031787629156442,0.0001261000268658,3.8162814377825023,13.464851525634842,28.848834266919663,36.22116512637499
0.81,31.222166590872195,131.01043607891992,14.905087673793853,1.3556611583703135,-3.543970732814695,23.5882186958836,0.5958661133806099,3.110577052975892,273.9374926939919,29.72095961684901,12.792508207104737,69.97153314031257,-0.0715329788954063,113.62389325415698,540.2735231067361,15.288,0,2.794615568489064,0.0873538839853335,-8.072859538291859e-09,-0.0016710569243309,-0.0033217775892048,0.0001316404018946,3.794100851356159,13.33938878422746,29.16462889972264,23.799890908834186
0.82,31.22216612309328,131.01043731142624,15.18265844210696,1.3895983882792933,-3.506369191731717,30.212079336786807,0.6066515019226804,3.0993968604398345,328.72500443277005,30.041009670605987,12.932541694437097,69.97055990197731,-0.0768530132498139,113.61823140479028,551.9573271746976,15.288,0,2.80322833469602,0.0882948305075897,-9.34955922228596e-09,-0.0017274947833067,-0.0034672846837396,0.0001375481711547,3.771365439808223,13.2125392696152,29.4905742139702,30.376702006564006
0.83,31.22216565023041,131.01043855639767,15.462918953568945,1.424956778360406,-3.474821748713656,38.31126578048202,0.6165549806185322,3.088389282267396,395.68750322465047,30.31279057725505,13.055921409982556,69.96955328886786,-0.0824029467250355,113.61232482428886,561.9744899155843,15.288,0,2.811782827301505,0.0890939152463825,-1.068318959460322e-08,-0.0017869575644696,-0.0036153384897268,0.0001435661387117,3.7553159455367857,13.107799380456589,29.76730138797441,38.44049133538335
0.84,31.22216517217588,131.0104398141188,15.74595309115217,1.459113186327006,-3.442612904637979,23.782907708394724,0.6267461711735532,3.077074440072719,275.4593748256452,30.59316962591964,13.182165052598585,69.96851149219627,-0.0881866622251022,113.60616937831828,572.403009018347,15.288,0,2.820294634729376,0.0899182791844035,-1.2073721384217664e-08,-0.0018495460199797,-0.0037660148845401,0.000149964917589,3.738720653217491,13.001718312080856,30.052730574487946,23.989328813846598
0.85,31.222164689216847,131.0104410837963,16.031537855149253,1.4906019098974503,-3.406417345463372,25.90313363816808,0.6378807432517377,3.065146218186709,292.96093233939376,30.912649526979568,13.32174352602532,69.9674326998655,-0.0942080405342369,113.5997609310988,584.404441017494,15.288,0,2.8287569493765137,0.0908575751065948,-1.3521147119997156e-08,-0.0019152617015324,-0.0039191522854897,0.0001569106783223,3.717923419492659,12.882582228918375,30.377885908191576,26.091652792766315
0.86,31.222164201178465,131.01044236589823,16.31980943546651,1.5227676475508387,-3.373996695508481,32.35116077470323,0.6484982682483799,3.0532501860195893,346.2265619465587,31.20176674138672,13.450812559900257,69.9663149993356,-0.1004710988425545,113.59309520477048,595.3706145591284,15.288,0,2.837175599047645,0.0917076384356079,-1.5025396413859528e-08,-0.0019842394108018,-0.0040749080854439,0.0001640776317871,3.701350283696275,12.77756885205054,30.672086833970656,32.50139212669277
0.87,31.222163708081425,131.0104436603592,16.610752144390748,1.554928143852326,-3.343535348204968,30.147011452260607,0.6589090345537936,3.041257361782431,327.964078366998,31.47570021937432,13.574581099292816,69.96515654913634,-0.1069798467283687,113.58616792056786,605.8535955839662,15.288,0,2.8455501794128635,0.0925130821895672,-1.6586405540222897e-08,-0.0020565552622006,-0.0042332932321055,0.0001715456742875,3.687042837019835,12.680358459606792,30.95079694996052,30.30718903097324
0.88,31.222163209957937,131.0104449670829,16.90434144533981,1.5853927103817018,-3.311315541343316,26.099429620182832,0.6698563421172887,3.0288148649597755,294.4828134710418,31.769090417314395,13.704939507168234,69.96395535823397,-0.1137382530449487,113.57897485104588,617.1833549680891,15.288,0,2.853877658838564,0.0933757212170956,-1.820406825892953e-08,-0.0021322748633955,-0.0043942945339469,0.0001795145725903,3.670896553135401,12.577837803146778,31.24923969103875,26.28312488088418
0.89,31.222162706885463,131.01044628584924,17.200517665794568,1.6141558931594242,-3.2774193753786767,28.591140271575835,0.6813512664813107,3.015897207739886,315.028134248087,32.08205033030864,13.841926362617372,69.9627094224902,-0.1207503285652893,113.57151172088284,629.3851934282376,15.288,0,2.86214739704768,0.0942958882167916,-1.9878265132831544e-08,-0.002211461920997,-0.0045578965480185,0.0001880100087276,3.6529624241382,12.47027663602004,31.567515202531915,28.757836802251216
0.9,31.222162198787032,131.0104476168604,17.499341302146394,1.6448606044173983,-3.249201489892508,31.545045667010186,0.6918281125397036,3.003282558305219,339.37814235421445,32.34252693017474,13.960806012817915,69.96141663446413,-0.1280201960153831,113.56377413826064,639.6283772569666,15.288,0,2.8703744126753867,0.0950618042046646,-2.1608834983390427e-08,-0.0022942312382543,-0.004724188618983,0.0001966246947603,3.6414249456718366,12.383719373741464,31.832417070096028,31.695239995874438
0.91,31.22216168572969,131.01044895992592,17.800761056501393,1.6738906699949718,-3.219253133236513,24.08308862040352,0.7028498014090381,2.9901972686502094,277.7421810230789,32.622560083063995,14.086308903205047,69.96007498358517,-0.1355518399284811,113.55575784917056,650.7337521807469,15.288,0,2.878556288032807,0.095885209374187,-2.3395605254084162e-08,-0.0023806412362103,-0.0048931382614973,0.0002057909838732,3.628023076607806,12.291864943683017,32.11714700700795,24.27818846304216
0.92,31.22216116790913,131.01045031450295,18.104625444627228,1.7012440313640331,-3.1876785480108136,28.604980590631207,0.71442607697953,2.976617999538404,315.02813424806214,32.92207965687579,14.218412682347452,69.958682295952,-0.1433492505319897,113.54745860151536,662.7185123788718,15.288,0,2.886689181550268,0.0967658980838549,-2.5238398976700925e-08,-0.0024707033598043,-0.0050646280563812,0.0002155309011553,3.6128297509691207,12.19500558048176,32.42161855487028,28.768308499545682
0.93,31.22216064523417,131.0104516808342,18.411006452214128,1.7305127747924982,-3.1611486652909915,33.959581983036855,0.7250202047414541,2.9633540483138137,359.1625070654728,33.172053164460564,14.333414544335662,69.95723634802334,-0.1514164398068048,113.53887211995576,672.8008100629709,15.288,0,2.8947772875274977,0.0975009673164039,-2.7136927357908623e-08,-0.0025645472552707,-0.0052387688289091,0.0002254093656746,3.603400609205533,12.11703852758002,32.67575297230833,34.09633895267265
0.94,31.222160117595184,131.0104530592142,18.71999071135979,1.7569067667907023,-3.1307657311919894,24.738612791401927,0.7366909288766978,2.949309542733169,283.0687504837787,33.46470599139574,14.46297840587528,69.95573499887195,-0.1597573653942253,113.52999417785033,684.7041178310456,15.288,0,2.9028205285387605,0.0983614901577423,-2.9090888719506472e-08,-0.0026622871196742,-0.0054156308961179,0.0002360575606447,3.589615936273269,12.02604692308904,32.973171146965306,24.924688626870772
0.95,31.222159585273687,131.01045444886506,19.03135999158429,1.7830518341423631,-3.1013421565928168,31.941040786520382,0.748323085689133,2.935072062619209,342.4218736174873,33.75001712696424,14.589931404844108,69.95417588058065,-0.1683761015563908,113.52082043476652,696.4082696590243,15.288,0,2.910815698520923,0.0992004424512275,-3.1100055877903376e-08,-0.0027639105667906,-0.005595059079766,0.0002471502227847,3.576938804947249,11.939268695981989,33.263097293277376,32.084337642835976
0.96,31.222159047980504,131.01045585057375,19.345340997979413,1.8099632455547168,-3.074540693993703,31.300143604425,0.7594836281577099,2.9208911902488675,337.09533515678345,34.009081745329006,14.707778411176788,69.95255673385289,-0.1772767168324511,113.51134654525252,707.1192167943525,15.288,0,2.9187690736778653,0.0999622576922603,-3.316401119316412e-08,-0.0028696267592369,-0.005777288939281,0.0002585653024226,3.567299012919355,11.86276257578428,33.52636576276177,31.445308241204128
0.97,31.222158505733383,131.0104572642866,19.661921341181856,1.8357003575007047,-3.046955834497117,20.13129765870795,0.7710044559941001,2.906300213590584,245.02188719299323,34.27874520591662,14.829171396468132,69.95087508549872,-0.1864633312289946,113.50156811929884,718.3555550459886,15.288,0,2.9266798963369487,0.1007552343768007,-3.5282405878991426e-08,-0.0029795197020129,-0.0059623269447807,0.0002705876046341,3.556762318937802,11.784206552779583,33.80035606178256,20.354610638039226
0.98,31.222157958812296,131.01045868923015,19.980884146051768,1.858564037711414,-3.015864383854003,29.186041979119327,0.7836345128830816,2.890844946201625,319.5937466429581,34.59069410896368,14.964995968635751,69.94912856789504,-0.1959400600849537,113.49148075953094,731.467225396996,15.288,0,2.9345428452385915,0.101672509159214,-3.745498433083692e-08,-0.0030935500256282,-0.0061499769594851,0.0002834913657199,3.542104924087952,11.693591512318855,34.11718196443665,29.33932708771073
0.99,31.22215740707062,131.0104601258015,20.3023452670582,1.8849321958399543,-2.9916055723060686,31.870175517220364,0.7946221733538745,2.8761425492393697,341.6609485517054,34.826680711454586,15.074637921475574,69.94731459438567,-0.2057110789524571,113.48108001576668,741.4588918141125,15.288,0,2.942363903645913,0.1023665164579252,-3.968125825101843e-08,-0.0032118968644648,-0.006340408650587,0.0002963355008056,3.5354552350898443,11.628678864936596,34.356973896850704,32.00955650833612
1.0,31.22215685050591,131.01046157400413,20.626308485564365,1.908494167305864,-2.963945538837893,28.548134863619783,0.8066980441543954,2.860578044002188,314.2672081822764,35.1038452160093,15.198329515484344,69.94543069182743,-0.2157803598442395,113.4703616449557,753.2840599464909,15.288,0,2.9501407329972364,0.1031815668892029,-4.196078919025096e-08,-0.0033346344280991,-0.0065336093777844,0.0003100983206066,3.5247798909741843,11.552061578390884,34.63847736270085,28.70243321866098
1.01,31.222156289292343,131.01046303335508,20.95263956333663,1.9319825004312867,-2.9372334997619345,29.846760469999204,0.8186853074505581,2.8448470877124588,324.9203161036979,35.371934670627034,15.318811766477287,69.94347429526391,-0.226152044486239,113.45932122245944,764.809742941201,15.288,0,2.9578722572670784,0.1039699514513199,-4.4293181690477846e-08,-0.0034617833694468,-0.0067294878917703,0.0003243706736606,3.515199343758241,11.47964002391892,34.91075717202526,29.993207750065825
1.02,31.22215572335444,131.01046450405855,21.281399357090777,1.955648040629626,-2.9117811460894845,24.95003503405126,0.830476058608611,2.829020865144148,284.59063161540416,35.62660014574611,15.43458897298073,69.94144269981204,-0.2368301467375957,113.44795446794969,775.8376095370389,15.288,0,2.9655603900221035,0.1047188869783182,-4.6677875232589536e-08,-0.0035934747383073,-0.0069281229802574,0.0003391237010468,3.50709784996096,11.412594773357538,35.16941548652368,25.1236402167307
1.03,31.22215515275757,131.01046598593211,21.61253889061261,1.9771997491943587,-2.88416621689126,20.42050439185693,0.8430753099359725,2.812461294939397,247.30469339049705,35.909657142303246,15.56002759922589,69.93933327398254,-0.2478186538760833,113.43625711968572,788.1897335961662,15.288,0,2.9732037627773447,0.1055512836984958,-4.911436381933729e-08,-0.0037297642522331,-0.0071294753900576,0.0003547709045563,3.496345350436217,11.338224150918082,35.456804678633155,20.630504456546962
1.04,31.22215457756017,131.01046747881165,21.946014502419526,1.999921433147182,-2.8591988205288548,32.358837559446144,0.8550568070916658,2.79607109478686,345.46563688072297,36.16169810905917,15.674717282818168,69.93714326445016,-0.259121683882566,113.42422477853486,799.2671768957566,15.288,0,2.980803487106624,0.1062925219338548,-5.160210463731064e-08,-0.0038707289772467,-0.0073335409097312,0.0003707515914083,3.488750884901185,11.274383644123432,35.71276258988057,32.49066795110681
1.05,31.22215399748709,131.01046898345342,22.282043638555223,2.020836254999083,-2.832563481412977,19.59144603824337,0.8677198323082689,2.7790125061572515,240.45625879819983,36.43650208693381,15.797133188916971,69.93486991528857,-0.2707432755621644,113.41185312693663,811.4349031418013,15.288,0,2.988363763813753,0.1071006779434791,-5.4140358412057086e-08,-0.0040166161381423,-0.0075405527403343,0.0003876362945548,3.479061254218292,11.205002490332866,35.99174527703339,19.806579868472024
1.06,31.22215341276585,131.01047049922823,22.62045060077488,2.040125254267992,-2.804590560071767,27.83281408705813,0.881007460209067,2.7613012283762264,308.17968365593924,36.73090627237524,15.926192734950776,69.93251025664718,-0.282687631922337,113.3991376791874,824.573740489771,15.288,0,2.995881407861227,0.1079664556315847,-5.672864303098664e-08,-0.0041673979785738,-0.0077503491877502,0.0004054244449736,3.467638138402889,11.131220164803732,36.2905381230114,27.98332536750265
1.07,31.222152823284297,131.01047202644298,22.9613254091336,2.061753874001845,-2.7806978545262258,32.74499168674339,0.893156235800534,2.744119420509004,348.5093681440308,36.9737909849638,16.037452002869017,69.93006135411377,-0.2949590625574167,113.3860738267622,835.4874990805519,15.288,0,3.0033607550702106,0.1086808065628375,-5.9366248172476425e-08,-0.0043232653652113,-0.0079630766708185,0.0004233552658178,3.4611806270811543,11.07345513646643,36.5371714358548,32.871908980472334
1.08,31.222152228945543,131.01047356536452,23.304746504763216,2.0824025020320813,-2.756268048809784,22.09763962131644,0.9056390791461988,2.7264841995854834,261.00157857466235,37.224888224718086,16.151437182686717,69.92752021224422,-0.3075617298345401,113.37265711981284,846.8460602207765,15.288,0,3.010802298541394,0.1094193061407626,-6.205245667206317e-08,-0.0044843703534945,-0.0081788164994345,0.0004420991091307,3.453993030195758,11.014355780860322,36.792101621666056,22.28361674113608
1.09,31.22215163001333,131.01047511526403,23.650509972387656,2.099611606811236,-2.728125344745049,20.33913630488746,0.9195697350321898,2.707603932806149,246.54375332474407,37.52819061784711,16.283276012049757,69.92488376635484,-0.3204998143772702,113.35888308774642,860.6736255368476,15.288,0,3.0182016719710703,0.1103112674414257,-6.478675779216292e-08,-0.0046506435728033,-0.0083973550492829,0.0004622117941264,3.442049461077134,10.941750004149178,37.09981959833743,20.539162426528637
1.1,31.22215102656017,131.0104766759401,23.99856155914824,2.1179802873623235,-2.7023252248261125,40.6392547440971,0.932896251009778,2.688891930011508,413.1890617385841,37.80177335698296,16.40480776157149,69.92214885466018,-0.3337775059582419,113.34474725177698,873.2388951848003,15.288,0,3.0255603379811165,0.111115879565892,-6.756843326285311e-08,-0.0048221631785082,-0.0086186821098144,0.0004827362340215,3.432939715473573,10.878634986445704,37.37745046095195,40.73879553180295
1.11,31.222150418201647,131.0104782484556,24.349205341124907,2.139177367600265,-2.680840785595651,29.799275006359373,0.94483882085559,2.670929628642124,324.1593910376397,38.01598453043041,16.50582843549944,69.91931234914763,-0.3473990758801469,113.33024503717007,883.1339500828403,15.288,0,3.0328853236816724,0.1117459817003648,-7.039644611556771e-08,-0.0049993079373174,-0.0088431655764424,0.0005032888681262,3.4292341601100222,10.832738028684744,37.59503267910552,29.93364956671987
1.12,31.2221498049982,131.01047983264525,24.702397057838727,2.153956887397679,-2.6520708441219094,11.34883422368484,0.9596206971979392,2.6506740094125414,172.73281794065943,38.33513428278018,16.642838076944287,69.91637097885756,-0.3613686348139784,113.31537204742396,897.9938034468693,15.288,0,3.0401734574766337,0.1126845547025025,-7.327007989440006e-08,-0.0051821271794365,-0.0090707385428122,0.0005260554401465,3.416093649189268,10.759401299565258,37.91869671026056,11.693715526869385
1.13,31.22214918751361,131.0104814269469,25.05769707658925,2.1716491632944983,-2.627646204720616,35.09542289137265,0.9729912583948144,2.631182270041524,367.5328077900705,38.59404037559914,16.759043534943796,69.91332133438148,-0.3756906849891422,113.30012346390608,910.133361089251,15.288,0,3.0474199319629065,0.1134460534157213,-7.6188938101232e-08,-0.0053703560100216,-0.0093009616059711,0.000548826359283,3.4084127614426896,10.703375303474214,38.1814353449096,35.20736485525971
1.14,31.222148565117063,131.0104830331107,25.415603700998314,2.191345200063384,-2.606281401422617,19.513131492850423,0.9853385802335128,2.6122077536255315,239.69531773195544,38.80865698478521,16.859917158735175,69.91016005454108,-0.3903692343862155,113.28449499708496,920.2521414921628,15.288,0,3.0546343516269747,0.1140773734287491,-7.915161394374438e-08,-0.0055645722575083,-0.0095344224347547,0.0005718170585639,3.4046121208253317,10.65991203612822,38.39940442956763,19.711844716389916
1.15,31.2221479382728,131.01048464985234,25.77575580374616,2.204382706302973,-2.577689557025755,19.235605445818035,1.000699145884076,2.590712532207515,237.41251153546767,39.132619473553056,16.998315359079424,69.90688382239341,-0.4054082852380502,113.26848235274366,935.6478504872692,15.288,0,3.0618080006599047,0.1150301230713587,-8.215765778896108e-08,-0.0057645051382499,-0.0097706737307543,0.0005972864094174,3.3912397956136195,10.588771135211609,38.72785351978553,19.435063855626886
1.16,31.22214730711184,131.01048627680822,26.13805331512957,2.2239907725997097,-2.557417167925703,50.05966818266079,1.012906711561891,2.571348472441779,490.0437743845894,39.332061098456656,17.093785590838845,69.90348899046147,-0.4208121707939809,113.25208089456562,945.1764244368264,15.288,0,3.0689439421337474,0.1156168533670965,-8.520616450184877e-08,-0.0059702159466506,-0.0100096837840412,0.0006217321327969,3.388691784319303,10.550826224557058,38.930476327303246,50.13589723472751
1.17,31.22214667080806,131.01048791627764,26.503149319126138,2.2398957103091948,-2.533469957366835,9.024255029287955,1.026752321261304,2.5504809352465827,153.70937929486794,39.588179307103935,17.208654947801797,69.89997215514913,-0.4365848068790907,113.23528641764204,957.4923137368032,15.288,0,3.0760515854332326,0.116370194011338,-8.829546079671126e-08,-0.0061824694519999,-0.0102522136740479,0.0006480057280639,3.381173208084752,10.499073951724483,39.19035244341362,9.43378779514892
1.18,31.22214603045385,131.01048956522783,26.87018832540959,2.250885060409328,-2.504646770239039,24.441498132938683,1.0428701067143549,2.5275547729191508,280.02501822196746,39.923121792570505,17.350570695191653,69.89632958230186,-0.4527303258893623,113.2180944956104,973.7285727742918,15.288,0,3.083115659639037,0.1173552498305966,-9.142560497963404e-08,-0.0064004492271524,-0.0104972145827643,0.0006765049444494,3.366973567178612,10.42840654648595,39.529818089327456,24.593961498140757
1.19,31.222145385558736,131.01049122502403,27.239559323414326,2.271585769579105,-2.4871879589332444,42.562687115182015,1.0542633431542772,2.5080894040324395,428.4078130529292,40.07829241963511,17.430518918850208,69.89255754924682,-0.4692530018462154,113.20050054246909,981.2777154259204,15.288,0,3.090148357548419,0.1178118697928503,-9.459495319113692e-08,-0.0066247714183681,-0.010745276205482,0.0007029116195088,3.367931691904236,10.403613815493056,39.68772853838557,42.64955237889631
1.2,31.22214473570372,131.0104928968409,27.61159644877213,2.283800467351828,-2.460953338843871,4.558777401403449,1.069637654435292,2.4851859709185726,117.1843741360236,40.37487463701128,17.559046569423007,69.88865243041344,-0.4861565336122465,113.18250058448704,995.8189112245528,15.288,0,3.097138743139271,0.1186841843391463,-9.780212512413365e-08,-0.0068558615331282,-0.0109967378752924,0.0007327879485014,3.356907468355834,10.344378835932892,39.98842783893163,5.301200375139871
1.21,31.22214408198049,131.01049457763912,27.985443388331884,2.296069802930828,-2.435396286902871,34.211373951017755,1.0849289253070593,2.4620491200036967,359.92343213200894,40.66285742657128,17.684537969478196,69.88461029657523,-0.5034451966179646,113.16409003215988,1010.039100734968,15.288,0,3.104086433685553,0.1195312300528663,-1.0104712907072445e-07,-0.0070928609294699,-0.0112505585820096,0.0007634996379527,3.346627540923383,10.28825608320087,40.28042145663203,34.317005467532496
1.22,31.2221434235612,131.01049626973185,28.36175620045501,2.315146557388747,-2.4175465711760604,24.82524993768713,1.096796536273284,2.4414476207853326,283.0687504825761,40.82250205265728,17.765739139250275,69.88042729007958,-0.521122877148013,113.145264710266,1017.9488085147966,15.288,0,3.111005594467823,0.1200010259197298,-1.0432780242252952e-07,-0.0073367193587409,-0.0115076475511505,0.0007928213261353,3.3468273714750767,10.263987441294686,40.442867395519066,24.969114193251915
1.23,31.22214276078012,131.0104979721948,28.74027581522245,2.326057941220272,-2.3916638629386924,9.759903723281328,1.1125816178201586,2.4173348252343656,159.79687382222795,41.11811665140021,17.893681762504496,69.87609961261113,-0.5391930768655377,113.12602084959263,1032.7075114505435,15.288,0,3.11788822546706,0.1208705251505052,-1.0764344259487745e-07,-0.0075871675307976,-0.0117675974982832,0.0008257924222569,3.335784521254952,10.207577006398902,40.74254406057028,10.116178438586525
