Time,Latitude,Longitude,Altitude,Angle of Attack,Angle of Sideslip,X-Acceleration,Y-Acceleration,Z-Acceleration,Thrust,True Velocity,Ground Velocity,Pitch,Roll,Yaw,Dynamic Pressure,cp,parachute_deploy_gain,Wind Speed,Mach,omega_x,omega_y,omega_z,Cmq,Angle of Attack(total),Angle of Attack(gust),True Velocity(gust),Acceleration
0.0,31.222216000000007,131.010392,3.000000004412624,0.0,0.0,0.0,0.0,0.0,2.2828121974499247,0.0,0.0,71.99999999612658,-1.0292491154817412e-14,119.99999999354436,0.0,15.288,0.0,0.0,0.0,0.0,0.0,0.0,-0.0,0.0,90.0,0.0,0.0
0.01,31.22221599999862,131.01039200000284,3.0000009727369523,0.0,0.0,0.0,0.0,0.0,34.24218696174923,5.916279387578309e-11,5.734623670548936e-11,71.99999999613168,-5.86671995824671e-13,119.9999999935449,2.1432944861733093e-21,15.288,0.0,0.0,1.7386402909615473e-13,-3.4220131069073734e-19,7.115076756936125e-19,5.488773498207866e-19,-1.1574302492039043e-31,0.0,89.99999999962336,5.916279387578309e-11,0.0
0.02,31.22221599999738,131.01039200000537,3.0000018317022668,0.0,0.0,0.0,0.0,0.0,25.871876237766408,1.2265415415436536e-10,1.1895038237325684e-10,71.9999999961369,-1.1836364828043265e-12,119.99999999354544,9.211895886571454e-21,15.288,0.0,0.0,3.6044858651615574e-13,-6.979551485375437e-19,1.4162390878091906e-18,1.0909784360635388e-18,-4.776231873571785e-31,0.0,89.99999999921916,1.2265415415436536e-10,0.0
0.03,31.22221599921969,131.01039200159065,3.0001883335529382,18.80143492628821,-0.0001350810307892,10.931161642028636,-1.75114298675875e-05,3.026590975169265,180.34219359854663,0.0798232026864394,0.0478175828508887,71.99999999765336,-5.341802909786072e-12,119.99999999436793,0.0039016003969354,15.288,0.0,0.0,0.0002345795854893,3.788270153300133e-17,-7.771883375645477e-10,1.1422790048099072e-11,1.7057759223764537e-13,18.80143492675591,89.51882325913425,0.079801984207741,11.342422482672777
0.04,31.222215995131297,131.01039200995308,3.001692634342189,9.19442604083399,-4.49173898918486e-05,52.29595764159784,6.445392950801871e-06,3.026413589912948,548.6359724538078,0.3504174083926908,0.1601447499964056,72.00000000319055,-3.111420077280171e-11,119.99999999870242,0.0751892535633216,15.288,0.0,0.0,0.0010297854387864,2.0082066977226968e-15,-1.520937588847922e-08,2.5623342884322286e-11,1.4654248781413086e-11,9.19442604094277,87.798916624545,0.3504103527855857,52.383455068075136
0.05,31.222215983575865,131.01039203366796,3.0074067499493786,5.158590039700252,1.707592688632746e-06,76.26884281015512,5.843947534199429e-05,3.0258124765658088,761.6984298824644,0.9592973585397016,0.3772700771701255,72.0000000004862,-1.3608731808076822e-10,120.0000000109612,0.5634958029902841,15.288,0.0,0.0,0.0028191251099456,2.086299069701397e-14,-1.0551247853743037e-07,3.973493515691201e-11,2.783064866637575e-10,5.158590039700515,83.94063169874748,0.959297626767734,76.32884071402438
0.06,31.222215961742712,131.0103920785344,3.019291017943491,4.109521257467909,3.140103977270004e-05,57.06876634333886,0.0001151069734147,3.024834864051463,590.4875390737208,1.6257536642597354,0.6118982818704327,71.99999992547217,-3.5903296759057166e-10,120.00000003412836,1.6184272268450337,15.288,0.0,0.0,0.0047776672697797,1.0694899894620088e-13,-3.741090980393931e-07,5.521401959501359e-11,1.6723176417636091e-09,4.109521257587776,79.78719176344794,1.6257585967235286,57.148873286519276
0.07,31.222215929936205,131.01039214392435,3.0371334573469446,3.649087515174788,5.707077112564807e-05,86.89643797254193,0.0001728541558773,3.0234947746384675,855.2937749779139,2.3057260079826607,0.8506307413593818,71.99999965378231,-6.907496536790437e-10,120.00000006788592,3.255354923652711,15.288,0.0,0.0,0.0067759305364855,3.495199904512709e-13,-9.036515915819006e-07,7.594816279105379e-11,5.728932851326001e-09,3.6490875156204896,75.6601668283889,2.305734972638426,86.94902215090157
0.08,31.222215886364623,131.01039223353447,3.0621840248716574,3.4254446680114707,8.413075603463509e-05,17.831756866644035,0.0002285946601282,3.021841001032126,241.2171988638848,2.961944911520492,1.0819695676346892,71.99999900671328,-1.141745983122182e-09,120.00000011415082,5.371998197385977,15.288,0.0,0.0,0.0087043901031071,8.800530155962314e-13,-1.829098470920821e-06,1.0943386634701918e-10,1.4896287129277132e-08,3.4254446690434226,71.81713637501419,2.9619581267487467,18.085991154451033
0.09,31.22221583454733,131.01039234010327,3.0919888289029,3.389560809024919,0.0001118726864415,54.09031716446879,0.0002748660999733,3.020060228038602,563.0937377043176,3.504225426410036,1.2780161667917422,71.99999774508822,-1.634190085504106e-09,120.00000016921716,7.519080503822694,15.288,0.0,0.0,0.0102980157586766,1.865782139518716e-12,-3.1503298654458527e-06,1.6284478329871028e-10,3.03536411425607e-08,3.389560810868955,68.76526501308032,3.504242999330529,54.17456206384468
0.1,31.22221577423132,131.0103924641528,3.1267248829165366,3.4447939461814814,0.0001419149103147,51.372195336549765,0.0003131602029306,3.0182021883815127,538.7437595981919,3.950569597142709,1.4443465951180965,71.99999562056465,-2.1287748602259068e-09,120.00000023339832,9.55649523509932,15.288,0.0,0.0,0.0116097108366932,3.485956000178229e-12,-4.949356763187612e-06,2.4573266549165286e-10,5.3761299442583966e-08,3.444793949101151,66.34639928474206,3.9505918890846927,51.460781166288626
0.11,31.222215706113143,131.01039260424562,3.165907002780892,3.4691423802630394,0.0001702373452339,40.591037561894986,0.0003534470100582,3.016051659024047,442.8656393052949,4.421478635995476,1.6182620895289603,71.99999235067894,-2.5564479031457968e-09,120.00000030601664,11.970509656144712,15.288,0.0,0.0,0.0129935974697161,5.942887149865172e-12,-7.273722517324353e-06,3.67769289312894e-10,8.842679949465076e-08,3.4691423844348632,63.88798785789768,4.421505376815134,40.70293476011277
0.12,31.222215630588888,131.0103927595646,3.2092596514826863,3.4852659299808075,0.0001974376474727,44.30042894095728,0.000394069215595,3.013641598889868,475.58594813540446,4.896982486381051,1.793579340340896,71.99998761802138,-2.8337988279882726e-09,120.00000038673312,14.683611096353944,15.288,0.0,0.0,0.0143909889875706,9.464337642181618e-12,-1.017558359402848e-05,5.395790443954697e-10,1.3700793350599625e-07,3.4852659355662303,61.5068242157714,4.897013499814194,44.40281567867803
0.13,31.222215548046687,131.0103929293088,3.256512891171917,3.5606043721293616,0.0002276507019012,48.86766833507025,0.0004268800875964,3.0112558910133567,515.9156326236895,5.278566579338586,1.939796541405244,71.99998107389406,-2.8573058577484587e-09,120.00000047523812,17.061052093156064,15.288,0.0,0.0,0.0155123760833565,1.4300406003001044e-11,-1.3705268062305584e-05,7.724776992181392e-10,1.989112774124932e-07,3.560604379397528,59.67313531776262,5.27860233862722,48.960358155653
0.14,31.222215458587108,131.01039311327068,3.30759734332425,3.6000732663755977,0.0002555702913645,45.540290862247225,0.0004629468001456,3.0085404980032777,486.2390860568404,5.70011779273801,2.098362647205908,71.99997235012626,-2.508533681468686e-09,120.00000057154703,19.894788765881632,15.288,0.0,0.0,0.0167512184495524,2.071534240530911e-11,-1.7917736259613292e-05,1.0787346240473087e-09,2.8081526258393346e-07,3.6000732754351943,57.72385750323359,5.700157937625502,45.639559681930805
0.15,31.222215362317904,131.01039331122794,3.3624387479639086,3.651605404442164,0.0002842753491325,44.01308509501,0.0004965057129938,3.005703619811542,472.54218587214,6.091938849578711,2.2476968067377374,71.99996103728932,-1.6446954747148112e-09,120.00000067569304,22.723773683610247,15.288,0.0,0.0,0.0179026934683374,2.9002783512213203e-11,-2.287326399669318e-05,1.47199345427166e-09,3.831202693354572e-07,3.651605415492516,55.98561718911576,6.091983503446133,44.115597174664394
0.16,31.22221525912812,131.01039352340948,3.421115382839859,3.67540086436193,0.0003108411545024,34.83804992586084,0.0005330990866742,3.002517946501868,391.1218908297564,6.521183188362317,2.4085903880902046,71.99994669525161,-1.0153513453738144e-10,120.00000078796704,26.03872642002185,15.288,0.0,0.0,0.019164148528834,3.9478358970291335e-11,-2.864207894220033e-05,1.9677461746207517e-09,5.135466997084602e-07,3.6754008774883777,54.15946979122355,6.521232015176687,34.96719658394182
0.17,31.2222151493826,131.01039374906244,3.4833737923187487,3.7139589864597298,0.0003384978477213,43.96471427482637,0.0005668629535037,2.999235483723449,471.78125980632376,6.916861975403744,2.559060925010733,71.99992884100092,2.3206494032971838e-09,120.0000009081849,29.29426197817256,15.288,0.0,0.0,0.0203269651395979,5.248754693205839e-11,-3.5267097947693114e-05,2.580363454062817e-09,6.706952682968329e-07,3.713959001863866,52.549031795895466,6.916915146521327,44.06689817851128
0.18,31.22221503253009,131.01039398932429,3.549599475912623,3.7380363034619775,0.0003650282082698,36.67395661481795,0.0006021794701355,2.9956556354306425,407.10156721191447,7.332140201215607,2.71556808256092,71.99990696207136,5.837017536380516e-09,120.00000103716444,32.917216366714264,15.288,0.0,0.0,0.0215473823438242,6.839750892601699e-11,-4.285557247677198e-05,3.331016495775474e-09,8.639362741436378e-07,3.738036321259578,50.93050624815799,7.332197539712479,36.796100973258795
0.19,31.22221490871209,131.01039424390297,3.619694897703461,3.747799769666444,0.0003901520189829,41.42208371271829,0.0006393759928961,2.991742733214697,448.9531328318269,7.771071983754382,2.879366399937307,71.99988049019642,1.0709144790974043e-08,120.00000117502664,36.97605053227239,15.288,0.0,0.0,0.0228373144884866,8.761416506509219e-11,-5.146771415177372e-05,4.238406957677133e-09,1.0996552116864756e-06,3.747799789945131,49.29705748437159,7.771133268690212,41.529983675580546
0.2,31.22221477769685,131.01039451327668,3.693822889232993,3.7700519460961166,0.0004166800650969,37.99697972290605,0.0006740224661302,2.987733789228414,418.51563019916136,8.179966026035371,3.0338260708461373,71.99984881140107,1.723179577184912e-08,120.0000013223286,40.969302182777255,15.288,0.0,0.0,0.024038975990988,1.1057590044953188e-10,-6.120032215177249e-05,5.3263847350253015e-09,1.376394225587184e-06,3.7700519690893857,47.8457752505109,8.180031477986942,38.11426270718793
0.21,31.222214639876928,131.01039479663547,3.771710975053407,3.7926098867321474,0.0004432924407074,36.46301043881366,0.0007080907240332,2.983530483977461,404.8187610144644,8.582757448615462,3.1863584283669346,71.99981127559042,2.5745201416596626e-08,120.00000147900325,45.103059028532826,15.288,0.0,0.0,0.0252227064089584,1.3774582723633048e-10,-7.20875523136271e-05,6.61341033873124e-09,1.7010673350603349e-06,3.792609912601061,46.47936953648762,8.582827080829217,36.584868250565684
0.22,31.22221449507626,131.01039509434258,3.8534832466471007,3.782921298925821,0.0004660920499522,44.14577847155813,0.0007479176313898,2.978724032883548,472.5421858721365,9.056569122268344,3.360845972992861,71.99976720416048,3.661811567390422e-08,120.00000164562512,50.21995530074818,15.288,0.0,0.0,0.0266151520780326,1.6960703048385348e-10,-8.421592474264931e-05,8.124635526119773e-09,2.0969540034515424e-06,3.7829213275976334,44.9464484092354,9.056642335836344,44.24615863872642
0.23,31.22221434283448,131.01039540734791,3.9394622486964206,3.813874679301352,0.0004940771488601,36.66675459308932,0.000779455230549,2.974212905336642,406.3406421461021,9.430647902846331,3.5044030163419806,71.99971583979395,5.0272885112871524e-08,120.00000182313076,54.45382429059888,15.288,0.0,0.0,0.0277145095638672,2.0669790509245914e-10,-9.77285871729516e-05,9.894576563683824e-09,2.5339062472561444e-06,3.813874711257219,43.79476959007253,9.430725512303388,36.78718303164376
0.24,31.222214184153326,131.01039573358457,4.028950821673608,3.829256049377765,0.0005200487408944,37.802126339316736,0.0008136255607606,2.9692962675112065,416.2328240017114,9.837806876534357,3.658163422426286,71.9996564062533,6.718950080713476e-08,120.0000020109434,59.25679777340223,15.288,0.0,0.0,0.0289110855155543,2.4956955046738006e-10,-0.0001125744417092,1.1934277804843484e-08,3.0448209172448607e-06,3.829256084638984,42.59361542722471,9.83788856559955,37.91856374864305
0.25,31.22221401888584,131.01039607335582,4.122052964664892,3.851417709838087,0.0005469594058717,38.85163035360012,0.0008459008130282,2.964283881833675,425.36408079150686,10.22297576958679,3.8050691648373967,71.99958811418384,8.786880969336211e-08,120.00000220974424,63.98709205399403,15.288,0.0,0.0,0.0300430411774988,2.987811646313829e-10,-0.0001288461362054,1.4273117985167728e-08,3.621333387698252e-06,3.8514177486178034,41.50703126619192,10.223061685769354,38.96455005232871
0.26,31.222213847358866,131.0103964259872,4.218542267117083,3.8780574625554745,0.0005745172425185,42.3164797140743,0.0008766626387865,2.959162938653076,455.8015834241788,10.590779679138215,3.946551912391076,71.99951013710364,1.1286401474734325e-07,120.00000241975916,68.67355887153568,15.288,0.0,0.0,0.0311239685467471,3.5491769188178554e-10,-0.0001465721578858,1.6932703957058654e-08,4.267712643344226e-06,3.8780575050466,40.51245375834074,10.590869924095635,42.41981967733593
0.27,31.22221366913008,131.0103967923915,4.318728802515264,3.886188503202341,0.0005994342651313,38.70936050721014,0.0009111181036949,2.953518013741325,423.84219965987256,11.004860953238978,4.102320296019413,71.99942161756776,1.4276417094868828e-07,120.0000026420792,74.14786134434608,15.288,0.0,0.0,0.0323408987462391,4.1858405402174807e-10,-0.0001658847815307,1.995072923688136e-08,5.018832267232506e-06,3.886188549362022,39.43841359495857,11.00495511215316,38.8218734782956
0.28,31.22221348431185,131.01039717233687,4.422535913956003,3.90556090261878,0.0006261175699806,44.68030766832924,0.0009425767186621,2.947879457547137,476.3468732012221,11.38358114165448,4.247086834352694,71.999321619057,1.7823531611327881e-07,120.000002877279,79.33831935330025,15.288,0.0,0.0,0.033453914386159,4.904408325040897e-10,-0.0001868529238516,2.3357766479368094e-08,5.847713054408178e-06,3.9055609527288775,38.49894431917428,11.383679491972384,44.77744842575601
0.29,31.222213292835256,131.0103975659655,4.530013412817602,3.9242599519377537,0.0006528240665589,35.802573724660256,0.0009737210635801,2.942037024315898,397.97031042211177,11.759725774384751,4.391004157029451,71.99920917567837,2.1999186079018322e-07,120.00000312617878,84.66717879828003,15.288,0.0,0.0,0.0345593650464213,5.711677680739745e-10,-0.0002095620322847,2.7188189988316943e-08,6.77505090435382e-06,3.9242600061534456,37.60352534239979,11.759828319749328,35.92324968749781
0.3,31.222213095024976,131.0103979726075,4.64093665799555,3.936939025755682,0.0006785438093183,33.570228713727204,0.0010059102294455,2.93586442972183,378.1859457108711,12.149968255527943,4.539237002744259,71.99908328532703,2.6880857935396905e-07,120.00000338923812,90.3787563598417,15.288,0.0,0.0,0.0357062504417728,6.614698865958865e-10,-0.0002340353597042,3.1467140861055e-08,7.817263716758327e-06,3.9369390841381695,36.71173884615234,12.150074840940263,33.698361337808635
0.31,31.22221289105846,131.01039839189684,4.755183729044857,3.9598342215431432,0.0007060286581592,35.396825578217346,0.0010350810412898,2.9297385597941448,394.1656220930212,12.504537499407316,4.6763673222047455,71.99894291513503,3.255120771695107e-07,120.00000366712923,95.72967338626896,15.288,0.0,0.0,0.0367483036680869,7.620720834468404e-10,-0.0002603234137215,3.622454560346964e-08,8.948994505138873e-06,3.9598342843844345,35.934338386209795,12.504648402129598,35.5178635353378
0.32,31.222212681031937,131.01039882363492,4.872689374180126,3.985461429033668,0.0007340760463279,38.52097867048992,0.0010630242168685,2.9235095146848846,421.55939346242695,12.84534566718622,4.809181081594425,71.99878701464397,3.909756427278764e-07,120.0000039606604,101.01782231644016,15.288,0.0,0.0,0.0377499198995686,8.737098716736534e-10,-0.0002884807530145,4.1491545539590986e-08,1.0187112828155184e-05,3.98546149652875,35.21473736963424,12.845460975581933,38.631757748577954
0.33,31.22221246496604,131.01039926777932,4.9934410812554,4.010606629086,0.0007621365968788,38.18822026147908,0.0010905599149574,2.917102431053817,418.5156301991682,13.18247167592885,4.940798912752974,71.99861449732019,4.661299779655886e-07,120.000004270781,106.38859400029033,15.288,0.0,0.0,0.0387407190563976,9.971421990244511e-10,-0.0003185760672934,4.7302669734505256e-08,1.154498667827874e-05,4.010606701382261,34.52805863348922,13.182591392065536,38.299473293007864
0.34,31.222212242662028,131.01039972474007,5.117579377337869,4.019339771238816,0.0007871574969313,29.898022638335373,0.0011220389395318,2.910051232417875,345.46563688075645,13.569536737955724,5.0878303926024735,71.99842423285973,5.519675040347761e-07,120.0000045987411,112.72655675097128,15.288,0.0,0.0,0.0398782837956187,1.1331556132162459e-09,-0.0003507224668667,5.37022358302301e-08,1.308298593306914e-05,4.019339848191799,33.76700548046532,13.5696603843662,30.039310197084795
0.35,31.22221201433324,131.01040019407705,5.2449575244483055,4.033762873683395,0.000813261106463,32.76415525156106,0.0011515840876071,2.902959820469776,370.5765700527033,13.934300103976534,5.227895396154902,71.99821502296155,6.495674834876441e-07,120.000004945438,118.8669740701126,15.288,0.0,0.0,0.040950312688979,1.2825853697215452e-09,-0.0003849609961885,6.072234695821837e-08,1.4746020857580124e-05,4.033762955530055,33.07785186209504,13.934427850732408,32.89250745069162
0.36,31.22221177990305,131.01040067594835,5.375631006350063,4.051723629010647,0.0008401329464575,37.01692984301412,0.0011797030485285,2.8957873473716007,407.8625232777193,14.282998147928636,5.362923567977223,71.9979856440668,7.600645476620651e-07,120.00000531213882,124.88900300695136,15.288,0.0,0.0,0.0419751331662584,1.4462801652534363e-09,-0.0004213876232777,6.84067806399068e-08,1.654507199147348e-05,4.051723715967022,32.44322602189087,14.283130115703262,37.13002398000203
0.37,31.222211539445663,131.01040117020102,5.509550188388412,4.071639898917391,0.0008674922629137,35.12417761390579,0.0012067983861697,2.88849906286036,391.1218908297666,14.620581431527652,5.494447309446232,71.99773482653193,8.846681943540367e-07,120.00000570002652,130.86067091914967,15.288,0.0,0.0,0.0429672939311924,1.6251202388969355e-09,-0.0004600660652957,7.679415042686734e-08,1.849041957573993e-05,4.071639991174516,31.85023865502424,14.620717696893658,35.24274792557624
0.38,31.222211292895075,131.01040167697127,5.646763233102716,4.08264881385344,0.0008930259828975,36.695642158537446,0.0012360471443664,2.880711738179021,404.8187610144602,14.986392916850402,5.634654729559426,71.99746126698146,1.0246533537040716e-06,120.0000061105033,137.4891296153862,15.288,0.0,0.0,0.0440424171304414,1.8200057922063743e-09,-0.0005010869196581,8.592980519823866e-08,2.0642694281337543e-05,4.082648911356968,31.228847973200924,14.986533193043764,36.808540518115166
0.39,31.22221104018777,131.0104021963902,5.787316652586672,4.096641430700089,0.0009192713382325,31.335681548387896,0.0012640110027448,2.872831219844713,357.64062493382744,15.337978856701952,5.770390286512262,71.99716358743511,1.1813915463769678e-06,120.00000654506955,144.01394309468844,15.288,0.0,0.0,0.0450757388736732,2.031886352449547e-09,-0.00054455673306,9.586443829735616e-08,2.295945663566148e-05,4.096641533664766,30.65298398882095,15.338123255506089,31.4670954954126
0.4,31.222210781536543,131.01040272801887,5.931064331106764,4.109028969993624,0.0009451871856381,29.95928076777898,0.0012920492774571,2.8646905607053603,345.465636880754,15.692185018814769,5.906873567965718,71.99684037970908,1.3563276523471372e-06,120.00000700500496,150.74021066990193,15.288,0.0,0.0,0.0461167659598875,2.2617341782092324e-09,-0.0005905037520737,1.0663253249436129e-07,2.5471259834659164e-05,4.1090290785164525,30.09246700352443,15.692333488470696,30.095929256306363
0.41,31.222210517064383,131.01040327160345,6.077922766619747,4.122888296344507,0.0009714525997821,33.78425365340317,0.0013192264430821,2.85640971467756,378.94687077668647,16.03742529732769,6.0405139809190125,71.99649020751959,1.5509747261474075e-06,120.0000074917568,157.44375780268788,15.288,0.0,0.0,0.0471314487675864,2.5105374204052982e-09,-0.0006389770219162,1.1827345344180344e-07,2.816813594418537e-05,4.122888410595805,29.56469007160549,16.037577892745222,33.904791300285986
0.42,31.22221024682894,131.0104038270252,6.227854084363214,4.14444025865494,0.0009995884754813,38.04468161607466,0.0013435485656724,2.8482703202464488,416.2328240017114,16.348862540904037,6.163613566771559,71.99611159893284,1.766920641656551e-06,120.00000800692096,163.6157044470786,15.288,0.0,0.0,0.0480467946810589,2.779304965995011e-09,-0.0006900467934588,1.308321832549104e-07,3.100973487310896e-05,4.144440378988911,29.104646754454564,16.34901955589459,38.15115260238947
0.43,31.222209970843565,131.0104043942566,6.380851271439565,4.1618082623168045,0.0010268052928652,33.45815353250911,0.0013687230309017,2.8397750580998298,375.9031395134336,16.67263197205097,6.290467308135904,71.99570306121484,2.005818691215035e-06,120.00000855220898,170.15779512382937,15.288,0.0,0.0,0.0489983878509763,3.0690566816849196e-09,-0.0007437862329608,1.443552931671376e-07,3.4086145072160934e-05,4.161808388761201,28.640125213458976,16.672793262249197,33.57845085853367
0.44,31.22220968892116,131.01040497368373,6.537047157143216,4.164954087655709,0.0010505545842624,30.86574023822051,0.0013980747538988,2.830419582421933,353.0750125389216,17.050421620730056,6.433992917638883,71.99526304125902,2.269416145406482e-06,120.00000912964636,177.9537948947602,15.288,0.0,0.0,0.050108743779844,3.380847125286677e-09,-0.0008003278134917,1.589055036683518e-07,3.750784460406397e-05,4.164954219916419,28.113519280259386,17.050586641458253,30.99524475496968
0.45,31.22220940081287,131.01040556582012,6.696617751072218,4.165241899529329,0.0010735835484822,35.912216710755274,0.0014280646808282,2.820677244966047,397.2093853562869,17.438293672974723,6.580571293039616,71.99478987454265,2.5595995397253085e-06,120.00000974147088,186.13940823302417,15.288,0.0,0.0,0.0512487363629523,3.7158016249566814e-09,-0.000859850913876,1.745604864109677e-07,4.121350642664912e-05,4.1652420376426775,27.591357195572936,17.43846231108416,36.02281959036367
0.46,31.222209106468902,131.0104061707686,6.859600379555308,4.174585124444534,0.0010989881252456,41.916816790010685,0.0014546917035209,2.811153314474766,449.7140588976434,17.786187321601275,6.714685486378061,71.99428180697711,2.8783880229668832e-06,120.0000103898448,193.6374175079873,15.288,0.0,0.0,0.0522712438446989,4.0751091178509895e-09,-0.0009224765531151,1.9138630415982226e-07,4.50966024037632e-05,4.1745852688465686,27.13985967570823,17.786359950252297,42.01097612387663
0.47,31.22220880579083,131.01040678873238,7.026066274755745,4.1823089530633855,0.0011240727220223,28.37640408484148,0.0014814747534716,2.801325368441072,331.0078106302534,18.138167428286582,6.849989708801916,71.99373704967608,3.2278903746588286e-06,120.00001107707628,201.37401505997488,15.288,0.0,0.0,0.0533057667609836,4.459978104761035e-09,-0.0009883252835099,2.094509673354327e-07,4.927107017839778e-05,4.182309103852639,26.69716826759888,18.13834399721685,28.514342615617974
0.48,31.222208499300592,131.0104074186346,7.195654207463586,4.189479568102716,0.0011490100608361,27.95074823096412,0.0015080719422187,2.7912412472910484,327.2031223011574,18.48995085190441,6.98515976370584,71.99315377257649,3.6103201777021456e-06,120.00001180491516,209.25751230436188,15.288,0.0,0.0,0.0543397174489847,4.8716620260348906e-09,-0.0010573190976925,2.2877013380347535e-07,5.373205427420879e-05,4.189479725385959,26.268461765425428,18.4901313379827,28.089773168283216
0.49,31.222208187201936,131.01040806005494,7.368224738812109,4.202723284133339,0.001175611380853,35.08821363242469,0.0015321405723077,2.781292092003844,389.60000969812296,18.812014261754847,7.111044804193205,71.99253015042137,4.027946338669921e-06,120.0000125755114,216.60722913930897,15.288,0.0,0.0,0.0552863302793499,5.311396446020465e-09,-0.0011294854492155,2.4938633613154685e-07,5.8398320167141767e-05,4.202723448262914,25.88860807032205,18.81219892635871,35.1982716047702
0.5,31.22220786953184,131.01040871291724,7.5437546994244835,4.220815778795054,0.0012036252596423,36.05491615971072,0.0015540388599792,2.7714444106710974,397.97031042210494,19.10875420627192,7.229005658018125,71.99186435180009,4.483102820610566e-06,120.00001339126192,223.4908652241728,15.288,0.0,0.0,0.0561585257949344,5.7804122391526605e-09,-0.0012048912160576,2.713531252030471e-07,6.327866493526626e-05,4.220815950099865,25.54902500917784,19.108943271285572,36.161276053538906
0.51,31.222207546379583,131.0104093770373,7.722184419225251,4.232567510615346,0.0012298790840397,27.54004661432325,0.0015777580800203,2.761017323676155,323.3984349720841,19.430597746636646,7.354673636736509,71.99115452520388,4.978202222778502e-06,120.00001425458936,231.07869697977367,15.288,0.0,0.0,0.0571045034845869,6.2799518101633574e-09,-0.0012835871653678,2.947201005874635e-07,6.854585242460463e-05,4.232567688976395,25.189423168613605,19.430790935591396,27.678103017910345
0.52,31.222207217710007,131.01041005244994,7.903524107830966,1.8189056507635093,-2.614368184300941,33.113688569102585,0.1511978396362363,2.896095028855268,372.0984511843415,19.46190062739068,7.483656507467978,71.9904017220876,-1.0485743023078352e-06,120.00000826562037,231.81980018928368,15.288,0.0,1.2571452966692196,0.057196616396738,6.807259703585219e-09,-0.0013399792837013,-2.339318781875397e-05,7.167132400997087e-05,3.1845003085018937,22.249955343014907,19.051379121347622,33.24043618628351
0.53,31.222206883233408,131.01041073950012,8.087877781896719,1.8634495346020667,-2.5768963853643867,34.777052980386,0.1551084976472777,2.8888857453051,386.5562464348624,19.78672532681424,7.6120490161840015,71.98962548233217,-8.245945564039083e-05,119.9999230143641,239.61841333315013,15.288,0.0,1.261981276743522,0.0581513652533617,7.327107916171255e-09,-0.0013759556536397,-7.429816370558323e-05,7.482259509224044e-05,3.179700825214904,21.933592631463977,19.3820838381322,34.897179449004824
0.54,31.22220654282796,131.0104114384033,8.275319401371878,1.906549446264788,-2.5407437342397974,30.52004242298015,0.1590628418903437,2.8814865340444222,349.2703242098436,20.109615591430263,7.739782261451043,71.98882803371048,-0.000254626144436,119.9997423365048,247.4982081604128,15.288,0.0,1.266805864617785,0.0591004350024074,7.833059045210293e-09,-0.0014143043937871,-0.0001265420188369,7.816156520035996e-05,3.1761496225323858,21.627635130546476,19.71064728552357,30.656178090787144
0.55,31.22220619678937,131.0104121485435,8.465643219852392,1.9488490089510817,-2.506538823422112,32.35760517345938,0.1630134099585578,2.8739399607435168,365.2500005919907,20.424788437183725,7.865065494990494,71.98800800911384,-0.0005198551794357,119.99946380544588,255.31228826934588,15.288,0.0,1.271613127568948,0.0600268298371896,8.32540165641296e-09,-0.0014550484916441,-0.0001800692147555,8.167209297282756e-05,3.174637919333833,21.33692770832029,20.03118781505995,32.4853923607407
0.56,31.22220584511841,131.01041286991335,8.658849118399548,1.990854828388112,-2.4746832013157136,30.18793079547602,0.1669223173234794,2.8662851374393044,346.2265619465787,20.72779820831972,7.986520727433427,71.98716401453198,-0.0008804135259309,119.99908503644816,262.93891804327234,15.288,0.0,1.2764027713690516,0.060917484244566,8.804438537589821e-09,-0.0014982655166931,-0.0002348992346789,8.534391284302179e-05,3.175703821013911,21.0646254392916,20.33919672867569,30.32415900336851
0.57,31.222205487891944,131.0104136023486,8.854884010167742,2.03072391827936,-2.442699057576884,29.84729151436062,0.1709517351914315,2.858365486907529,343.1828296833023,21.03856226556725,8.11031571670377,71.98629461993855,-0.001338566165529,119.99860364669884,270.87721011956955,15.288,0.0,1.2811725043220117,0.061830933837913,9.270506567655655e-09,-0.0015440145851717,-0.0002910269849085,8.926678125531827e-05,3.176179990207061,20.79235373752519,20.65498021831322,29.984334051229695
0.58,31.222205125086745,131.01041434589172,9.053764640107929,2.067161617197334,-2.40906672883982,39.3589771670338,0.1752202237008076,2.850053816081608,426.1250058573153,21.370884146605466,8.240725327520417,71.98539835369127,-0.0018965980461422,119.9980172324142,279.49692790023346,15.288,0.0,1.2859221635884808,0.062807746637074,9.723959688397517e-09,-0.0015923762070411,-0.0003484736959369,9.351521902106238e-05,3.1739944863746863,20.50865310961678,20.99258031859563,39.46242000329482
0.59,31.22220475627608,131.01041510141732,9.255788891356024,2.105039958070891,-2.379438506854109,31.869184591892736,0.179315357876774,2.8417668365523445,360.68438819711065,21.67483569995786,8.36228253859457,71.9844736666424,-0.0025569426007307,119.99732323401598,287.49828746847504,15.288,0.0,1.2906589271638116,0.0637011872003858,1.0165125878622975e-08,-0.0016435325759859,-0.0004073766191019,9.789033873452944e-05,3.176534727603454,20.255977477827752,21.301181799308583,31.996136005821587
0.6,31.222204381684087,131.0104158684572,9.46080116494038,2.1378440263661966,-2.3462856037763093,28.30103636049043,0.1838050597715509,2.8329128936183183,329.4859594986058,22.01811858269101,8.495957769039185,71.9835189609063,-0.0033220649054519,119.99651905785288,296.6712743104974,15.288,0.0,1.295378148634028,0.0647102269625369,1.0594414006217872e-08,-0.0016975145866064,-0.0004676911863093,0.0001027048310113,3.1737797575682416,19.97763884117463,21.649667900074476,28.443063105801873
0.61,31.222204001259207,131.01041664711207,9.668838025939978,2.1688486545357235,-2.313374987835318,33.196015047138424,0.1884164913875459,2.823763878087337,372.0984511843297,22.36752634603899,8.631465127284393,71.98253258219138,-0.0041944882312072,119.99560204926972,306.1556818225401,15.288,0.0,1.300080490436366,0.0657372744165288,1.1012230585041508e-08,-0.0017544209972105,-0.0005294518459075,0.000107830159949,3.170654768673583,19.70195975959879,22.00424097745589,33.316430754558006
0.62,31.22220361512185,131.0104174371277,9.879816250252295,2.204964655990813,-2.28782492742221,41.323199575627086,0.192542374468706,2.814988282837047,442.86563930529206,22.65254702910463,8.74696036896129,71.98151281820914,-0.0051767923657822,119.9945694938814,314.00147754360006,15.288,0.0,1.3047658085033875,0.0665750973768153,1.1419016522488842e-08,-0.0018143196642546,-0.0005926583352388,0.0001129303113245,3.1770155120085968,19.483208685670064,22.293271819696265,41.419416398177106
0.63,31.22220322307829,131.0104182388984,10.093871579010102,2.238160809751121,-2.260921954576385,23.34516823879279,0.1968903265339179,2.805817941373393,286.11251274707894,22.95621283316584,8.868162525873853,71.98045794601325,-0.0062714606014225,119.99341877899133,322.46988933180285,15.288,0.0,1.3094308657096407,0.0674677242011176,1.1815231514839668e-08,-0.0018773393582861,-0.0006573705098425,0.0001184169246468,3.1809638912860603,19.255314779900765,22.60116020382956,23.514001365534433
0.64,31.22220282574293,131.01041905115105,10.310576745105132,2.2671872986308506,-2.2315293025397445,22.913987868594752,0.2015813922711315,2.796099921378577,282.30782441796754,23.291715747095665,8.999163464452254,71.97936619437387,-0.0074809991919081,119.99214726675912,331.957594444097,15.288,0.0,1.3140770510889432,0.0684539260634107,1.2201436302238493e-08,-0.0019433936386178,-0.0007234300934162,0.0001243723874385,3.180764326071642,19.009341572728776,22.94127655709521,23.084835929028188
0.65,31.222202423095247,131.01041987392287,10.52994694142632,2.300077240485729,-2.207478774918985,40.65723944297636,0.205898790587578,2.786654659697557,436.7781447787475,23.5773381941028,9.114642801143766,71.97823577261134,-0.0088078524824786,119.9907523849932,340.14182987213826,15.288,0.0,1.3186931625682938,0.0692935366942419,1.2578157146831425e-08,-0.0020125802307878,-0.0007908713566155,0.0001303768667918,3.1875852403899803,18.8054905473376,23.230674017943187,40.75314659787502
0.66,31.222202014603447,131.01042070830655,10.75235359666526,2.330895153758536,-2.182863749999292,34.54944797347809,0.2103776322575101,2.776870666900197,383.51251517160017,23.8738955837306,9.23343927835692,71.97706484314126,-0.0102544890686459,119.98923153640662,348.7448496807468,15.288,0.0,1.3232935221258573,0.0701652916400742,1.2945900715734764e-08,-0.0020851397187265,-0.000859859478568,0.0001367734306498,3.193013807957492,18.598391981900903,23.53109508916163,34.66150061265257
0.67,31.22220160046139,131.01042155389675,10.977662591825103,2.3579186227064084,-2.1561397019580566,23.71667075577963,0.2151835553802032,2.7665368243295427,289.1562440103425,24.19933788404948,9.361116938678318,71.97585146821437,-0.0118235492738609,119.98758194218752,358.3098878802653,15.288,0.0,1.3278787298814492,0.0711219461494353,1.3305263240091992e-08,-0.0021611041391722,-0.0009303559043409,0.0001436855423498,3.1946977340130247,18.37601736282163,23.86073218414252,23.878452665550384
0.68,31.22220118084517,131.01042241032502,11.205752260901532,2.384889861240039,-2.1307281573222028,29.669496379347187,0.2199805416633252,2.756046615151658,340.8999924858462,24.51601613085382,9.486008975155594,71.97459367044371,-0.0135176644430831,119.9858008328174,367.74104914925726,15.288,0.0,1.3324327832004663,0.0720528501308591,1.3656865654725222e-08,-0.0022405150228244,-0.0010023340147407,0.0001509114317329,3.1976678415801256,18.164935949891984,24.18139927417668,29.798040200451023
0.69,31.222200755837427,131.01042327741575,11.436566081042292,2.4138603946644444,-2.108353638113781,36.58795200775006,0.2245735766349353,2.7456525786000463,401.0140726853634,24.802955700768656,9.601614775211184,71.97328944434912,-0.0153394255966788,119.9838854811062,376.3912884526057,15.288,0.0,1.336967761268082,0.0728963586095988,1.4001353308910725e-08,-0.0023234333844108,-0.0010757859207098,0.0001583246066185,3.204566520859526,17.978409139424574,24.471851020785643,36.6915150068121
0.7,31.222200325294025,131.01042415546203,11.6702056029097,2.441844987803771,-2.086264926914965,30.64605945781055,0.229242881463525,2.7350096276514915,349.27032420985284,25.09097058396016,9.717481878247492,71.97193671413324,-0.0172913846216932,119.98183320361424,385.1748008381052,15.288,0.0,1.3414856143277007,0.0737430342070671,1.4339382226223802e-08,-0.0024099986589774,-0.0011507714112733,0.0001661266368681,3.211303873522327,17.795155263861915,24.763333266301025,30.768714471906485
0.71,31.222199889270048,131.0104250443456,11.906633611985384,2.4671132655677503,-2.0629520743674927,25.138527415879263,0.234160052508632,2.723885912127223,301.33126406340574,25.39828716538504,9.839259332417509,71.97053345748263,-0.0193761802753404,119.97964121751356,394.65893755438833,15.288,0.0,1.345973665339532,0.0746464449741748,1.4671641221504182e-08,-0.0025002820048178,-0.0012272888407682,0.0001744570703673,3.2155541305986945,17.603556103990375,25.07430942171904,25.286754359375372
0.72,31.222199447766265,131.01042594406013,12.145850761058393,2.4892307318234863,-2.0381531931249284,30.83624232722408,0.2393778630906772,2.712200705852176,350.79220534145287,25.729597123503208,9.968403088622606,71.96907746799381,-0.0215964823063949,119.97730671485024,405.01310833225534,15.288,0.0,1.35044153828705,0.0756203804933578,1.4998852923411106e-08,-0.0025943832812364,-0.0013053608700994,0.0001833801388538,3.216787828825252,17.401325597875086,25.40951228452826,30.95621383976808
0.73,31.222199000778005,131.01042685461064,12.387861546257934,2.5160662707261103,-2.018259822312113,39.077028181502754,0.2441291350337153,2.700972374033049,422.320318528234,26.00398096449352,10.079826147369834,71.96756649625709,-0.0239550652075332,119.97482677475644,413.6877807710866,15.288,0.0,1.3548921751064966,0.0764270149474487,1.5321756022283132e-08,-0.0026924125263535,-0.001385018074174,0.0001923342033616,3.225111356404384,17.23845441709648,25.68701901124672,39.17102222686846
0.74,31.22219854823724,131.01042777613347,12.632714667616913,2.540353930361209,-1.9972521094985607,24.366639024780927,0.2491227310188965,2.6892587597506026,294.48281347105944,26.296577097811635,10.19682057715604,71.96599828811445,-0.0264546021716581,119.9721985827234,423.0398181244108,15.288,0.0,1.3593204284486142,0.0772871832795307,1.5641125451050452e-08,-0.0027944809279357,-0.0014662881406463,0.0002018669593391,3.231067878214943,17.067942353848053,25.98291300253882,24.515857565583595
0.75,31.22219809052263,131.0104287078422,12.880147698422096,2.562738472968436,-1.9756627921199377,28.49123433615096,0.2543045906530251,2.6771187018065965,330.24688556441487,26.601194209772714,10.31747031458716,71.96437053535983,-0.0290977875636033,119.96941930124288,432.8872065774254,15.288,0.0,1.3637187909842343,0.0781826890994673,1.5957815574242076e-08,-0.0029005297571072,-0.0015490653977157,0.0002119497991029,3.2354703575003145,16.893954749894203,26.29091931854986,28.617862767262288
0.76,31.222197627515648,131.0104296499778,13.130244605403533,2.5864002922576206,-1.9559435306527568,30.689314048914195,0.2593552018631369,2.664995683618699,349.27032420986166,26.884926851230247,10.43157058867588,71.96268089448637,-0.0318872925142299,119.96648611750912,442.1603252700893,15.288,0.0,1.3680968339776645,0.079016821267457,1.6272642589431413e-08,-0.0030107128762467,-0.0016334131153858,0.0002223424150849,3.2423112779361944,16.73568687919453,26.57774763139865,30.80589982304237
0.77,31.22219715915393,131.010430602665,13.383050259112467,2.609872458978709,-1.936896132501242,28.67916920762037,0.2644223934154235,2.6526878499278603,331.7687666960708,27.163077258698845,10.543864605633114,71.96092696402957,-0.0348258171539155,119.96339618787565,451.3458430395444,15.288,0.0,1.3724550383452327,0.0798345539314565,1.6586462293070222e-08,-0.0031251572948563,-0.0017193702886821,0.0002331763103035,3.2496777745183603,16.583735238038443,26.858888270877383,28.80280226767206
0.78,31.22219668550425,131.0104315657622,13.638519647894991,2.6309018760948706,-1.9168256749967296,23.5099681047098,0.2697421526405112,2.639851660738448,286.8734378128899,27.459332169304624,10.661699137975104,71.95910625238844,-0.037916063219242,119.96014666910078,461.2334497049528,15.288,0.0,1.3767887612402638,0.0807055044856369,1.6900184812170373e-08,-0.0032439257647538,-0.0018069262084506,0.000244671733536,3.254732321778272,16.42471798634798,27.158294058927616,23.659251423155524
0.79,31.222196206658225,131.0104325390763,13.896590473887697,2.650254687663774,-1.896317445538038,33.518210146478445,0.2752441028318272,2.626574963470829,373.6203323159534,27.766087107502205,10.782717060431242,71.95721632573542,-0.0411607884160393,119.956734651144,471.5844266620688,15.288,0.0,1.3810938586589572,0.0816073230927749,1.7214733776651706e-08,-0.003367078189847,-0.0018960691243047,0.0002567911436209,3.258420559839509,16.26325258197955,27.46826863889866,33.622091945302365
0.8,31.222195722380167,131.01043352309063,14.1574284591995,2.6724624930035663,-1.8785936485053607,33.9645947871618,0.2804481602008864,2.613566366344973,377.42502064505743,28.03589194703072,10.892195584748272,71.95525454775932,-0.0445628055435739,119.95315717363432,480.7817428481297,15.288,0.0,1.3853806151744648,0.0824005491516141,1.7531028123075312e-08,-0.0034948472900304,-0.0019869107588429,0.0002691186902208,3.2662838227685485,16.12488454911201,27.740856015461592,34.06615739084683
0.81,31.222195232777068,131.0104345175805,14.420960687273263,2.6918095467290435,-1.8595556321841376,22.031607774044566,0.2859618331645444,2.599927965338575,273.9374926939919,28.32871696956599,11.008739830329077,71.95321828208968,-0.0481249141433326,119.94941128689015,490.864960769588,15.288,0.0,1.3896468302517688,0.0832614414426464,1.7850072408420243e-08,-0.0036272713112466,-0.0020794202508913,0.0002822261390542,3.271275148169525,15.977002717468269,28.03666993155383,22.186327787723624
0.82,31.222194738047044,131.01043552213315,14.687050836946296,2.7096115620211503,-1.840151879103327,28.359336718038968,0.2916548812623929,2.5858408897432468,328.72500443277005,28.631125632719584,11.128184114390836,71.95110484269817,-0.051849913567632,119.94549404095876,501.38803825045153,15.288,0.0,1.3938905824879115,0.0841505088166059,1.8172907614491242e-08,-0.0037643548834832,-0.0021735458717928,0.0002960112197657,3.275000583856996,15.827109393838027,28.34212494067182,28.47847634203673
0.83,31.22219423817081,131.01043653678497,14.955714016749935,2.7311633619397395,-1.823922084112136,36.0960520314568,0.2969424592262241,2.572198222258065,395.68750322465047,28.88738778190786,11.233232074370184,71.94891144428522,-0.0557406148348844,119.94140247599874,510.39035744416736,15.288,0.0,1.3981102373218843,0.0849039531310623,1.8500573558964848e-08,-0.0039062271029437,-0.0022693227673454,0.0003099086836096,3.283812550942561,15.703623583751211,28.600935156953124,36.18880145537174
0.84,31.22219373303445,131.01043756176858,15.227031309654723,2.751314256639119,-1.807322144122656,22.21989412995748,0.302387028234184,2.558143448119542,275.4593748256452,29.151856024848183,11.340748160753424,71.94663540374613,-0.0597997838249846,119.93713367172008,519.7649895389293,15.288,0.0,1.4023038807671546,0.0856815234761415,1.883411934439124e-08,-0.0040530433437402,-0.0023668001257981,0.0003244920995258,3.291448355297508,15.578209864490228,28.868009603281788,22.368710981246107
0.85,31.222193222950025,131.0104385964359,15.500787155312956,2.767338289088647,-1.78860975910333,24.24583940553397,0.3083070950294256,2.543165432824042,292.96093233939376,29.453674804879828,11.459784517217503,71.94427387364814,-0.0640301507799593,119.93268475204204,530.5693514817948,15.288,0.0,1.4064735081246589,0.0865688799340708,1.9174702388939413e-08,-0.0042047257959512,-0.0024658727218055,0.0003401123622776,3.294662027988072,15.436697275185882,29.172766270757425,24.380801302715636
0.86,31.22219270773109,131.01043964116943,15.77711319896357,2.78550363304105,-1.7718681360731992,30.405311837516155,0.3139962695138742,2.5283701356372137,346.2265619465587,29.7264662705858,11.569734058317856,71.94182390506731,-0.0684345451827776,119.9280527366234,540.4284830333502,15.288,0.0,1.4106220076624656,0.0873709284036809,1.9523425990201145e-08,-0.0043615097362656,-0.0025666425679057,0.0003560523510261,3.300920050596749,15.311971249859624,29.448186235151383,30.511870429992502
0.87,31.222192187402108,131.010440695916,16.055994274230105,2.804439556806368,-1.7561428921020996,28.30082773879897,0.3196041751189033,2.5135286737842675,327.964078366998,29.984737471346083,11.675098025508143,71.93928263116139,-0.0730157924016947,119.92323464102904,549.8453148821785,15.288,0.0,1.4147491770167366,0.0881303068580787,1.9881448181243933e-08,-0.004523489573316,-0.0026691165169339,0.0003724739791357,3.3085428281514795,15.196392107015813,29.708926380853228,28.4140251271069
0.88,31.22219166199984,131.0104417605971,16.33740665415874,2.821055904239628,-1.7394779849071589,24.435768652056407,0.325492777456987,2.4980529786566774,294.4828134710418,30.26158751915049,11.786154709760076,71.93664702030433,-0.0777766753525654,119.91822753268072,560.0305318397751,15.288,0.0,1.4188540327050598,0.0889442992351683,2.024998034977788e-08,-0.0046907354889225,-0.0027732856993367,0.0003898010528549,3.313863974275057,15.074101012649573,29.98839292827485,24.565280455333188
0.89,31.22219113160985,131.01044283503313,16.62129265884378,2.835372155660341,-1.7219227196899165,26.81645153635754,0.3316697800806815,2.4819152024126394,315.028134248087,30.5571203616664,11.902939713059212,71.9339139775551,-0.0827199957671462,119.91302845859344,571.0068247113661,15.288,0.0,1.4229362423695302,0.089813211588561,2.063026525688504e-08,-0.004863314230709,-0.00287913973832,0.000408078084794,3.316916068785189,14.94541686897722,30.286682087443705,26.933101954969807
0.9,31.222190596151044,131.0104439193897,16.907710751161215,2.8537945344471662,-1.7073404962838488,29.63846670413345,0.3373684124484889,2.4663833827212684,339.37814235421445,30.80249840813045,12.004068774044717,71.9310804287139,-0.0878486592788301,119.90763434852784,580.1982179992317,15.288,0.0,1.426996123167249,0.0905347171010908,2.102353463088064e-08,-0.0050414039510364,-0.0029867363107791,0.0004264066911748,3.325168222344664,14.841867380735426,30.53434967859882,29.742823890954078
0.91,31.222190055697475,131.01044501351143,17.19661133953101,2.869931419691065,-1.6918271428849323,22.51263466916824,0.3433525162275863,2.450190011627729,277.7421810230789,31.06655153743936,12.110922086225669,71.92814315014165,-0.093165415771295,119.90204230553968,590.1719298109475,15.288,0.0,1.431030253014674,0.0913111198248419,2.1431102730860563e-08,-0.0052250567740456,-0.0030960538813172,0.0004457163668213,3.3311245986996783,14.731649465205214,30.800838567731976,22.648179657334843
0.92,31.2221895104623,131.01044611695505,17.487848003107818,2.8838156123910816,-1.6754421609329797,26.83222275798241,0.3496282818605019,2.4333103084576018,315.02813424806214,31.34920948980504,12.223483667688768,71.92509901684399,-0.0986730613531081,119.89624937293316,600.943294587128,15.288,0.0,1.435040600422345,0.0921422137007772,2.185431564615837e-08,-0.0054142277670228,-0.0032070156110347,0.000466042462392,3.334835521324487,14.615120492252125,31.08606915593051,26.94459903443939
0.93,31.222188960348586,131.01044722991932,17.78149030636681,2.901527821604553,-1.66170075345781,31.94693615107469,0.3554401424919526,2.417034786615483,359.1625070654728,31.584524425681447,12.321256817542825,71.92194467878348,-0.1043743685558539,119.89025262891508,609.9816097855688,15.288,0.0,1.4390292426029885,0.0928341635763151,2.2294505720358812e-08,-0.0056091229511128,-0.0033196929444333,0.0004864289635469,3.3433145409381813,14.521181444281195,31.32354167180093,32.04021105260462
0.94,31.222188405239145,131.0104483526457,18.07762195222375,2.9149566320466245,-1.6459142132888431,23.14150921240154,0.3618024799964106,2.3996184236966545,283.0687504837787,31.86060170795007,12.431623023279863,71.91867692538717,-0.1102720770143565,119.88404917541428,620.674142435072,15.288,0.0,1.4429961385899048,0.0936459309533813,2.2753027432267155e-08,-0.0058099103218856,-0.0034341310361674,0.0005082310274422,3.347188065398957,14.411244124517932,31.6020976650617,23.26840171222642
0.95,31.222187845439887,131.0104494844987,18.37603202222225,2.928521446725493,-1.6306185057103488,30.020921236966,0.368165276889721,2.382000590727767,342.4218736174873,32.129654650327005,12.539734296781708,71.91529226886658,-0.1163689942205051,119.87763605208632,631.183117361476,15.288,0.0,1.446939696510727,0.0944370598997038,2.323135700198309e-08,-0.0060164980854456,-0.0035502283675961,0.0005307318684567,3.35154271921966,14.306160011036097,31.873552269464216,30.117522879570473
0.96,31.222187280639343,131.0104506261225,18.676939585227263,2.9438534921110886,-1.616690621992937,29.409740781847137,0.3743146553838784,2.364563494406852,337.09533515678345,32.37362721768748,12.639970124262838,71.91178734427012,-0.1226679243617457,119.87101029163152,640.786614111806,15.288,0.0,1.4508630251856487,0.0951544791372538,2.3730865861666208e-08,-0.0062292468645479,-0.0036681373162974,0.0005536555763537,3.3582229625827784,14.213252186779656,32.11971174528647,29.50701823017296
0.97,31.222186710857912,131.0104517774738,18.980332643999123,2.957743836942708,-1.6023351894617963,18.744395588000817,0.3806652599842044,2.3465728752873187,245.02188719299323,32.62771542798387,12.743274447210355,71.90815853056978,-0.129171690749382,119.86416891597008,650.865698997946,15.288,0.0,1.4547657462406929,0.0959016385339585,2.4253054619927413e-08,-0.0064482585861092,-0.0037878619278942,0.0005776027212552,3.363546562195699,14.117631679246331,32.37605401199165,18.894540911561137
0.98,31.22218613639972,131.01045293792075,19.28600158469976,2.967483590299007,-1.5861156039116489,27.39249778601496,0.3875875338803085,2.327344495325395,319.5937466429581,32.922182756024085,12.85906932868566,71.9044022873946,-0.1358831071821266,119.85710894802992,662.647472528996,15.288,0.0,1.4586452189065937,0.0967674910352497,2.4799496620272945e-08,-0.0066733905419056,-0.0039092745133791,0.0006031461121235,3.3644422394323525,14.007216845604354,32.673068120384684,27.4939209908877
0.99,31.222185557107288,131.0104541077889,19.594058336556383,2.9832817885278904,-1.5734852126482133,29.956606579560617,0.3937115143587919,2.309359647961216,341.6609485517054,33.14408466486167,12.95221347958703,71.90051497078596,-0.1428050440087388,119.84982735118147,671.590451315181,15.288,0.0,1.4625044063946948,0.0974200613634625,2.5371690419600013e-08,-0.0069049356113626,-0.0040324845270446,0.0006282611182426,3.372475056693082,13.927630208973348,32.89695325232218,30.04806863182299
1.0,31.222184972978688,131.01045528708187,19.904506511386376,2.995034055232128,-1.5590461601155368,26.78506167967197,0.4003981293107867,2.2901422636021698,314.2672081822764,33.40530842602447,13.057518525262468,71.89649286120371,-0.1499401736948802,119.84232130348651,682.1980530942993,15.288,0.0,1.466342146267769,0.0981882175901285,2.5971227516566607e-08,-0.0071429735533599,-0.0041574828337415,0.0006550223197732,3.376187128144619,13.833686066117345,33.160444247149634,26.885769459573297
1.01,31.22218438420351,131.01045647540545,20.2172163597096,3.0070821987141145,-1.545092585821796,28.026087604441376,0.407059992711569,2.270758954258581,324.9203161036979,33.65785499391892,13.160052155944143,71.8923322222905,-0.1572913050262041,119.83458783086051,692.5311777238776,15.288,0.0,1.4701579021846072,0.0989308767624688,2.6599748117840308e-08,-0.0073874822727621,-0.0042842090675701,0.0006825451949377,3.3804825065892183,13.744597631308386,33.41518183323418,28.12087535049068
1.02,31.22218379070073,131.01045767292754,20.53224663816696,3.0197898910595304,-1.5317891187469483,23.350940178222075,0.4136428512673277,2.2513132312421105,284.59063161540416,33.89757211316666,13.258518815733533,71.8880292649232,-0.1648611528971153,119.82662405989744,702.4097088589169,15.288,0.0,1.4739526195426484,0.0996358339235557,2.7258870205499326e-08,-0.0076386530891273,-0.0044127133851862,0.0007107563791832,3.3857548285301218,13.66179093035689,33.6569879029386,23.462862546596405
1.03,31.22218319254169,131.0104588794999,20.84954998538073,3.029602788239526,-1.5173297517848483,19.026645576219668,0.4206499312346626,2.2308521195619777,247.30469339049705,34.16439593241219,13.365356229213816,71.8835801585129,-0.1726523836428163,119.818427167422,713.4894833108829,15.288,0.0,1.4777256167878927,0.1004204742400878,2.7950278583529294e-08,-0.007896530190158,-0.0045429689444058,0.0007405121638271,3.3880136437944044,13.56994006746808,33.92608219022754,19.16159934418527
1.04,31.22218258979044,131.01046009498924,21.169084173774035,3.041576106680925,-1.5042529909927045,30.42780685035743,0.4273642411989476,2.21072815280148,345.46563688072297,34.40159064309769,13.462896033777852,71.8789809531104,-0.1806677523600873,119.80999423540928,723.4088243973282,15.288,0.0,1.481477441826534,0.1011180326476848,2.8675689356703843e-08,-0.00816119857272,-0.0046749709119964,0.0007706217993515,3.3929096982121583,13.490598000616574,34.16533027964045,30.51100438993943
1.05,31.2221819821488,131.0104613200157,21.4910592528648,3.051143323235228,-1.4902811125208026,18.23728172628164,0.4344426560033032,2.189686338972193,240.45625879819983,34.6605178202997,13.567132864227991,71.87422767329252,-0.1889099384976153,119.80132242501332,734.3167205836127,15.288,0.0,1.48521017354572,0.1018794782702072,2.943677304952725e-08,-0.0084330611295156,-0.0048088693185381,0.0008022610099209,3.3953370203991984,13.404374765119837,34.42645140504504,18.373402282870824
1.06,31.22218136986402,131.01046255406544,21.81530543269856,3.058607708057553,-1.4755882694858655,26.108083109684703,0.4418564849283775,2.1677623356387774,308.17968365593924,34.938154885518,13.67713431180764,71.86931618291439,-0.1973817432589037,119.79240876791928,746.1046212102418,15.288,0.0,1.4889222301961906,0.102695927214162,3.023538154645617e-08,-0.0087120035923892,-0.0049445576835299,0.000835410398666,3.395640304627261,13.312658005134578,34.70639564366039,26.20164945875147
1.07,31.22218075281483,131.01046379739088,22.141909641200776,3.069921147877096,-1.4630345578328627,30.799682338611863,0.4487147376694292,2.14669292490501,348.5093681440308,35.16658670123794,13.771728108029206,71.86424219999597,-0.2060860066426312,119.783250256661,755.8691302042498,15.288,0.0,1.492615757517735,0.1033677522551478,3.1073313051051186e-08,-0.0089983199468763,-0.0050821295924045,0.0008684801357164,3.400417205849894,13.240065709950024,34.93679874342495,30.877662923042582
1.08,31.22218013089596,131.010465050212,22.47094762005776,3.080067618084932,-1.4501824942764503,20.633970117225136,0.4557620975623766,2.125027514372542,261.00157857466235,35.40285606951126,13.86869117707408,71.85900157009685,-0.215025479806689,119.77384396790286,766.035766660257,15.288,0.0,1.4962909965212203,0.1040626226910512,3.19523948769084e-08,-0.0092922263958214,-0.0052216362560594,0.0009028437528686,3.4040886458885797,13.16567700877972,35.175086256767976,20.748112777430016
1.09,31.222179504393942,131.0104663119332,22.80222230961683,3.085426381534136,-1.4353551748349511,18.95613926461104,0.4635647189105746,2.1016218973258067,246.54375332474407,35.6889697657902,13.98113591922341,71.85358993482889,-0.2242028890880005,119.7641870107638,778.4427035138112,15.288,0.0,1.4999457799917266,0.1049040131484739,3.287460981885623e-08,-0.0095935337594454,-0.0053629372304437,0.0009396223012911,3.4026619659932167,13.07484144646369,35.463528284555494,19.077917146986103
1.1,31.222178873387712,131.0104675823909,23.13568125773871,3.092811135935989,-1.4217497807337347,38.34074965144261,0.4710801458282958,2.078540734453306,413.1890617385841,35.94669709278669,14.084665173817877,71.8480028460436,-0.2336209555990059,119.75427649949356,789.7010281156747,15.288,0.0,1.503580829503026,0.1056619734117435,3.384190365605122e-08,-0.0099023260337779,-0.0055060240730682,0.000976839020643,3.403658237801488,12.99527021928732,35.7233920776139,38.39993921770153
1.11,31.222178237459083,131.01046886245723,23.471618162839707,3.10460587482653,-1.410408152187906,27.991419342702848,0.4779107065856679,2.056608245929161,324.1593910376397,36.1477287019616,14.17042766412764,71.84223588698126,-0.2432824532434951,119.74410948346268,798.5327524675735,15.288,0.0,1.5071996241495522,0.1062532899345624,3.4856120305144833e-08,-0.0102192260736701,-0.005651133757549,0.0010137054778988,3.4096746865387715,12.936250480282446,35.9262046815392,28.07093858316341
1.12,31.222177596673166,131.0104701519988,23.809990196402072,3.107334766241799,-1.3952044400439472,10.375906170057524,0.4862118789146869,2.031435394290015,172.73281794065943,36.44895573711809,14.28739873490994,71.83628447598919,-0.2531900107833038,119.7336831732534,811.8705176065912,15.288,0.0,1.5108005886934583,0.1071391312568995,3.591930958854602e-08,-0.0105442557132183,-0.0057982207951417,0.0010546289210907,3.40590896231672,12.844039430925935,36.22981919444672,10.58407107885287
1.13,31.222176951643647,131.01047144973663,24.15037263923848,3.1145648012695526,-1.382280243958804,33.05065614758686,0.4938102293709144,2.0074407341589966,367.5328077900705,36.6926531824879,14.386354035990232,71.83014385997724,-0.2633465375066339,119.72299447532974,822.7362305412238,15.288,0.0,1.5143813375594697,0.1078558769809033,3.703371566091549e-08,-0.0108768843384295,-0.0059469978059933,0.0010951360712099,3.407246707653224,12.772502208394494,36.4755461714785,33.115246316912895
1.14,31.222176301682943,131.01047275710704,24.493246773988908,3.1249135565898,-1.3709565694607504,18.17387936192362,0.500904360665623,1.9842459706471287,239.69531773195544,36.89406013018994,14.47202599401754,71.82380948456343,-0.2737545782927494,119.7120406785466,831.765666503306,15.288,0.0,1.5179466266856363,0.108448320376032,3.820118145156242e-08,-0.0112180758901216,-0.0060978439609084,0.0011356512386134,3.412146332260861,12.715902334005762,36.67873132442921,18.288740479112185
1.15,31.222175647295813,131.01047407305916,24.83826370581861,3.125984872852164,-1.3558017297800404,17.91036454299643,0.509564933650057,1.9575232772347628,237.41251153546767,37.199863218148906,14.590260978978543,71.81727660960857,-0.2844166166814055,119.70081914149613,845.5832668982612,15.288,0.0,1.5214921335928335,0.1093476396367238,3.942399696437688e-08,-0.0115672885739879,-0.0062504666003858,0.0011806703969098,3.4070743214220256,12.625882905982436,36.98691425511094,18.02422569392498
1.16,31.22217498862491,131.01047539729626,25.185326725413088,3.136648184770835,-1.345019610459509,47.34153189840112,0.5166202733809213,1.933905419824476,490.0437743845894,37.38677398468913,14.671279210246391,71.81054032278264,-0.295335399963416,119.68932693719968,854.0734094149907,15.288,0.0,1.5250147477332114,0.1098974874413843,4.070435081145014e-08,-0.0119245746625326,-0.006404842749366,0.0012232132372807,3.4125989938654957,12.575605246480766,37.17551820259856,47.383831938405166
1.17,31.22217432476793,131.01047673170626,25.535066553781327,3.1422787453650884,-1.3322809778062918,8.163636900579627,0.5245414533172617,1.908203120119252,153.70937929486794,37.62779569622963,14.769138472128873,71.80359585108486,-0.3065133252681084,119.6775615087111,865.0917694945683,15.288,0.0,1.52852312216423,0.1106064012891398,4.2044126131704256e-08,-0.0122912017210295,-0.0065614634546626,0.0012689070664578,3.412786006842649,12.508581623767258,37.41854034776066,8.40008037630512
1.18,31.222173656915626,131.01047807380365,25.88665684799044,3.141235076568347,-1.3169527866096915,22.88487096238627,0.5336535555748073,1.879669712336268,280.02501822196746,37.94406585218114,14.890496265633187,71.79643815725228,-0.3179529454619698,119.66552013380398,879.6657616914777,15.288,0.0,1.5320099138706988,0.1115365157310426,4.344599281202704e-08,-0.0126656910824857,-0.006719645720864,0.0013185141092877,3.405874974081353,12.418725907365303,37.73721760692454,22.968135825746117
1.19,31.222172984532182,131.01047942471007,26.24047324668645,3.154000080135867,-1.3076086629167991,40.1870339608924,0.5403400299639017,1.8560820096014128,428.4078130529292,38.08870351754688,14.95808894148826,71.78906219119459,-0.3296569038929807,119.65319998621804,886.3547528105411,15.288,0.0,1.535481324403184,0.1119621249584621,4.49119883919959e-08,-0.0130490509998477,-0.0068797691055713,0.0013635541294457,3.4140634780097785,12.383764357710389,37.883322658844186,40.23350228787281
1.2,31.22217230715776,131.01048078539196,26.596838361883528,3.155108454528624,-1.293622294772011,3.9049923425147375,0.5491116464542867,1.827711662974218,117.1843741360236,38.36834183121135,15.067868792053613,71.78146294311547,-0.3416273748129979,119.64059874458376,899.386556693154,15.288,0.0,1.538937781380657,0.1127845781711817,4.6444267188703546e-08,-0.0134419422682819,-0.0070420503536416,0.0014148729828997,3.4097618805723475,12.307329748411467,38.16515738005784,4.346379955588612
1.21,31.22217162598441,131.01048215335706,26.954925131041,3.156514469308908,-1.2799788391536977,32.21639213033215,0.5578566200835055,1.7990964793756603,359.92343213200894,38.63976353480784,15.17504536051726,71.77363516836041,-0.3538669669801913,119.62771361430713,912.1248997927916,15.288,0.0,1.5423734869998424,0.1135828872063292,4.8045642191147785e-08,-0.0138428402913997,-0.0072058116250593,0.0014673277357066,3.405917134763789,12.234509583837449,38.43872165217422,32.27140954538553
1.22,31.222170940105684,131.01048353050612,27.31536706778797,3.1674879028982463,-1.2703874540487508,23.256601847568945,0.564839802278458,1.7740829412975652,283.0687504825761,38.78866559463188,15.243773667160168,71.76557357873004,-0.3663779509401028,119.61454216887596,919.1365424760356,15.288,0.0,1.5457954555671576,0.1140210536486175,4.9718094980938175e-08,-0.014253300420602,-0.0073716387362404,0.0015166057540272,3.4125092499213068,12.199703714636708,38.58912995012171,23.33100820327292
