Time,Latitude,Longitude,Altitude,Angle of Attack,Angle of Sideslip,X-Acceleration,Y-Acceleration,Z-Acceleration,Thrust,True Velocity,Ground Velocity,Pitch,Roll,Yaw,Dynamic Pressure,cp,cg,parachute_deploy_gain,Wind Speed,Wind Direction,Mach,omega_x,omega_y,omega_z,Cmq,Angle of Attack(total),Angle of Attack(gust),True Velocity(gust),Acceleration
0.0,31.222216000000007,131.010392,3.000000004412624,0.0,0.0,0.0,0.0,0.0,2.2828121974499247,0.0,0.0,69.99999999623412,0.0,119.9999999935444,0.0,1.274,1.0271675151847728,0.0,0.0,0.0,0.0,0.0,0.0,0.0,-0.0,0.0,90.0,0.0,0.0
0.01,31.22221599999084,131.01039200000497,3.000002745347096,0.0,0.0,0.0,0.0,0.0,34.242186961749226,3.465174813755316e-14,2.8705476994166025e-14,69.9999999962611,-2.1713911667908447e-11,119.99999999352175,7.352495975525499e-28,1.274,1.0271659134330349,0.0,0.0,0.0,1.0183245502395064e-16,-3.3305335486039093e-18,7.169286865560398e-18,5.624298769768554e-18,-7.715917190115602e-34,0.0,89.99999999999979,3.465174813755316e-14,0.0
0.02,31.222215999994315,131.0103920000094,3.0000030495639742,0.0,0.0,0.0,0.0,0.0,25.871876237766216,3.8197434737535036e-11,2.4171837235633357e-11,69.99999999628672,-1.1921727947863515e-11,119.99999999353136,8.93414285188691e-22,1.274,1.027164492361118,0.0,0.0,0.0,1.1225230367947217e-13,-6.657678965418802e-18,1.4338573731120796e-17,1.1241821275959074e-17,-1.7010872994127372e-30,0.0,89.99999999975682,3.8197434737535036e-11,0.0
0.03,31.222215999994315,131.0103920000094,3.0000030495639742,0.0,0.0,9.81877837424427,-2.5122800045972096e-05,3.3498614629347925,180.34219359854663,1.2659015405517447e-10,1.1364406173918436e-10,69.99999999631459,-1.6431898037347223e-11,119.99999999352724,9.812605835254651e-21,1.274,1.0271551940870716,0.0,0.0,0.0,3.720154642239108e-13,-9.991600645811728e-18,2.150108433310316e-17,1.6859343782149594e-17,-8.453698244545225e-30,0.0,89.99999999919412,1.2659015405517447e-10,10.374487003414373
0.04,31.222215999994315,131.0103920000094,3.0000030495639742,18.83801224594347,-0.0001111777826462,48.68248476615645,-1.016330065874988e-05,3.3497854396877287,548.635972453808,0.1556173050466994,0.0975908358443652,69.99999999633813,-2.0932768807056278e-11,119.99999999352085,0.0148286043323172,1.274,1.027133720825283,0.0,0.0,0.0,0.0004573186944143,-1.3322134194415637e-17,-1.04744143520903e-11,1.336824254131964e-11,5.0626055458604615e-15,18.83801224625964,89.06236267790787,0.1555998412814392,48.79759610369246
0.05,31.22221599164764,131.01039201704114,3.002326315126219,5.772385609593056,-4.395076213712875e-06,71.20344550265034,4.905512691849684e-05,3.349217396035405,761.6984298824663,0.8326471944351852,0.3620326097059287,70.00000001316391,-1.0866255162484559e-10,120.00000000231074,0.4245281043148827,1.274,1.027093426565204,0.0,0.0,0.0,0.0024469331205246,-5.0245994431125096e-18,-7.32924164976824e-07,2.217344936947165e-11,1.895424184525467e-09,5.772385609594774,84.74112356985832,0.8326465040582279,71.28217104309611
0.06,31.22221596664444,131.01039206837547,3.015081730143309,4.056581213689704,3.169093567502233e-05,53.16249142470188,0.0001203825427859,3.3481235983850643,590.4875390737236,1.657216205300742,0.6755452977614796,69.99999964391398,-3.9285905645317736e-10,120.0000000287861,1.6816755551786196,1.274,1.027050317124926,0.0,0.0,0.0,0.0048701272653724,3.095757869075056e-13,-7.483541766772344e-06,3.074135420506017e-11,3.8518749565858254e-08,4.056581213813337,79.59316473687034,1.657221183301277,53.26781792157489
0.07,31.22221592883117,131.0103921460222,3.034593611434361,4.115662018628709,6.450869598349036e-05,81.18203554989698,0.0001593212642178,3.347059402768047,855.2937749779172,2.099899704220947,0.8579771146174259,69.99999543281565,-8.233801910783518e-10,120.00000006883089,2.700101932075157,1.274,1.027003201295312,0.0,0.0,0.0,0.006171060252819,3.4704292086287e-12,-2.6327204536316785e-05,1.9541142932033486e-10,1.7170712165327165e-07,4.115662019133419,76.90111966094352,2.099909837223217,81.2510043180746
0.08,31.22221588914193,131.01039222747755,3.0542761843835606,3.459696193892355,8.037433511260004e-05,16.298214211652088,0.0002413456836072,3.344878926597744,241.2171988638792,3.051964775152957,1.2149999716613011,69.99998042886442,-1.0128995578004475e-09,120.00000011111383,5.703497661025892,1.274,1.0269597189470347,0.0,0.0,0.0,0.0089689344021769,1.458982438104473e-11,-5.702803872814215e-05,7.043261397829576e-10,5.405702492731987e-07,3.459696194824858,71.30331929508368,3.051977400323993,16.63790856991177
0.09,31.2222158241468,131.01039236098703,3.0886872184095737,4.313676956300389,0.0001337561018991,50.35975918308536,0.0002293282821279,3.344215841840564,563.0937377043203,2.893161298572128,1.191209213966114,69.99994788602814,-7.098432023887522e-10,120.00000018106356,5.125380275808925,1.274,1.026918932011013,0.0,0.0,0.0,0.0085022553945842,3.8672912027154325e-11,-0.0001115933708951,2.016054215232918e-09,1.0027525988343615e-06,4.313676958370176,72.2316578138625,2.893182308931483,50.47067588835877
0.1,31.2222157788302,131.01039245392113,3.109877853389092,4.035124630954496,0.0001457499816535,47.804664812504015,0.0002878217657545,3.341734392237128,538.7437595981891,3.5677148583138303,1.4531247507621967,69.99988403958329,1.9248461973355822e-09,120.0000002323013,7.7939962029572305,1.274,1.0268846934974103,0.0,0.0,0.0,0.0104845969583028,8.579678749070606e-11,-0.0001726817043215,3.984565639703107e-09,1.913455350430327e-06,4.0351246335824245,68.43243098813296,3.567737752667411,47.92132267234452
0.11,31.222215703308,131.01039260899836,3.148841432727305,4.043401107254707,0.0001752764476999,37.67622367577205,0.0003286462930162,3.3392563999062723,442.86563930529127,4.034183355956686,1.6436552022667772,69.99978525353545,7.302513231814865e-09,120.00000031883242,9.96528118825134,1.274,1.026848594915519,0.0,0.0,0.0,0.0118554331868328,1.5870341853361987e-10,-0.0002596204409236,7.232030302688121e-09,3.252930323390323e-06,4.04340111104746,65.92012987243639,4.034210888316708,37.82391391539392
0.12,31.222215627491828,131.01039276462643,3.186995101203875,4.17874459224363,0.0002066711490009,41.15991989399172,0.0003576945202315,3.336766085769504,475.58594813540793,4.361857560629481,1.7865750500940407,69.99963665601238,1.781774420198147e-08,120.00000041104812,11.649831899889556,1.274,1.0268114448194128,0.0,0.0,0.0,0.0128183893919737,2.682972478760441e-10,-0.0003710216542429,1.2215991071490164e-08,5.026311388647148e-06,4.178744597345269,64.21681651392016,4.361890024457652,41.29495143136631
0.13,31.22221554594398,131.01039293200228,3.2277173449026786,4.202734874672792,0.0002327160860324,45.44886120763352,0.0003953741266062,3.333578629398489,515.9156326236897,4.792165672014363,1.9646716520715424,69.99942424225341,3.613383418913551e-08,120.00000051758742,14.061726603124043,1.274,1.026779572895131,0.0,0.0,0.0,0.0140829618979635,4.248908088871395e-10,-0.0005056103199642,1.908859219307828e-08,7.5253154423526356e-06,4.202734881104192,62.048594618540655,4.792202226971676,45.570952718869485
0.14,31.222215454191247,131.01039312033683,3.2737880595608355,4.184830647080848,0.000257138757548,42.32232525579263,0.0004369426767266,3.329727443445437,486.2390860568421,5.269261304374574,2.158791628597544,69.99913473613935,6.515851355725497e-08,120.00000064630268,17.000925061330125,1.274,1.0267449573927567,0.0,0.0,0.0,0.0154850332441425,6.382432869666793e-10,-0.0006690086306358,2.8426433029675884e-08,1.0948547100483978e-05,4.184830654966803,59.74181173116622,5.269301695636157,42.45310707234106
0.15,31.222215353826755,131.0103933263496,3.3242182719560263,4.21963947489699,0.0002846467688673,40.886944113003565,0.0004726792395108,3.325585650885676,472.5421858721398,5.6781946837482895,2.329510773545807,69.99875162806286,1.0876776246115984e-07,120.00000079954532,19.742017654108928,1.274,1.0267115958081523,0.0,0.0,0.0,0.0166867950518804,9.204756288136623e-10,-0.000865746478554,4.08948221429571e-08,1.526771148078443e-05,4.219639484480408,57.84996018384879,5.678239395958187,41.02196629910223
0.16,31.222215247130432,131.01039354534575,3.3775922280208457,4.253495568077899,0.0003118339050386,32.26872905470846,0.0005078415214353,3.32090791922544,391.1218908297597,6.081244877834229,2.4981889727471702,69.99825581174558,1.7187028096464329e-07,120.0000009800088,22.644030778355887,1.274,1.026675762255412,0.0,0.0,0.0,0.0178712695992133,1.2856146928958252e-09,-0.0010961187242953,5.6923362293832417e-08,2.0702404729358337e-05,4.253495579487569,56.06022383757386,6.081293860589489,32.43916312841722
0.17,31.22221513260033,131.01039378041813,3.4348437275053194,4.364838523348639,0.0003448792023946,40.840448242802736,0.0005326487904353,3.3162727284953744,471.78125980632416,6.362544479165355,2.6250789114832647,69.99762801982864,2.5997588617291615e-07,120.00000119506798,24.78723182122683,1.274,1.0266409836796937,0.0,0.0,0.0,0.0186979513961862,1.747791994374917e-09,-0.0013624931601664,7.706724512977917e-08,2.6923621797558364e-05,4.364838536947241,54.85936171416122,6.362598652663785,40.97486885600156
0.18,31.222215014088988,131.01039402363364,3.4935801365785646,4.353948305387995,0.0003681615230806,33.992183768165326,0.0005718025428208,3.310131992647221,407.1015672119096,6.81502088160835,2.810667639293692,69.99684761766231,3.794979223522764e-07,120.00000144728236,28.437950785509614,1.274,1.0266048342046536,0.0,0.0,0.0,0.020027681385988,2.3221419748804155e-09,-0.0016616990447559,1.0147209890543081e-07,3.517105786247627e-05,4.353948320923495,52.99157233768714,6.815078712285162,34.152972512863755
0.19,31.22221488419521,131.01039429023237,3.558399965607869,4.432620772533925,0.0003996774584738,38.45149959021069,0.0005986099513107,3.304145139297767,448.95313283182486,7.1223367465208405,2.946425726785696,69.99589577323147,5.440084577183829e-07,120.00000176148238,31.060341085698347,1.274,1.026566130444714,0.0,0.0,0.0,0.0209308229359413,3.022391489754689e-09,-0.0020041563310821,1.3135864879722746e-07,4.433199397898183e-05,4.432620790516937,51.77883352025967,7.122399527709208,38.59320142454953
0.2,31.222214751373183,131.01039456280608,3.624052454705669,4.443889400961181,0.0004246617145652,35.23432408779927,0.0006337972852267,3.2968110145188256,418.5156301991588,7.530482904611057,3.1167566004785483,69.99474776398331,7.478025600151903e-07,120.00000211715036,34.72195181863731,1.274,1.026529240027363,0.0,0.0,0.0,0.0221302820454282,3.866698391504749e-09,-0.0023849544920781,1.668144671071589e-07,5.57780533277244e-05,4.443889421210987,50.22448880200342,7.530549610317194,35.38822625098952
0.21,31.222214608673173,131.01039485566503,3.6948551453492566,4.493351735844891,0.0004538195602194,33.79371564104691,0.0006629296043866,3.2891790438445727,404.8187610144608,7.868284042829251,3.2629204975089228,69.99338155599101,1.0150082652278477e-06,120.00000255293388,37.906665490338085,1.274,1.0264923657015164,0.0,0.0,0.0,0.0231230169900677,4.871073773182836e-09,-0.0028117605859743,2.089322918608601e-07,6.870935089180403e-05,4.493351758715364,48.992529909481824,7.868355328639073,33.95340801819282
0.22,31.22221446109996,131.01039515850383,3.767700382407304,4.5412639153933885,0.000482649303782,41.008966751568416,0.0006914639179131,3.2808061382386606,472.5421858721387,8.20057841132235,3.4071691679735228,69.9917708347139,1.3454961520984431e-06,120.00000305929996,41.175744234065135,1.274,1.0264494137127138,0.0,0.0,0.0,0.0240995709751246,6.054779813287368e-09,-0.0032829112061357,2.580881224843564e-07,8.3609968899004e-05,4.54126394098788,47.82515604752711,8.2006542256977,41.13999323561041
0.23,31.22221430675399,131.0103954752338,3.843768625625224,4.52371495179584,0.0005047555656171,33.98493478127787,0.0007294889663961,3.2705214710765107,406.340642146096,8.647938096586296,3.5908865300848416,69.98989017772566,1.7539876018835507e-06,120.00000365514876,45.79040229326471,1.274,1.0264133390858623,0.0,0.0,0.0,0.0254142776666487,7.436335125872812e-09,-0.0038001790077148,3.1489825108822685e-07,0.0001020628978177,4.523714979897577,46.31461705147579,8.648017383405135,34.14194053232237
0.24,31.222214142622448,131.0103958120587,3.92493179063287,4.57837522350066,0.0005351929930195,35.051650311058864,0.0007555049947555,3.26053011385611,416.2328240017099,8.954297884844461,3.72617527247482,69.98771316795013,2.25257161141768e-06,120.0000043564586,49.09180568115741,1.274,1.0263750048312463,0.0,0.0,0.0,0.0263146218848643,9.034877387788232e-09,-0.0043732521010013,3.809642748985157e-07,0.00012161410144,4.578375254714954,45.32798984252032,8.954381952763216,35.20297212911011
0.25,31.22221397517227,131.0103961556623,4.0071748888306855,4.6034117733065,0.0005618935542827,36.03738579534623,0.000785606492708,3.249069743648399,425.3640807915084,9.311611941121669,3.8789349536029696,69.98520781816889,2.8559738498748624e-06,120.00000517181904,53.08749562138344,1.274,1.0263373768840591,0.0,0.0,0.0,0.0273647110956883,1.0873791100894836e-08,-0.0049950711786164,4.5609738277273444e-07,0.0001444478241125,4.603411807525074,44.2165428352526,9.311700203154778,36.183554686886296
0.26,31.22221379934012,131.01039651647062,4.09364247475714,4.621386912291471,0.0005881033207375,39.29107511182762,0.0008162761165496,3.236407051295005,455.80158342417656,9.67833954512075,4.034902068846398,69.98234620927953,3.5784678110229355e-06,120.00000612171208,57.350948423913096,1.274,1.0263006300381676,0.0,0.0,0.0,0.0284424679130479,1.2973286442992724e-08,-0.0056712051373577,5.414206381221602e-07,0.0001704578711045,4.621386949630312,43.12063533194282,9.678431924174348,39.42414126789902
0.27,31.222213616776543,131.01039689108487,4.183310605341074,4.617158109135719,0.0006115457810536,35.90419462403674,0.0008503454714941,3.221982799915672,423.8421996598744,10.088790784535757,4.205862468567124,69.97909721779352,4.436165972465058e-06,120.000007221354,62.31798301949865,1.274,1.026260090595354,0.0,0.0,0.0,0.0296487219805601,1.5355910600537293e-08,-0.0064045199323113,6.379142666348734e-07,0.0002006609239367,4.617158149547818,41.94410287616451,10.08888684592241,36.048472443180565
0.28,31.22221342607797,131.0103972823952,4.277051150896916,4.642105655370123,0.0006389739579882,41.51133203546672,0.0008785747638736,3.2071101123224945,476.3468732012228,10.432377224420517,4.35383399240675,69.97542808435722,5.446665372087172e-06,120.00000849080963,66.63429581008447,1.274,1.0262212716723291,0.0,0.0,0.0,0.0306584788590473,1.8045308789081613e-08,-0.0072006835403936,7.469524967369969e-07,0.0002332868227611,4.642105699250441,41.0023231023774,10.432477594215127,41.63503624837164
0.29,31.22221323001776,131.01039768469093,4.373143569786686,4.62134615173668,0.0006600657405645,33.17552944492765,0.0009148746278066,3.1894209319791806,397.9703104221098,10.876662296046485,4.536381530986506,69.9713027936179,6.629751536885327e-06,120.00000994797426,72.43000748232016,1.274,1.026183007522519,0.0,0.0,0.0,0.0319641703260467,2.1067646517035105e-08,-0.0080566154554079,8.688043379161898e-07,0.000272130659453,4.621346198772975,39.83162628795024,10.876765978930557,33.32848872465723
0.3,31.22221302403368,131.01039810736614,4.4744193758467325,4.664362353358112,0.0006905183788532,31.08096762732793,0.0009381960428197,3.172549142946348,378.1859457108735,11.168362145070317,4.66647911311536,69.96668711012893,8.005507138509574e-06,120.00001161892672,76.36634300732833,1.274,1.0261430389738484,0.0,0.0,0.0,0.0328214509167604,2.4447409007156216e-08,-0.0089829108229115,1.0056222251461646e-06,0.0003115527202986,4.664362404357781,39.09908960432563,11.168470611443622,31.242464973103964
0.31,31.22221281503337,131.01039853619727,4.576593712520673,4.700143580504286,0.0007196683316923,32.79732593144512,0.0009620705970519,3.154230688182399,394.1656220930229,11.470279728974068,4.800072153432283,69.96154070456518,9.597499105113692e-06,120.00001352112182,80.55022837857167,1.274,1.0261054058068628,0.0,0.0,0.0,0.0337087616009043,2.8214060606649844e-08,-0.0099686353219717,1.1565909895184251e-06,0.0003550834484269,4.700143635477137,38.36463422765983,11.47039277421126,32.94865339301887
0.32,31.222212598991007,131.01039897947376,4.68216432480395,4.718667719113184,0.0007464384342556,35.7316568886908,0.0009885845337584,3.133859770838664,421.5593934624264,11.808280530415894,4.946054328851105,69.95582953472353,1.14278227255889e-05,120.00001568218067,85.36654007972253,1.274,1.026068246703101,0.0,0.0,0.0,0.0347021168382987,3.2392058795580455e-08,-0.0110163301561155,1.3226102501723267e-06,0.0004039614423012,4.718667778018562,37.5686120062341,11.808397780690962,35.8688218659563
0.33,31.222212376029034,131.0103994369436,4.791055524254013,4.72141404831576,0.0007708346814671,35.42013590291081,0.0010176135371143,3.1111955852784385,418.5156301991632,12.181577273013426,5.104163223586657,69.94951809396906,1.351997394754887e-05,120.00001812674968,90.84831229869296,1.274,1.0260310883392356,0.0,0.0,0.0,0.0357992034445943,3.700677535501642e-08,-0.0121310534481307,1.5051409581878843e-06,0.0004588955105349,4.721414111097893,36.7208578211118,12.181698355442045,35.55651229220977
0.34,31.222212145785647,131.0103999093516,4.903491659547144,4.73024573449122,0.0007962944975467,27.63851074646407,0.0010446307681611,3.0871492806781062,345.4656368807584,12.53557620048282,5.2556261014174765,69.94256797855994,1.5899658158227497e-05,120.000020882338,96.20413272674828,1.274,1.0259901535019136,0.0,0.0,0.0,0.0368395817555172,4.208561016221623e-08,-0.0133180771902383,1.7057647550599631e-06,0.0005184333231541,4.730245801363397,35.94841996438923,12.535701282129995,27.810389570354005
0.35,31.222211909310875,131.01040039453565,5.018822212845608,4.780248518778662,0.0008286678570753,30.332092807652543,0.0010618579815451,3.063967690608957,370.5765700527057,12.774786382148209,5.367579971644358,69.93493776125636,1.8594985713558667e-05,120.00002397748868,99.9096898192772,1.274,1.025950003202184,0.0,0.0,0.0,0.0375426220587071,4.7658312175989686e-08,-0.0145774693288123,1.9252724355785177e-06,0.0005782798420984,4.780248590437683,35.44790728185619,12.774916548990808,30.486451961956565
0.36,31.22221166933814,131.0104008868675,5.135354490370708,4.798132156899578,0.0008554457330409,34.32674769697476,0.0010851169437774,3.0374319611165923,407.8625232777224,13.09301701329486,5.506730645516068,69.92658597246795,2.163521613217148e-05,120.0000274401514,104.94818266210537,1.274,1.0259105142325406,0.0,0.0,0.0,0.0384778908056978,5.3755109608570216e-08,-0.0158991451700967,2.162609490834569e-06,0.0006464142451675,4.798132232978766,34.796094028187134,13.09315138639638,34.46087058603792
0.37,31.222211421355144,131.01040139563804,5.255882891363927,4.797392186816851,0.0008791822061288,32.551601855236584,0.00111162791192,3.0078619428913056,391.1218908297639,13.457513730739372,5.661815946371007,69.91747693543164,2.5047738471809164e-05,120.0000313040604,110.87154396328836,1.274,1.025872170958032,0.0,0.0,0.0,0.0395491312153729,6.040098808671168e-08,-0.0172926678053148,2.420031948898497e-06,0.0007226353721561,4.797392267189059,34.07332166419882,13.457651832357364,32.69027405888565
0.38,31.22221116634284,131.01040191882743,5.379799334000849,4.811698494594017,0.0009057112478668,34.02947987649063,0.0011338447913587,2.9774881690446744,404.81876101445977,13.77554886562956,5.800899861213392,69.90756948297444,2.886339581486796e-05,120.00003560072224,116.17243393848278,1.274,1.02583050512925,0.0,0.0,0.0,0.0404838339452728,6.762496638941508e-08,-0.0187646375218858,2.69955777313946e-06,0.0008026686661094,4.8116985796350695,33.46655348088405,13.775691134419684,34.15949264475229
0.39,31.222210906095896,131.01040245274032,5.505993307722699,4.813508003664984,0.000929862892873,29.00025983045028,0.0011579891265804,2.9442136901860865,357.6406249338268,14.124492165837273,5.950648592462506,69.8968186645841,3.311602501056718e-05,120.00004036395212,122.13093644173792,1.274,1.02579027384009,0.0,0.0,0.0,0.0415093739609825,7.545934774906889e-08,-0.020311592409804,3.0013532510753577e-06,0.0008908380763632,4.813508093268025,32.821616487639595,14.124638228358922,29.149330452482886
0.4,31.222210638473225,131.0104030017851,5.635788650457906,4.841647069358873,0.0009592124397379,27.71178845184976,0.0011749448424961,2.91135549588368,345.4656368807565,14.390874239274588,6.07193451174791,69.8851815212744,3.783947407715338e-05,120.00004563180136,126.77947425345651,1.274,1.0257493418632293,0.0,0.0,0.0,0.0422922854866381,8.39343718693383e-08,-0.021938519432511,3.3271332720311508e-06,0.0009803271643914,4.841647164150728,32.348088166612904,14.391024912012275,27.864299944624147
0.41,31.22221036681104,131.01040355909262,5.767123077463226,4.86553909860892,0.0009876699832274,31.306062598221665,0.0011918093836199,2.876450850006428,378.9468707766882,14.663028799871563,6.195223154320929,69.87261222561014,4.307011032901644e-05,120.0000514391194,131.6183642808765,1.274,1.025708445186429,0.0,0.0,0.0,0.0430921644173401,9.308325447883581e-08,-0.0236371933433427,3.6760977501392174e-06,0.0010761942383903,4.865539198612839,31.87689439156756,14.663183942709727,31.437931330109585
0.42,31.22221008906472,131.01040412887247,5.901259531771367,4.867510642114694,0.0010118258958528,35.308283402190774,0.0012128114559048,2.8374461227958245,416.23282400171047,14.9952917972178,6.33928625560071,69.85906967380902,4.884273094936628e-05,120.00005782486392,137.64909586091787,1.274,1.0256701057426505,0.0,0.0,0.0,0.0440686959134695,1.0293499639582845e-07,-0.0254093547296826,4.049238334851429e-06,0.0011830797791891,4.867510747027452,31.315270489291198,14.995450734457847,35.422111438762386
0.43,31.222209804115888,131.01040471342728,6.038886819939341,4.854590670645608,0.0010330089741511,31.00586934514032,0.0012363751872706,2.794478603999558,375.90313951343126,15.369430568701889,6.497852263156962,69.8445117629242,5.519340856908871e-05,120.00006482835984,144.60167924299955,1.274,1.0256308158337524,0.0,0.0,0.0,0.0451682983415116,1.135186446762958e-07,-0.0272634397889413,4.449073329427772e-06,0.0013010625065656,4.854590780289497,30.70250814963406,15.369592833372094,31.13154422839874
0.44,31.22220951192321,131.01040531284193,6.180028459770617,4.866912332640401,0.0010595850174406,28.57707721036899,0.0012525768202179,2.752165534925872,353.07501253892326,15.659290812546615,6.627318538707029,69.82889155423543,6.216182865383864e-05,120.00007249162944,150.1053167542629,1.274,1.025586171750536,0.0,0.0,0.0,0.0460202245100907,1.2486676023179565e-07,-0.0292060158163984,4.8779154055816594e-06,0.001420032405556,4.866912447705031,30.24619499837236,15.659457251771938,28.709297424144207
0.45,31.222209215425703,131.01040592106523,6.322872201489905,4.881836476567178,0.0010866574689855,33.31904824532484,0.0012669045761511,2.7082028218433374,397.2093853562887,15.934249290371609,6.751662050993672,69.81215834018458,6.97909417564726e-05,120.00008085697964,155.42080512416243,1.274,1.0255397023523487,0.0,0.0,0.0,0.0468283602442113,1.3701614206272197e-07,-0.0312276295846745,5.334643585560923e-06,0.0015449645531859,4.8818365972149325,29.82567893138932,15.934419982127675,33.428929688274074
0.46,31.22220891307435,131.0104065412864,6.468371919199588,4.869610441729251,0.0011078049156487,38.95909776354321,0.0012868374716666,2.6582856015412624,449.7140588976424,16.292139278621757,6.904766425053949,69.79426683863348,7.812149592850748e-05,120.00008996920153,162.4785746623087,1.274,1.02549635315424,0.0,0.0,0.0,0.0478802236363867,1.499987870203256e-07,-0.0333272350234362,5.819761874615242e-06,0.0016858511402973,4.869610567434908,29.29014635640275,16.292313292210977,39.04968351401366
0.47,31.22220860266524,131.01040717804253,6.6178810515614845,4.838450928223533,0.0011247917292402,26.253747818137555,0.0013104398935566,2.6026193242279367,331.0078106302504,16.710658191447514,7.078951441335346,69.77517236812905,8.719457259907165e-05,120.0000998741591,170.9309671061642,1.274,1.025453319323251,0.0,0.0,0.0,0.0491102725711187,1.6384464803343264e-07,-0.0355167087264168,6.3368207228363735e-06,0.0018427306558807,4.838451058652396,28.68386015667837,16.710834873319172,26.382435512333956
0.48,31.222208284201663,131.0104078313267,6.771393590864176,4.869339340099417,0.0011561785713505,25.860860976019296,0.0013165328518772,2.5543454292827983,327.20312230115803,16.911139899671,7.177575416403102,69.75482343794755,9.70562828082882e-05,120.00011062072316,175.0543877818846,1.274,1.0254092882449153,0.0,0.0,0.0,0.0496995461609974,1.7858865391586845e-07,-0.0378054080201581,6.88909442277235e-06,0.0019849793891693,4.869339477030596,28.40887970825325,16.911321511776286,25.986704537635287
0.49,31.22220796480208,131.01040848648364,6.924537656029012,4.881367714530694,0.0011829003785372,32.565703383222065,0.0013261973190012,2.5011623511055703,389.6000096981238,17.169005224738054,7.296160258358563,69.73316318155707,0.0001077573203115,120.000122255028,180.4309832312717,1.274,1.025367445590036,0.0,0.0,0.0,0.05045746454003,1.942747077649401e-07,-0.0401641298712614,7.47069711110948e-06,0.002140948887153,4.881367857509675,28.058569663954906,17.169191034294997,32.66161128464712
0.5,31.222207637929923,131.01040915697027,7.081324512896956,4.862566137860805,0.001202418260511,33.47759680712428,0.0013425340759632,2.4399894027711366,397.970310422106,17.52898693231981,7.450304424940405,69.71015149227495,0.0001193385310595,120.0001348274002,188.0736471953394,1.274,1.0253278572281015,0.0,0.0,0.0,0.0515154948878309,2.109295159784217e-07,-0.0426011733481599,8.084173008518589e-06,0.0023184335011768,4.862566286171007,27.57768313050809,17.529175807738486,33.56639745442473
0.51,31.22220730314019,131.01040984370235,7.24202048914867,4.8479762258125,0.001223054804074,25.49162310288008,0.0013562860883156,2.3767006597692686,323.39843497208153,17.86914397471067,7.597652147346554,69.68574349602717,0.0001318441288964,120.00014838524436,195.4407439266201,1.274,1.025286455263166,0.0,0.0,0.0,0.0525152689856776,2.2858192086249162e-07,-0.0451315948093539,8.734206149830708e-06,0.002503767471626,4.847976379721193,27.13799345359824,17.86933609171003,25.602178740977283
0.52,31.222206962738102,131.01041054193402,7.405210501673173,4.865306299521403,0.0012516517170965,30.733671928447727,0.0013599291289974,2.317711624364424,372.098451184342,18.08534843773428,7.701914987606457,69.65988568649581,0.0001453248538387,120.00016298000436,200.19561780583155,1.274,1.0252426840672306,0.0,0.0,0.0,0.0531507657929359,2.4726951523704535e-07,-0.0477531686556663,9.421346966092632e-06,0.0026812161964639,4.865306460134566,26.8699055233151,18.085545046726228,30.820940596104087
0.53,31.222206619320115,131.01041124632013,7.569307468221277,4.848802699234936,0.0012715119568563,32.301199055744725,0.0013711327835325,2.2490252325653923,386.55624643486095,18.41963113311156,7.8474319110539055,69.6325258319474,0.0001598315062727,120.0001786629144,207.6614205945027,1.274,1.0251993415311351,0.0,0.0,0.0,0.0541332845214831,2.67031759303889e-07,-0.0504479325599339,1.0141887756417996e-05,0.0028848299490111,4.848802865552398,26.45837260670532,18.419830861742675,32.37940050117613
0.54,31.22220626697288,131.01041196903336,7.737918664599091,4.831496690588052,0.0012913635058467,28.31291960103712,0.0013809098107221,2.177242866245296,349.2703242098436,18.75116898748492,7.992112829440902,69.60362200959217,0.0001754082864028,120.00019548734956,215.20067397992847,1.274,1.0251561018460285,0.0,0.0,0.0,0.0551077428911958,2.878941684235108e-07,-0.0532336286085667,1.090122304443916e-05,0.003098869611663,4.831496862756785,26.061835558272342,18.751371834390056,28.396510432451375
0.55,31.222205908994248,131.01041270328463,7.909026079894722,18.22227304405061,23.92206346522504,31.14972295702412,-1.799328987810296,1.1733806144452297,365.2500005919912,24.089588654520423,8.113323699629928,69.57312211246325,0.0001921068626005,120.00021350480982,355.171872308874,1.274,1.025112921033824,0.0,11.278816046756331,0.0,0.0707969418468491,3.0989272306468813e-07,-0.0561100530405476,1.1700476995263424e-05,0.0041961578129615,29.74335228186028,46.321371547591774,27.739031214257945,31.223703290482472
0.56,31.222205546564343,131.01041344664463,8.081909946161325,-19.676752022721807,24.51061607545284,28.84430032354801,-1.5892673334561391,2.8616021057107,346.22656194657776,19.230171618100748,8.243352958320413,69.54097415464405,0.0002099796112633,120.00023276987916,226.32832377764447,1.274,1.0250709539098009,0.0,11.31996503450294,75.00003213914121,0.0565157013045112,3.328942889008732e-07,-0.0703538438275002,0.021798850319368,0.004199963640847,31.0459738655756,51.26508742836641,22.963928161351213,29.029436756913327
0.57,31.222205181621927,131.01041420618407,8.258620404968442,-19.349969411999503,24.25770998070629,28.5131012901284,-1.8883012629383968,3.048502960990185,343.1828296833045,19.458945849788087,8.388617746136676,69.50066143418694,0.0336209205219168,120.03589793637576,231.74151231146976,1.274,1.0250279191823897,0.0,11.360792541650731,75.00003213914121,0.0571881616800621,3.738115044494009e-07,-0.0606922711679757,0.0359544137928256,0.0036662313795145,30.660213719027777,50.72893944644279,23.156519707469258,28.737710367110015
0.58,31.222204808201,131.01041497885566,8.436935048828174,-19.048038200209607,23.98204639968765,37.42512612790255,-2.198365693816684,3.2436542935119226,426.12500585731766,19.6961047570828,8.527466283255945,69.46586613785358,0.0885711924729802,120.09456992732288,237.4206407185932,1.274,1.024981594484354,0.0,11.401752964356744,75.00003213914121,0.0578852676711973,4.181761963319134e-07,-0.0509011628288765,0.0503241472624272,0.0031122020502514,30.271664198975703,50.17957999779178,23.354158034490474,37.629697986948855
0.59,31.22220443092376,131.0104157642346,8.618078321757913,-18.611419069489266,23.555704008742577,30.37803091066894,-2.536094360146429,3.4471914650337654,360.68438819710633,20.051574527571024,8.71417236468054,69.43663887745619,0.1653183416469125,120.17653213646362,246.0634955890256,1.274,1.0249386802161349,0.0,11.442365464984295,75.00003213914121,0.0589300851578828,4.66038366811405e-07,-0.0409617809031541,0.0649066260259936,0.0025496436886864,29.688094574541072,49.3580254326704,23.648338694346247,30.67799970026934
0.6,31.22220404410103,131.01041657138987,8.804108307848676,-18.32947501346881,23.292499278868004,27.01127946817026,-2.869774994689141,3.6599673601776335,329.4859594986072,20.277902328508794,8.84862785429461,69.41303108252224,0.2641530982638396,120.28210102995784,251.64512631351192,1.274,1.024891335813742,0.0,11.482906013928076,75.00003213914121,0.0595953707878634,5.174354881112962e-07,-0.030797841329433,0.0797955995777544,0.0019385978530286,29.320154722206677,48.84380013274231,23.83672969788488,27.408761155975384
0.61,31.222203655244595,131.01041738523898,8.990678542721026,-18.06290176605785,23.042314565399217,31.583431474241543,-3.2114791524690984,3.879464014293072,372.0984511843332,20.49190927475238,8.977972989705654,69.39512708329545,0.3855463721026145,120.41178305763964,256.98012641799687,1.274,1.0248423929069768,0.0,11.523811512400348,75.00003213914121,0.060224449350598,5.724370952976604e-07,-0.0204999915430036,0.0948785330693184,0.0013039854614414,28.971027690318543,48.35925238046735,24.01460684310214,31.982448046906132
0.62,31.22220326079132,131.01041821302636,9.179921614770793,-17.716263584600224,22.699601404365,39.18265991032517,-3.5772832001864554,4.10871370657076,442.86563930529206,20.781629699118955,9.137633591993822,69.38294839182815,0.5298348835601648,120.5659387796902,264.29320755233533,1.274,1.0247996097896497,0.0,11.56412222142754,75.00003213914121,0.0610760500840194,6.31087474428181e-07,-0.0100793669637323,0.1101407210550621,0.0006501919828985,28.50332638999899,47.70919097114115,24.25472631868535,39.55956674516421
0.63,31.222202858793768,131.01041905865455,9.37297543394756,-17.293356282361128,22.265893143921687,22.282199536353545,-3.973618412057661,4.351755624267072,286.11251274707456,21.15317230501425,9.329693377658227,69.37649868685797,0.697371910211294,120.7449437774218,273.82289698216823,1.274,1.024756158874558,0.0,11.604285566363693,75.00003213914121,0.0621681284657409,6.934241175661655e-07,0.0005095360305098,0.1256383267189062,-3.3455775926708685e-05,27.920104776715903,46.89426241430274,24.5633203319314,23.048293569716996
0.64,31.222202448338727,131.01041992387107,9.570350696595726,-17.12615494897741,22.116463297249044,21.84759755102973,-4.329098715753192,4.590260183281424,282.3078244179702,21.2685093881364,9.419439993397225,69.37579517133908,0.8886372804694115,120.9493060925966,276.81181464324305,1.274,1.024708534665538,0.0,11.644557292001627,75.00003213914121,0.062507237636814,7.594957336398385e-07,0.0113153710139562,0.1414324577997049,-0.0007469960767973,27.706388575758595,46.61836552837993,24.656923664723955,22.740472796156084
0.65,31.222202039646348,131.01042078815985,9.76601632842898,-16.888645101924574,21.884815081550208,38.45952434864878,-4.705750553658812,4.836916611051088,436.7781447787504,21.453635704107743,9.536715542989691,69.38086906418512,1.1042473418011427,121.17967674938836,281.64637086939604,1.274,1.0246641738210605,0.0,11.685026225106608,75.00003213914121,0.0630514551235323,8.293918942244642e-07,0.0221665152091648,0.1573049025972783,-0.0014760553200155,27.38767919791486,46.19425458266659,24.808312515966577,39.04708521387775
0.66,31.22220162352607,131.0104216698292,9.965368647998394,-16.443265343509747,21.41138419961059,32.68405253309788,-5.148831292274636,5.108914039778993,383.5125151715984,21.86336650832173,9.742623456336355,69.39164166662475,1.344524827348495,121.43639015514836,292.5015102436228,1.274,1.0246195561629028,0.0,11.724463930878049,75.00003213914121,0.0642557835653841,9.031357609499552e-07,0.0331045246629581,0.1733070824350335,-0.0022464687799444,26.759214346542787,45.32094835210065,25.148922440645865,33.47922872959381
0.67,31.222201195752778,131.01042257698123,10.170809374097356,-16.138927131986527,21.095166794625584,22.4738416120594,-5.569355587899917,5.379366985481573,289.15624401033847,22.123571098837825,9.889068024279563,69.40804395954689,1.6099136806550618,121.71990732121428,299.49938549718416,1.274,1.024572383541697,0.0,11.763975785816928,75.00003213914121,0.0650206678097544,9.80746197397601e-07,0.044267262565972,0.1896145737337802,-0.0030396622172827,26.335014812294503,44.75048076401805,25.362834063817356,23.770335875475
0.68,31.222200766411795,131.01042348972973,10.376465287124072,-15.929437815330704,20.88585677941512,28.00934162332477,-5.968442309611984,5.6452375269475965,340.89999248584934,22.273649023115205,9.991928862455069,69.43006805649485,1.9011754116647093,122.03102545009575,303.57055339338893,1.274,1.0245245285832842,0.0,11.80400015920598,75.00003213914121,0.0654618952636501,1.0623155192641253e-06,0.0555528278772661,0.20609610501186,-0.0038403994168227,26.04935837614328,44.38932266725475,25.48221547942422,29.18928276801157
0.69,31.22220033401596,131.01042441102197,10.58321003341063,-15.615437269830077,20.551461440202363,34.44239096091463,-6.410764531195984,5.929834871148587,401.0140726853658,22.545198360357265,10.141915440465969,69.45763317304139,2.2189140726647127,122.37037037316342,311.0114641731441,1.274,1.024479631064582,0.0,11.843387177378116,75.00003213914121,0.0662601289311814,1.1479100683984292e-06,0.0668868880725473,0.2226544786526864,-0.004680209365217,25.60479135772301,43.796689952461584,25.704635150321685,35.532226760759364
0.7,31.22219989272788,131.0104253518804,10.794344151062916,-15.252582380894816,20.15518450185472,28.80269301498169,-6.885509325027654,6.231159561534488,349.270324209851,22.88045702000464,10.316075315909409,69.49060152253853,2.563625974969121,122.73844980161556,320.32354424046366,1.274,1.0244351749185203,0.0,11.882365637527023,75.00003213914121,0.0672456111971534,1.237551631395119e-06,0.078338955531563,0.2393785715611193,-0.0055629338613232,25.082903038447345,43.0914282473008,25.981533243673116,30.262728116639128
0.71,31.222199444062827,131.01042630913685,11.008950066385,-14.973137522236868,19.853835348635805,23.56655583967228,-7.338557821922752,6.5272787709946565,301.3312640634036,23.11175153511931,10.449406549029728,69.52885597902939,2.935991807213496,123.13596529171022,326.8257310132988,1.274,1.0243880468141104,0.0,11.92154478983865,75.00003213914121,0.0679255497063166,1.3312876121350846e-06,0.0899406181314448,0.2563088033605744,-0.0064512103483344,24.683670982896743,42.57477373208115,26.168347969149448,25.531203520483963
0.72,31.22219899230325,131.01042727468783,11.224602490954704,-14.725222309973624,19.58726620244249,28.83737091122612,-7.784039520982111,6.822363662796909,350.7922053414578,23.298633792273662,10.565173951658275,69.5722773408622,3.336803541425073,123.5637340249147,332.12566588757966,1.274,1.024337302174265,0.0,11.96064973247998,75.00003213914121,0.0684749641594521,1.429199028165357e-06,0.1016208702296181,0.2733514551232282,-0.0073477918677732,24.329878888512408,42.13235895352351,26.315813523093173,30.63869903052826
0.73,31.222198535953392,131.01042825125683,11.442131461665827,-14.40504421594054,19.230520965351097,36.48392068665721,-8.272692988068266,7.138433999742065,422.3203185282354,23.582814361906976,10.717569670787984,69.62068866477262,3.7667503350583993,124.02246031773224,340.2700465904373,1.274,1.024292465384646,0.0,11.999340295229851,75.00003213914121,0.0693103443568097,1.531342574862801e-06,0.1133460329394913,0.2904611074132156,-0.0082953815473021,23.8628343150678,41.5214857807219,26.54714131239901,38.085051633335105
0.74,31.222198071183456,131.0104292455353,11.663608421732292,-14.030124128904315,18.80292049411424,22.59059509176376,-8.80527715111892,7.477477968769806,294.4828134710563,23.94981135170197,10.900526538364204,69.67387542212775,4.226491471972512,124.51281370657452,350.9355890357668,1.274,1.0242470321640116,0.0,12.037770286127108,75.00003213914121,0.0703891314367988,1.637744970391092e-06,0.1251660542295512,0.3077024783646383,-0.0093028031492874,23.307693789535257,40.77764090516455,26.850636880491702,25.37283131779888
0.75,31.222197597716924,131.01043025763377,11.889118370477211,-13.80634175062586,18.55669670099404,26.363148903055336,-9.25901059757922,7.782910971405054,330.24688556441737,24.092324302955216,10.99801325730869,69.73162806660177,4.716833388414052,125.03561785263916,355.1167974439924,1.274,1.0241984712898409,0.0,12.076282633877554,75.00003213914121,0.0708081609321116,1.7484487429625556e-06,0.1371202260255238,0.3251268746210111,-0.0102517023622871,22.98322662891295,40.39719643124644,26.95651048381906,29.005492592258612
0.76,31.222197124971228,131.01043127098728,12.113545604785935,-13.503827862748492,18.210675068193265,28.31776102608729,-9.766207662166892,8.114581109280929,349.2703242098581,24.35239921119988,11.1389383938221,69.79373378005845,5.238710721871783,125.59183018690672,362.81728058275286,1.274,1.0241522053390697,0.0,12.11482120164304,75.00003213914121,0.0715727111567962,1.8635661609787952e-06,0.1490683251774599,0.3425469709793545,-0.0112650606633585,22.533917890935825,39.82621252549615,27.16500637614704,31.034188054631855
0.77,31.22219664231081,131.01043230384315,12.34259504705181,-13.192912872603808,17.85114489245975,26.315649317006645,-10.286760018176128,8.454599536531942,331.76876669606884,24.62396428874732,11.283308851732784,69.85988510128716,5.792789731061959,126.18211947929154,370.94613246482027,1.274,1.0241065975906936,0.0,12.152597529849627,75.00003213914121,0.0723710391971391,1.9831075335393963e-06,0.1610699819367825,0.3600410130488555,-0.0123074884873863,22.068713526022037,39.2356510105663,27.382870173308227,29.49255980701481
0.78,31.222196153988648,131.01043334854876,12.57392653226738,-12.903084896422712,17.514501929790995,21.342289795638088,-10.799303454650598,8.792494591716467,286.8734378128874,24.860700457857536,11.41388484274642,69.9297810041506,6.379899921611044,126.80732622779986,378.1046131303119,1.274,1.0240588105546735,0.0,12.190574115856652,75.00003213914121,0.0730670091098648,2.1071215892286366e-06,0.1731207742339047,0.377602308446462,-0.013355180263534,21.633577672477603,38.69711548834628,27.56922509365591,25.48384292001482
0.79,31.22219566061035,131.01043440394753,12.807198244836943,-12.644717412667829,17.214692657450353,30.59794994640243,-11.289494660236462,9.120448275878756,373.6203323159581,25.03928403018252,11.522343305697545,70.00309282517631,7.000892203069372,127.46831162790927,383.5476611089484,1.274,1.0240083170932772,0.0,12.228355031575685,75.00003213914121,0.073592070039528,2.23566769017948e-06,0.1851912900587187,0.3951903862674171,-0.0143886464890868,21.245675677947258,38.2402733766794,27.702861096446668,33.86546629472324
0.8,31.22219516331121,131.01043546807335,13.041799758221533,-12.298291438290308,16.800429220485345,30.870843515627527,-11.859634107717053,9.48960932615354,377.42502064505805,25.372468400593768,11.68609487481556,70.07945154047336,7.656576352905458,128.16589134737507,393.81402795153775,1.274,1.0239625010683884,0.0,12.265838869963464,75.00003213914121,0.0745715177606912,2.368804672527512e-06,0.197239420627213,0.4127475281714846,-0.0155283078815742,20.715439843205807,37.55776509594719,27.97381911722106,34.40512441044659
0.81,31.2221946549517,131.01043655183048,13.281346606358737,-11.973059539104844,16.409470028297342,19.52271818391172,-12.420364519465684,9.85591968873773,273.9374926939922,25.66874353223632,11.8352519837371,70.15844219203247,8.347682572921649,128.9007951838892,403.0556118761553,1.274,1.0239149950770308,0.0,12.302952134138376,75.00003213914121,0.0754424956699634,2.5065268779330903e-06,0.2093379251284381,0.4303712568244087,-0.0166728648703896,20.215649027693857,36.92911666321504,28.211243635234084,25.15037043456194
0.82,31.22219414137352,131.0104376457233,13.522791349341247,-11.728660722789336,16.119137246739104,25.29600762359704,-12.903248933387104,10.18321602195116,328.725004432774,25.806404056057367,11.926684823414616,70.23965592267335,9.07512348192074,129.67394606992647,407.380903199875,1.274,1.0238644186635044,0.0,12.340291237600685,75.00003213914121,0.0758472975997905,2.64889915876061e-06,0.2214536273910925,0.4480159867824183,-0.0177320082917719,19.84261893787208,36.51505404367648,28.305123967519915,30.167527629551575
0.83,31.22219362638915,131.010438744067,13.764226504905224,-11.412918065107585,15.734259162215652,32.376598264024125,-13.459909866057073,10.549071589719272,395.6875032246518,26.0809781503089,12.065764783334217,70.32263914718696,9.839741894251128,130.48619218809122,416.08624801205497,1.274,1.0238188483711983,0.0,12.377375430794617,75.00003213914121,0.0766545038824759,2.796013958613028e-06,0.2334918271708651,0.4655518500248279,-0.0188944008197494,19.35257491721261,35.912005581152975,28.521562373783294,36.615518570101024
0.84,31.222193100689047,131.01043986024283,14.010240521007717,-11.061305633604558,15.2994942899099,19.172678770095423,-14.064097904469492,10.94106145725933,275.45937482564227,26.431209142144024,12.230011639129303,70.4068685182853,10.6421468060992,131.33813365418823,427.3260943612,1.274,1.0237739661568126,0.0,12.413920061739324,75.00003213914121,0.0776840820827391,2.9478504505583385e-06,0.2455116059628609,0.4830586659876028,-0.0201333648133564,18.80153980787988,35.21064785838809,28.805989970428357,26.174363161293847
0.85,31.222192566203912,131.01044099078635,14.259777805627804,-10.809401132481195,14.991900578192428,20.877955196625944,-14.54840672940222,11.270460984112756,292.9609323393965,26.56334180840699,12.317137646153764,70.4918183331089,11.483072449109466,132.2305046632386,431.5989357362959,1.274,1.0237227741398531,0.0,12.450622026344613,75.00003213914121,0.0780726535832829,3.104421420849225e-06,0.2575363908583767,0.5005681216375538,-0.0212245364071822,18.409648785754115,34.78542260682091,28.891484287867996,27.831069730623792
0.86,31.222192032419567,131.01044212252145,14.508234153848791,-10.51471030740168,14.625739083192176,26.44659670211371,-15.081985688177085,11.625876215785375,346.2265619465616,26.784733090330768,12.43410308647749,70.57694214014667,12.363287135654852,133.16407707220523,438.8127394155915,1.274,1.023674789281455,0.0,12.487278532396545,75.00003213914121,0.0787235681761378,3.26584452888092e-06,0.2694444824419501,0.5179123335077903,-0.022390467037679,17.94586702907158,34.24295422944209,29.05726961661381,32.5891050384541
0.87,31.22219148907367,131.01044326919325,14.760519057697136,-10.186715954437863,14.212966212354432,24.250825167559537,-15.660552330852289,12.005773198214232,327.9640783669946,27.08020747418801,12.5749963851663,70.66161581009271,13.283213218530385,134.13925826478214,448.5367520595252,1.274,1.0236288969245204,0.0,12.52323611039238,75.00003213914121,0.079592229658792,3.4320975604947208e-06,0.2812674023868579,0.5351339818146155,-0.0236302002676298,17.425150603542903,33.6072943292113,29.28994838691344,31.264900618774742
0.88,31.22219093740016,131.01044442847552,15.015943294835353,-9.880985213018072,13.82674735413925,20.39349092338682,-16.20660502396142,12.368460562698845,294.4828134710421,27.320803428503314,12.695891067478692,70.74520143553246,14.243292333123248,135.1564797006709,456.5310696806604,1.274,1.0235805388426191,0.0,12.559232914472227,75.00003213914121,0.0802996036753519,3.6031702847008015e-06,0.2930251262392858,0.5522604590280297,-0.0248361164685289,16.93831169648351,33.035899864645344,29.47168449889979,28.83621568680587
0.89,31.222190380863204,131.01044559569917,15.272847632274573,-9.589846004019266,13.457440175004708,22.383355056786712,-16.72409320444314,12.715438353644988,315.02813424808807,27.51953680340309,12.80155431239348,70.82704121455804,15.24394611187442,136.21615597135954,463.1854736558604,1.274,1.0235293752791452,0.0,12.59516527242726,75.00003213914121,0.080883942879952,3.7791064768341535e-06,0.304677006751075,0.5692350268249176,-0.0260109039044176,16.47323006481669,32.50930037183024,29.61404393226005,30.698407933220683
0.9,31.22218981891485,131.0104467713974,15.531466565542642,-9.27789098413779,13.057682255633816,24.7731281556938,-17.27021496050859,13.077792071418392,339.3781423542166,27.768370940090847,12.92244715095998,70.90643641449714,16.28540160403997,137.31850086698574,471.58796026401006,1.274,1.0234837388140003,0.0,12.630801033196132,75.00003213914121,0.0816155409436382,3.959932899822401e-06,0.3161896714911587,0.5860109019860545,-0.0272371673727728,15.971358379830589,31.92227011218588,29.801757883892527,32.908917467213314
0.91,31.22218924864808,131.0104479585943,15.793065416452029,-8.95504454165131,12.640496350445355,17.82113760003988,-17.83230319343333,13.44879522244972,277.7421810230785,28.04537936429548,13.050970404551244,70.98265378659462,17.36768797401557,138.46352516665573,481.0316273522132,1.274,1.023436404813438,0.0,12.666177538445444,75.00003213914121,0.0824299548832352,4.14562665983845e-06,0.3275699779166238,0.6025973933737849,-0.0284982608685901,15.44886940430686,31.302554099317558,30.014876000676843,28.573660519392227
0.92,31.222188670586583,131.0104491561803,16.057336551852973,-8.667943492961532,12.269457520824432,21.59386136501819,-18.31660378004244,13.776171446053992,315.0281342480675,28.213782813140245,13.143072180656064,71.05494150893757,18.490724455409147,139.6511308603737,486.8134952782496,1.274,1.0233859136578225,0.0,12.70146891721853,75.00003213914121,0.0829251674116813,4.336173217188969e-06,0.3388136989656685,0.6189884943086768,-0.0296526973604502,14.983961560531,30.79615049650427,30.126368542205032,31.489295362039517
0.93,31.2221880896752,131.01045035857626,16.322068243864635,-8.349011107324793,11.85251635571734,26.09748976128148,-18.856498798017054,14.133758721694306,359.16250706547066,28.473685589168987,13.262937428856766,71.12252735080556,19.65427329582449,140.88106239280617,495.8111624839036,1.274,1.0233407575091376,0.0,12.736632041177463,75.00003213914121,0.0836893164138625,4.531618899588992e-06,0.3498594788833006,0.635098114593392,-0.0309006925679352,14.463387115301256,30.19041684424213,30.322224203179736,35.16261728544791
0.94,31.222187498368186,131.0104515733883,16.59051077407816,-8.013944211637073,11.41079340924224,17.534646572460474,-19.427047748998497,14.508060100002815,283.06875048378083,28.78436802200876,13.396969163467013,71.18460705876869,20.857761477015018,142.1527193922775,506.67693017437455,1.274,1.0232914783978162,0.0,12.771376751249576,75.00003213914121,0.0846027245736406,4.731893427003802e-06,0.3607289946154654,0.6509565912190437,-0.0322075312402588,13.913197166863824,29.532517075520957,30.564946029866785,29.922530349692373
0.95,31.22218689805297,131.01045279850547,16.861967253936474,-7.720491500436813,11.02414195662415,23.67217864424548,-19.888534755857577,14.820222273007012,342.421873617488,28.952370442799715,13.48512639563823,71.24037232950062,22.100490692381257,143.46537971849216,512.5953529988992,1.274,1.0232418269359267,0.0,12.806133686792768,75.00003213914121,0.085096776236684,4.936947735018483e-06,0.3714241130839268,0.6665667677488419,-0.0333551260532789,13.431285725813233,29.013881608182203,30.67337378474016,34.28651111911738
0.96,31.22218629566925,131.0104540270996,17.133475068441747,-7.3878782577789375,10.580645839638064,22.77039023631971,-20.438256713702007,15.181191598977025,337.09533515678265,29.255148038378383,13.613005710856692,71.28900787558453,23.38156856872365,144.81812760714075,523.3589875455726,1.274,1.0231951201821403,0.0,12.840808251157384,75.00003213914121,0.0859869632396394,5.146833742127452e-06,0.3818728948500123,0.6818270743557653,-0.0346511915619963,12.880538641534727,28.36328074979332,30.90772183409827,34.15672096929563
0.97,31.222185680168003,131.01045526899455,17.40960928085197,-7.065505198786356,10.149106864514524,12.430329378895932,-20.950799877164417,15.5201939378207,245.0218871929888,29.51883548942816,13.727190908034244,71.3296816414643,24.699681728152044,146.20961494727524,532.8218305867871,1.274,1.0231476260761452,0.0,12.875025216624536,75.00003213914121,0.0867622658116625,5.361425971631861e-06,0.392108280807928,0.696784176137011,-0.03589969485877,12.345119894517431,27.748964588539863,31.104729594233856,28.88469359069613
0.98,31.222185058757056,131.0104565171675,17.68730202010815,-6.778005477710291,9.764464714860704,20.19509100860368,-21.34304708772193,15.789297957359109,319.593746642963,29.639421765770468,13.797341273504127,71.36157397805523,26.05338222347336,147.63836444184307,537.169616256052,1.274,1.0230935628253934,0.0,12.909350804282935,75.00003213914121,0.0871169680186239,5.580702336504588e-06,0.4020965943830737,0.7113906891359408,-0.0369635829282365,11.867606497997926,27.261623470616662,31.165806545661773,33.35669782548574
0.99,31.222184435428588,131.01045776834903,17.964941830918022,-6.448343993537409,9.318287930895234,22.239391181694195,-21.84942377384081,16.122001385710657,341.66094855170127,29.9283348009928,13.915413010410088,71.38386983293545,27.440888802893983,149.1025602335878,547.6782738326915,1.274,1.0230490803133316,0.0,12.943417480152442,75.00003213914121,0.0879664243838433,5.804690764540552e-06,0.4117728869151929,0.7255543337469225,-0.0382210540794788,11.315655774426096,26.6223082805516,31.385604019177386,35.09852942876886
1.0,31.222183798006327,131.0104590317251,18.24734361043429,-6.119752095388836,8.871479696635294,18.896491538349487,-22.34092074072064,16.444879396871126,314.2672081822764,30.213498965274034,14.030353996090932,71.3957647979991,28.85998823125501,150.59994410526843,558.1496704269025,1.274,1.022999484445133,0.0,12.977038308463444,75.00003213914121,0.0888048719946571,6.033202543865589e-06,0.4211756279524447,0.7393303385564357,-0.0394652478998516,10.763573789073495,25.986999482316456,31.601466250178262,33.56528251601217
1.01,31.222183153380847,131.0104603012987,18.531674902946,-5.803194215907948,8.439586107647948,19.683284628999257,-22.774994200975225,16.733230469502008,324.92031610370094,30.44369167683612,14.127781887326403,71.3964873723334,30.30833968692628,152.12813660036872,566.6715337754104,1.274,1.0229507481225095,0.0,13.010794512885804,75.00003213914121,0.0894817518223834,6.266161797418785e-06,0.4302836753462715,0.7526891177305001,-0.040624769037072,10.230327240362271,25.39786306187653,31.764590084386484,34.44028246960416
1.02,31.222182502259685,131.01046157641062,18.8176409736584,-5.4797958147698616,7.995869493251261,14.91334595546732,-23.21869794119309,17.025387664577206,284.59063161543185,30.70617958759053,14.23251760147336,71.38529674043995,31.783307823168727,153.68446044487592,576.4696005296479,1.274,1.0229039803623294,0.0,13.044346167652362,75.00003213914121,0.0902535617668806,6.503516632036388e-06,0.4390619027896348,0.7655805307465144,-0.0418098234097978,9.683324961788465,24.7822197099039,31.95809498875084,32.42498491597113
1.03,31.22218184115765,131.01046285899116,19.10652582480292,-5.169026325693345,7.568569142383215,10.467523419851174,-23.588171296451005,17.272754112846698,247.3046933904342,30.89862634211767,14.31617879659636,71.36149116315224,33.28193282290539,155.26590824228506,583.7019364846946,1.274,1.022853416101322,0.0,13.077662727176843,75.00003213914121,0.0908195095857183,6.745138216584724e-06,0.447500781878884,0.7779913266142826,-0.0428793026295185,9.156767823503028,24.220703706994342,32.08403989818174,31.05348460799062
1.04,31.2221811750562,131.01046414552664,19.39639557598989,-4.863792658543018,7.147693416627448,20.76067517076032,-23.90601299163437,17.48801693540895,345.4656368807608,31.053067097018594,14.388063251404526,71.32441844760929,34.80102584661701,156.86924209322723,589.5351464564709,1.274,1.0228049544826707,0.0,13.110894837029525,75.00003213914121,0.0912737517227443,6.990962313071086e-06,0.4555633056162365,0.7898687374599819,-0.0438688135570836,8.63846594304311,23.686169833564527,32.172914219245385,36.17089751492442
1.05,31.222180503034465,131.01046543640803,19.687574989807768,-4.5291786125592255,6.682232879237198,8.924263179097187,-24.35165628395184,17.77527182174497,240.4562587980608,31.38639548451737,14.505946195842618,71.2734836148575,36.33711336472481,158.4909333788217,602.2425525529384,1.274,1.022755494436122,0.0,13.14382454166424,75.00003213914121,0.0922538012899223,7.240885836035982e-06,0.4632240653000962,0.8011765621067917,-0.0450840645022232,8.066756786474278,23.020255612036337,32.433660274879365,31.442104341128978
1.06,31.22217981532748,131.01046673624367,19.98355092522132,-4.228489148559508,6.265019765954731,15.899396456975186,-24.59088121545464,17.940313989112514,308.1796836557233,31.49762333435046,14.563529517021312,71.20815850433222,37.88650434395334,160.12723180119423,606.501357257423,1.274,1.0227013895379469,0.0,13.176495304233146,75.00003213914121,0.092581041688096,7.494619496285114e-06,0.4705081148157978,0.8119518413744806,-0.0459539728618236,7.553757340601619,22.51384779940587,32.47977045076737,34.34176921296603
1.07,31.22217912984893,131.0104680356197,20.277801947191115,-3.904172425318971,5.81127914097554,19.885046420399064,-24.94713017243905,18.17100586575216,348.5093681440431,31.775504529165644,14.662700303595312,71.12798544543172,39.445477723341554,161.77436122347956,617.2325813808307,1.274,1.0226540159946436,0.0,13.209287263335122,75.00003213914121,0.0933981286777178,7.752196311988803e-06,0.4773479286536642,0.8220971681829558,-0.0470319931151953,6.997228569894631,21.89217929432329,32.68677383953148,36.7145724359585
1.08,31.2221784280358,131.01046934308465,20.57692748928951,-3.5771774973095725,5.352046899063445,9.937744051032478,-25.3062377197148,18.401001798035296,261.0015785751465,32.08263261139535,14.76713898252282,71.03258816233604,41.01005005010887,163.42827184452517,629.2039662604544,1.274,1.0226061614050743,0.0,13.241479608122736,75.00003213914121,0.0943011923002667,8.013301815322481e-06,0.4837630295824427,0.8316414196719132,-0.0481233755060556,6.434543917236816,21.25451413326717,32.92210810932129,32.82927491617574
1.09,31.22217771658496,131.01047065476328,20.87844287654068,-3.270480101398377,4.9215620679560805,7.95316756976452,-25.50079530957986,18.53238501587669,246.54375332456465,32.22629973765808,14.828876575221171,70.9216715270965,42.576278749262215,165.08495793621796,634.8333923329568,1.274,1.0225512795791307,0.0,13.27381030755059,75.00003213914121,0.0947237985462241,8.277731427319282e-06,0.4897387070158693,0.8405641116455006,-0.0489345618641639,5.906901739826409,20.725136877352064,32.99842657475048,32.51142461028946
1.1,31.222177003296927,131.0104719675998,21.179650193950604,-2.9607781791108008,4.485355650222921,25.714835068138168,-25.689238559792603,18.657384092434967,413.1890617384087,32.39413755803408,14.895223099313917,70.79502626046664,44.140207487283966,166.740397483142,641.4446068692976,1.274,1.0224981043155532,0.0,13.306005633058955,75.00003213914121,0.0952174532777083,8.545441205843577e-06,0.4952299654388692,0.8487995226032923,-0.0497395216823534,5.372774382282197,20.18095959567857,33.09797615860786,40.856917425769275
1.11,31.222176280422595,131.01047328422484,21.48317976748072,-2.6258697398031043,4.00937591079632,15.592215548001686,-26.09517646023103,18.9068927045736,324.1593910379213,32.841423782949015,15.026970449190683,70.65253795656338,45.69782648572664,168.39050725683504,659.2613364269754,1.274,1.0224548851875197,0.0,13.337783231525163,75.00003213914121,0.0965325111560293,8.816199064282255e-06,0.5002272937430877,0.8563342354042126,-0.0509336696651057,4.791557904030519,19.47335202146378,33.47070121527711,35.79868729336594
1.12,31.22217553525737,131.0104746075132,21.793150315234325,-2.314204749981753,3.56736768515094,-1.330750364086018,-26.269576030045084,19.01812777164608,172.7328179403806,33.05355939695131,15.100455990709058,70.49418437595708,47.24522469671984,170.03130094738833,667.7858154039073,1.274,1.0223979224661404,0.0,13.369428910075598,75.00003213914121,0.0971563922732062,9.089513690750416e-06,0.5047511202838281,0.8631995980778889,-0.0517247262856959,4.251438916311788,18.910138067451086,33.61355822404409,32.45844582336761
1.13,31.22217479091336,131.0104759304704,22.101838971356223,-2.017702623144061,3.1476973049058867,19.52778353942568,-26.23965968811565,19.006655587331228,367.5328077894322,33.0673387368609,15.126544004531624,70.32002684824363,48.77871691637671,171.65902138277954,668.3228875621081,1.274,1.0223460397860296,0.0,13.401366975095632,75.00003213914121,0.0971972333211708,9.36538623531512e-06,0.508751847350261,0.8693223023947028,-0.0521548910787691,3.738318510144087,18.459694324061125,33.56152919567732,37.82997524617503
1.14,31.22217404619261,131.01047725404712,22.409726877697928,-1.6954391380705387,2.6865994580908867,5.176347293466461,-26.533634370270946,19.18186625129836,239.6953177322812,33.481738817744784,15.24302783609467,70.13022518589965,50.29468460280358,173.26996925010036,685.1584385766502,1.274,1.0223022138470996,0.0,13.432800984940236,75.00003213914121,0.098415651543536,9.643773840731034e-06,0.5121979311870354,0.8746549579426462,-0.0531646280888836,3.1765111966233133,17.79580438054306,33.90359424711451,33.14773472019619
1.15,31.222173273291624,131.01047858307683,22.725632229184143,-1.3933654079322209,2.2565379679492232,4.5442408434279775,-26.519144267028736,19.173185386645088,237.4125115347709,33.58137437835428,15.286393266015356,69.92503495055273,51.78966720301469,174.86059736708347,689.2214060423655,1.274,1.0222426194541194,0.0,13.463795082688568,75.00003213914121,0.0987088704917366,9.923992581296018e-06,0.5151120532793813,0.879233337572209,-0.0536245865330305,2.651872322279385,17.30351200130442,33.93573890772162,33.03825321304416
1.16,31.22217250824544,131.01047991052727,23.03802866544372,-1.0895142202611372,1.822319466898864,31.75415960035664,-26.532049840554286,19.17738986099661,490.043774385954,33.74719150062105,15.34328171773888,69.70478681041989,53.26054155885396,176.42769953640553,696.023759182386,1.274,1.02219674531104,0.0,13.495233543621785,75.00003213914121,0.099196621943428,1.020610889460858e-05,0.5174554291359406,0.8829989934784213,-0.0541329045505384,2.1230848248013583,16.78239101356733,34.03339251448172,45.60754984152552
