Time,Latitude,Longitude,Altitude,Angle of Attack,Angle of Sideslip,X-Acceleration,Y-Acceleration,Z-Acceleration,Thrust,True Velocity,Ground Velocity,Pitch,Roll,Yaw,Dynamic Pressure,cp,parachute_deploy_gain,Wind Speed,Mach,omega_x,omega_y,omega_z,Cmq,Angle of Attack(total),Angle of Attack(gust),True Velocity(gust),Acceleration
0.0,31.222186000000004,131.010384,3.000000003643237,0.0,0.0,0.0,0.0,0.0,2.2828121974499247,0.0,0.0,69.99999999623421,0.0,113.69999999388332,0.0,15.288,0.0,0.0,0.0,0.0,0.0,0.0,-0.0,0.0,90.0,0.0,0.0
0.01,31.22218600000153,131.01038399999584,2.99999882256592,0.0,0.0,0.0,0.0,0.0,34.24218696174923,7.502283530665459e-11,7.190531319924593e-11,69.99999999623329,-4.83564628150269e-13,113.69999999388072,3.446445726795683e-21,15.288,0.0,0.0,2.204725565824978e-13,-3.659182332138578e-19,7.589415207398531e-19,4.811147140404426e-19,-1.5108918610345807e-31,0.0,89.9999999995224,7.502283530665459e-11,0.0
0.02,31.22218600000288,131.01038399999217,2.999997775701936,0.0,0.0,0.0,0.0,0.0,25.871876237766408,1.5320717031631675e-10,1.4674636035870463e-10,69.99999999623222,-9.67129256300373e-13,113.69999999387804,1.4372842949972735e-20,15.288,0.0,0.0,4.5023593667086093e-13,-7.284483346386986e-19,1.5178830414797062e-18,9.757819552369542e-19,-6.170906918166791e-31,0.0,89.99999999902465,1.5320717031631675e-10,0.0
0.03,31.22218599928065,131.01038400193067,3.000201659671132,18.81500467334555,-0.00012974450181,11.96616230539064,-1.8916256735984712e-05,3.349833086198469,180.34219359854663,0.0882870268161719,0.0553390044312322,69.99999999799445,-4.212591857125379e-12,113.69999999488518,0.0047728553458352,15.288,0.0,0.0,0.0002594525584132,3.2187251995663407e-17,-7.20264389268894e-10,1.2365134327422308e-11,1.6874092354518158e-13,18.815004673776716,89.46786891739345,0.0882666465974854,12.426199017587786
0.04,31.22218599548236,131.0103840121632,3.001799604587872,9.46752327608497,-4.6177622759613696e-05,55.21900012092241,3.931876292165237e-06,3.349616504302861,548.6359724538078,0.3767519978512604,0.1853356633749705,70.00000000507204,-2.4624598767003407e-11,113.70000000019972,0.086915163246288,15.288,0.0,0.0,0.0011071759353184,1.6174128009138757e-15,-1.3693172015529268e-08,2.7753303060112748e-11,1.3689612277852356e-11,9.467523276196548,87.63554493451223,0.3767447442872393,55.32050167054111
0.05,31.222185984749512,131.01038404118162,3.00777936418888,5.376730308971262,-2.257790939128127e-06,80.28807156553681,5.266841443842784e-05,3.348887800834877,761.6984298824644,1.018787885905993,0.4366201147110198,70.00000000894464,-1.1355399380652658e-10,113.70000001523856,0.635552918586145,15.288,0.0,0.0,0.0029939522895272,1.6418815498809788e-14,-9.32122351075408e-08,4.303264669380585e-11,2.5199270302492604e-10,5.3767303089717045,83.57022052969386,1.0187875312530217,80.35788377762394
0.06,31.22218596447235,131.01038409608267,3.0201664202003013,4.296730121134882,2.4863835723705905e-05,60.21296515808257,0.0001057204249726,3.347700952379021,590.4875390737208,1.721098934225416,0.7081674028809783,69.99999995523842,-3.0560354507026086e-10,113.70000004366592,1.8138247671743823,15.288,0.0,0.0,0.0050578622752421,8.328976953118383e-14,-3.2824985336199985e-07,5.923438275930214e-11,1.4991363363716091e-09,4.296730121206683,79.20467073327266,1.7211028398275985,60.305955550063224
0.07,31.22218593493329,131.01038417609837,3.038741944736831,3.8204913578752526,4.8016684030909405e-05,91.4060317508128,0.0001597686613101,3.346072557365335,855.2937749779139,2.4375792548422868,0.9844712334613328,69.99999973536046,-5.939103491363046e-10,113.7000000850886,3.6383156301599167,15.288,0.0,0.0,0.007163413150771,2.709313825263564e-13,-7.906546256197275e-07,7.920022733617308e-11,5.114174483651565e-09,3.820491358176508,74.87999294483174,2.437586797285377,91.46725557277466
0.08,31.222185894468456,131.01038428575305,3.0647976109320942,3.588632851766762,7.220043782492885e-05,19.18449428359557,0.0002119618497595,3.3440615022685813,241.2171988638848,3.1292508166901074,1.2522236515868983,69.99999919480445,-9.914748373602156e-10,113.7000001418522,5.996012698481753,15.288,0.0,0.0,0.0091960591623389,6.80386533246681e-13,-1.5973238302190878e-06,1.0839624626357699e-10,1.3263625118823921e-08,3.58863285249208,70.86684630658345,3.1292621579083604,19.473766155861934
0.09,31.22218584634549,131.01038441616095,3.0957981580345013,3.551302481506045,9.685468678862004e-05,57.102946699906326,0.0002554087225869,3.341892818148368,563.0937377043176,3.701810007254615,1.479132491047967,69.99999812344194,-1.4359264356978275e-09,113.7000002093888,8.390904013834115,15.288,0.0,0.0,0.010878666406854,1.440096519545733e-12,-2.748643691533636e-06,1.5214952332699618e-10,2.6999776649034504e-08,3.5513024828250237,67.68737872952666,3.701825221153239,57.20065357568538
0.1,31.222185790329306,131.01038456796124,3.1319266121977414,3.608446747536112,0.0001234669721807,54.26147302645416,0.0002914860332524,3.3396271157106168,538.7437595981919,4.174070299823608,1.6716491241860567,69.9999963052332,-1.902380107712657e-09,113.70000028805804,10.668380938744466,15.288,0.0,0.0,0.0122665227999911,2.687800116751415e-12,-4.315796035622946e-06,2.1749089204950437e-10,4.7802076800548326e-08,3.608446749645647,65.17160335282355,4.174089693970246,54.36414778470795
0.11,31.222185727066616,131.0103847393952,3.172681775073216,3.633547373470009,0.0001485939126744,42.987553988990406,0.0003293995000288,3.337005588796181,442.8656393052949,4.672024955140527,1.8729475711242067,69.99999349387662,-2.3433348587116544e-09,113.70000037699285,13.365573690709628,15.288,0.0,0.0,0.0137298902182575,4.5789425819531184e-12,-6.340230783164189e-06,3.1157625832417107e-10,7.860218435507205e-08,3.6335473765043056,62.62546922225161,4.672048296217748,43.116880735560244
0.12,31.22218565692512,131.0103849294629,3.2177790417108385,3.650108937861461,0.0001727442530266,46.86777100765684,0.000367618259785,3.334068179146888,475.58594813540446,5.17479364099247,2.0758708919414386,69.99998941286465,-2.702771525550512e-09,113.70000047573096,16.396890189902592,15.288,0.0,0.0,0.0152074069417046,7.288473386564583e-12,-8.86736416607888e-06,4.42271554299792e-10,1.217615295152289e-07,3.6501089419435786,60.16906436414164,5.174820775596283,46.986210423745625
0.13,31.222185580265183,131.0103851371844,3.2669395832841857,3.7280113734654137,0.0001995014041665,51.64515456841877,0.0003986198234033,3.3311573548369657,515.9156326236895,5.579364582999854,2.2451120211463422,69.99998375846928,-2.9114380666036422e-09,113.70000058383452,19.060875702782603,15.288,0.0,0.0,0.0163963474924215,1.100846422415094e-11,-1.1941028436408576e-05,6.179653149059831e-10,1.7678562106638216e-07,3.728011378795934,58.279338776943774,5.579395920607139,51.75247433579817
0.14,31.22218549718016,131.01038536230575,3.320091807147376,3.768719651034081,0.0002242721760019,48.1660778383537,0.0004326225136175,3.32784677779744,486.2390860568404,6.025734265159953,2.428648685938864,69.99997621008868,-2.890941335368725e-09,113.70000070125378,22.232643351545065,15.288,0.0,0.0,0.0177081261985351,1.5941871344608664e-11,-1.560901486259027e-05,8.477542742712431e-10,2.495765160917323e-07,3.7687196576976176,56.27980129251342,6.025769493750979,48.280903250602165
0.15,31.22218540777004,131.01038560455507,3.377159065217065,3.821894709649632,0.000249725644238,46.56959330999435,0.0004643042952466,3.324387732286376,472.54218587214,6.441023336496372,2.6014999612196745,69.99996641132823,-2.546763407193136e-09,113.70000082794672,25.402620271850456,15.288,0.0,0.0,0.0189285691155931,2.2314099732464315e-11,-1.992367942778425e-05,1.1417519574710292e-09,3.4051816697623295e-07,3.821894717796148,54.501255563441134,6.441062563308839,46.68809885900716
0.16,31.22218531193176,131.01038586421257,3.4382223512025254,3.8463320955387794,0.0002733212404609,36.974247749122085,0.0004987816203583,3.3205066466509234,391.1218908297564,6.895451966878468,2.7877331692857847,69.99995397923414,-1.77088415515292e-09,113.70000096417354,29.113317717489338,15.288,0.0,0.0,0.0202640360420561,3.0367358387834494e-11,-2.4945905791363795e-05,1.5114297685186711e-09,4.5643121540033697e-07,3.846332105235269,52.641145594326446,6.895494900078523,37.12304892183151
0.17,31.222185210004127,131.010386140357,3.503019838429153,3.8860314262554336,0.000297865039677,46.520531453299206,0.0005306403365217,3.31650761597812,471.78125980632376,7.314788342774694,2.9619016331667103,69.99993849340957,-4.3039914767238207e-10,113.70000110959404,32.761746921137856,15.288,0.0,0.0,0.0214963781445172,4.0366633128431416e-11,-3.0713078585132897e-05,1.96747427715988e-09,5.961228045584824e-07,3.886031437653654,51.00464968745696,7.314835131305714,46.63860064094784
0.18,31.22218510147516,131.01038643438045,3.571950002194137,3.9107265153396016,0.0003214293682635,38.895647526122765,0.0005639254295027,3.312149448254175,407.10156721191447,7.754626295791602,3.1430587898572058,69.9999195084231,1.6149322372810674e-09,113.70000126508234,36.81988229018681,15.288,0.0,0.0,0.0227889722876034,5.2593391349219385e-11,-3.731786027786564e-05,2.525509173087448e-09,7.6786585232224e-07,3.9107265285284982,49.36615848311875,7.754676785798701,39.036415444581515
0.19,31.222184986476247,131.0103867459258,3.644912152926752,3.920599115663931,0.0003437679584038,43.86258669386953,0.0005989384366483,3.307389681300437,448.9531328318269,8.219206165926856,3.332657190859447,69.99989653019398,4.538529095696477e-09,113.70000143063515,41.36350714675367,15.288,0.0,0.0,0.02415428010977,6.735860419174937e-11,-4.481243905342629e-05,3.199401151670645e-09,9.773118416308382e-07,3.92059913071168,47.71893898797248,8.21926016487149,43.987104227715655
0.2,31.222184864792144,131.01038707557822,3.722074668489528,3.943376465171875,0.000367328732016,40.28070981710589,0.0006315894240138,3.30251450988504,418.51563019916136,8.65238089736321,3.511445117640573,69.99986902534273,8.534090245934178e-09,113.7000016067622,45.83799876721736,15.288,0.0,0.0,0.025427299120469,8.499785987217288e-11,-5.328041996372527e-05,4.006766070954748e-09,1.2232205148646746e-06,3.9433764822533854,46.2587826635041,8.652438597225508,40.41586552155969
0.21,31.22218473678744,131.01038742234647,3.803156063113743,3.9664546506877016,0.000390962054969,38.67679184347145,0.0006636984664108,3.297405915846789,404.8187610144644,9.079179692250786,3.688002035198235,69.99983642883521,1.3827831253856693e-08,113.70000179318536,50.47126980736161,15.288,0.0,0.0,0.0266815841422463,1.0586558589671407e-10,-6.275155280099118e-05,4.961340042512481e-09,1.5117124669161171e-06,3.9664546699249135,44.88773728276958,9.079241104426773,38.817098210937615
0.22,31.2221846022986,131.01038778667507,3.8882846911135607,3.956175711337521,0.0004112685792646,46.713636108302936,0.0007011135033803,3.291572407481395,472.5421858721365,9.580256326712124,3.889976788904857,69.99979815126248,2.0662823443484168e-08,113.70000199039316,56.195522894218605,15.288,0.0,0.0,0.0281541581291438,1.3033127211465288e-10,-7.330053770532661e-05,6.0817207473359025e-09,1.8632831045819008e-06,3.956175732680424,43.35679625546934,9.580320928629488,46.8294591882524
0.23,31.222184460898035,131.01038816972698,3.977794004014759,3.9879066397329104,0.0004360962274406,38.89105719050748,0.0007308686121188,3.286096544282012,406.3406421461021,9.977039034039262,4.056142701351626,69.99975353557706,2.9316661139418326e-08,113.70000219928508,60.9462612310605,15.288,0.0,0.0,0.0293202403623685,1.5880617816859538e-10,-8.505067486192354e-05,7.393319440773217e-09,2.2514912291167663e-06,3.987906663538912,42.20670487756048,9.97710753587448,39.0296395118868
0.24,31.222184313516166,131.01038856897196,4.070963590490852,4.003523997322975,0.000459165577055,40.0792299321398,0.0007630441688766,3.280134925833028,416.2328240017114,10.408422364424831,4.234121060914368,69.99970190737699,4.010976417051318e-08,113.70000241888,66.32994780718496,15.288,0.0,0.0,0.030588009649109,1.91711512587616e-10,-9.795845222523724e-05,8.904557280909524e-09,2.7052895870113487e-06,4.003524023611085,41.011349410369874,10.408494489985014,40.21323112692186
0.25,31.22218416001652,131.01038898478134,4.167901030441617,4.0261356185860135,0.0004830526730531,41.17760020658354,0.0007934613160587,3.2740610008587527,425.36408079150686,10.816813039390448,4.4041629376391525,69.99964258149416,5.3372865854010094e-08,113.70000264972064,71.63651430352668,15.288,0.0,0.0,0.0317882126436337,2.2947426169209347e-10,-0.0001121037688082,1.0637152702866709e-08,3.217380562698304e-06,4.026135647516394,39.93186687113378,10.816888917126896,41.30755663120434
0.26,31.222184000702686,131.0103894163294,4.26837241014618,4.053359329950934,0.000507503069958,44.80261175215926,0.0008224724146494,3.2678597736729302,455.8015834241788,11.207047269494833,4.567925492611352,69.99957484039399,6.947299261165984e-08,113.70000289176392,76.89781807056055,15.288,0.0,0.0,0.0329350617559806,2.7254099134167665e-10,-0.0001275114371842,1.260720913253598e-08,3.7915697709142366e-06,4.053359361668992,38.945390435244384,11.207126987890645,44.921630958721536
0.27,31.22218383516388,131.01038986473338,4.372698316214008,4.0614460923241,0.0005296455772492,41.029837477288126,0.0008548809954683,3.2610328932384265,423.84219965987256,11.645685385842508,4.748226940060522,69.99949794024376,8.879821051920497e-08,113.70000314600205,83.0342688744587,15.288,0.0,0.0,0.0342241635563461,3.2137296827284217e-10,-0.0001442952656441,1.4842505534226832e-08,4.458527942364847e-06,4.061446126801262,37.8838346421185,11.645768582375233,41.15922617924542
0.28,31.222183663504484,131.01039032970942,4.48079961904222,4.081133040992532,0.0005533279247169,47.27661484082626,0.0008845140695959,3.254218495915602,476.3468732012221,12.047344998676092,4.915789434712848,69.99941106884992,1.1178948978424788e-07,113.70000341275257,88.85982357848233,15.288,0.0,0.0,0.0354045979054623,3.764736350660473e-10,-0.0001625146963723,1.7365685655384934e-08,5.194620655212288e-06,4.081133078439725,36.956255322213885,12.047431915223257,47.38848224631549
0.29,31.22218348566054,131.0103908114315,4.592727908358551,4.1001100265020245,0.0005770279952742,37.989969791857405,0.0009138463939581,3.247164755122801,397.97031042211177,12.446314684600782,5.082367374004485,69.99931338876085,1.3891902435864665e-07,113.70000369260468,94.8417675268915,15.288,0.0,0.0,0.0365771315767517,4.3836067907166327e-10,-0.0001822432988888,2.0202163500922312e-08,6.018074062137429e-06,4.100110067036654,36.07377590258778,12.446405323946324,38.12849176886316
0.3,31.222183301933686,131.01039130907952,4.708251093558373,4.112858061667493,0.0005998635114143,35.655053282557844,0.000944131403186,3.2397207148238625,378.1859457108711,12.860033399289696,5.253940723820665,69.99920403105713,1.707002607527005e-07,113.7000039856728,101.2505662360602,15.288,0.0,0.0,0.03779301412572,5.075709863465428e-10,-0.0002035013069687,2.3370674033523645e-08,6.94335970778e-06,4.112858105337573,35.19685285507256,12.860127625629724,35.80193592228613
0.31,31.222183112488807,131.0103918222051,4.827243246502713,4.136140889545823,0.0006242383343011,37.56633644061071,0.0009716215464757,3.232339252743767,394.1656220930212,13.2364445751808,5.4126574282679245,69.99908210036875,2.0768081583188525e-07,113.7000042923011,107.26326115439352,15.288,0.0,0.0,0.0388992619788015,5.846561731689753e-10,-0.0002263323252403,2.6893437641668458e-08,7.948283231812338e-06,4.1361409365698805,34.43286455705216,13.236542630309057,37.70514091683033
0.32,31.22218291741533,131.01039235056504,4.949637017503345,4.1622282001352975,0.0006491019906456,40.83513712643371,0.0009979686925508,3.224840963348891,421.55939346242695,13.59846554462374,5.566374262777002,69.99894668612772,2.504388718903276e-07,113.70000461297312,113.2095365840355,15.288,0.0,0.0,0.0399632243410653,6.701756367872645e-10,-0.00025078340164,3.0793566854276295e-08,9.047716714467492e-06,4.16222825066026,33.72644865222576,13.598567505326,40.96227562489027
0.33,31.222182716732533,131.01039289410716,5.075419569102976,4.187801887681037,0.0006739743721461,40.48743503284469,0.0010239291638211,3.217136801802925,418.5156301991682,13.956637761217308,5.718704299733134,69.99879684673242,2.995902922462564e-07,113.70000494831164,119.25032483364384,15.288,0.0,0.0,0.0410158804634189,7.647061680070125e-10,-0.0002769136723495,3.509664608790402e-08,1.0253455741189656e-05,4.187801941818244,33.053267359159875,13.956743628864118,40.61505097607
0.34,31.222182510255863,131.01039345333336,5.204736257784645,4.19642921746386,0.0006961879027693,31.814592723444047,0.0010535137542081,3.208669900766693,345.46563688075645,14.367047160772364,5.88887983533068,69.99863160305904,3.557915789971256e-07,113.70000529927128,126.36523219087664,15.288,0.0,0.0,0.042222056531773,8.688448410811866e-10,-0.0003048202762282,3.9835373705550826e-08,1.1618525957862828e-05,4.196429275109305,32.30947868183619,14.367156517712404,31.97598901989736
0.35,31.222182298183583,131.0103940277045,5.337435501771672,4.210915783240843,0.0007193441544952,34.813487415034444,0.0010813034848195,3.200164272309822,370.5765700527033,14.754132934586384,6.050986755458457,69.99844991734221,4.1975736284587617e-07,113.70000566632532,133.26448209504355,15.288,0.0,0.0,0.0433596939127697,9.832256819293898e-10,-0.0003345386312107,4.503361101379695e-08,1.309465610343774e-05,4.210915844572415,31.63649055965014,14.75424592890194,34.96026256388454
0.36,31.222182080444604,131.0103946174141,5.4735747500461605,4.22903876037745,0.0007431682866607,39.2632255716727,0.0011077666085529,3.1915717453569297,407.8625232777193,15.124417129017054,6.2072589919251575,69.99825073022951,4.922382611919288e-07,113.70000605036684,140.03566173682628,15.288,0.0,0.0,0.0444479595865755,1.1084921261805627e-09,-0.0003661511460057,5.0723697896912267e-08,1.4691545926915382e-05,4.229038825557203,31.017264542603208,15.124533865618538,39.39272792946638
0.37,31.22218185710795,131.01039522227452,5.613102797925907,4.249164960780052,0.0007674149135003,37.28328237034959,0.001133274451316,3.1828514669894137,391.1218908297666,15.483077353331511,6.359470679857624,69.99803294268581,5.740349991123437e-07,113.70000645214331,146.75405277514704,15.288,0.0,0.0,0.0455020695186381,1.245311285088233e-09,-0.0003997125883071,5.6934243389647934e-08,1.641828325195534e-05,4.2491650299519,30.439178816713017,15.483197898584232,37.418894813348615
0.38,31.2221816281124,131.0103958424523,5.756069531572451,4.260095806433531,0.0007900626414612,38.9278000801764,0.0011607546399008,3.1735466295306622,404.8187610144602,15.87126705947922,6.521735074464384,69.99779542676283,6.659911329739736e-07,113.70000687263192,154.20298254405043,15.288,0.0,0.0,0.0466429667223463,1.3943646956867835e-09,-0.0004353006984059,6.369875435270817e-08,1.8328108041903096e-05,4.260095879559656,29.83470194713067,15.87139116222873,39.05694584372078
0.39,31.22218139339905,131.0103964781077,5.9025231349944285,4.274091258047817,0.0008133283308351,33.320076729592266,0.0011870382950339,3.164143363712209,357.64062493382744,16.24457853509073,6.678818328235205,69.9975369905506,7.690136753559805e-07,113.70000731287368,161.54010621938565,15.288,0.0,0.0,0.0477401448128051,1.5563705124515804e-09,-0.0004730068442167,7.105463478762673e-08,2.0383860516746246e-05,4.274091335289374,29.274934656826048,16.244706292406182,33.46997636540994
0.4,31.22218115316572,131.01039712870306,6.0523126585892895,4.286421841403391,0.0008363022448449,31.88018820767003,0.0012133780841982,3.1544430614236454,345.465636880754,16.62063299903514,6.836764518435374,69.99725641601981,8.840594270905819e-07,113.70000777359816,169.10340080049767,15.288,0.0,0.0,0.0488453895716005,1.7320643186450851e-09,-0.0005128553637434,7.9027539265021e-08,2.2612406375611563e-05,4.286421922834417,28.730746964325096,16.620764365084565,32.03586915718869
0.41,31.22218090752676,131.01039779392735,6.205351877049411,4.30025870409831,0.0008595777771371,35.882550741685804,0.0012389121673015,3.1445895889870297,378.94687077668647,16.987310563534386,6.99141560549392,69.9969524610574,1.0121301778427253e-06,113.70000825570062,176.64448930727934,15.288,0.0,0.0,0.0499230826371405,1.922193031274436e-09,-0.0005548883906878,8.764667734700782e-08,2.5005077415911235e-05,4.300258789847355,28.21875643368965,16.987445585695873,36.020076248499606
0.42,31.222180656535848,131.0103984736348,6.36160173428776,4.322008670726048,0.0008844838439129,40.34064925656127,0.001261804338223,3.134918999355981,416.2328240017114,17.318628721060172,7.133856886815013,69.99662385300175,1.154276942054023e-06,113.70000876021427,183.59942989625057,15.288,0.0,0.0,0.0508968652507098,2.1275184665783874e-09,-0.0005991661829955,9.694534598491077e-08,2.752657757470936e-05,4.322008761057615,27.772396468009568,17.318767655457478,40.462275036947325
0.43,31.222180400205527,131.0103991677914,6.521055075967404,4.339436441324956,0.0009085827200945,35.541853595187746,0.0012854696362701,3.124839917627212,375.9031395134336,17.662848429084132,7.280642039343927,69.99626930133451,1.3115939750280808e-06,113.70000928827632,190.96736675963504,15.288,0.0,0.0,0.0519085689713619,2.3488101247838237e-09,-0.0006457514522491,1.0695800287133593e-07,3.0255957891170616e-05,4.339436536261635,27.322335771349252,17.662991148924057,35.67895714766603
0.44,31.22218013836212,131.0103998768696,6.683849332059896,4.342209064313268,0.0009296474314902,32.82948243168077,0.0013129688908547,3.113754688841357,353.0750125389216,18.063580761318697,7.446730341918701,69.99588746395321,1.4852372182848018e-06,113.7000098413532,199.7278270846888,15.288,0.0,0.0,0.0530863610987301,2.586862292117705e-09,-0.0006947575786514,1.1773083546077225e-07,3.329010177793299e-05,4.342209163639375,26.81344244367223,18.06372678999575,32.9768158972058
0.45,31.22217987077456,131.0104006014978,6.850166573233225,4.3420317510315165,0.0009500780330031,38.11022602597878,0.001341042003417,3.1022288449712887,397.2093853562869,18.47486275310604,7.616350301328129,69.99547690348253,1.6764536248320808e-06,113.70001042108892,208.92306716049887,15.288,0.0,0.0,0.0542951637545535,2.842521175226318e-09,-0.0007463379956615,1.2932090054593452e-07,3.657529369088674e-05,4.342031854775571,26.30944884471334,18.47501199101448,38.23628058998621
0.46,31.22217959739673,131.01040134180155,7.020045503401754,4.351169003849846,0.0009725797783515,44.3937050866137,0.0013660055515545,3.09098240974522,449.7140588976434,18.844323061800488,7.771531995684422,69.99503610583268,1.8865779683531e-06,113.70001102895836,217.3591612614144,15.288,0.0,0.0,0.0553810645782081,3.1166808800591503e-09,-0.000800596194505,1.417768495237597e-07,4.001824400409673e-05,4.351169112337076,25.873596578896564,18.844475834274814,44.50118229261506
0.47,31.22217931813738,131.01040209802923,7.193559875579052,4.358630093683735,0.0009947969928181,30.22514089990685,0.0013910994973101,3.079396422776949,331.0078106302534,19.2180591098146,7.9280875671397615,69.99456352718363,2.1170044481277104e-06,113.70001166656292,226.0625808853568,15.288,0.0,0.0,0.0564795377574197,3.4102493884459798e-09,-0.0008576351980594,1.551487523304888e-07,4.3718862242359527e-05,4.35863020698899,25.44665981168229,19.218215372160817,30.381603425148434
0.48,31.22217903348153,131.01040286886197,7.370336324605091,4.365514409145237,0.001016880998596,29.779838936311712,0.001416009414045,3.067527859335786,327.2031223011574,19.5915905767454,8.084483592791102,69.99405758812365,2.369198154608765e-06,113.70001233476164,234.93171707892955,15.288,0.0,0.0,0.057577416115756,3.7241711041759195e-09,-0.0009173883913609,1.6944871263079066e-07,4.767297940601472e-05,4.365514527349481,25.03354780044292,19.59175030803913,29.937410312943754
0.49,31.22217874361868,131.01040365378466,7.5502307795521535,4.3786401372577615,0.0010404145545081,37.2489281064929,0.0014385799934191,3.0558405437943126,389.60000969812296,19.93403005898306,8.23012235628909,69.99351671352461,2.644660619562788e-06,113.700013034871,243.21198709852868,15.288,0.0,0.0,0.0585839249886784,4.059374595909599e-09,-0.0009798792959512,1.8470833984680338e-07,5.180951737438081e-05,4.378640260624215,24.667474291142685,19.934193486919103,37.37406598941686
0.5,31.22217844858332,131.0104044527036,7.733219389747018,2.073485440047917,2.548547624132312,38.25598938235523,-0.1577792112718747,3.1982260331759167,397.97031042210494,19.92011745740949,8.3664649573212,69.99293932307316,2.9449363413826395e-06,113.70001376847225,242.8683472429536,15.288,0.0,1.2525784889493092,0.0585431582289192,4.416769394513709e-09,-0.0010472760810716,5.18679161945689e-06,5.533339345546682e-05,3.2850571985411774,26.91650638050874,20.320310386716024,38.38976774690972
0.51,31.222178148524367,131.0104052655073,7.9192379802831265,2.1200669550971734,2.5112300839792967,29.34520477726886,-0.161659578218602,3.18977757977146,323.3984349720841,20.26030538060522,8.513397234806025,69.992332039082,3.788535477697004e-05,113.7000513740639,251.2299111231852,15.288,0.0,1.2575490379215877,0.0595430601841795,4.804806838345149e-09,-0.001078656035007,4.3185550352386426e-05,5.7963611003714496e-05,3.2860434718717904,26.52279611471477,20.654642197853917,29.51850027097389
0.52,31.222177843444328,131.01040609232004,8.108294499744009,2.163639868288186,2.473872336524696,35.18181710860201,-0.1656554469882912,3.181049286823208,372.0984511843415,20.609301738812366,8.663162166504712,69.99170628212053,0.0001332911684217,113.70015333599864,259.95492035419863,15.288,0.0,1.2625018003887207,0.0605688555970899,5.225252038898383e-09,-0.0011120196975334,8.215118838346241e-05,6.0784709066812806e-05,3.2861028716863885,26.13004693087965,20.997775966859816,35.3257239325033
0.53,31.22217753320664,131.01040693352596,8.30050048227611,2.205941306641696,2.4380486502078984,36.922673961283344,-0.1696693104760584,3.172119003297702,386.5562464348624,20.95459755608245,8.811583356316602,69.99106088855227,0.000290721858199,113.70032131463456,268.73369283461057,15.288,0.0,1.2674375926779773,0.0615837819987439,5.679280089389097e-09,-0.0011474580412619,0.0001221281661358,6.377151102647387e-05,3.2874489516412173,25.752633995165755,21.337449781550475,37.05907418024944
0.54,31.22217721771741,131.0104077893887,8.495932945504157,2.246863424925283,2.4034801643627257,32.46777009399418,-0.1737160597922406,3.1629727066447595,349.2703242098436,21.2978682926828,8.95923351607731,69.99039465019148,0.0005117778814898,113.70055701392148,277.60519906153496,15.288,0.0,1.272360019963594,0.0625927635272635,6.168102967163983e-09,-0.0011850567743498,0.0001631502978504,6.69387678021857e-05,3.2897036794507803,25.38796392502196,21.675295358973514,32.6219353884602
0.55,31.222176897256265,131.01040865915633,8.694379228399773,2.287133690148329,2.370753706928538,34.390930370222435,-0.1777446321662215,3.1536651656519448,365.2500005919907,21.633062892978884,9.104038873757988,69.9897063233128,0.0007980686847088,113.70086214689503,286.40663293182195,15.288,0.0,1.277263342891432,0.0635780164835124,6.6929739315093435e-09,-0.0012248311387819,0.0002051743361412,7.027298080043815e-05,3.29370121405877,25.04180022620636,22.005353760385216,34.53568138694816
0.56,31.222176571828616,131.01040954282217,8.895839290236323,2.327314594194481,2.3402432838344973,32.120358684448625,-0.1817140939394668,3.1442467185608103,346.2265619465787,21.95552900622384,9.244403383914948,69.9889946423439,0.0011511760883847,113.7012383976314,295.0030158689896,15.288,0.0,1.2821474978292875,0.0645258678531903,7.255125984112177e-09,-0.0012668492483808,0.0002482151661763,7.376572009095789e-05,3.300018046505025,24.717862796256053,22.323031357096355,32.27439773964421
0.57,31.22217624151051,131.01041044018734,9.10025832893963,2.3652592829339887,2.3096332861404205,31.76391810510353,-0.1857992361595789,3.134520171696764,343.1828296833023,22.28610851180816,9.387470100522956,69.98825831083559,0.0015726803287282,113.70168744847668,303.9475180548004,15.288,0.0,1.2870103647974689,0.065497570503058,7.8558101330214e-09,-0.0013111613983822,0.000292268626888,7.749391702457261e-05,3.3054237972223897,24.39399535775594,22.648806613501687,31.91874420228113
0.58,31.222175906284896,131.01041135130603,9.307653737311323,2.3994834091015025,2.2775046757659747,41.71871674732656,-0.1901267782479323,3.124326999778889,426.1250058573153,22.639246119090323,9.538189819187435,69.98749599620085,0.0020641752390929,113.70221099644,313.6500728180645,15.288,0.0,1.2918519567026456,0.0665355769644811,8.496290411599452e-09,-0.0013578383316052,0.0003373509514293,8.15227074151584e-05,3.307796108797556,24.05645313596617,22.996901513519237,41.83597607845453
0.59,31.222175565760093,131.0104122772516,9.518333639800035,2.4355742760386625,2.249132667473078,33.880112410787106,-0.1942521139749729,3.114194127577793,360.68438819711065,22.96269452602972,9.678648998490017,69.98670629579713,0.0026273571099308,113.70281084816808,322.6698460666752,15.288,0.0,1.2966782888784791,0.0674863355510127,9.177865537127644e-09,-0.0014070472344952,0.000383568211693,8.568233797526825e-05,3.31475069537844,23.75616592744799,23.31589673258243,34.02349123643243
0.6,31.222175220149108,131.0104132174529,9.732137225774215,2.4660689434841765,2.217488081046908,30.145695634005023,-0.198784562407005,3.103378759287818,329.4859594986058,23.327300393212383,9.833134528220889,69.98588776401063,0.0032639439365066,113.70348883262056,332.991181805409,15.288,0.0,1.301485116542444,0.0685580613016541,9.901916732707496e-09,-0.0014588109463892,0.0004308856584877,9.024317410167334e-05,3.315978331177887,23.42515259898092,23.675535655426916,30.305666801506277
0.61,31.222174869408786,131.01041417203555,9.94910239806208,2.494717702796249,2.1860895095603947,35.26889934147714,-0.2034304326847413,3.09222525880533,372.0984511843297,23.698314978550304,9.98973373501068,69.98503890558342,0.003975693750132,113.70424682180608,343.66053013783164,15.288,0.0,1.30627394484124,0.0696486297346705,1.0669836184950509e-08,-0.0015132168241961,0.0004793297360848,9.509560536432388e-05,3.316561932069065,23.097382260728303,24.04162180601648,35.404780775361154
0.62,31.222174513655848,131.01041514069033,10.169143178424232,2.529344374842396,2.1615824560903527,43.77523245306121,-0.2075415053516324,3.0815709067269443,442.86563930529206,24.001948171982203,10.12314758771712,69.98415817402487,0.0047644034519522,113.70508672895711,352.51575495113974,15.288,0.0,1.3110466976855468,0.0705411736003217,1.148306464403154e-08,-0.0015703229978273,0.0005288999679878,9.994662354002348e-05,3.3267079461211075,22.837654149537133,24.34140821088667,43.88405324316764
0.63,31.222174152714707,131.0104161239024,10.392400032760962,2.56081755505943,2.1358239580526464,24.9585869293624,-0.2118727089148855,3.070454935448736,286.11251274707894,24.325091968560727,10.263162306493196,69.98324401645039,0.00563180304125,113.70601039660588,362.0638921086455,15.288,0.0,1.315794687233493,0.0714910658477434,1.2342990245630406e-08,-0.0016302444226749,0.0005796425305098,0.0001051551496591,3.334140414942487,22.56691487532482,24.66050871698984,25.14763696783346
0.64,31.22217378716087,131.0104171201147,10.618431198068684,2.5877352953277915,2.1077606486804736,24.50716152933256,-0.2165533066134217,3.058688568827777,282.30782441796754,24.68155249382007,10.414517461554723,69.98229483761867,0.0065796384805086,113.70701968330204,372.74493863886505,15.288,0.0,1.320522553456563,0.0725388827434242,1.3251116579056776e-08,-0.0016928943301283,0.000631434752562,0.0001107939968613,3.337065697685176,22.274582393079054,25.012564090279437,24.698247656878024
0.65,31.22217341697955,131.01041812937484,10.84725246138227,2.619141582512079,2.084703367064385,43.07868669830701,-0.220821226431081,3.0472952699437226,436.7781447787475,24.985810903287287,10.547887934777052,69.98130902765584,0.0076096128024595,113.70811640284128,381.9831119078245,15.288,0.0,1.325222965159568,0.0734332853084054,1.4208852720247505e-08,-0.0017583591939592,0.0006843029458419,0.0001164944963735,3.347067802867164,22.03237013180917,25.313203094167164,43.18689637062563
0.66,31.222173041680588,131.01041915302247,11.079248041573772,2.6483492018121235,2.0611295019607927,36.68581071488932,-0.2252431124850832,3.0355150632214025,383.51251517160017,25.30151139442822,10.685091256377376,69.98028493623437,0.0087234457277226,113.70930238755892,391.688227796019,15.288,0.0,1.3299029564547482,0.0743613235135546,1.5217565340257752e-08,-0.0018268581599773,0.0007383747216274,0.0001225592181257,3.3554406781938315,21.786193157061213,25.6252030344761,36.81187028619239
0.67,31.22217266144859,131.0104201905632,11.314279325762932,2.6734283146771607,2.035606391610327,25.34700933819329,-0.2299942564600812,3.0230890368024497,289.1562440103425,25.64743892716135,10.832571562314453,69.97922082239837,0.0099229756273965,113.71057959522685,402.46284835260326,15.288,0.0,1.3345671736987528,0.0753782068832947,1.6278805211019032e-08,-0.0018984155152292,0.0007936200356544,0.0001290981933869,3.3597476801633634,21.521783972820383,25.967123968259468,25.527687852073434
0.68,31.222172276451605,131.01042124154773,11.552220570618562,2.698569750942807,2.011325410881424,31.577883599369727,-0.234718697338127,3.0105066416607524,340.8999924858462,25.98419305056949,10.976816909756602,69.9781149115595,0.0112100346708573,113.71194997716135,413.0915705954658,15.288,0.0,1.3392006866971695,0.0763681372945586,1.7394127777801147e-08,-0.0019730646211991,0.0008500181335137,0.0001359331891792,3.3652216246815323,21.270699062173357,26.30006642241201,31.721932093138765
0.69,31.222171886770656,131.010422305763,11.79301340680562,2.726059242617034,1.9898883625863304,38.8197117799108,-0.2392105667105428,2.998079665220392,401.0140726853634,26.289822707031327,11.110298528466863,69.97696540624302,0.0125864272372367,113.71341545535304,422.85662298373313,15.288,0.0,1.3438126103934929,0.0772665997415628,1.8565074601933232e-08,-0.0020508570424757,0.000907562739091,0.0001429512529179,3.374620886868121,21.048685958456343,26.602330807749105,38.936046615566646
0.7,31.222171492275656,131.01042338356936,12.036762952538815,2.7525499342643647,1.9687331226514115,32.60004513465527,-0.2437657367321802,2.985383399733596,349.27032420985284,26.596575292257285,11.24407370036734,69.97577048394376,0.0140539361633759,113.71497792929908,432.7719392305211,15.288,0.0,1.348406769037952,0.0781683700093669,1.979314590046656e-08,-0.0021319168247688,0.0009662999336421,0.0001503317559209,3.3837048869036934,20.83044972295185,26.9057623183316,32.737362119745846
0.71,31.222171093021817,131.0104244748235,12.283430807901537,2.776115386613625,1.9464512776465577,26.834866421361312,-0.248563973006164,2.9721342336899794,301.33126406340574,26.92352682085941,11.38468480919396,69.97452826373629,0.0156143882556025,113.7166393451764,443.46695933489735,15.288,0.0,1.352969533453416,0.0791295134867628,2.1079918880411016e-08,-0.0022163046763734,0.0010262282896279,0.0001581997816135,3.3900624953923946,20.60217822341844,27.229215865595847,27.000100403592082
0.72,31.222170689013875,131.01042557951956,12.533017732651162,2.796283163580945,1.9228013752435344,32.799011769765734,-0.2536595018170408,2.958236197109928,350.79220534145287,27.275587780409072,11.533817914488674,69.97323680830203,0.0172696480823231,113.71840168957895,455.12972119268574,15.288,0.0,1.357511674366924,0.080164462960008,2.242699434695176e-08,-0.0023041077963474,0.00108736518407,0.0001666138002388,3.3931443516373347,20.361230439236,27.577564024706437,32.93312432208619
0.73,31.22217028025159,131.01042669766505,12.78552846905794,2.821777117241621,1.9037354661199768,41.42545316577522,-0.2582478308249218,2.9449401062113627,422.320318528234,27.56806747425336,11.662418374844007,69.9718940701832,0.0190216550830637,113.72026703177336,464.9316113792,15.288,0.0,1.362035938249362,0.0810243078026385,2.3836027377459925e-08,-0.0023954226962788,0.00114973412853,0.0001750701123833,3.403484092766864,20.166779856976262,27.867050522167123,41.53080223353666
0.74,31.222169866675383,131.01042782942832,13.041013477342249,2.84453499376462,1.8836420816042427,26.026435486860247,-0.2630710343018078,2.931091530414863,294.48281347105944,27.879606276359365,11.797461702795184,69.97049811080862,0.0208722559203966,113.72223733410029,475.4874368347327,15.288,0.0,1.366534337425925,0.0819401763884752,2.5308624943476484e-08,-0.0024903466374619,0.0012133564007571,0.0001840599544446,3.4112418614923574,19.963149606332223,28.175434786584667,26.192286041513384
0.75,31.22216944864136,131.01042897384832,13.299201416063791,2.8652677289934725,1.86302508297196,30.34401995999756,-0.2680734959855284,2.9167643992892107,330.24688556441487,28.203724219485338,11.93672904050914,69.96904683433955,0.0228233353444161,113.72431460746864,486.5953170614862,15.288,0.0,1.3710042984184283,0.0828930238931923,2.6846533438067258e-08,-0.0025888209944072,0.0012781501931329,0.0001935577591134,3.417269023655496,19.755279764235443,28.49631595001465,30.48506069032734
0.76,31.222169026042863,131.010430131221,13.560179219018217,2.8874893788193448,1.8441633016290115,32.644970122596625,-0.2729209059192162,2.902501985121159,349.27032420986166,28.50598134447021,12.06840158916626,69.96753815242818,0.0248767547518785,113.72650083596773,497.0683544279125,15.288,0.0,1.3754532755914757,0.0837816286892147,2.8451368194225084e-08,-0.0026909823541312,0.0013441643500643,0.0002033471388927,3.425733979980365,19.56586332937935,28.79561182363864,32.77488486478246
0.77,31.22216859882537,131.0104313017005,13.8239933867101,2.9095740517965285,1.82594077424519,30.540562731790263,-0.2777674555190167,2.88805896041368,331.7687666960708,28.8023929542746,12.197972484025476,69.96596992639921,0.0270343960372014,113.72879802563372,507.4465000050917,15.288,0.0,1.3798817527298584,0.0846530608852922,3.0124788420812386e-08,-0.0027969424112036,0.001411428940539,0.0002135464285818,3.434649073260412,19.38377415914301,29.08916251350258,30.67807052753787
0.78,31.22216816705447,131.0104324851145,14.090597449689444,2.9290474599058407,1.8067728063297888,25.128944130409337,-0.2828569193170261,2.8730183298331844,286.8734378128899,29.11775257308343,12.33395013268211,69.96433997418235,0.029298148115327,113.73120819002077,518.6061974823217,15.288,0.0,1.3842798293427028,0.0855801911881059,3.186851208690196e-08,-0.0029067539903451,0.0014799356210102,0.0002243547281059,3.4410612533217657,19.19321140583268,29.401512747783936,25.294230082562247
0.79,31.22216773081892,131.0104336812279,14.359927058811296,2.946743335688242,1.787218169900355,35.60622716458316,-0.2881172754652398,2.857491006422341,373.6203323159534,29.44409903512941,12.473604563422104,69.962646060284,0.0316699230085043,113.733733367473,530.2825138795894,15.288,0.0,1.388653198621124,0.0865396213356692,3.368428964669638e-08,-0.0030204674287058,0.0015496752499776,0.0002357383782403,3.4459582311284844,18.999639609387437,29.724789085348625,35.721865563154815
0.8,31.22216728990269,131.0104348906332,14.632153715571684,2.967639531407657,1.7702673597887315,36.07350055818755,-0.2930500724350347,2.8423375447082213,377.42502064505743,29.73176720201118,12.599884785468245,69.96088587623758,0.0341516875458344,113.73637565534496,540.6806911531761,15.288,0.0,1.3930075813997544,0.0873853798312061,3.55738043682395e-08,-0.0031382905142803,0.0016207341537891,0.0002473206497255,3.455130650513016,18.833149469506427,30.009795908213647,36.18649200440089
0.81,31.22216684440867,131.01043611305647,14.907202089261672,2.985462601254461,1.7521077390185589,23.580604236416768,-0.2982835481343382,2.8264716984118627,273.9374926939919,30.043527398635906,12.734337535001604,69.95905704285884,0.0367454025513133,113.73913714723588,552.0644537399004,15.288,0.0,1.3973407587822355,0.0883019560381716,3.753888599945609e-08,-0.0032602535301627,0.0016930884912971,0.0002596195153648,3.4612265891466043,18.655336170918996,30.318704945789,23.751269681672333
0.82,31.22216639452465,131.01043734799347,15.184931255534227,3.001661333787567,1.733618963983829,30.20502612211885,-0.303682549542246,2.81011375366988,328.72500443277005,30.36531701754613,12.872138480775725,69.9571572494696,0.0394530062738238,113.7420199043612,563.9388275442569,15.288,0.0,1.401648721322948,0.0892480185427844,3.958138420277104e-08,-0.0033863564150694,0.0017666983139937,0.0002725423154692,3.4659277600660525,18.475042303549827,30.63759169824625,30.336983459753263
0.83,31.222165940235897,131.0104385954897,15.46535692592882,3.0220222249225484,1.718089296355363,38.30479719502859,-0.3086447280109745,2.794341602160872,395.68750322465047,30.638802030261875,12.993256887817989,69.9551840231575,0.0422764745795202,113.74502603704792,574.1273325714928,15.288,0.0,1.4059280133241665,0.0900521151117672,4.1703098154474224e-08,-0.0035167124038825,0.0018415907745729,0.0002855751368762,3.475875601899173,18.325640457458057,30.90863842306096,38.407825956567315
0.84,31.222165481439063,131.0104398558304,15.748563066909997,3.0408973689128365,1.7022355169957477,23.77703207218173,-0.3137502683450459,2.7781263605673074,275.4593748256452,30.92087157968316,13.117223024709444,69.95313491496168,0.0452177292676724,113.74815759565696,584.7312491618801,15.288,0.0,1.4101860069171317,0.0908814509643733,4.3905787445651606e-08,-0.0036514583039865,0.0019178039278595,0.000299238880081,3.4845288375612418,18.17382364785873,31.188218775877417,23.940837066980848
0.85,31.22216501842791,131.01044112822336,16.03432678214666,3.0553263738724628,1.6844315650980313,25.897850792649656,-0.3193247089516277,2.760853954257701,292.96093233939376,31.242035033794657,13.254519786147132,69.95100743761654,0.0482786847909054,113.75141662247528,596.9247156224296,15.288,0.0,1.4144192971963887,0.0918256984543043,4.6191395262136266e-08,-0.0037905194314536,0.001995256635269,0.0003138528461908,3.4885009507323703,18.00299362758364,31.50658681305356,26.0465536780748
0.86,31.22216455103152,131.01044241313713,16.322784330123877,3.0721439172851963,1.6684723157743515,32.34648929213497,-0.3246432284314657,2.743855636196228,346.2265619465587,31.532810805177355,13.381282688732457,69.94879897877664,0.0514613330010662,113.75480524595676,608.0709697093017,15.288,0.0,1.4186307961959788,0.092680639952649,4.856169269379813e-08,-0.0039341050631627,0.0020740277867564,0.0003287642884243,3.495597180253188,17.85173224170449,31.794856784443965,32.464280471069344
0.87,31.2221640792754,131.0104437105072,16.61392011258477,3.0898493193909293,1.6534702640551355,30.142965978664588,-0.3298597398045511,2.72685681493205,327.964078366998,31.808383525008047,13.502724472369186,69.94650700258846,0.0547676249001977,113.75832554275588,618.7282637307089,15.288,0.0,1.4228203002926143,0.0934909051757883,5.1018546623123344e-08,-0.004082296607251,0.0021541228157677,0.0003441200759096,3.5040664568526863,17.71105676013291,32.0680739776308,30.267853467466374
0.88,31.222163603196407,131.01044502023782,16.907709668484912,3.105082323594292,1.6376065476912165,26.09601555317744,-0.3353431349684949,2.709155442388431,294.4828134710418,32.10340101278179,13.630747514830928,69.9441288268469,0.0581995228858585,113.76197961037796,630.2409098713907,15.288,0.0,1.426985686948974,0.0943583306175075,5.356386960839573e-08,-0.0042351535752276,0.0022355350512986,0.0003603062603328,3.510080535238265,17.56238997201173,32.360600626300695,26.238407077810045
0.89,31.22216312287696,131.01044634210987,17.20409341774343,3.117873729098806,1.6209225642397949,28.58836311716428,-0.3410992089865846,2.690721012643319,315.028134248087,32.41797384912344,13.765392688676949,69.94166175047445,0.0617589961150057,113.76576955104184,642.6342618962021,15.288,0.0,1.4311228159615144,0.0952832418798635,5.6199596619953794e-08,-0.0043927324782015,0.0023182566619548,0.0003773634742379,3.513677911570061,17.406123371022552,32.67255380815298,28.716734388803516
0.9,31.22216263824391,131.01044767632604,17.503131921352313,3.1351654600918,1.6070148985345647,31.542930154711243,-0.3463503774711779,2.673066942925652,339.37814235421445,32.68004007036471,13.881897163146675,69.93910294951021,0.0654480786172906,113.7696975394514,653.0475866113757,15.288,0.0,1.4352386183589447,0.0960538337078303,5.8927624934553284e-08,-0.0045551903689128,0.0024023323711616,0.0003944717238787,3.522666777167637,17.279121701385144,32.9324362850624,31.657885087452197
0.91,31.222162149368604,131.01044902269655,17.80477395993693,3.1500173908985056,1.5922598559078645,24.08164019734332,-0.3518727042170994,2.65468558182868,277.7421810230789,32.96165083876201,14.005018838444526,69.93644972202038,0.0692686973159879,113.77376562806766,664.3317298770455,15.288,0.0,1.4393318839936866,0.0968818795046212,6.174990694223284e-08,-0.0047225704585955,0.002487745834463,0.00041247875539,3.5292132232218507,17.1441884440199,33.21173024002348,24.23007561962289
0.92,31.22216165645241,131.0104503806795,18.108868142696807,3.162475191862911,1.576708222170869,28.604204504629564,-0.3576711230583954,2.635548923797037,315.02813424806214,33.26273462292847,14.1347388991258,69.93369920057394,0.0732228138736201,113.7779759150071,676.50389974633,15.288,0.0,1.443400690730022,0.0977671695149668,6.466851783317766e-08,-0.0048948287221712,0.0025744380324424,0.0004314166987828,3.5333741564372136,17.001769816866815,33.51037211332938,28.72759234785727
0.93,31.222161159406937,131.01045175051797,18.41548651992164,3.179117482854894,1.5636235523956217,33.959502269268555,-0.3629822335547294,2.617188239104617,359.1625070654728,33.514253737827346,14.247323517128097,69.93084846382621,0.077312397860524,113.782330507712,686.7532448757584,15.288,0.0,1.447447133995432,0.0985067854349888,6.768532260015686e-08,-0.0050721471945754,0.0026624644506059,0.0004504121664186,3.5424845636623785,16.885584517687214,33.75983666485117,34.06213770093181
0.94,31.22216065812445,131.0104531325069,18.724715768425053,3.1911702788960183,1.5486527945442448,24.73922868910355,-0.368828766517488,2.5975404823016777,283.0687504837787,33.80844100805759,14.374477829719856,69.92789468539327,0.0815393530814258,113.78683143552942,698.8420108403653,15.288,0.0,1.4514711734347467,0.0993718222301479,7.080220662603188e-08,-0.0052546734915577,0.0027518603512898,0.0004707027042378,3.546746770072489,16.750618728300186,34.051673201221256,24.87795585147564
0.95,31.222160152893064,131.01045452586942,19.03633776209397,3.203413394487747,1.5341503203475653,31.94239369399756,-0.3746559734386151,2.577718713594109,342.4218736174873,34.095271515390934,14.499009266395088,69.92483478725794,0.0859056853482075,113.79148084775836,710.7289787287459,15.288,0.0,1.455471204886688,0.1002152442492529,7.40213717227031e-08,-0.005442321769064,0.0028425477042061,0.0004916331775831,3.5514815965399067,16.621197616269008,34.336226489553844,32.048424544229654
0.96,31.2221596434232,131.01045593139247,19.350579232839458,3.2176041321503366,1.5209298487542051,31.302327492946315,-0.3802473723907395,2.5581787704071743,337.09533515678345,34.35584216402213,14.614410212585172,69.92166580708529,0.0904133470673179,113.79628082676751,721.6121003316227,15.288,0.0,1.4594503643709595,0.1009814900720348,7.7344576189433e-08,-0.0056354113167381,0.002934643996545,0.0005129510533041,3.5586193377294424,16.50583068125389,34.59472120935892,31.40898873190977
0.97,31.22215912973556,131.01045734902291,19.667427859872976,3.2302789811943065,1.507325016416822,20.13422559374961,-0.3860209135702854,2.5380533843939697,245.02188719299323,34.62699935486076,14.733352175647168,69.9183845532054,0.0950643588496395,113.80123353908688,733.0255469701306,15.288,0.0,1.4634082716921972,0.1017788612618398,8.077389976848039e-08,-0.0058340294055113,0.0030281524834695,0.0005352047554153,3.5643124296307427,16.387181983125412,34.86374210430567,20.297235461701405
0.98,31.22215861211651,131.0104587779883,19.98666687242063,3.238523834392037,1.4920029842226614,29.18970865688972,-0.392346533692651,2.516541345975984,319.5937466429581,34.940427485258375,14.866743536882831,69.91498794812557,0.0998606888636164,113.80634108402712,746.3327597043435,15.288,0.0,1.4673422653174668,0.1027004880022593,8.43116442026057e-08,-0.0060380450226952,0.0031229751549122,0.000558917536167,3.565352474965933,16.25123146847824,35.17476427989519,29.300614458106676
0.99,31.222158090420287,131.01046021868595,20.308412158729247,3.2533308805904086,1.4800237999488044,31.8746113076273,-0.3978562393769419,2.4965535045044125,341.6609485517054,35.177882340365755,14.973898413969565,69.91147267693049,0.1048043792006985,113.81160565236168,756.4879941592536,15.288,0.0,1.4712553348164017,0.1033988150610132,8.795972720905533e-08,-0.0062477174000941,0.003219196976411,0.0005822383708122,3.573832332799621,16.1509782049358,35.41033808197906,31.974707426345383
1.0,31.22215756464617,131.01046167111963,20.632667550841308,3.263821898234152,1.4663789210091045,28.55333996795256,-0.403907446486206,2.475191400384328,314.2672081822764,35.456501016348746,15.095120357361036,69.90783561356962,0.1098973232008181,113.8170292654495,768.4947083861244,15.288,0.0,1.4751463095875252,0.1042181439463502,9.172022135729108e-08,-0.0064631149056071,0.0033168115550722,0.0006070633036964,3.5777750186524995,16.033935456190648,35.686814133854114,28.663268079884762
1.01,31.222157034973275,131.0104631348071,20.95929889301601,3.274669610866012,1.4531969408476524,29.852747881411315,-0.4099150997646366,2.4537038665947986,324.9203161036979,35.726032341623245,15.213121401566118,69.90407336392776,0.1151415261094844,113.82261407552872,780.1984436427965,15.288,0.0,1.4790146503753148,0.1050107708785366,9.55953828643022e-08,-0.0066842148961846,0.0034157729367593,0.000632583404879,3.5823096452569074,15.92241562417516,35.95427551055006,29.95622221050353
1.02,31.22215650132669,131.01046460995286,21.288367077734687,3.286262787001434,1.4406304867069988,24.95681894362833,-0.4158254941100145,2.4322128797830795,284.59063161540416,35.98212851284611,15.3264017865013,69.90018263353141,0.1205389142135689,113.82836214338649,791.3989681063927,15.288,0.0,1.48286131218375,0.1057639160016038,9.958721156863625e-08,-0.0069111856385794,0.0035161205284856,0.0006587312789891,3.587849336478539,15.81806071545718,36.20839837716597,25.07850438361866
1.03,31.22215596377431,131.01046609637476,21.61982318244443,3.294786249528553,1.4270043120754758,20.428088079441245,-0.4221384616255521,2.409607792394101,247.30469339049705,36.26660138003204,15.449359596008517,69.89616006125131,0.1260913916364595,113.83427550937228,803.9363585693721,15.288,0.0,1.4866856095255088,0.1066004788218532,1.0369787299581033e-07,-0.0071440642661682,0.0036178345207369,0.0006862893543563,3.590224582274321,15.703124961014396,36.490731520018855,20.574041731642314
1.04,31.22215542237732,131.01046759390923,21.95362360628235,3.305664765889321,1.4146730849787936,32.36723955731012,-0.428144668237472,2.3874619488551505,345.46563688072297,36.520049321973694,15.561541296004531,69.89200221374692,0.1318009188308733,113.84035627148614,815.1860503774894,15.288,0.0,1.490488096655786,0.1073458570773653,1.0792953649148054e-07,-0.007382925677847,0.0037209126146013,0.0007141689730501,3.595343980032948,15.602558274986018,36.74224307289139,32.45799560931748
1.05,31.22215487685634,131.01046910331195,22.289985771405902,3.314000971696549,1.4015241684012243,19.600671315583103,-0.4344903227864593,2.364326715972563,240.45625879819983,36.79624616790307,15.681461520451183,69.88770552379572,0.1376694332522993,113.84660651333964,827.5362531650211,15.288,0.0,1.4942708718452975,0.1081581117240726,1.122840488088321e-07,-0.0076281274547184,0.0038254717487708,0.0007434444982469,3.5978717842342136,15.493926914185966,37.01637511554366,19.747535002677647
1.06,31.22215432744448,131.01047062395466,22.62873407498595,3.3201237735097178,1.387719167097256,27.84286803136868,-0.4411472630037836,2.340244391085824,308.17968365593924,37.09202859851362,15.808040170302304,69.88326639572499,0.143698938510543,113.85302838065252,840.8664766630324,15.288,0.0,1.498032341789349,0.1090279451481899,1.1676389808575489e-07,-0.0078795651983233,0.0039314306139136,0.0007740977478748,3.598170410812595,15.378859186167263,37.30998970397654,27.94452817511644
1.07,31.22215377402857,131.0104721561441,22.969958545004857,3.330405226006788,1.3759107439294167,32.755898355270524,-0.4472380194880175,2.3172267103149906,348.5093681440308,37.33628761195469,15.916770756645167,69.87868110917934,0.1498914808276165,113.85962406812936,851.9495918902088,15.288,0.0,1.5017746723219831,0.1097463402844624,1.2137115489506436e-07,-0.0081374988276417,0.0040388624851141,0.0008046755449801,3.6031370608733706,15.28576623674904,37.55239439405251,32.840804474523566
1.08,31.222153216509955,131.01047370014695,23.313737628533048,3.339473345004273,1.3638382235384547,22.10940762216011,-0.4534953998304502,2.2935980328721937,261.00157857466235,37.58874737121522,16.02822972242358,69.87394594249865,0.1562490327871389,113.86639569308755,863.4814221861424,15.288,0.0,1.5054981085166064,0.1104888495175339,1.2610796713889325e-07,-0.0084021188263043,0.0041478080487298,0.0008364328136836,3.606941930482552,15.190487321700372,37.80295834822824,22.232682146265983
1.09,31.22215265515858,131.01047525523543,23.65986750968644,3.343460349581285,1.3499464290330745,20.351762416062616,-0.4604737436781592,2.268042680878335,246.54375332474407,37.89339225186687,16.15759210096232,69.86905710078993,0.1627735723857688,113.87334537926796,877.5054520947059,15.288,0.0,1.5092004665755885,0.111384761683095,1.3097698508432885e-07,-0.0086732546098163,0.0042581599572213,0.0008703932845898,3.6054144571943945,15.07616742682569,38.10542172279719,20.48292672229146
1.1,31.22215209004924,131.01047682120847,24.00829399025944,3.34965228318014,1.3372005112288408,40.6527569387204,-0.4671519019452154,2.242939286209213,413.1890617385841,38.16831132512004,16.276620975250335,69.86401072793393,0.1694670788301871,113.88047525227311,890.254565444296,15.288,0.0,1.5128824763384157,0.1121933066521529,1.3598052653591264e-07,-0.0089509791740529,0.004369912830692,0.0009047506592303,3.606416216015545,14.97473839953858,38.37833922241863,40.71726481800799
1.11,31.22215152078825,131.01047839912763,24.359321057822616,3.360590161726923,1.3265668879581736,29.813679538606987,-0.4731415026512023,2.2192364876924646,324.1593910376397,38.38386013853157,16.37507420557393,69.85880287028711,0.1763315566420469,113.88778746688986,900.3077122002961,15.288,0.0,1.5165476487376384,0.1128273455298529,1.4112032887805072e-07,-0.0092358451649033,0.0044832511176773,0.0009387848313487,3.6126620932830407,14.8968392946742,38.59221816146772,29.899905703874545
1.12,31.22215094743653,131.01047998882785,24.71290448268983,3.3618879896613048,1.3123641161286403,11.364124173400164,-0.4805449743064552,2.1919038473402046,172.73281794065943,38.70431649095545,16.50962742787446,69.85342954181553,0.1833689437911444,113.8952841097124,915.3722205004276,15.288,0.0,1.5201943971849388,0.1137697641499571,1.4639888514377886e-07,-0.0095278703269576,0.0045981411682886,0.0009765202685903,3.6086858205669614,14.780698292739062,38.91044413926959,11.583552312515101
1.13,31.22215037057328,131.01048158874923,25.068604836934448,3.368028346946455,1.300288210147212,35.11162381794913,-0.4872462526935504,2.165998786431385,367.5328077900705,38.96453066436808,16.623317183917322,69.84788661691324,0.1905813412478784,113.90296743297702,927.6902323475888,15.288,0.0,1.5238203178008076,0.1145351128873807,1.518194273722653e-07,-0.009826581184643,0.0047143621180777,0.001013871882447,3.6100438251011617,14.688228386454307,39.16876192681201,35.18174365756704
1.14,31.222149789549377,131.01048320063927,25.426920239233024,3.3775301713847488,1.289709771816278,19.53026559389669,-0.4934383160027103,2.141092336036496,239.69531773195544,39.18045577317789,16.72162155425714,69.84217002884273,0.1979706232395355,113.91083945822328,937.9681779249754,15.288,0.0,1.5274302095934666,0.1151702842206635,1.573832221654593e-07,-0.0101328335100059,0.0048322087137882,0.0010512272875867,3.615125742548112,14.612784604346798,39.38302580282775,19.653473787889983
1.15,31.22214920484057,131.01048482321565,25.78748971832516,3.3771820897835028,1.2755903577802103,19.25365384125816,-0.5011312429442027,2.1122464826395726,237.41251153546767,39.50569182758668,16.857586919694775,69.83627564275865,0.2055386474988047,113.91890218998532,953.5718857284312,15.288,0.0,1.5310197151689786,0.1161267826138524,1.630934909947022e-07,-0.0104461447623604,0.0049514563702391,0.0010926898390575,3.609792897825451,14.498952700913785,39.7060445405962,19.375652349406796
1.16,31.22214861658192,131.0104864561151,26.150213275066328,3.387086007685668,1.265544714402364,50.07867323643983,-0.5072542710126157,2.0870156892302627,490.0437743845894,39.70642640200022,16.950476592510284,69.8301991727835,0.2132874268852803,113.92715779232395,963.2534366573784,15.288,0.0,1.5345903643274168,0.1167173186665602,1.689527230181385e-07,-0.010766560439645,0.0050720887538314,0.0011318890166403,3.6155343804189024,14.430544167448767,39.90520153701167,50.12470902164589
1.17,31.22214802391922,131.0104881016332,26.51574368521125,3.3916664535460663,1.253697844859007,9.044212533058548,-0.5141933178177724,2.059510265486843,153.70937929486794,39.96381539154817,17.06283466740152,69.82393646542468,0.2212187466008601,113.93560819081684,975.7478474877516,15.288,0.0,1.538146858293172,0.1174744000091782,1.7496185343436233e-07,-0.0110952056627006,0.0051944877600231,0.0011739594944409,3.61570508277018,14.34285920153602,40.16073007433405,9.2899815739789
1.18,31.22214742797797,131.0104897567419,26.8832258759608,3.3891840401080247,1.2394612132367224,24.46239627324177,-0.5222645893106167,2.028876001821204,280.02501822196746,40.29999848941888,17.202359144485406,69.81748306046836,0.2293345346681172,113.94425546989903,992.1982175696578,15.288,0.0,1.5416815641104076,0.1184631079539386,1.8112544446471562e-07,-0.0114307670971593,0.0053181267732935,0.0012195957061946,3.6084678580125855,14.229023433927802,40.494677416611566,24.551943498654573
1.19,31.22214682825096,131.01049142280408,27.25304865677478,3.4014299605360283,1.2307904562844405,42.584583052254224,-0.5279825435379675,2.0039269950604406,428.4078130529292,40.456447375842224,17.279672039287426,69.81083448801047,0.2376367447299195,113.95310173529496,999.8812869307928,15.288,0.0,1.545200659835458,0.1189234907071307,1.874447521297644e-07,-0.0117741391521117,0.0054433012814451,0.0012610635109851,3.61701407806792,14.177782715202222,40.64976462017064,42.63497628358846
1.2,31.222146224300587,131.0104931009918,27.62554597237589,3.4013214122901303,1.217820921634002,4.58164406338387,-0.5356843940495363,1.9736657101812725,117.1843741360236,40.75426047052556,17.405767548268003,69.80398644912741,0.246127049199434,113.96214879765084,1014.620066957792,15.288,0.0,1.5487000857077546,0.1197994289085994,1.939215408632992e-07,-0.0121259082626169,0.0055701815836269,0.0013082532036865,3.612524393591812,14.07911285800656,40.94554093020429,5.017347549165219
1.21,31.222145617256043,131.01049478827127,27.99986196988804,3.401572157677597,1.2051804791285283,34.23522202465413,-0.5433448200071704,1.9432093939524104,359.92343213200894,41.0434670252881,17.528832801676312,69.7969342595393,0.2548074057643461,113.9713987713241,1029.034359922409,15.288,0.0,1.552176609841514,0.120650077441346,2.005605482907219e-07,-0.0124847220818739,0.0056982448574809,0.0013564750622227,3.60852410496665,13.984514934548097,41.23276237275706,34.294630970744336
1.22,31.22214500625662,131.01049648695098,28.37665234576472,3.41202630775634,1.1963146742982596,24.85012306740392,-0.5492993247652231,1.916900991109474,283.0687504825761,41.20436328457993,17.607413555677685,69.7896733654865,0.2636795691330139,113.98085355798536,1037.0805585040048,15.288,0.0,1.5556388569501975,0.1211235580663957,2.07362221031967e-07,-0.0128519601078796,0.0058279470060941,0.0014017990204626,3.615439126201551,13.933096604974356,41.39226630049317,24.929999109968385
