Time,Latitude,Longitude,Altitude,Angle of Attack,Angle of Sideslip,X-Acceleration,Y-Acceleration,Z-Acceleration,Thrust,True Velocity,Ground Velocity,Pitch,Roll,Yaw,Dynamic Pressure,cp,parachute_deploy_gain,Wind Speed,Mach,omega_x,omega_y,omega_z,Cmq,Angle of Attack(total),Angle of Attack(gust),True Velocity(gust),Acceleration
0.0,31.222216000000007,131.010392,3.000000004412624,0.0,0.0,0.0,0.0,0.0,2.2828121974499247,0.0,0.0,71.99999999612658,-1.0292491154817412e-14,119.99999999354436,0.0,15.288,0,0.0,0.0,0.0,0.0,0.0,-0.0,0.0,90.0,0.0,0.0
0.01,31.22221599999862,131.01039200000284,3.0000009727369523,0.0,0.0,0.0,0.0,0.0,34.24218696174923,5.916279387578309e-11,5.734623670548936e-11,71.99999999613168,-5.86671995824671e-13,119.9999999935449,2.1432944861733093e-21,15.288,0,0.0,1.7386402909615473e-13,-3.4220131069073734e-19,7.115076756936125e-19,5.488773498207866e-19,-1.1574302492039043e-31,0.0,89.99999999962336,5.916279387578309e-11,0.0
0.02,31.22221599999738,131.01039200000537,3.0000018317022668,0.0,0.0,0.0,0.0,0.0,25.871876237766408,1.2265415415436536e-10,1.1895038237325684e-10,71.9999999961369,-1.1836364828043265e-12,119.99999999354544,9.211895886571454e-21,15.288,0,0.0,3.6044858651615574e-13,-6.979551485375437e-19,1.4162390878091906e-18,1.0909784360635388e-18,-4.776231873571785e-31,0.0,89.99999999921916,1.2265415415436536e-10,0.0
0.03,31.22221599921969,131.01039200159065,3.0001883335529382,18.80143492628821,-0.0001350810307892,10.931161642028636,-1.75114298675875e-05,3.026590975169265,180.34219359854663,0.0798232026864394,0.0478175828508887,71.99999999765336,-5.341802909786072e-12,119.99999999436793,0.0039016003969354,15.288,0,0.0,0.0002345795854893,3.788270153300133e-17,-7.771883375645477e-10,1.1422790048099072e-11,1.7057759223764537e-13,18.80143492675591,89.51882325913425,0.079801984207741,11.342422482672777
0.04,31.222215995131297,131.01039200995308,3.001692634342189,9.19442604083399,-4.49173898918486e-05,52.29595764159784,6.445392950801871e-06,3.026413589912948,548.6359724538078,0.3504174083926908,0.1601447499964056,72.00000000319055,-3.111420077280171e-11,119.99999999870242,0.0751892535633216,15.288,0,0.0,0.0010297854387864,2.0082066977226968e-15,-1.520937588847922e-08,2.5623342884322286e-11,1.4654248781413086e-11,9.19442604094277,87.798916624545,0.3504103527855857,52.383455068075136
0.05,31.222215983575865,131.01039203366796,3.0074067499493786,5.158590039700252,1.707592688632746e-06,76.26884281015512,5.843947534199429e-05,3.0258124765658088,761.6984298824644,0.9592973585397016,0.3772700771701255,72.0000000004862,-1.3608731808076822e-10,120.0000000109612,0.5634958029902841,15.288,0,0.0,0.0028191251099456,2.086299069701397e-14,-1.0551247853743037e-07,3.973493515691201e-11,2.783064866637575e-10,5.158590039700515,83.94063169874748,0.959297626767734,76.32884071402438
0.06,31.222215961742712,131.0103920785344,3.019291017943491,4.109521257467909,3.140103977270004e-05,57.06876634333886,0.0001151069734147,3.024834864051463,590.4875390737208,1.6257536642597354,0.6118982818704327,71.99999992547217,-3.5903296759057166e-10,120.00000003412836,1.6184272268450337,15.288,0,0.0,0.0047776672697797,1.0694899894620088e-13,-3.741090980393931e-07,5.521401959501359e-11,1.6723176417636091e-09,4.109521257587776,79.78719176344794,1.6257585967235286,57.148873286519276
0.07,31.222215929936205,131.01039214392435,3.0371334573469446,3.649087515174788,5.707077112564807e-05,86.89643797254193,0.0001728541558773,3.0234947746384675,855.2937749779139,2.3057260079826607,0.8506307413593818,71.99999965378231,-6.907496536790437e-10,120.00000006788592,3.255354923652711,15.288,0,0.0,0.0067759305364855,3.495199904512709e-13,-9.036515915819006e-07,7.594816279105379e-11,5.728932851326001e-09,3.6490875156204896,75.6601668283889,2.305734972638426,86.94902215090157
0.08,31.222215886364623,131.01039223353447,3.0621840248716574,3.4254446680114707,8.413075603463509e-05,17.831756866644035,0.0002285946601282,3.021841001032126,241.2171988638848,2.961944911520492,1.0819695676346892,71.99999900671328,-1.141745983122182e-09,120.00000011415082,5.371998197385977,15.288,0,0.0,0.0087043901031071,8.800530155962314e-13,-1.829098470920821e-06,1.0943386634701918e-10,1.4896287129277132e-08,3.4254446690434226,71.81713637501419,2.9619581267487467,18.085991154451033
0.09,31.22221583454733,131.01039234010327,3.0919888289029,3.389560809024919,0.0001118726864415,54.09031716446879,0.0002748660999733,3.020060228038602,563.0937377043176,3.504225426410036,1.2780161667917422,71.99999774508822,-1.634190085504106e-09,120.00000016921716,7.519080503822694,15.288,0,0.0,0.0102980157586766,1.865782139518716e-12,-3.1503298654458527e-06,1.6284478329871028e-10,3.03536411425607e-08,3.389560810868955,68.76526501308032,3.504242999330529,54.17456206384468
0.1,31.22221577423132,131.0103924641528,3.1267248829165366,3.4447939461814814,0.0001419149103147,51.372195336549765,0.0003131602029306,3.0182021883815127,538.7437595981919,3.950569597142709,1.4443465951180965,71.99999562056465,-2.1287748602259068e-09,120.00000023339832,9.55649523509932,15.288,0,0.0,0.0116097108366932,3.485956000178229e-12,-4.949356763187612e-06,2.4573266549165286e-10,5.3761299442583966e-08,3.444793949101151,66.34639928474206,3.9505918890846927,51.460781166288626
0.11,31.222215706113143,131.01039260424562,3.165907002780892,3.4691423802630394,0.0001702373452339,40.591037561894986,0.0003534470100582,3.016051659024047,442.8656393052949,4.421478635995476,1.6182620895289603,71.99999235067894,-2.5564479031457968e-09,120.00000030601664,11.970509656144712,15.288,0,0.0,0.0129935974697161,5.942887149865172e-12,-7.273722517324353e-06,3.67769289312894e-10,8.842679949465076e-08,3.4691423844348632,63.88798785789768,4.421505376815134,40.70293476011277
0.12,31.222215630588888,131.0103927595646,3.2092596514826863,3.4852659299808075,0.0001974376474727,44.30042894095728,0.000394069215595,3.013641598889868,475.58594813540446,4.896982486381051,1.793579340340896,71.99998761802138,-2.8337988279882726e-09,120.00000038673312,14.683611096353944,15.288,0,0.0,0.0143909889875706,9.464337642181618e-12,-1.017558359402848e-05,5.395790443954697e-10,1.3700793350599625e-07,3.4852659355662303,61.5068242157714,4.897013499814194,44.40281567867803
0.13,31.222215548046687,131.0103929293088,3.256512891171917,3.5606043721293616,0.0002276507019012,48.86766833507025,0.0004268800875964,3.0112558910133567,515.9156326236895,5.278566579338586,1.939796541405244,71.99998107389406,-2.8573058577484587e-09,120.00000047523812,17.061052093156064,15.288,0,0.0,0.0155123760833565,1.4300406003001044e-11,-1.3705268062305584e-05,7.724776992181392e-10,1.989112774124932e-07,3.560604379397528,59.67313531776262,5.27860233862722,48.960358155653
0.14,31.222215458587108,131.01039311327068,3.30759734332425,3.6000732663755977,0.0002555702913645,45.540290862247225,0.0004629468001456,3.0085404980032777,486.2390860568404,5.70011779273801,2.098362647205908,71.99997235012626,-2.508533681468686e-09,120.00000057154703,19.894788765881632,15.288,0,0.0,0.0167512184495524,2.071534240530911e-11,-1.7917736259613292e-05,1.0787346240473087e-09,2.8081526258393346e-07,3.6000732754351943,57.72385750323359,5.700157937625502,45.639559681930805
0.15,31.222215362317904,131.01039331122794,3.3624387479639086,3.651605404442164,0.0002842753491325,44.01308509501,0.0004965057129938,3.005703619811542,472.54218587214,6.091938849578711,2.2476968067377374,71.99996103728932,-1.6446954747148112e-09,120.00000067569304,22.723773683610247,15.288,0,0.0,0.0179026934683374,2.9002783512213203e-11,-2.287326399669318e-05,1.47199345427166e-09,3.831202693354572e-07,3.651605415492516,55.98561718911576,6.091983503446133,44.115597174664394
0.16,31.22221525912812,131.01039352340948,3.421115382839859,3.67540086436193,0.0003108411545024,34.83804992586084,0.0005330990866742,3.002517946501868,391.1218908297564,6.521183188362317,2.4085903880902046,71.99994669525161,-1.0153513453738144e-10,120.00000078796704,26.03872642002185,15.288,0,0.0,0.019164148528834,3.9478358970291335e-11,-2.864207894220033e-05,1.9677461746207517e-09,5.135466997084602e-07,3.6754008774883777,54.15946979122355,6.521232015176687,34.96719658394182
0.17,31.2222151493826,131.01039374906244,3.4833737923187487,3.7139589864597298,0.0003384978477213,43.96471427482637,0.0005668629535037,2.999235483723449,471.78125980632376,6.916861975403744,2.559060925010733,71.99992884100092,2.3206494032971838e-09,120.0000009081849,29.29426197817256,15.288,0,0.0,0.0203269651395979,5.248754693205839e-11,-3.5267097947693114e-05,2.580363454062817e-09,6.706952682968329e-07,3.713959001863866,52.549031795895466,6.916915146521327,44.06689817851128
0.18,31.22221503253009,131.01039398932429,3.549599475912623,3.7380363034619775,0.0003650282082698,36.67395661481795,0.0006021794701355,2.9956556354306425,407.10156721191447,7.332140201215607,2.71556808256092,71.99990696207136,5.837017536380516e-09,120.00000103716444,32.917216366714264,15.288,0,0.0,0.0215473823438242,6.839750892601699e-11,-4.285557247677198e-05,3.331016495775474e-09,8.639362741436378e-07,3.738036321259578,50.93050624815799,7.332197539712479,36.796100973258795
0.19,31.22221490871209,131.01039424390297,3.619694897703461,3.747799769666444,0.0003901520189829,41.42208371271829,0.0006393759928961,2.991742733214697,448.9531328318269,7.771071983754382,2.879366399937307,71.99988049019642,1.0709144790974043e-08,120.00000117502664,36.97605053227239,15.288,0,0.0,0.0228373144884866,8.761416506509219e-11,-5.146771415177372e-05,4.238406957677133e-09,1.0996552116864756e-06,3.747799789945131,49.29705748437159,7.771133268690212,41.529983675580546
0.2,31.22221477769685,131.01039451327668,3.693822889232993,3.7700519460961166,0.0004166800650969,37.99697972290605,0.0006740224661302,2.987733789228414,418.51563019916136,8.179966026035371,3.0338260708461373,71.99984881140107,1.723179577184912e-08,120.0000013223286,40.969302182777255,15.288,0,0.0,0.024038975990988,1.1057590044953188e-10,-6.120032215177249e-05,5.3263847350253015e-09,1.376394225587184e-06,3.7700519690893857,47.8457752505109,8.180031477986942,38.11426270718793
0.21,31.222214639876928,131.01039479663547,3.771710975053407,3.7926098867321474,0.0004432924407074,36.46301043881366,0.0007080907240332,2.983530483977461,404.8187610144644,8.582757448615462,3.1863584283669346,71.99981127559042,2.5745201416596626e-08,120.00000147900325,45.103059028532826,15.288,0,0.0,0.0252227064089584,1.3774582723633048e-10,-7.20875523136271e-05,6.61341033873124e-09,1.7010673350603349e-06,3.792609912601061,46.47936953648762,8.582827080829217,36.584868250565684
0.22,31.22221449507626,131.01039509434258,3.8534832466471007,3.782921298925821,0.0004660920499522,44.14577847155813,0.0007479176313898,2.978724032883548,472.5421858721365,9.056569122268344,3.360845972992861,71.99976720416048,3.661811567390422e-08,120.00000164562512,50.21995530074818,15.288,0,0.0,0.0266151520780326,1.6960703048385348e-10,-8.421592474264931e-05,8.124635526119773e-09,2.0969540034515424e-06,3.7829213275976334,44.9464484092354,9.056642335836344,44.24615863872642
0.23,31.22221434283448,131.01039540734791,3.9394622486964206,3.813874679301352,0.0004940771488601,36.66675459308932,0.000779455230549,2.974212905336642,406.3406421461021,9.430647902846331,3.5044030163419806,71.99971583979395,5.0272885112871524e-08,120.00000182313076,54.45382429059888,15.288,0,0.0,0.0277145095638672,2.0669790509245914e-10,-9.77285871729516e-05,9.894576563683824e-09,2.5339062472561444e-06,3.813874711257219,43.79476959007253,9.430725512303388,36.78718303164376
0.24,31.222214184153326,131.01039573358457,4.028950821673608,3.829256049377765,0.0005200487408944,37.802126339316736,0.0008136255607606,2.9692962675112065,416.2328240017114,9.837806876534357,3.658163422426286,71.9996564062533,6.718950080713476e-08,120.0000020109434,59.25679777340223,15.288,0,0.0,0.0289110855155543,2.4956955046738006e-10,-0.0001125744417092,1.1934277804843484e-08,3.0448209172448607e-06,3.829256084638984,42.59361542722471,9.83788856559955,37.91856374864305
0.25,31.22221401888584,131.01039607335582,4.122052964664892,3.851417709838087,0.0005469594058717,38.85163035360012,0.0008459008130282,2.964283881833675,425.36408079150686,10.22297576958679,3.8050691648373967,71.99958811418384,8.786880969336211e-08,120.00000220974424,63.98709205399403,15.288,0,0.0,0.0300430411774988,2.987811646313829e-10,-0.0001288461362054,1.4273117985167728e-08,3.621333387698252e-06,3.8514177486178034,41.50703126619192,10.223061685769354,38.96455005232871
0.26,31.222213847358866,131.0103964259872,4.218542267117083,3.8780574625554745,0.0005745172425185,42.3164797140743,0.0008766626387865,2.959162938653076,455.8015834241788,10.590779679138215,3.946551912391076,71.99951013710364,1.1286401474734325e-07,120.00000241975916,68.67355887153568,15.288,0,0.0,0.0311239685467471,3.5491769188178554e-10,-0.0001465721578858,1.6932703957058654e-08,4.267712643344226e-06,3.8780575050466,40.51245375834074,10.590869924095635,42.41981967733593
0.27,31.22221366913008,131.0103967923915,4.318728802515264,3.886188503202341,0.0005994342651313,38.70936050721014,0.0009111181036949,2.953518013741325,423.84219965987256,11.004860953238978,4.102320296019413,71.99942161756776,1.4276417094868828e-07,120.0000026420792,74.14786134434608,15.288,0,0.0,0.0323408987462391,4.1858405402174807e-10,-0.0001658847815307,1.995072923688136e-08,5.018832267232506e-06,3.886188549362022,39.43841359495857,11.00495511215316,38.8218734782956
0.28,31.22221348431185,131.01039717233687,4.422535913956003,3.90556090261878,0.0006261175699806,44.68030766832924,0.0009425767186621,2.947879457547137,476.3468732012221,11.38358114165448,4.247086834352694,71.999321619057,1.7823531611327881e-07,120.000002877279,79.33831935330025,15.288,0,0.0,0.033453914386159,4.904408325040897e-10,-0.0001868529238516,2.3357766479368094e-08,5.847713054408178e-06,3.9055609527288775,38.49894431917428,11.383679491972384,44.77744842575601
0.29,31.222213292835256,131.0103975659655,4.530013412817602,3.9242599519377537,0.0006528240665589,35.802573724660256,0.0009737210635801,2.942037024315898,397.97031042211177,11.759725774384751,4.391004157029451,71.99920917567837,2.1999186079018322e-07,120.00000312617878,84.66717879828003,15.288,0,0.0,0.0345593650464213,5.711677680739745e-10,-0.0002095620322847,2.7188189988316943e-08,6.77505090435382e-06,3.9242600061534456,37.60352534239979,11.759828319749328,35.92324968749781
0.3,31.222213095024976,131.0103979726075,4.64093665799555,3.936939025755682,0.0006785438093183,33.570228713727204,0.0010059102294455,2.93586442972183,378.1859457108711,12.149968255527943,4.539237002744259,71.99908328532703,2.6880857935396905e-07,120.00000338923812,90.3787563598417,15.288,0,0.0,0.0357062504417728,6.614698865958865e-10,-0.0002340353597042,3.1467140861055e-08,7.817263716758327e-06,3.9369390841381695,36.71173884615234,12.150074840940263,33.698361337808635
0.31,31.22221289105846,131.01039839189684,4.755183729044857,3.9598342215431432,0.0007060286581592,35.396825578217346,0.0010350810412898,2.9297385597941448,394.1656220930212,12.504537499407316,4.6763673222047455,71.99894291513503,3.255120771695107e-07,120.00000366712923,95.72967338626896,15.288,0,0.0,0.0367483036680869,7.620720834468404e-10,-0.0002603234137215,3.622454560346964e-08,8.948994505138873e-06,3.9598342843844345,35.934338386209795,12.504648402129598,35.5178635353378
0.32,31.222212681031937,131.01039882363492,4.872689374180126,3.985461429033668,0.0007340760463279,38.52097867048992,0.0010630242168685,2.9235095146848846,421.55939346242695,12.84534566718622,4.809181081594425,71.99878701464397,3.909756427278764e-07,120.0000039606604,101.01782231644016,15.288,0,0.0,0.0377499198995686,8.737098716736534e-10,-0.0002884807530145,4.1491545539590986e-08,1.0187112828155184e-05,3.98546149652875,35.21473736963424,12.845460975581933,38.631757748577954
0.33,31.22221246496604,131.01039926777932,4.9934410812554,4.010606629086,0.0007621365968788,38.18822026147908,0.0010905599149574,2.917102431053817,418.5156301991682,13.18247167592885,4.940798912752974,71.99861449732019,4.661299779655886e-07,120.000004270781,106.38859400029033,15.288,0,0.0,0.0387407190563976,9.971421990244511e-10,-0.0003185760672934,4.7302669734505256e-08,1.154498667827874e-05,4.010606701382261,34.52805863348922,13.182591392065536,38.299473293007864
0.34,31.222212242662028,131.01039972474007,5.117579377337869,4.019339771238816,0.0007871574969313,29.898022638335373,0.0011220389395318,2.910051232417875,345.46563688075645,13.569536737955724,5.0878303926024735,71.99842423285973,5.519675040347761e-07,120.0000045987411,112.72655675097128,15.288,0,0.0,0.0398782837956187,1.1331556132162459e-09,-0.0003507224668667,5.37022358302301e-08,1.308298593306914e-05,4.019339848191799,33.76700548046532,13.5696603843662,30.039310197084795
0.35,31.22221201433324,131.01040019407705,5.2449575244483055,4.033762873683395,0.000813261106463,32.76415525156106,0.0011515840876071,2.902959820469776,370.5765700527033,13.934300103976534,5.227895396154902,71.99821502296155,6.495674834876441e-07,120.000004945438,118.8669740701126,15.288,0,0.0,0.040950312688979,1.2825853697215452e-09,-0.0003849609961885,6.072234695821837e-08,1.4746020857580124e-05,4.033762955530055,33.07785186209504,13.934427850732408,32.89250745069162
0.36,31.22221177990305,131.01040067594835,5.375631006350063,4.051723629010647,0.0008401329464575,37.01692984301412,0.0011797030485285,2.8957873473716007,407.8625232777193,14.282998147928636,5.362923567977223,71.9979856440668,7.600645476620651e-07,120.00000531213882,124.88900300695136,15.288,0,0.0,0.0419751331662584,1.4462801652534363e-09,-0.0004213876232777,6.84067806399068e-08,1.654507199147348e-05,4.051723715967022,32.44322602189087,14.283130115703262,37.13002398000203
0.37,31.222211539445663,131.01040117020102,5.509550188388412,4.071639898917391,0.0008674922629137,35.12417761390579,0.0012067983861697,2.88849906286036,391.1218908297666,14.620581431527652,5.494447309446232,71.99773482653193,8.846681943540367e-07,120.00000570002652,130.86067091914967,15.288,0,0.0,0.0429672939311924,1.6251202388969355e-09,-0.0004600660652957,7.679415042686734e-08,1.849041957573993e-05,4.071639991174516,31.85023865502424,14.620717696893658,35.24274792557624
0.38,31.222211292895075,131.01040167697127,5.646763233102716,4.08264881385344,0.0008930259828975,36.695642158537446,0.0012360471443664,2.880711738179021,404.8187610144602,14.986392916850402,5.634654729559426,71.99746126698146,1.0246533537040716e-06,120.0000061105033,137.4891296153862,15.288,0,0.0,0.0440424171304414,1.8200057922063743e-09,-0.0005010869196581,8.592980519823866e-08,2.0642694281337543e-05,4.082648911356968,31.228847973200924,14.986533193043764,36.808540518115166
0.39,31.22221104018777,131.0104021963902,5.787316652586672,4.096641430700089,0.0009192713382325,31.335681548387896,0.0012640110027448,2.872831219844713,357.64062493382744,15.337978856701952,5.770390286512262,71.99716358743511,1.1813915463769678e-06,120.00000654506955,144.01394309468844,15.288,0,0.0,0.0450757388736732,2.031886352449547e-09,-0.00054455673306,9.586443829735616e-08,2.295945663566148e-05,4.096641533664766,30.65298398882095,15.338123255506089,31.4670954954126
0.4,31.222210781536543,131.01040272801887,5.931064331106764,4.109028969993624,0.0009451871856381,29.95928076777898,0.0012920492774571,2.8646905607053603,345.465636880754,15.692185018814769,5.906873567965718,71.99684037970908,1.3563276523471372e-06,120.00000700500496,150.74021066990193,15.288,0,0.0,0.0461167659598875,2.2617341782092324e-09,-0.0005905037520737,1.0663253249436129e-07,2.5471259834659164e-05,4.1090290785164525,30.09246700352443,15.692333488470696,30.095929256306363
0.41,31.222210517064383,131.01040327160345,6.077922766619747,4.122888296344507,0.0009714525997821,33.78425365340317,0.0013192264430821,2.85640971467756,378.94687077668647,16.03742529732769,6.0405139809190125,71.99649020751959,1.5509747261474075e-06,120.0000074917568,157.44375780268788,15.288,0,0.0,0.0471314487675864,2.5105374204052982e-09,-0.0006389770219162,1.1827345344180344e-07,2.816813594418537e-05,4.122888410595805,29.56469007160549,16.037577892745222,33.904791300285986
0.42,31.22221024682894,131.0104038270252,6.227854084363214,4.14444025865494,0.0009995884754813,38.04468161607466,0.0013435485656724,2.8482703202464488,416.2328240017114,16.348862540904037,6.163613566771559,71.99611159893284,1.766920641656551e-06,120.00000800692096,163.6157044470786,15.288,0,0.0,0.0480467946810589,2.779304965995011e-09,-0.0006900467934588,1.308321832549104e-07,3.100973487310896e-05,4.144440378988911,29.104646754454564,16.34901955589459,38.15115260238947
0.43,31.222209970843565,131.0104043942566,6.380851271439565,4.1618082623168045,0.0010268052928652,33.45815353250911,0.0013687230309017,2.8397750580998298,375.9031395134336,16.67263197205097,6.290467308135904,71.99570306121484,2.005818691215035e-06,120.00000855220898,170.15779512382937,15.288,0,0.0,0.0489983878509763,3.0690566816849196e-09,-0.0007437862329608,1.443552931671376e-07,3.4086145072160934e-05,4.161808388761201,28.640125213458976,16.672793262249197,33.57845085853367
0.44,31.22220968892116,131.01040497368373,6.537047157143216,4.164954087655709,0.0010505545842624,30.86574023822051,0.0013980747538988,2.830419582421933,353.0750125389216,17.050421620730056,6.433992917638883,71.99526304125902,2.269416145406482e-06,120.00000912964636,177.9537948947602,15.288,0,0.0,0.050108743779844,3.380847125286677e-09,-0.0008003278134917,1.589055036683518e-07,3.750784460406397e-05,4.164954219916419,28.113519280259386,17.050586641458253,30.99524475496968
0.45,31.22220940081287,131.01040556582012,6.696617751072218,4.165241899529329,0.0010735835484822,35.912216710755274,0.0014280646808282,2.820677244966047,397.2093853562869,17.438293672974723,6.580571293039616,71.99478987454265,2.5595995397253085e-06,120.00000974147088,186.13940823302417,15.288,0,0.0,0.0512487363629523,3.7158016249566814e-09,-0.000859850913876,1.745604864109677e-07,4.121350642664912e-05,4.1652420376426775,27.591357195572936,17.43846231108416,36.02281959036367
0.46,31.222209106468902,131.0104061707686,6.859600379555308,4.174585124444534,0.0010989881252456,41.916816790010685,0.0014546917035209,2.811153314474766,449.7140588976434,17.786187321601275,6.714685486378061,71.99428180697711,2.8783880229668832e-06,120.0000103898448,193.6374175079873,15.288,0,0.0,0.0522712438446989,4.0751091178509895e-09,-0.0009224765531151,1.9138630415982226e-07,4.50966024037632e-05,4.1745852688465686,27.13985967570823,17.786359950252297,42.01097612387663
0.47,31.22220880579083,131.01040678873238,7.026066274755745,4.1823089530633855,0.0011240727220223,28.37640408484148,0.0014814747534716,2.801325368441072,331.0078106302534,18.138167428286582,6.849989708801916,71.99373704967608,3.2278903746588286e-06,120.00001107707628,201.37401505997488,15.288,0,0.0,0.0533057667609836,4.459978104761035e-09,-0.0009883252835099,2.094509673354327e-07,4.927107017839778e-05,4.182309103852639,26.69716826759888,18.13834399721685,28.514342615617974
0.48,31.222208499300592,131.0104074186346,7.195654207463586,4.189479568102716,0.0011490100608361,27.95074823096412,0.0015080719422187,2.7912412472910484,327.2031223011574,18.48995085190441,6.98515976370584,71.99315377257649,3.6103201777021456e-06,120.00001180491516,209.25751230436188,15.288,0,0.0,0.0543397174489847,4.8716620260348906e-09,-0.0010573190976925,2.2877013380347535e-07,5.373205427420879e-05,4.189479725385959,26.268461765425428,18.4901313379827,28.089773168283216
0.49,31.222208187201936,131.01040806005494,7.368224738812109,4.202723284133339,0.001175611380853,35.08821363242469,0.0015321405723077,2.781292092003844,389.60000969812296,18.812014261754847,7.111044804193205,71.99253015042137,4.027946338669921e-06,120.0000125755114,216.60722913930897,15.288,0,0.0,0.0552863302793499,5.311396446020465e-09,-0.0011294854492155,2.4938633613154685e-07,5.8398320167141767e-05,4.202723448262914,25.88860807032205,18.81219892635871,35.1982716047702
0.5,31.22220786953184,131.01040871291724,7.5437546994244835,4.220815778795054,0.0012036252596423,36.05491615971072,0.0015540388599792,2.7714444106710974,397.97031042210494,19.10875420627192,7.229005658018125,71.99186435180009,4.483102820610566e-06,120.00001339126192,223.4908652241728,15.288,0,0.0,0.0561585257949344,5.7804122391526605e-09,-0.0012048912160576,2.713531252030471e-07,6.327866493526626e-05,4.220815950099865,25.54902500917784,19.108943271285572,36.161276053538906
0.51,31.222207546379583,131.0104093770373,7.722184419225251,4.232567510615346,0.0012298790840397,27.54004661432325,0.0015777580800203,2.761017323676155,323.3984349720841,19.430597746636646,7.354673636736509,71.99115452520388,4.978202222778502e-06,120.00001425458936,231.07869697977367,15.288,0,0.0,0.0571045034845869,6.2799518101633574e-09,-0.0012835871653678,2.947201005874635e-07,6.854585242460463e-05,4.232567688976395,25.189423168613605,19.430790935591396,27.678103017910345
0.52,31.2222072175958,131.0104100525268,7.903531377144435,-11.291494676037203,-16.13752562029409,33.46611343905517,0.863836263245155,3.5679148708837607,372.0984511843415,19.17238690644833,7.488105609857983,71.9904144892478,-2.7177662492540645e-05,119.99998079044364,224.97403348989187,15.288,0,7.542872713571568,0.0563457639817835,6.790006835336313e-09,-0.0012242764365988,-0.000131504795676,6.450862242649446e-05,19.60917117923654,13.347260766675229,16.670892239471776,33.66685281298625
0.53,31.22220688219564,131.01041073994827,8.087906368023678,-11.049556839482188,-15.914592911471644,35.12908143087008,0.8862417138338715,3.579013489666104,386.5562464348624,19.476822096257617,7.624028841388721,71.98976324761375,-0.0004906658233044,119.99949377713337,232.17129913229488,15.288,0,7.571891716754298,0.0572405881899324,7.103233256678596e-09,-0.0010314584647832,-0.0004250618338936,5.521082608421202e-05,19.292566463089425,13.127324393048152,17.008984657299276,35.32204869640565
0.54,31.222206539962105,131.010411439533,8.275381710434761,-10.816208836566473,-15.69901445054273,30.87161229651093,0.9089232153267356,3.5901311125156563,349.2703242098436,19.779937239266506,7.759434557452335,71.98922350445014,-0.0014775476393337,119.99845640720666,239.44972208034383,15.288,0,7.600844150958282,0.0581315386496429,7.175187305338012e-09,-0.0008346948401894,-0.0007263403475274,4.5373180589564354e-05,18.986839658372052,12.913483867980297,17.344682259909465,31.09295142958445
0.55,31.22220619117472,131.0104121506695,8.465751234445207,-10.594069865950466,-15.49471039775392,32.70864847401304,0.9316057384569923,3.601087879730805,365.2500005919907,20.07621292439963,7.892523451595825,71.9887974444257,-0.0030011752769482,119.99685463761227,246.67217672882185,15.288,0,7.629694250566047,0.0590023941820936,7.000750719278849e-09,-0.0006342659207257,-0.0010350242941788,3.499385735826459e-05,18.696649513388,12.708182372737106,17.671868219673456,32.91946852800066
0.56,31.222205835818595,131.01041287335488,8.659014404547257,-10.384701390654737,-15.304238642404192,30.538372020826984,0.9540686806869704,3.6117455385377055,346.2265619465787,20.36136795331013,8.021917239402761,71.98848716340451,-0.0050747091504587,119.99467462824408,253.72451148695768,15.288,0,7.658440097473966,0.0598405726136665,6.574951614644744e-09,-0.000430154562829,-0.0013512331689402,2.406922316562829e-05,18.424960110686783,12.513025564289894,17.985868303555442,30.76600589230008
0.57,31.222205473955288,131.01041360742934,8.85511773223905,-10.17700554965092,-15.112497767696183,30.19706257929477,0.9772497758319072,3.6227095452944047,343.1828296833023,20.65428522834649,8.1537802884459,71.98829471661777,-0.0077113377863362,119.99190251043136,261.0722325889544,15.288,0,7.687067800799853,0.0607015693691468,5.892884923974284e-09,-0.0002224406252058,-0.001674943334543,1.2625444781331754e-05,18.15326327485594,12.318740968379483,18.307849343818397,30.42928901554841
0.58,31.222205105546355,131.0104143529395,9.054077549879567,-9.964373512685713,-14.910155547355432,39.708018475425405,1.0018375752994797,3.6344094096877777,426.1250058573153,20.96814075812049,8.29238604650767,71.98822214630424,-0.0109244075146297,119.98852425083535,269.06170652796203,15.288,0,7.715576254556016,0.0616241081932307,4.9496423897071805e-09,-1.110167819942382e-05,-0.0020062842834085,6.396798495437792e-07,17.87024152809791,12.119540827021751,18.652404064315466,39.88658097066273
0.59,31.22220473014925,131.01041511076463,9.256191322048096,-9.771351609692816,-14.731992248578184,32.217402911793926,1.0254409929669124,3.645325497396364,360.68438819711065,21.255349741820257,8.422281057701332,71.98827164165044,-0.0147281742662554,119.98452486132184,276.4777126532408,15.288,0,7.744008405170675,0.062468340604907,3.7399588183904865e-09,0.0002043283574117,-0.0023460624423906,-1.1934454773168067e-05,17.61798626823603,11.936889166290785,18.966667756541387,32.43918891700119
0.6,31.222204347972376,131.01041588044086,9.461303025251867,-9.565289470982425,-14.531696976264392,28.64837838292399,1.0513557534494873,3.6575329489506734,329.4859594986058,21.580498410776627,8.564423792552878,71.98844538945504,-0.0191371258733184,119.97988911054227,284.99550136914803,15.288,0,7.77233626082489,0.0634240819799274,2.258576921817953e-09,0.0004236124037376,-0.0026940242525891,-2.512044156006639e-05,17.340446100142362,11.742139461568646,19.32225836125836,28.90004290938264
0.61,31.22220395894838,131.01041666207328,9.669448798060673,-9.362516134632106,-14.332455922635484,33.54240742536439,1.078000314316785,3.670022629722321,372.0984511843297,21.911944229094047,8.708529758002507,71.98874560647302,-0.0241661399127603,119.97460135904772,293.8111079546004,15.288,0,7.800563691439814,0.0643983370547239,5.001320775571824e-10,0.0006468174843591,-0.0030503770906406,-3.8944946790583886e-05,17.065660043479845,11.549601151870766,19.68401326999968,33.7598022309
0.62,31.222203563181687,131.01041745541215,9.880544978927702,-9.193014104967,-14.178360012309996,41.6685166966441,1.101841264079411,3.6806128129601072,442.86563930529206,22.18209671120169,8.832760395491757,71.98917453520755,-0.0298304772400005,119.96864556570854,301.09446272489424,15.288,0,7.828689733475827,0.065192459762402,-1.540826990063332e-09,0.0008738789850044,-0.0034151258579666,-5.326397042461292e-05,16.846433930640274,11.386719441507712,19.97762573559261,41.845265545204306
0.63,31.22220316046401,131.01041826085597,10.094726907331095,-9.01958396064468,-14.015608303985008,23.689330268907035,1.1269924485722331,3.6918579514506193,286.11251274707894,22.47039972240423,8.962830098374969,71.98973425724813,-0.0361448896860018,119.96200622661948,308.9656824246675,15.288,0,7.856694627112992,0.0660399324926294,-3.869424294361864e-09,0.001104952724862,-0.0037886265734883,-6.822211983525761e-05,16.61801233756012,11.220085679437767,20.290723823523024,24.001756096214773
0.64,31.222202751394512,131.0104190771358,10.31156689760894,-8.837612699390132,-13.837114144406144,23.256934619755576,1.1541611657062418,3.7041727466934553,282.30782441796754,22.78959201633093,9.102806561100504,71.99042679818471,-0.0431243133305567,119.95466764754016,317.79913126901704,15.288,0,7.884587533320334,0.0669781943617429,-6.490803029097754e-09,0.0013393853327333,-0.0041699593540065,-8.386944340620743e-05,16.37199968360627,11.045187078088796,20.637129756319755,23.578337338356924
0.65,31.222202335938576,131.01041990429275,10.53107973801444,-8.67958385048875,-13.691505173467377,40.99884249254246,1.1791706908736823,3.7150139670481206,436.7781447787475,23.06115073704189,9.22738597836472,71.9912541862496,-0.0507834051164178,119.94661442261952,325.4111273403274,15.288,0,7.912298765416946,0.0677764683220333,-9.409893245951753e-09,0.0015772448387501,-0.0045593303456531,-9.993844935705244e-05,16.166350173184146,10.892415855576154,20.93090384626897,41.18369650750019
0.66,31.22220191355165,131.01042074342314,10.7536365003226,-8.520862855785573,-13.542165758164412,34.88962043829785,1.2051391920962091,3.726282099790863,383.51251517160017,23.343475788182545,9.355409824013536,71.99221831596668,-0.0591370027553772,119.93783096604106,333.4204342704919,15.288,0,7.9399175768915695,0.0686063907975164,-1.2631565355496908e-08,0.0018190708223324,-0.0049577123367424,-0.0001166697764144,15.957328049752482,10.73887763807173,21.23602770577076,35.1087332880017
0.67,31.222201484412853,131.0104215941257,10.979102642012924,-8.355205994849971,-13.379462496635863,24.055341341408383,1.233034605095826,3.738543120638588,289.1562440103425,23.65389863338593,9.492427465707657,71.99332123941277,-0.0682010175461602,119.9283005644338,342.339670888094,15.288,0,7.967445892249137,0.0695188992450832,-1.6161125538446415e-08,0.0020646540526373,-0.005364885545535,-0.0001341787857051,15.733536479436149,10.578518856574448,21.5713058336915,24.375326173282463
0.68,31.22220104868379,131.01042245603588,11.20735608250568,-8.196534754254241,-13.224697630335507,30.00655766210128,1.260896517411086,3.7506141252895504,340.8999924858462,23.9561602237888,9.626775902108948,71.99456507491838,-0.0779914029050842,119.91800645446732,351.1370572514728,15.288,0,7.994785187251207,0.0704074285289402,-2.0003817808821173e-08,0.002313832516534,-0.0057807000214098,-0.0001522907210267,15.52020835237924,10.424719999047248,21.897225589647785,30.26632566192087
0.69,31.22220060643337,131.010423328982,11.43833989630346,-8.051671844858806,-13.088681815323886,36.9232816382016,1.2875849336251863,3.7618329039665888,401.0140726853634,24.229971578051344,9.751960573820638,71.99595168300905,-0.0885239167180967,119.9069320912,359.20173308329805,15.288,0,8.022012511758941,0.0712123487986391,-2.416469462256896e-08,0.0025665127929969,-0.0062051154402132,-0.0001708484404835,15.330032152852253,10.284148092464196,22.191841440209235,37.136747147436324
0.7,31.222200157505103,131.0104242132605,11.672155270195471,-7.909399696921525,-12.954280617631754,30.979556013118337,1.3147360224374245,3.7731693780335087,349.27032420985284,24.505035578752825,9.877521820428663,71.9974830031199,-0.0998142406841056,119.89506100214292,367.39525045223047,15.288,0,8.049137292835164,0.0720209571260124,-2.8648643569273466e-08,0.0028228409688059,-0.0066384883301322,-0.0001900407251406,15.142688691451534,10.14608247822854,22.48747425372599,31.236168598820836
0.71,31.222199701941022,131.0104251087567,11.908764598949135,-7.763672933239426,-12.81205362676818,25.470098032643328,1.3433537286227923,3.785197258665175,301.33126406340574,24.798981119028948,10.009095223883255,71.99916083996058,-0.1118784781371149,119.8823762839626,376.25360606675343,15.288,0,8.076080327772917,0.0728850655151569,-3.346067012094744e-08,0.0030827425778374,-0.0070808149367452,-0.0002100226628934,14.947043931131576,10.004688295150125,22.803198357023103,25.78484460530396
0.72,31.222199239729065,131.0104260154678,12.148168148616374,-7.613607293845938,-12.660352240568525,31.16580447842692,1.3737493513828438,3.798083770489997,350.79220534145287,25.116401631939663,10.148128804512886,72.00098713302842,-0.1247331607372859,119.86886057794504,385.9382729588429,15.288,0,8.10290523151866,0.0738181747880198,-3.860586136418597e-08,0.00334622901369,-0.0075322342553378,-0.0002308862963123,14.741232164106655,9.858846694706228,23.143861754164508,31.42642194707536
0.73,31.22219877085136,131.0104269334024,12.390370014671667,-7.484163240729481,-12.53921972731982,39.404424176260605,1.4014317544608523,3.809247514951669,422.320318528234,25.378906943081688,10.269583794071163,72.00296388047114,-0.1383954800323897,119.85449583438272,394.03857179972994,15.288,0,8.12962674939706,0.074589892902551,-4.408947978574141e-08,0.0036133397268745,-0.0079929325734958,-0.0002519165417228,14.572117163933504,9.73359434547504,23.424936285414283,39.61291484169333
0.74,31.22219829522833,131.01042786270003,12.63541854222472,-7.351657017210451,-12.41096846103862,24.69176799288524,1.4305497689946252,3.8210726499270735,294.48281347105944,25.659249008877005,10.396708423312724,72.00509279300401,-0.1528820989531282,119.8392645701063,402.7824808534481,15.288,0,8.156210230060074,0.0754140409257017,-4.99164386208174e-08,0.0038840982177644,-0.0084630785606683,-0.0002737782237029,14.395489347627423,9.605376597685543,23.724948369806587,25.026595362774845
0.75,31.22219781322472,131.01042880257805,12.883050876074282,-7.218197227121421,-12.278940233728468,28.8139945216082,1.4607888714392796,3.8333654280286895,330.24688556441487,25.95145546260521,10.527573460103753,72.00737564067539,-0.1682099189929185,119.8231490481241,411.9986584157396,15.288,0,8.182617783580254,0.0762730659596713,-5.6091822376458254e-08,0.0041580705390808,-0.0089420570413848,-0.000296420340217,14.215266547312496,9.47628173888818,24.03741424129657,29.104550759683505
0.76,31.2221973247112,131.01042975328022,13.133350633993368,-7.093164103120154,-12.158532023226591,31.009571177419936,1.490276218362132,3.84506975697354,349.27032420986166,26.223577417723423,10.65200296701048,72.00981419366347,-0.1843958195670655,119.80613155341304,420.67412373043055,15.288,0,8.208903304478179,0.0770730682619326,-6.262040796658153e-08,0.0044354061693085,-0.0094302464922038,-0.0003194988681584,14.049363361987018,9.35588716210624,24.32802141398616,31.282566858403445
0.77,31.22219682961473,131.01043071493433,13.386362339565368,-6.971869857336092,-12.042240395938764,28.996800196529023,1.519877828096272,3.856677649758383,331.7687666960708,26.490443737704325,10.774730399882262,72.01241007537564,-0.2014569311066378,119.78819411827108,429.2693070520781,15.288,0,8.235069637760228,0.0778576307143532,-6.950698681614809e-08,0.004716166778098,-0.0099278825970836,-0.0003431719841092,13.888987696333146,9.239488681084374,24.61274891654998,29.291609937726367
0.78,31.222196327990897,131.0104316874017,13.642040611304155,-6.8478827171746905,-11.91940398349534,23.824868058352244,1.5509776463314064,3.8689525647064498,286.8734378128899,26.775085741108622,10.903074486936696,72.01516487325648,-0.2194105500824673,119.7693186032408,438.53316972816697,15.288,0,8.261084340870777,0.078694444384148,-7.675638785888224e-08,0.0050002441627581,-0.010434908609401,-0.0003677433738504,13.72175678010953,9.120437434938244,24.916265712403277,24.18674561831875
0.79,31.22219581991983,131.0104326704923,13.900322783503563,-6.723452200816017,-11.793712399508312,33.83026700064166,1.583165343964434,3.881653769662967,373.6203323159534,27.070132242316152,11.034676790044829,72.01808028314218,-0.2382743050864116,119.74948651511548,448.24008341708486,15.288,0,8.286931386485039,0.0795618450858565,-8.437349399082257e-08,0.0052875282654042,-0.010951261704851,-0.000393147104716,13.551960383844117,9.001040441371867,25.23063456908836,34.08901016205329
0.8,31.222195305157264,131.01043366469176,14.161374263118324,-6.610502791473137,-11.685466343904034,34.273646449927455,1.6136224358740705,3.8932368876799353,377.42502064505743,27.329365906120568,11.154876961601706,72.02115784773336,-0.2580663727316237,119.728678800123,456.8547645802765,15.288,0,8.312668124953628,0.0803239955103877,-9.236305856001393e-08,0.0055783189884359,-0.0114776071599759,-0.0004187299403044,13.403013051463974,8.893945377813855,25.506515814860204,34.53178118492837
0.81,31.22219478379927,131.0104346697784,14.425121767738236,-6.4938005410816455,-11.568853993399683,22.33754770618934,1.6459152380071596,3.9056546473731424,273.9374926939919,27.611183097056667,11.282204030546668,72.02439917993995,-0.2788049594178491,119.70687636713502,466.3135975565304,15.288,0,8.338281316762782,0.0811525285454094,-1.0073001168696688e-07,0.0058724376126421,-0.0120137696340271,-0.0004453418840338,13.245101027895045,8.783007217855781,25.80627455105197,22.736077338044403
0.82,31.22219425603206,131.01043568534243,14.69142858350701,-6.3768800134727135,-11.449846922481145,28.66204978861211,1.6792798248020964,3.918477093662404,328.72500443277005,27.9025164445231,11.412495589655446,72.02780576462351,-0.3005083861588862,119.68406001284325,476.1937448260289,15.288,0,8.3637593988273,0.0820090380715152,-1.0947927658840946e-07,0.006169641168438,-0.0125594510854865,-0.0004728052455607,13.08512087824379,8.671946373061736,26.11592559447092,28.97736257060714
0.83,31.222193721826816,131.01043671142287,14.960309476963523,-6.272481753363952,-11.35078998542396,36.3953586320422,1.710279376706294,3.929853058568897,395.68750322465047,28.1489745767514,11.52853759671612,72.03137907325335,-0.323195229020774,119.66021026857622,484.6306576074016,15.288,0,8.389087040090631,0.0827336607973174,-1.1861557431271609e-07,0.0064699725182366,-0.0131148661668938,-0.0005001874697892,12.948667423457916,8.574739865669354,26.37763655787728,36.64684066278154
0.84,31.22219318106256,131.0104377482542,15.231845248734611,-6.167688623142415,-11.249344797695352,22.515661963225167,1.7422203577496576,3.9415672970904,275.4593748256452,28.403563232337675,11.64712049610826,72.03512039350241,-0.3468837850813814,119.63530796665788,493.4237536783053,15.288,0,8.414263539866509,0.0834821872063971,-1.2814334411933274e-07,0.0067735136681672,-0.0136803117392863,-0.0005283762707825,12.810062587056406,8.477426383145074,26.647851275686143,22.924360801877867
0.85,31.22219263403894,131.01043879519148,15.505819923911371,-6.056352774242438,-11.134483211286868,24.53797555638356,1.7769747601646793,3.9546018847364905,292.96093233939376,28.69477992254589,11.777227893664248,72.03903106129555,-0.371592446818677,119.60933383538168,503.580344667718,15.288,0,8.439295533876289,0.0843383759534414,-1.380673739874292e-07,0.0070798513915693,-0.014255173815899,-0.0005579201941088,12.656732534637143,8.373079903844344,26.956767258124607,24.918040849366566
0.86,31.22219208056348,131.0104398526188,15.78236487433744,-5.952997396204001,-11.032016864442136,30.693648369600734,1.8103904674324347,3.9667488787188776,346.2265619465587,28.95777514192068,11.898370480093584,72.04311228115503,-0.3973403142666773,119.58226787523452,512.8399190981354,15.288,0,8.464200337195308,0.0851116249587492,-1.4839204476486278e-07,0.0073892383810288,-0.014840062310083,-0.0005876224447817,12.518156195301998,8.277815651509684,27.23555765511868,31.001817052361325
0.87,31.2221915206524,131.01044092048525,16.061464619483253,-5.854121654020542,-10.935928248813044,28.585207846836283,1.8433467253042988,3.978481707683856,327.964078366998,29.206692796606657,12.015027537603,72.04736535060503,-0.4241465144367089,119.55409005113027,521.6804532381095,15.288,0,8.488976716594777,0.0858435048766132,-1.5912189406972765e-07,0.0077016185627383,-0.0154350252019576,-0.0006177123071888,12.387404782246218,8.187868200328705,27.49929236626932,28.91954964197914
0.88,31.22219095433464,131.01044199871416,16.343095118242967,-5.75286806001044,-10.83384171626411,24.7160691010356,1.8779730615947832,3.9909109701072736,294.4828134710418,29.473908378309527,12.137406691018718,72.05179131153201,-0.4520301897555289,119.5247803275618,531.2555877498719,15.288,0,8.51361874992147,0.0866291728095635,-1.7026139615008325e-07,0.0080168856609432,-0.0160400174389502,-0.0006488637890244,12.25038704626563,8.095507206922104,27.782255155369853,25.106537495213573
0.89,31.222190381687145,131.0104430871282,16.627198353694737,-5.649475738700724,-10.7260616987106,27.0925482744498,1.9143159842749484,4.00404529139472,315.028134248087,29.75955075512648,12.265530344977972,72.05639133651935,-0.4810107970269399,119.49431833229472,541.587889862597,15.288,0,8.538124425213693,0.0874690080484181,-1.8181505272722826e-07,0.0083349300635743,-0.0166549854306141,-0.0006811246548164,12.107477633887896,8.000912969246851,28.084528806673152,27.453654699995475
0.9,31.22218980262295,131.0104441858944,16.913832516317104,-5.557140035285952,-10.637066292118256,29.910157932986944,1.947861665811932,4.015553849180408,339.37814235421445,29.99619255312324,12.378175436837813,72.06116647656515,-0.5111084226929542,119.46268304514965,550.2201782142414,15.288,0,8.562489018679022,0.0881648286611283,-1.9378722330015425e-07,0.0086558531671071,-0.0172802788395273,-0.0007129553428755,11.98637345294751,7.919379982203551,28.334907741430463,30.241302639949705
0.91,31.22218921720889,131.01044529485924,17.202947702369077,-5.462444335211966,-10.542139984759936,22.7797876418982,1.9831085064916507,4.027756164484668,277.7421810230789,30.251236368736905,12.496559500006375,72.06611757734667,-0.5423425853560055,119.42985404886448,559.6009546565913,15.288,0,8.586705070016873,0.0889147436616525,-2.061822204595037e-07,0.0089795068287545,-0.0179157778090865,-0.0007458815585192,11.859061145368418,7.835473048037189,28.604608591513003,23.217972867566232
0.92,31.22218862564763,131.01044641358203,17.494397104285976,-5.3656558431386845,-10.441642469855635,27.09470858935713,2.0200925745468425,4.040655411025017,315.02813424806214,30.52464013830468,12.620646900166872,72.07124558384595,-0.5747331052831851,119.3958106046597,569.7458070260484,15.288,0,8.610777904495626,0.0897186298594383,-2.190045991217146e-07,0.0093055791483406,-0.0185610360578449,-0.0007799307784132,11.725977204328087,7.749386020241532,28.893534538882257,27.468725920627772
0.93,31.22218802783857,131.01044754226243,17.78825005391369,-5.27850634907623,-10.35788683230644,32.20455078365952,2.0543643863501946,4.051996483334444,359.1625070654728,30.751716672743708,12.730125826905628,72.07655124977548,-0.6083000185409267,119.36053176104474,578.2378353974248,15.288,0,8.634719984862626,0.0903863574172667,-2.322582311978933e-07,0.0096342091766631,-0.0192164854332302,-0.00081345826986,11.612238687407215,7.675051900219903,29.13355124796844,32.52340971838844
0.94,31.222187423662938,131.01044868114226,18.084590079198986,-5.185348730799976,-10.261115291819042,23.39413809403161,2.0918991680030623,4.064795488283664,283.0687504837787,31.0188899380338,12.85213040665516,72.08203523416694,-0.6430631785243194,119.3239967618554,588.3122871352372,15.288,0,8.65853105797168,0.0911719458534429,-2.459469255412968e-07,0.0099654482743615,-0.0198824007463128,-0.0008487124503354,11.48434129968656,7.593892502280483,29.41567993767811,23.83661682481984
0.95,31.222186813413856,131.01044982958905,18.38320580040952,-5.094610096389162,-10.167426150026223,30.26840206968317,2.1294573291406715,4.077410458893701,342.4218736174873,31.27928374425116,12.971932923957212,72.0876982194358,-0.6790432423472901,119.28618401156064,598.2139815358222,15.288,0,8.68220155511444,0.0919376153846168,-2.600753238486675e-07,0.0102989151096462,-0.0205581903175953,-0.0008844500375952,11.36038933812204,7.515941624324929,29.690557160908103,30.615944022991144
0.96,31.222186196783728,131.010450988246,18.684316238690585,-5.00909035946406,-10.082402831120111,29.651884271335057,2.1657787591825817,4.089220139733439,337.09533515678345,31.5151445927887,13.083987714883456,72.09354078137235,-0.7162608659119762,119.24707192254186,607.2520760169023,15.288,0,8.705750140857553,0.0926311839604355,-2.7464672499088324e-07,0.0106349772966997,-0.0212447657974945,-0.0009201705680728,11.246607389425192,7.444706275816347,29.93956545353998,30.01077406241924
0.97,31.22218557378872,131.0104521570707,18.987909141311672,-4.92291286111402,-9.994638048659567,18.981047378243595,2.203307361549657,4.101436846106799,245.02188719299323,31.76103464366541,13.199121314992492,72.09956346897557,-0.7547372346838441,119.20663835641072,616.7469634379156,15.288,0,8.72917453814454,0.09335423839231,-2.896652217507887e-07,0.0109735587967723,-0.021942160141487,-0.0009568457675358,11.130203200527616,7.373055464779353,30.19903050913153,19.543707609028267
0.98,31.222184944720457,131.0104533354344,19.29377444310313,-4.831531640627681,-9.89498554985584,27.623541050281403,2.2442276870795586,4.115115511547517,319.5937466429581,32.046725668860084,13.32661933931139,72.1057667229459,-0.7944935567282996,119.16486115700404,627.8737175258563,15.288,0,8.752458880924522,0.0941942863824654,-3.051355080371588e-07,0.0113142045507316,-0.0226496258086667,-0.0009953933485861,11.00099027670728,7.295239527383068,30.50013971135008,28.018400270918665
0.99,31.222184309422342,131.0104545236622,19.602023931133,-4.7522842950070325,-9.818151153994355,30.18179200452869,2.2804631397802906,4.126306578569412,341.6609485517054,32.26115991247528,13.43177204664422,72.11215095807158,-0.8355516210795693,119.12171756457388,636.2855739032544,15.288,0,8.77562096348172,0.0948248983973755,-3.210610150898134e-07,0.011657148368739,-0.0233678226693031,-0.0010323964199674,10.89764697564953,7.233004045873033,30.72646492495473,30.547790210044223
1.0,31.222183667890857,131.010455721758,19.91266102535493,-4.668008896511804,-9.729784950174622,27.00426248050066,2.320038396434806,4.138923258514033,314.2672081822764,32.514357155200706,13.548960847883016,72.11871635054298,-0.8779323975897114,119.07718568656216,646.2930826431165,15.288,0,8.798653803015599,0.0955694534593848,-3.3744546121520735e-07,0.0120022735410313,-0.0240967051457473,-0.001071272417162,10.781885972827045,7.16483180682137,30.99334122306527,27.417940404351597
1.01,31.22218302030654,131.0104569293297,20.22555558957765,-4.585946872026536,-9.644490706520708,28.2391234006058,2.359490091404951,4.151274702705552,324.9203161036979,32.75911053254353,13.66342991545874,72.12546309806183,-0.9216577881438176,119.0312426574764,656.039992421326,15.288,0,8.821554175501884,0.0962891970535636,-3.542930339179997e-07,0.0123493240364685,-0.0248359259876163,-0.0011105125391503,10.669958605429784,7.099864153227644,31.251301549324157,28.639978449422816
1.02,31.22218236658956,131.01045814654466,20.54076625717468,-4.506560531852921,-9.563323326794558,23.557621658668136,2.3984983928074146,4.163209939657204,284.59063161540416,32.991319600228294,13.773908109571456,72.13239123865394,-0.9667494250385962,118.98386590219052,665.3533345881763,15.288,0,8.84432776038498,0.0969720765145977,-3.716070277705282e-07,0.0126983538381743,-0.0255857931453517,-0.0011499584322263,10.56301151644233,7.038775529914807,31.4960816662142,24.04260072776883
1.03,31.2221817068078,131.01045937325534,20.85824540233591,-4.424298900403886,-9.474770947427237,19.22677339326471,2.4400412231383584,4.176143192591949,247.30469339049705,33.250312545191406,13.892641824590443,72.13950068496065,-1.0132289101307708,118.9350328842742,675.82022512001,15.288,0,8.866970463900664,0.0977336900277585,-3.8939109169847444e-07,0.0130491992138935,-0.0263461583380139,-0.0011909715326801,10.448295642892276,6.974319931692332,31.768792856881294,19.82581116251233
1.04,31.222181041021283,131.0104606093292,21.177950531064955,-4.346898789536455,-9.395021003522904,30.621134985771047,2.479885476925165,4.188058858744872,345.46563688072297,33.48020459981465,14.002225310186809,72.14679134144835,-1.06111865240419,118.88472022630958,685.1767086933413,15.288,0,8.889485578116256,0.0984097740017903,-4.076488508697565e-07,0.0134017628091894,-0.0271170094505427,-0.00123156824464,10.343704781517364,6.916686952410898,32.01104254222884,31.00554106607055
1.05,31.222180368944464,131.01046185538289,21.500091825103176,-4.267451840995022,-9.3095488058512,18.42363655400604,2.521904501066608,4.200785569758257,240.45625879819983,33.73159459053592,14.118411030212304,72.15426296097417,-1.1104408854028256,118.8329047427692,695.4832761317341,15.288,0,8.911885597438651,0.0991490555968722,-4.2638271145662733e-07,0.0137563616726137,-0.0278992496541179,-0.0012736071000362,10.233193116060487,6.856739982603315,32.27568001330746,19.06402333165003
1.06,31.2221796908138,131.01046311090496,21.82449904217728,-4.1865361321428844,-9.219459194789966,26.2872950750985,2.5659293840812176,4.2142244420857855,308.17968365593924,34.00152548216599,14.24025332008596,72.16191531182889,-1.161218882246232,118.77956216270576,706.6367486195138,15.288,0,8.934161017856836,0.0999428435698549,-4.4559708271887254e-07,0.0141126127829364,-0.0286922576908899,-0.0013170046534929,10.118000139970585,6.795142424642988,32.55957755266296,26.7463186928157
1.07,31.22217900651304,131.01046437614627,22.15125905156613,-4.112587786709097,-9.143017778435452,30.9716012047936,2.606684100915619,4.225920080566538,348.5093681440308,34.22301533290372,14.346960647705556,72.16974810725821,-1.2134764959488096,118.72466761392904,715.8504923912442,15.288,0,8.95632473625875,0.1005942536770037,-4.652949518111844e-07,0.0144706745176245,-0.0294966008547275,-0.0013591734993229,10.018198233703949,6.743484222537756,32.792920960235904,31.367073241188347
1.08,31.22217831594371,131.01046565132475,22.480447582039908,-4.038355584593576,-9.064666101768402,20.798418887844203,2.648579277445709,4.2379264952643965,261.00157857466235,34.452306073277725,14.456003310182336,72.1777608678324,-1.2672371763001216,118.66819665548527,725.4519392858157,15.288,0,8.978378206576627,0.1012686011841449,-4.854793624511206e-07,0.0148305794751104,-0.030312589871271,-0.0014022664277874,9.916660222766014,6.691927064880625,33.03436411772654,21.39040021604115
1.09,31.222177619379767,131.01046693584777,22.81186707788876,-3.959035370568981,-8.973681012377101,19.112982107038192,2.6949604993331886,4.251760328640434,246.54375332474407,34.73087298226191,14.580206772469232,72.18595301634299,-1.3225246798008148,118.61012453154424,737.2072993468665,15.288,0,9.000308406484713,0.1020877984553484,-5.061548371043213e-07,0.0151918580418493,-0.0311394014545177,-0.0014479944168522,9.801658073344695,6.633600408293988,33.32704622362468,19.7647758147956
1.1,31.22217691689694,131.01046822955212,23.14546482950593,-3.883882629447996,-8.890495223945747,38.48976697457169,2.7396714130992272,4.264588717593786,413.1890617385841,34.98151440285287,14.695640103593473,72.19432387306937,-1.3793630636402745,118.5504261785152,747.8621001716573,15.288,0,9.022119676670515,0.1028249199996257,-5.273247272350209e-07,0.0155543953737024,-0.0319769990767775,-0.001493200472878,9.69557389676033,6.581512882947469,33.590595976039644,38.82209007947422
1.11,31.222176208101946,131.01046953330325,23.48153495682297,-3.8157358233317273,-8.821786273365303,28.13234538892625,2.780362881626328,4.275367360180792,324.1593910376397,35.17623635464979,14.793683143395551,72.20287267737363,-1.4377768776732067,118.48907602387018,756.1866976518206,15.288,0,9.0438329379639,0.1033976792645473,-5.489903904954366e-07,0.0159187040130677,-0.0328268064979491,-0.0015366304574589,9.60564846451362,6.540026712240624,33.795982032489654,28.590873384698565
1.12,31.222175493061258,131.01047084696702,23.82003447326744,-3.737317695659341,-8.728364144269353,10.50864758803114,2.829770584630361,4.289837375616146,172.73281794065943,35.47000315214176,14.922236127926295,72.2115984737747,-1.4977903093740244,118.42604888324024,768.8447004920133,15.288,0,9.065438728109296,0.1042615810877593,-5.711554242123985e-07,0.0162845537425557,-0.0336885643495802,-0.0015850221173403,9.489132600604972,6.483976248041624,34.10425177222236,11.69794770035775
1.13,31.222174772353263,131.0104721692732,24.160537610869014,-3.665886974004777,-8.649521141603998,33.174958596791704,2.875052052326944,4.3022024230524725,367.5328077900705,35.70702258371913,15.033123240385256,72.22050040386857,-1.5594295062991803,118.36131752134877,779.1287730643159,15.288,0,9.086922706574384,0.1049586863552207,-5.938258257630277e-07,0.0166511193779855,-0.0345605778501726,-0.0016314775651803,9.388858921376617,6.438564967662813,34.3535136950753,33.57607403928208
1.14,31.2221740453371,131.01047350164555,24.50352659669022,-3.599409222920268,-8.580929264854566,18.289484409471168,2.917381212607839,4.31301795323362,239.69531773195544,35.90230308629283,15.13103761195934,72.22957720965107,-1.622718685846714,118.29485673973028,787.6481841724212,15.288,0,9.108313479116177,0.1055331103512027,-6.170009405539746e-07,0.0170192496909834,-0.0354451193604801,-0.0016766115125946,9.300056923437571,6.401135626166667,34.559447012210455,19.0162687446534
1.15,31.222173312491567,131.0104748430397,24.84865169985665,-3.523048287752178,-8.487793569531924,18.01718440604614,2.9689975669585715,4.327690451248221,237.41251153546767,36.20087205088848,15.260662270181232,72.238827495872,-1.6876821966926652,118.2266412089464,800.7765113549251,15.288,0,9.129585060985416,0.1064111540516863,-6.406863080388699e-07,0.017388102361687,-0.0363404574745847,-0.0017271360465204,9.184963709754872,6.34905349769311,34.87248370172911,18.766000775762087
1.16,31.22217257395173,131.01047619316023,25.19581583429696,-3.45906166818051,-8.422684307519155,47.43923530161193,3.0111536421830136,4.3379432279729215,490.0437743845894,36.38194369828946,15.353965450684482,72.24824993783352,-1.75434627428753,118.15664362706012,808.7803162907002,15.288,0,9.150726956179597,0.1069438265948815,-6.648850614333956e-07,0.017757527151819,-0.0372464733786825,-0.0017725938158639,9.100570554616327,6.31654381755328,35.063671526951225,47.73223065924797
1.17,31.222171828885767,131.0104775538766,25.545651243023794,-3.390340214581971,-8.345032469173939,8.252051463003902,3.0584572531452348,4.350203215548297,153.70937929486794,36.61659120186327,15.463664069406397,72.25784283402409,-1.8227353791732264,118.08483856545084,819.2189823602663,15.288,0,9.171774847764826,0.1076339920837182,-6.895950344971081e-07,0.0181286026080347,-0.0381661072694189,-0.0018212454981806,9.002919583217839,6.2772354873730265,35.31038620240015,9.81706586175056
1.18,31.222171078405463,131.0104789227231,25.897329436823625,-3.3153728908105315,-8.250766091040065,22.963882223064527,3.1128324399710507,4.365254348474897,280.02501822196746,36.92578825872702,15.59611108473348,72.26760448744311,-1.892875387604976,118.01119911514552,833.0845163321353,15.288,0,9.192692735873075,0.1085433035854595,-7.148257526291165e-07,0.0184995651753568,-0.0390953015915703,-0.0018741436474324,8.887673404130751,6.228221721393498,35.634235568946835,23.58145580919452
1.19,31.22217032201804,131.01048030080983,26.251226917248843,-3.2565906301150034,-8.19489252059159,40.256239950530485,3.1528905699036422,4.373864378686304,428.4078130529292,37.065180760496816,15.676283286547632,72.27753312153799,-1.964792968564636,117.93569754538288,839.3575354440234,15.288,0,9.213517931843883,0.108953482799333,-7.40575850530637e-07,0.0188712265688724,-0.0400363404486246,-0.0019189473841129,8.814148491389904,6.205908119524766,35.78231444090018,40.61571448963584
1.2,31.22216955931083,131.01048168909054,26.607667226818226,-3.1862770632789896,-8.109235476468045,3.964306908508621,3.205313955642388,4.387522861556144,117.1843741360236,37.33826881299425,15.797372172402252,72.28762652511068,-2.0385124900861222,117.85830854950149,851.7423366622935,15.288,0,9.234253022881264,0.1097566694669801,-7.668453985330612e-07,0.0192439666555673,-0.0409905289281032,-0.0019712001307995,8.708855707221655,6.165223450113806,36.0687215095172,6.726077882374159
1.21,31.22216879138597,131.01048308509573,26.96582090719356,-3.117424489067786,-8.025773528560462,32.265607506140604,3.257609459403361,4.400833340613348,359.92343213200894,37.603312512825816,15.91581199859134,72.297882644064,-2.1140612398888217,117.77900376240184,863.8476280541394,15.288,0,9.254863128319167,0.1105362180873791,-7.936441178639764e-07,0.0196160911287587,-0.0419538397895512,-0.0020235110404784,8.606260403859538,6.127208502353837,36.346745634337296,32.72688162997149
1.22,31.22216801741928,131.0104844907044,27.326323261423195,-3.0593017060268752,-7.968347558950121,23.29535394733845,3.299511135314908,4.409478505874124,283.0687504825761,37.74705359816469,15.99698945613814,72.30829907691945,-2.191465011859284,117.69775639807004,870.4343330026634,15.288,0,9.275390464829105,0.1109592013438398,-8.209674605179535e-07,0.0199888490770487,-0.0429297904974109,-0.0020697734452733,8.531908290238794,6.108059524132014,36.49941944750802,23.93749757091602
1.23,31.22216723775537,131.01048590516478,27.6889233255716,-2.991000014610726,-7.883589976986362,8.903554849905905,3.3536215442125483,4.422988747397993,159.79687382222795,38.01944241848701,16.11738760923359,72.31887308778995,-2.270748138884976,117.61454121095711,883.0112900967457,15.288,0,9.29581117136915,0.1117603581663512,-8.488202203873332e-07,0.0203614963466213,-0.0439167968882112,-0.0021235000260267,8.428554671513453,6.071819349674841,36.78499477167019,10.49203964378227
