Time,Latitude,Longitude,Altitude,Angle of Attack,Angle of Sideslip,X-Acceleration,Y-Acceleration,Z-Acceleration,Thrust,True Velocity,Ground Velocity,Pitch,Roll,Yaw,Dynamic Pressure,cp,parachute_deploy_gain,Wind Speed,Mach,omega_x,omega_y,omega_z,Cmq,Angle of Attack(total),Angle of Attack(gust),True Velocity(gust),Acceleration
0.0,31.222186000000004,131.010384,3.000000003643237,0.0,0.0,0.0,0.0,0.0,2.2828121974499247,0.0,0.0,69.99999999623421,0.0,113.69999999388332,0.0,15.288,0.0,0.0,0.0,0.0,0.0,0.0,-0.0,0.0,90.0,0.0,0.0
0.01,31.22218600000153,131.01038399999584,2.99999882256592,0.0,0.0,0.0,0.0,0.0,34.24218696174923,7.502283530665459e-11,7.190531319924593e-11,69.99999999623329,-4.83564628150269e-13,113.69999999388072,3.446445726795683e-21,15.288,0.0,0.0,2.204725565824978e-13,-3.659182332138578e-19,7.589415207398531e-19,4.811147140404426e-19,-1.5108918610345807e-31,0.0,89.9999999995224,7.502283530665459e-11,0.0
0.02,31.22218600000288,131.01038399999217,2.999997775701936,0.0,0.0,0.0,0.0,0.0,25.871876237766408,1.5320717031631675e-10,1.4674636035870463e-10,69.99999999623222,-9.67129256300373e-13,113.69999999387804,1.4372842949972735e-20,15.288,0.0,0.0,4.5023593667086093e-13,-7.284483346386986e-19,1.5178830414797062e-18,9.757819552369542e-19,-6.170906918166791e-31,0.0,89.99999999902465,1.5320717031631675e-10,0.0
0.03,31.22218599928065,131.01038400193067,3.000201659671132,18.81500467334555,-0.00012974450181,11.96616230539064,-1.8916256735984712e-05,3.349833086198469,180.34219359854663,0.0882870268161719,0.0553390044312322,69.99999999799445,-4.212591857125379e-12,113.69999999488518,0.0047728553458352,15.288,0.0,0.0,0.0002594525584132,3.2187251995663407e-17,-7.20264389268894e-10,1.2365134327422308e-11,1.6874092354518158e-13,18.815004673776716,89.46786891739345,0.0882666465974854,12.426199017587786
0.04,31.22218599548236,131.0103840121632,3.001799604587872,9.46752327608497,-4.6177622759613696e-05,55.21900012092241,3.931876292165237e-06,3.349616504302861,548.6359724538078,0.3767519978512604,0.1853356633749705,70.00000000507204,-2.4624598767003407e-11,113.70000000019972,0.086915163246288,15.288,0.0,0.0,0.0011071759353184,1.6174128009138757e-15,-1.3693172015529268e-08,2.7753303060112748e-11,1.3689612277852356e-11,9.467523276196548,87.63554493451223,0.3767447442872393,55.32050167054111
0.05,31.222185984749512,131.01038404118162,3.00777936418888,5.376730308971262,-2.257790939128127e-06,80.28807156553681,5.266841443842784e-05,3.348887800834877,761.6984298824644,1.018787885905993,0.4366201147110198,70.00000000894464,-1.1355399380652658e-10,113.70000001523856,0.635552918586145,15.288,0.0,0.0,0.0029939522895272,1.6418815498809788e-14,-9.32122351075408e-08,4.303264669380585e-11,2.5199270302492604e-10,5.3767303089717045,83.57022052969386,1.0187875312530217,80.35788377762394
0.06,31.22218596447235,131.01038409608267,3.0201664202003013,4.296730121134882,2.4863835723705905e-05,60.21296515808257,0.0001057204249726,3.347700952379021,590.4875390737208,1.721098934225416,0.7081674028809783,69.99999995523842,-3.0560354507026086e-10,113.70000004366592,1.8138247671743823,15.288,0.0,0.0,0.0050578622752421,8.328976953118383e-14,-3.2824985336199985e-07,5.923438275930214e-11,1.4991363363716091e-09,4.296730121206683,79.20467073327266,1.7211028398275985,60.305955550063224
0.07,31.22218593493329,131.01038417609837,3.038741944736831,3.8204913578752526,4.8016684030909405e-05,91.4060317508128,0.0001597686613101,3.346072557365335,855.2937749779139,2.4375792548422868,0.9844712334613328,69.99999973536046,-5.939103491363046e-10,113.7000000850886,3.6383156301599167,15.288,0.0,0.0,0.007163413150771,2.709313825263564e-13,-7.906546256197275e-07,7.920022733617308e-11,5.114174483651565e-09,3.820491358176508,74.87999294483174,2.437586797285377,91.46725557277466
0.08,31.222185894468456,131.01038428575305,3.0647976109320942,3.588632851766762,7.220043782492885e-05,19.18449428359557,0.0002119618497595,3.3440615022685813,241.2171988638848,3.1292508166901074,1.2522236515868983,69.99999919480445,-9.914748373602156e-10,113.7000001418522,5.996012698481753,15.288,0.0,0.0,0.0091960591623389,6.80386533246681e-13,-1.5973238302190878e-06,1.0839624626357699e-10,1.3263625118823921e-08,3.58863285249208,70.86684630658345,3.1292621579083604,19.473766155861934
0.09,31.22218584634549,131.01038441616095,3.0957981580345013,3.551302481506045,9.685468678862004e-05,57.102946699906326,0.0002554087225869,3.341892818148368,563.0937377043176,3.701810007254615,1.479132491047967,69.99999812344194,-1.4359264356978275e-09,113.7000002093888,8.390904013834115,15.288,0.0,0.0,0.010878666406854,1.440096519545733e-12,-2.748643691533636e-06,1.5214952332699618e-10,2.6999776649034504e-08,3.5513024828250237,67.68737872952666,3.701825221153239,57.20065357568538
0.1,31.222185790329306,131.01038456796124,3.1319266121977414,3.608446747536112,0.0001234669721807,54.26147302645416,0.0002914860332524,3.3396271157106168,538.7437595981919,4.174070299823608,1.6716491241860567,69.9999963052332,-1.902380107712657e-09,113.70000028805804,10.668380938744466,15.288,0.0,0.0,0.0122665227999911,2.687800116751415e-12,-4.315796035622946e-06,2.1749089204950437e-10,4.7802076800548326e-08,3.608446749645647,65.17160335282355,4.174089693970246,54.36414778470795
0.11,31.222185727066616,131.0103847393952,3.172681775073216,3.633547373470009,0.0001485939126744,42.987553988990406,0.0003293995000288,3.337005588796181,442.8656393052949,4.672024955140527,1.8729475711242067,69.99999349387662,-2.3433348587116544e-09,113.70000037699285,13.365573690709628,15.288,0.0,0.0,0.0137298902182575,4.5789425819531184e-12,-6.340230783164189e-06,3.1157625832417107e-10,7.860218435507205e-08,3.6335473765043056,62.62546922225161,4.672048296217748,43.116880735560244
0.12,31.22218565692512,131.0103849294629,3.2177790417108385,3.650108937861461,0.0001727442530266,46.86777100765684,0.000367618259785,3.334068179146888,475.58594813540446,5.17479364099247,2.0758708919414386,69.99998941286465,-2.702771525550512e-09,113.70000047573096,16.396890189902592,15.288,0.0,0.0,0.0152074069417046,7.288473386564583e-12,-8.86736416607888e-06,4.42271554299792e-10,1.217615295152289e-07,3.6501089419435786,60.16906436414164,5.174820775596283,46.986210423745625
0.13,31.222185580265183,131.0103851371844,3.2669395832841857,3.7280113734654137,0.0001995014041665,51.64515456841877,0.0003986198234033,3.3311573548369657,515.9156326236895,5.579364582999854,2.2451120211463422,69.99998375846928,-2.9114380666036422e-09,113.70000058383452,19.060875702782603,15.288,0.0,0.0,0.0163963474924215,1.100846422415094e-11,-1.1941028436408576e-05,6.179653149059831e-10,1.7678562106638216e-07,3.728011378795934,58.279338776943774,5.579395920607139,51.75247433579817
0.14,31.22218549718016,131.01038536230575,3.320091807147376,3.768719651034081,0.0002242721760019,48.1660778383537,0.0004326225136175,3.32784677779744,486.2390860568404,6.025734265159953,2.428648685938864,69.99997621008868,-2.890941335368725e-09,113.70000070125378,22.232643351545065,15.288,0.0,0.0,0.0177081261985351,1.5941871344608664e-11,-1.560901486259027e-05,8.477542742712431e-10,2.495765160917323e-07,3.7687196576976176,56.27980129251342,6.025769493750979,48.280903250602165
0.15,31.22218540777004,131.01038560455507,3.377159065217065,3.821894709649632,0.000249725644238,46.56959330999435,0.0004643042952466,3.324387732286376,472.54218587214,6.441023336496372,2.6014999612196745,69.99996641132823,-2.546763407193136e-09,113.70000082794672,25.402620271850456,15.288,0.0,0.0,0.0189285691155931,2.2314099732464315e-11,-1.992367942778425e-05,1.1417519574710292e-09,3.4051816697623295e-07,3.821894717796148,54.501255563441134,6.441062563308839,46.68809885900716
0.16,31.22218531193176,131.01038586421257,3.4382223512025254,3.8463320955387794,0.0002733212404609,36.974247749122085,0.0004987816203583,3.3205066466509234,391.1218908297564,6.895451966878468,2.7877331692857847,69.99995397923414,-1.77088415515292e-09,113.70000096417354,29.113317717489338,15.288,0.0,0.0,0.0202640360420561,3.0367358387834494e-11,-2.4945905791363795e-05,1.5114297685186711e-09,4.5643121540033697e-07,3.846332105235269,52.641145594326446,6.895494900078523,37.12304892183151
0.17,31.222185210004127,131.010386140357,3.503019838429153,3.8860314262554336,0.000297865039677,46.520531453299206,0.0005306403365217,3.31650761597812,471.78125980632376,7.314788342774694,2.9619016331667103,69.99993849340957,-4.3039914767238207e-10,113.70000110959404,32.761746921137856,15.288,0.0,0.0,0.0214963781445172,4.0366633128431416e-11,-3.0713078585132897e-05,1.96747427715988e-09,5.961228045584824e-07,3.886031437653654,51.00464968745696,7.314835131305714,46.63860064094784
0.18,31.22218510147516,131.01038643438045,3.571950002194137,3.9107265153396016,0.0003214293682635,38.895647526122765,0.0005639254295027,3.312149448254175,407.10156721191447,7.754626295791602,3.1430587898572058,69.9999195084231,1.6149322372810674e-09,113.70000126508234,36.81988229018681,15.288,0.0,0.0,0.0227889722876034,5.2593391349219385e-11,-3.731786027786564e-05,2.525509173087448e-09,7.6786585232224e-07,3.9107265285284982,49.36615848311875,7.754676785798701,39.036415444581515
0.19,31.222184986476247,131.0103867459258,3.644912152926752,3.920599115663931,0.0003437679584038,43.86258669386953,0.0005989384366483,3.307389681300437,448.9531328318269,8.219206165926856,3.332657190859447,69.99989653019398,4.538529095696477e-09,113.70000143063515,41.36350714675367,15.288,0.0,0.0,0.02415428010977,6.735860419174937e-11,-4.481243905342629e-05,3.199401151670645e-09,9.773118416308382e-07,3.92059913071168,47.71893898797248,8.21926016487149,43.987104227715655
0.2,31.222184864792144,131.01038707557822,3.722074668489528,3.943376465171875,0.000367328732016,40.28070981710589,0.0006315894240138,3.30251450988504,418.51563019916136,8.65238089736321,3.511445117640573,69.99986902534273,8.534090245934178e-09,113.7000016067622,45.83799876721736,15.288,0.0,0.0,0.025427299120469,8.499785987217288e-11,-5.328041996372527e-05,4.006766070954748e-09,1.2232205148646746e-06,3.9433764822533854,46.2587826635041,8.652438597225508,40.41586552155969
0.21,31.22218473678744,131.01038742234647,3.803156063113743,3.9664546506877016,0.000390962054969,38.67679184347145,0.0006636984664108,3.297405915846789,404.8187610144644,9.079179692250786,3.688002035198235,69.99983642883521,1.3827831253856693e-08,113.70000179318536,50.47126980736161,15.288,0.0,0.0,0.0266815841422463,1.0586558589671407e-10,-6.275155280099118e-05,4.961340042512481e-09,1.5117124669161171e-06,3.9664546699249135,44.88773728276958,9.079241104426773,38.817098210937615
0.22,31.2221846022986,131.01038778667507,3.8882846911135607,3.956175711337521,0.0004112685792646,46.713636108302936,0.0007011135033803,3.291572407481395,472.5421858721365,9.580256326712124,3.889976788904857,69.99979815126248,2.0662823443484168e-08,113.70000199039316,56.195522894218605,15.288,0.0,0.0,0.0281541581291438,1.3033127211465288e-10,-7.330053770532661e-05,6.0817207473359025e-09,1.8632831045819008e-06,3.956175732680424,43.35679625546934,9.580320928629488,46.8294591882524
0.23,31.222184460898035,131.01038816972698,3.977794004014759,3.9879066397329104,0.0004360962274406,38.89105719050748,0.0007308686121188,3.286096544282012,406.3406421461021,9.977039034039262,4.056142701351626,69.99975353557706,2.9316661139418326e-08,113.70000219928508,60.9462612310605,15.288,0.0,0.0,0.0293202403623685,1.5880617816859538e-10,-8.505067486192354e-05,7.393319440773217e-09,2.2514912291167663e-06,3.987906663538912,42.20670487756048,9.97710753587448,39.0296395118868
0.24,31.222184313516166,131.01038856897196,4.070963590490852,4.003523997322975,0.000459165577055,40.0792299321398,0.0007630441688766,3.280134925833028,416.2328240017114,10.408422364424831,4.234121060914368,69.99970190737699,4.010976417051318e-08,113.70000241888,66.32994780718496,15.288,0.0,0.0,0.030588009649109,1.91711512587616e-10,-9.795845222523724e-05,8.904557280909524e-09,2.7052895870113487e-06,4.003524023611085,41.011349410369874,10.408494489985014,40.21323112692186
0.25,31.22218416001652,131.01038898478134,4.167901030441617,4.0261356185860135,0.0004830526730531,41.17760020658354,0.0007934613160587,3.2740610008587527,425.36408079150686,10.816813039390448,4.4041629376391525,69.99964258149416,5.3372865854010094e-08,113.70000264972064,71.63651430352668,15.288,0.0,0.0,0.0317882126436337,2.2947426169209347e-10,-0.0001121037688082,1.0637152702866709e-08,3.217380562698304e-06,4.026135647516394,39.93186687113378,10.816888917126896,41.30755663120434
0.26,31.222184000702686,131.0103894163294,4.26837241014618,4.053359329950934,0.000507503069958,44.80261175215926,0.0008224724146494,3.2678597736729302,455.8015834241788,11.207047269494833,4.567925492611352,69.99957484039399,6.947299261165984e-08,113.70000289176392,76.89781807056055,15.288,0.0,0.0,0.0329350617559806,2.7254099134167665e-10,-0.0001275114371842,1.260720913253598e-08,3.7915697709142366e-06,4.053359361668992,38.945390435244384,11.207126987890645,44.921630958721536
0.27,31.22218383516388,131.01038986473338,4.372698316214008,4.0614460923241,0.0005296455772492,41.029837477288126,0.0008548809954683,3.2610328932384265,423.84219965987256,11.645685385842508,4.748226940060522,69.99949794024376,8.879821051920497e-08,113.70000314600205,83.0342688744587,15.288,0.0,0.0,0.0342241635563461,3.2137296827284217e-10,-0.0001442952656441,1.4842505534226832e-08,4.458527942364847e-06,4.061446126801262,37.8838346421185,11.645768582375233,41.15922617924542
0.28,31.222183663504484,131.01039032970942,4.48079961904222,4.081133040992532,0.0005533279247169,47.27661484082626,0.0008845140695959,3.254218495915602,476.3468732012221,12.047344998676092,4.915789434712848,69.99941106884992,1.1178948978424788e-07,113.70000341275257,88.85982357848233,15.288,0.0,0.0,0.0354045979054623,3.764736350660473e-10,-0.0001625146963723,1.7365685655384934e-08,5.194620655212288e-06,4.081133078439725,36.956255322213885,12.047431915223257,47.38848224631549
0.29,31.22218348566054,131.0103908114315,4.592727908358551,4.1001100265020245,0.0005770279952742,37.989969791857405,0.0009138463939581,3.247164755122801,397.97031042211177,12.446314684600782,5.082367374004485,69.99931338876085,1.3891902435864665e-07,113.70000369260468,94.8417675268915,15.288,0.0,0.0,0.0365771315767517,4.3836067907166327e-10,-0.0001822432988888,2.0202163500922312e-08,6.018074062137429e-06,4.100110067036654,36.07377590258778,12.446405323946324,38.12849176886316
0.3,31.222183301933686,131.01039130907952,4.708251093558373,4.112858061667493,0.0005998635114143,35.655053282557844,0.000944131403186,3.2397207148238625,378.1859457108711,12.860033399289696,5.253940723820665,69.99920403105713,1.707002607527005e-07,113.7000039856728,101.2505662360602,15.288,0.0,0.0,0.03779301412572,5.075709863465428e-10,-0.0002035013069687,2.3370674033523645e-08,6.94335970778e-06,4.112858105337573,35.19685285507256,12.860127625629724,35.80193592228613
0.31,31.222183112488807,131.0103918222051,4.827243246502713,4.136140889545823,0.0006242383343011,37.56633644061071,0.0009716215464757,3.232339252743767,394.1656220930212,13.2364445751808,5.4126574282679245,69.99908210036875,2.0768081583188525e-07,113.7000042923011,107.26326115439352,15.288,0.0,0.0,0.0388992619788015,5.846561731689753e-10,-0.0002263323252403,2.6893437641668458e-08,7.948283231812338e-06,4.1361409365698805,34.43286455705216,13.236542630309057,37.70514091683033
0.32,31.22218291741533,131.01039235056504,4.949637017503345,4.1622282001352975,0.0006491019906456,40.83513712643371,0.0009979686925508,3.224840963348891,421.55939346242695,13.59846554462374,5.566374262777002,69.99894668612772,2.504388718903276e-07,113.70000461297312,113.2095365840355,15.288,0.0,0.0,0.0399632243410653,6.701756367872645e-10,-0.00025078340164,3.0793566854276295e-08,9.047716714467492e-06,4.16222825066026,33.72644865222576,13.598567505326,40.96227562489027
0.33,31.222182716732533,131.01039289410716,5.075419569102976,4.187801887681037,0.0006739743721461,40.48743503284469,0.0010239291638211,3.217136801802925,418.5156301991682,13.956637761217308,5.718704299733134,69.99879684673242,2.995902922462564e-07,113.70000494831164,119.25032483364384,15.288,0.0,0.0,0.0410158804634189,7.647061680070125e-10,-0.0002769136723495,3.509664608790402e-08,1.0253455741189656e-05,4.187801941818244,33.053267359159875,13.956743628864118,40.61505097607
0.34,31.222182510255863,131.01039345333336,5.204736257784645,4.19642921746386,0.0006961879027693,31.814592723444047,0.0010535137542081,3.208669900766693,345.46563688075645,14.367047160772364,5.88887983533068,69.99863160305904,3.557915789971256e-07,113.70000529927128,126.36523219087664,15.288,0.0,0.0,0.042222056531773,8.688448410811866e-10,-0.0003048202762282,3.9835373705550826e-08,1.1618525957862828e-05,4.196429275109305,32.30947868183619,14.367156517712404,31.97598901989736
0.35,31.222182298183583,131.0103940277045,5.337435501771672,4.210915783240843,0.0007193441544952,34.813487415034444,0.0010813034848195,3.200164272309822,370.5765700527033,14.754132934586384,6.050986755458457,69.99844991734221,4.1975736284587617e-07,113.70000566632532,133.26448209504355,15.288,0.0,0.0,0.0433596939127697,9.832256819293898e-10,-0.0003345386312107,4.503361101379695e-08,1.309465610343774e-05,4.210915844572415,31.63649055965014,14.75424592890194,34.96026256388454
0.36,31.222182080444604,131.0103946174141,5.4735747500461605,4.22903876037745,0.0007431682866607,39.2632255716727,0.0011077666085529,3.1915717453569297,407.8625232777193,15.124417129017054,6.2072589919251575,69.99825073022951,4.922382611919288e-07,113.70000605036684,140.03566173682628,15.288,0.0,0.0,0.0444479595865755,1.1084921261805627e-09,-0.0003661511460057,5.0723697896912267e-08,1.4691545926915382e-05,4.229038825557203,31.017264542603208,15.124533865618538,39.39272792946638
0.37,31.22218185710795,131.01039522227452,5.613102797925907,4.249164960780052,0.0007674149135003,37.28328237034959,0.001133274451316,3.1828514669894137,391.1218908297666,15.483077353331511,6.359470679857624,69.99803294268581,5.740349991123437e-07,113.70000645214331,146.75405277514704,15.288,0.0,0.0,0.0455020695186381,1.245311285088233e-09,-0.0003997125883071,5.6934243389647934e-08,1.641828325195534e-05,4.2491650299519,30.439178816713017,15.483197898584232,37.418894813348615
0.38,31.2221816281124,131.0103958424523,5.756069531572451,4.260095806433531,0.0007900626414612,38.9278000801764,0.0011607546399008,3.1735466295306622,404.8187610144602,15.87126705947922,6.521735074464384,69.99779542676283,6.659911329739736e-07,113.70000687263192,154.20298254405043,15.288,0.0,0.0,0.0466429667223463,1.3943646956867835e-09,-0.0004353006984059,6.369875435270817e-08,1.8328108041903096e-05,4.260095879559656,29.83470194713067,15.87139116222873,39.05694584372078
0.39,31.22218139339905,131.0103964781077,5.9025231349944285,4.274091258047817,0.0008133283308351,33.320076729592266,0.0011870382950339,3.164143363712209,357.64062493382744,16.24457853509073,6.678818328235205,69.9975369905506,7.690136753559805e-07,113.70000731287368,161.54010621938565,15.288,0.0,0.0,0.0477401448128051,1.5563705124515804e-09,-0.0004730068442167,7.105463478762673e-08,2.0383860516746246e-05,4.274091335289374,29.274934656826048,16.244706292406182,33.46997636540994
0.4,31.22218115316572,131.01039712870306,6.0523126585892895,4.286421841403391,0.0008363022448449,31.88018820767003,0.0012133780841982,3.1544430614236454,345.465636880754,16.62063299903514,6.836764518435374,69.99725641601981,8.840594270905819e-07,113.70000777359816,169.10340080049767,15.288,0.0,0.0,0.0488453895716005,1.7320643186450851e-09,-0.0005128553637434,7.9027539265021e-08,2.2612406375611563e-05,4.286421922834417,28.730746964325096,16.620764365084565,32.03586915718869
0.41,31.22218090752676,131.01039779392735,6.205351877049411,4.30025870409831,0.0008595777771371,35.882550741685804,0.0012389121673015,3.1445895889870297,378.94687077668647,16.987310563534386,6.99141560549392,69.9969524610574,1.0121301778427253e-06,113.70000825570062,176.64448930727934,15.288,0.0,0.0,0.0499230826371405,1.922193031274436e-09,-0.0005548883906878,8.764667734700782e-08,2.5005077415911235e-05,4.300258789847355,28.21875643368965,16.987445585695873,36.020076248499606
0.42,31.222180656535848,131.0103984736348,6.36160173428776,4.322008670726048,0.0008844838439129,40.34064925656127,0.001261804338223,3.134918999355981,416.2328240017114,17.318628721060172,7.133856886815013,69.99662385300175,1.154276942054023e-06,113.70000876021427,183.59942989625057,15.288,0.0,0.0,0.0508968652507098,2.1275184665783874e-09,-0.0005991661829955,9.694534598491077e-08,2.752657757470936e-05,4.322008761057615,27.772396468009568,17.318767655457478,40.462275036947325
0.43,31.222180400205527,131.0103991677914,6.521055075967404,4.339436441324956,0.0009085827200945,35.541853595187746,0.0012854696362701,3.124839917627212,375.9031395134336,17.662848429084132,7.280642039343927,69.99626930133451,1.3115939750280808e-06,113.70000928827632,190.96736675963504,15.288,0.0,0.0,0.0519085689713619,2.3488101247838237e-09,-0.0006457514522491,1.0695800287133593e-07,3.0255957891170616e-05,4.339436536261635,27.322335771349252,17.662991148924057,35.67895714766603
0.44,31.22218013836212,131.0103998768696,6.683849332059896,4.342209064313268,0.0009296474314902,32.82948243168077,0.0013129688908547,3.113754688841357,353.0750125389216,18.063580761318697,7.446730341918701,69.99588746395321,1.4852372182848018e-06,113.7000098413532,199.7278270846888,15.288,0.0,0.0,0.0530863610987301,2.586862292117705e-09,-0.0006947575786514,1.1773083546077225e-07,3.329010177793299e-05,4.342209163639375,26.81344244367223,18.06372678999575,32.9768158972058
0.45,31.22217987077456,131.0104006014978,6.850166573233225,4.3420317510315165,0.0009500780330031,38.11022602597878,0.001341042003417,3.1022288449712887,397.2093853562869,18.47486275310604,7.616350301328129,69.99547690348253,1.6764536248320808e-06,113.70001042108892,208.92306716049887,15.288,0.0,0.0,0.0542951637545535,2.842521175226318e-09,-0.0007463379956615,1.2932090054593452e-07,3.657529369088674e-05,4.342031854775571,26.30944884471334,18.47501199101448,38.23628058998621
0.46,31.22217959739673,131.01040134180155,7.020045503401754,4.351169003849846,0.0009725797783515,44.3937050866137,0.0013660055515545,3.09098240974522,449.7140588976434,18.844323061800488,7.771531995684422,69.99503610583268,1.8865779683531e-06,113.70001102895836,217.3591612614144,15.288,0.0,0.0,0.0553810645782081,3.1166808800591503e-09,-0.000800596194505,1.417768495237597e-07,4.001824400409673e-05,4.351169112337076,25.873596578896564,18.844475834274814,44.50118229261506
0.47,31.22217931813738,131.01040209802923,7.193559875579052,4.358630093683735,0.0009947969928181,30.22514089990685,0.0013910994973101,3.079396422776949,331.0078106302534,19.2180591098146,7.9280875671397615,69.99456352718363,2.1170044481277104e-06,113.70001166656292,226.0625808853568,15.288,0.0,0.0,0.0564795377574197,3.4102493884459798e-09,-0.0008576351980594,1.551487523304888e-07,4.3718862242359527e-05,4.35863020698899,25.44665981168229,19.218215372160817,30.381603425148434
0.48,31.22217903348153,131.01040286886197,7.370336324605091,4.365514409145237,0.001016880998596,29.779838936311712,0.001416009414045,3.067527859335786,327.2031223011574,19.5915905767454,8.084483592791102,69.99405758812365,2.369198154608765e-06,113.70001233476164,234.93171707892955,15.288,0.0,0.0,0.057577416115756,3.7241711041759195e-09,-0.0009173883913609,1.6944871263079066e-07,4.767297940601472e-05,4.365514527349481,25.03354780044292,19.59175030803913,29.937410312943754
0.49,31.22217874361868,131.01040365378466,7.5502307795521535,4.3786401372577615,0.0010404145545081,37.2489281064929,0.0014385799934191,3.0558405437943126,389.60000969812296,19.93403005898306,8.23012235628909,69.99351671352461,2.644660619562788e-06,113.700013034871,243.21198709852868,15.288,0.0,0.0,0.0585839249886784,4.059374595909599e-09,-0.0009798792959512,1.8470833984680338e-07,5.180951737438081e-05,4.378640260624215,24.667474291142685,19.934193486919103,37.37406598941686
0.5,31.22217844858332,131.0104044527036,7.733219389747018,-9.693464063519922,-0.002903255762931,38.350202063942575,0.0012690470095636,3.8566434435585775,397.97031042210494,18.74416759437084,8.366189013561664,69.99293932307316,2.9449363413826395e-06,113.70001376847225,215.04009588460545,15.288,0.0,5.010313955797237,0.0550871636019628,4.416703151082342e-09,-0.0010538516203957,2.098572043595796e-05,5.239379444803409e-05,9.693464494135885,27.299419864879404,18.74371155202222,38.543633697492105
0.51,31.22217814839076,131.0104052658266,7.9192338187208415,-9.463271301474974,-0.0014908014378878,29.43812933051747,0.0012160685466039,3.865039766170879,323.3984349720841,19.07092289032689,8.520112477133065,69.99236861530237,3.594876693675646e-05,113.70004931325012,222.59878573609285,15.288,0.0,5.030195826929344,0.0560475811218672,4.781453106253398e-09,-0.0009279885822846,2.0963962414320983e-05,4.6939754253128845e-05,9.46327141783235,26.867099826730545,19.07068871578465,29.690772848701293
0.52,31.222177842795784,131.01040609352964,8.108271574376843,-9.237904395441488,-0.0014276296809151,35.27346258583878,0.0012380856767876,3.873766548475409,372.0984511843415,19.406823877533867,8.67657422451961,69.99187059420049,6.891926941579625e-05,113.70008483008624,230.50503515791823,15.288,0.0,5.050005071713381,0.0570348829683471,5.0988324949401555e-09,-0.0007999253163831,2.094392909647305e-05,4.1173946109671056e-05,9.23790450479722,26.435328911719136,19.406599625988008,35.48553552645798
0.53,31.222177531662087,131.01040693620672,8.300443981112105,-9.02146910749848,-0.0013661993294823,37.01300148383268,0.0012597926145475,3.882372681421727,386.5562464348624,19.739328327016377,8.831818418989956,69.99144656493316,0.0001018570236267,113.70012031981184,238.46695994229248,15.288,0.0,5.0697450022075286,0.0580122089419425,5.3680929159372396e-09,-0.0006695562546718,2.092386889163868e-05,3.505338911036601e-05,9.02146921008986,26.01996208336347,19.73911372492756,37.21605967948148
0.54,31.222177214888585,131.01040779413253,8.495827479957564,-8.81270801081609,-0.001306276238034,32.556742729167915,0.0012812818057784,3.890909142238795,349.2703242098436,20.07007425658581,8.986420154396233,69.99109785505657,0.0001347623480861,113.70015578292085,246.52063882229413,15.288,0.0,5.089430063031339,0.0589843731381365,5.588481760464096e-09,-0.0005368187841566,2.090379896496536e-05,2.8574530754155487e-05,8.812708106863756,25.61830149463989,20.06986906719418,32.7884228459996
0.55,31.2221768927478,131.01040866656578,8.694208850193437,-8.613696117567532,-0.0012481773583593,34.478503712188626,0.0013022123462465,3.89920646932576,365.2500005919907,20.39305846954781,9.138297312302289,69.99082577333088,0.0001676356234095,113.7001912194436,254.5140617213328,15.288,0.0,5.109037321714097,0.0599337325208306,5.75928800336921e-09,-0.0004019122485329,2.0883776915290768e-05,2.1737408011013632e-05,8.613696207319435,25.23635477861008,20.392862406306858,34.69828570718723
0.56,31.222176565238296,131.0104095535101,8.895587496373967,-8.42563923146503,-0.0011920214996513,32.20648193673178,0.0013223222737169,3.907135308546118,346.2265619465787,20.703649052010054,9.285853784956297,69.99063156586342,0.0002004773026903,113.70022662987613,262.3206318257147,15.288,0.0,5.1285665482818725,0.0608466741400503,5.87983346848569e-09,-0.0002648380499054,2.0863830351007537e-05,1.454162804287562e-05,8.42563931517726,24.877987350706817,20.70346180971076,32.44261374810689
0.57,31.2221762324294,131.01041045477683,9.099908069660843,-8.239536628620671,-0.0011365179932629,31.84856346176394,0.0013427815507473,3.915266536656036,343.1828296833023,21.022481668249533,9.43622940777424,69.99051644815829,0.0002332879020163,113.7002620146814,270.45692088690515,15.288,0.0,5.148009284153908,0.0617838448127993,5.949473520752061e-09,-0.0001256621127361,2.084399698368408e-05,7.005926423712332e-06,8.239536706462273,24.52007194793407,21.02230314442063,32.08832043647854
0.58,31.22217589429742,131.01041137043015,9.307187424046448,-8.050076078729752,-0.0010809764843911,41.801873034780925,0.0013643935976089,3.923998040850964,426.1250058573153,21.363886245402103,9.594373921430275,69.99048162380056,0.0002660679923152,113.70029737451269,279.3071183209201,15.288,0.0,5.167365602364625,0.0627873597286019,5.967573719104321e-09,1.5617269989075594e-05,2.0824305435348843e-05,-8.848180298480042e-07,8.050076150829183,24.14832462769538,21.363716446013008,41.98564459076598
0.59,31.222175550443705,131.01041230155394,9.517733114353284,-7.8769564841987805,-0.0010279795274439,33.961707510395506,0.0013842278252708,3.93190334001257,360.68438819711065,21.676039401084672,9.742387327754,69.99052839037732,0.0002988181588881,113.70033271057044,287.5229883895433,15.288,0.0,5.186660049099142,0.0637049130654113,5.933422512146321e-09,0.0001592937834353,2.080474650092928e-05,-9.156691179274122e-06,7.876956550853678,23.81580833277465,21.67587792643811,34.18855719115598
0.6,31.22217520107433,131.0104132475876,9.7313837802083,-7.693964877482579,-0.0009741156685618,30.225738328415943,0.0014062411072531,3.9409164677532944,329.4859594986058,22.029224496388228,9.904545371040829,69.99065803996172,0.0003315390539999,113.70036802326892,296.9629151624672,15.288,0.0,5.205874822918331,0.0647430643561972,5.846362153248008e-09,0.0003051966388834,2.078537652272671e-05,-1.7829117760980104e-05,7.693964938776798,23.451778106367158,22.02907148265683,30.48156954753472
0.61,31.22217484613919,131.01041420866716,9.948176753822867,-7.514215394266845,-0.000921135356382,35.34735883003008,0.0014284840220064,3.950091107620804,372.0984511843297,22.388976881937285,10.068937043761792,69.99087188128539,0.0003642313805195,113.7004033134397,306.7349443485064,15.288,0.0,5.225016334145358,0.065800524050584,5.705715034164527e-09,0.0004533554541694,2.0766225382380328e-05,-2.691627459305549e-05,7.514215450401791,23.09162606474517,22.38883219033386,35.567386719549376
0.62,31.22217448574795,131.01041518449424,10.168025487336488,-7.361580513145318,-0.0008718670922932,43.8519922532815,0.0014468554065279,3.957417290545912,442.86563930529206,22.68198773822388,10.21026753862616,69.99117123660116,0.0003968959011133,113.70043858175131,314.8094884534963,15.288,0.0,5.244092936408936,0.0666618394058217,5.510810605898152e-09,0.0006037130480083,2.074733514622604e-05,-3.631151446292156e-05,7.361580564490574,22.80256489995205,22.681850785661283,44.030198481119335
0.63,31.222174119718584,131.01041617556362,10.391069918785432,-7.206278635976208,-0.0008226230436005,25.033627074462977,0.0014661868657683,3.965251393750161,286.11251274707894,22.99453572014696,10.358320089774567,69.99155732009203,0.0004295334726381,113.70047382938657,323.5382109810691,15.288,0.0,5.263068333138129,0.0675805807749483,5.261047386781946e-09,0.00075635626975,2.0728731710477574e-05,-4.611842251302782e-05,7.206278682681118,22.50248494388718,22.99440650282144,25.345723609094836
0.64,31.22217374861985,131.01041718032852,10.61686772648334,-7.0447195178909245,-0.0007731362909507,24.580481900399928,0.0014872362304185,3.973971354721448,282.30782441796754,23.340359061381434,10.517811893769023,69.99203133272393,0.0004621450276056,113.70050905654384,333.33578411874566,15.288,0.0,5.281961933568142,0.0685971249054763,4.955879508360897e-09,0.0009108440011691,2.071050313631945e-05,-5.637226773649777e-05,7.044719560101583,22.18049998879713,23.340237617416843,24.899649415120418
0.65,31.222173372430763,131.01041819884588,10.84543417656308,-6.902659274688377,-0.0007262299825638,43.15018593927647,0.001505272039098,3.9812544264677694,436.7781447787475,23.634445125715143,10.659431086051208,69.99259439710056,0.0004947315780691,113.70054426434284,341.7811934739303,15.288,0.0,5.300746308831015,0.069461620562906,4.5947809504726556e-09,0.0010672065964392,2.0692680482445485e-05,-6.688032120932134e-05,6.902659312706806,21.91081416397084,23.634331049776243,43.3334620780321
0.66,31.222172990655388,131.01041923246413,11.077152994834556,-6.760474285978414,-0.000679653324976,36.75545952406866,0.0015238085425529,3.9888288184765934,383.51251517160017,23.94004617039355,10.805000308813776,69.99324762575617,0.0005272941962228,113.70057945464066,350.6692175486959,15.288,0.0,5.319446113384025,0.0703599657893004,4.177225241276244e-09,0.0012257792050231,2.0675265118687584e-05,-7.780938954172193e-05,6.7604743199836586,21.637445534178703,23.93993941069892,36.97126671471444
0.67,31.222172603471805,131.01042028069878,11.3118850246536,-6.613308957091529,-0.0006329938550838,25.414802074468035,0.0015438711225816,3.9972049571905246,289.1562440103425,24.27585729869152,10.960951324679188,69.99399223218497,0.000559834002248,113.70061462838969,360.5678825654884,15.288,0.0,5.338081583073096,0.0713471060209432,3.7026629822729614e-09,0.0013864100738315,2.0658313788914568e-05,-8.923829560463741e-05,6.613308987250433,21.34571920540904,24.27575786824928,25.727219327741413
0.68,31.22217221104162,131.01042134311027,11.549503987874257,-6.472132261637012,-0.0005873807350347,31.643766538590228,0.0015632885363095,4.005310393063713,340.8999924858462,24.602693416163667,11.113774075061576,69.9948293911663,0.0005923521970462,113.70064978665168,370.33374535701006,15.288,0.0,5.356595687410776,0.0723078760761082,3.1705734878563637e-09,0.001548978999696,2.0641879036855927e-05,-0.0001010423086317,6.472132288177519,21.06819695864801,24.60260115061357,31.896245461456083
0.69,31.222171813439736,131.01042241949483,11.78995099128439,-6.342214028615654,-0.0005432118269985,38.88360570941312,0.0015808616038863,4.01255205879168,401.0140726853634,24.89868260715234,11.255943659741808,69.99576021567916,0.000624850066816,113.70068493070212,379.28938495167455,15.288,0.0,5.375019857846153,0.0731779935555229,2.580480672712833e-09,0.0017134101394971,2.0626008756526112e-05,-0.0001131104551279,6.342214051783668,20.82105923646448,24.89859727963809,39.09009298388457
0.7,31.222171410530454,131.01042351022133,12.03333066799672,-6.214748339345119,-0.0004996262380969,32.66190859185862,0.0015983562189632,4.019804641987875,349.27032420985284,25.195907456065463,11.398512873498875,69.99678576476077,0.0006573289788115,113.7007200622014,388.38979399263286,15.288,0.0,5.393371797892796,0.074051749852754,1.9319468020906328e-09,0.0018797814911772,2.061073826812852e-05,-0.0001255718439507,6.214748359349669,20.57823083299313,25.195828974959507,32.90834399931752
0.71,31.22217100236314,131.01042461515536,12.279604114104892,-6.085007968714272,-0.0004562779852411,26.894678536055977,0.0016168065791301,4.027574964671328,301.33126406340574,25.5133763249218,11.548013780279009,69.99790711381934,0.0006897903721231,113.70075518262378,398.229473088285,15.288,0.0,5.411600595009572,0.0749850115205563,1.2245381049083694e-09,0.002048028860958,2.0596117123288845e-05,-0.0001385315312199,6.085007985756681,20.325513584395942,25.51330465294348,27.194578435193673
0.72,31.22217058893672,131.01042573429973,12.528771590349471,-5.952328189921151,-0.0004131842521879,32.85675931237654,0.0016364674426603,4.036002436439189,350.79220534145287,25.855987507643075,11.706126707325357,69.9991253471336,0.0007222357596211,113.7007902935938,408.98689857029007,15.288,0.0,5.429742525408478,0.0759921755030001,4.5782172354531326e-10,0.0022181430565169,2.058219111683684e-05,-0.000152049472164,5.952328204210234,20.060263807915835,25.855922604812516,33.103715061249716
0.73,31.222170170245,131.01042686767116,12.78083732706202,-5.836083677200907,-0.0003716583690191,41.48102124058524,0.0016527432820388,4.042808384045997,422.320318528234,26.13935105191876,11.84383210370993,70.0004415876104,0.0007546667272403,113.70082539682076,417.99032333133925,15.288,0.0,5.447811850800488,0.0768252150890439,-3.6865113749962535e-10,0.0023901327347032,2.0569006242308603e-05,-0.0001656305882522,5.836083688994093,19.84313527560088,26.13929267195867,41.67756501432824
0.74,31.222169746223088,131.0104280154459,13.035851315275403,-5.717842784331521,-0.000330385677836,26.079800705743462,0.0016698977157374,4.050096874457353,294.48281347105944,26.44181721208101,11.988073979360664,70.00185685306221,0.000787084958808,113.70086049420136,427.7091949252593,15.288,0.0,5.465781242250633,0.0777144059613399,-1.255249735832844e-09,0.0025639953514488,2.055661158880465e-05,-0.0001797304325872,5.717842793844922,19.61701966498072,26.44176531522009,26.392409748492934
0.75,31.222169317220967,131.01042917667243,13.293541683716894,-5.599260194500206,-0.0002895516559821,30.39515263496848,0.0016875738560561,4.057695177713619,330.24688556441487,26.756939454353265,12.136621188079326,70.00337214457261,0.0008194922271509,113.70089558713865,437.95361355390753,15.288,0.0,5.483631604605503,0.0786408015697165,-2.202331439520147e-09,0.0027394381119007,2.0545073974757778e-05,-0.0001943122898141,5.599260201963029,19.38699516722567,26.756893971685503,30.66480387522766
0.76,31.22216888312693,131.0104303516542,13.553994915887555,-5.4875575005159725,-0.0002495076540436,32.69379901944968,0.0017039136654044,4.064680876114525,349.27032420986166,27.050372712757262,12.277676508692863,70.00498841596635,0.0008518903886619,113.70093067777924,447.6008333833447,15.288,0.0,5.501397012270698,0.0795034591866828,-3.210211128387441e-09,0.0029165391816529,2.053443726354617e-05,-0.0002091378053423,5.487557506170982,19.176254344257817,27.050333520186616,32.945502391861346
0.77,31.222168443881515,131.01043154055284,13.817257058022536,-5.379094247708019,-0.0002100079772539,30.587035345642548,0.0017197797831943,4.071485222102104,331.7687666960708,27.338074847355085,12.416726409964737,70.00670661031712,0.0008842813862451,113.70096576828765,457.16108663626136,15.288,0.0,5.519079424229672,0.0803492800867853,-4.279186107668681e-09,0.0030953200832501,2.0524751563348765e-05,-0.0002243127664936,5.379094251795467,18.9734025348962,27.33804185937916,30.856826248125792
0.78,31.222167999545164,131.01043274320395,14.083281176461783,-5.268906761710621,-0.0001708671762506,25.173036459660548,0.0017364942785829,4.078762499417643,286.8734378128899,27.64477983318156,12.56225871217106,70.00852764594285,0.0009166672533756,113.70100086075446,467.464435932967,15.288,0.0,5.536645383057268,0.0812509599512891,-5.4095341419441365e-09,0.0032756947872031,2.05160734705129e-05,-0.0002400412988191,5.268906764473401,18.76233085493491,27.64475299342828,25.501334693334528
0.79,31.22216755020141,131.01043395938032,14.352002454869412,-5.158771057021124,-0.0001322011895443,35.64790668643414,0.001753622062631,4.086304199387548,373.6203323159534,27.96255136459481,12.71154178675454,70.01045239541482,0.0009490578343555,113.70103596835769,478.2606910867922,15.288,0.0,5.554105866529053,0.0821851735869104,-6.6015166898575795e-09,0.0034575764398099,2.050845942308204e-05,-0.000256275317605,5.158771058710477,18.54863450688843,27.96253059848052,35.881348026653605
0.8,31.222167095629928,131.01043518968095,14.62359199018796,-5.057743601827405,-9.418867472069926e-05,36.11267332134062,0.0017685187067944,4.092786768289,377.42502064505743,28.241825052300182,12.84757065118304,70.01248186355798,0.0009814399015449,113.70107107172916,487.8488514820162,15.288,0.0,5.571489493567048,0.083006245614545,-7.855393644529215e-09,0.0036411349794772,2.050195990747628e-05,-0.0002725689651461,5.057743602702202,18.36289358077704,28.241810257177757,36.34385891828504
0.81,31.222166635928616,131.01043643383963,14.89797398849835,-4.954210347076455,-5.654403642497086e-05,23.617252508608644,0.0017845177338561,4.099878916018508,273.9374926939919,28.545231397119167,12.99183718896796,70.01461689817783,0.0010138234879247,113.7011061842269,498.3740973354277,15.288,0.0,5.588787410317105,0.0838982544241511,-9.171394517830252e-09,0.0038262395477021,2.0496637010922657e-05,-0.000289495054094,4.954210347398306,18.16607201080248,28.545222515202692,23.970474053841695
0.82,31.222166171279888,131.01043769136027,15.175007047331595,-4.85086694810582,-1.9378421316176845e-05,30.239116133771816,0.0018008641719714,4.107209797973245,328.72500443277005,28.858743433352025,13.13951783394864,70.0168583515366,0.0010462110060068,113.7011413081713,509.367939344017,15.288,0.0,5.60599139644042,0.0848199733656546,-1.0549735843762384e-08,0.0040127202600958,2.049255190512425e-05,-0.0003069305881893,4.850866948144391,17.967172927585647,28.85874038939672,30.51677112866658
0.83,31.22216570166445,131.0104389622952,15.454706457770651,-4.757275191810624,1.731738890324305e-05,38.33622082843512,0.0018144853377357,4.113214312557904,395.68750322465047,29.12413018995732,13.270639823759824,70.01920705688052,0.0010786049662201,113.70117644627264,518.7654374171444,15.288,0.0,5.623072530259211,0.0856002531249499,-1.1990593425806132e-08,0.0042005853788528,2.048976324951855e-05,-0.0003242462665679,4.757275191842042,17.799951499357576,29.12413291016641,38.55624933366744
0.84,31.22216522697536,131.0104402469353,15.7371558075815,-4.663726186059296,5.363820955749372e-05,23.80575154441152,0.0018283788645901,4.119408521094596,275.4593748256452,29.39816697863796,13.404682062938289,70.02166373373414,0.0011110157764189,113.70121161260424,528.5594358810837,15.288,0.0,5.640067667263557,0.0864059643323878,-1.3494073805293652e-08,0.0043898661936261,2.048833304960389e-05,-0.0003420361101905,4.663726186367035,17.630670693452362,29.398175404108216,24.15953924438311
0.85,31.2221647475009,131.01044154449656,16.022131716349577,-4.565591532676256,8.944388361932085e-05,25.923867743546488,0.0018441305194059,4.126604312278071,292.96093233939376,29.71132780105529,13.552076997757696,70.02422917349361,0.0011434305508632,113.70124678738644,539.8654833713729,15.288,0.0,5.656963208217947,0.0873266753906227,-1.5060321938998312e-08,0.0045802883634925,2.0488322182178632e-05,-0.0003606645186548,4.565591533550519,17.442591982905437,29.71134185086768,26.25025305279588
0.86,31.22216426306685,131.01044285545268,16.309770099656024,-4.473760303164887,0.0001249098585912,32.36971816048974,0.0018581017917263,4.132956898143161,346.2265619465587,29.99422594878051,13.68904391735668,70.02690408882913,0.001175859903722,113.70128198500676,550.1799507304281,15.288,0.0,5.673770832141743,0.0881584475547002,-1.66894060081494e-08,0.0047719888406003,2.0489795033244665e-05,-0.0003793268798338,4.473760304905137,17.274677006803746,29.994245569575217,32.63249898435593
0.87,31.22216377369472,131.0104441797452,16.60005495569538,-4.385576060285022,0.0001600663403381,30.16333944325557,0.0018710918582408,4.138866650489673,327.964078366998,30.26201649733106,13.820779864110945,70.02968917957627,0.0012083067576258,113.70131720855528,560.0322828932558,15.288,0.0,5.69048974984871,0.0889458236677719,-1.8381392774853832e-08,0.004964913193651,2.049281719659972e-05,-0.0003981749704488,4.385576063200409,17.117818464906208,30.26204164049301,30.44597291959279
0.88,31.222163279417504,131.01044551728432,16.892961448706814,-4.2959249791055045,0.0001947463970585,26.113509415306503,0.0018848934577177,4.145248971896204,294.4828134710418,30.549308368507617,13.959137439801696,70.03258506502365,0.0012407819246211,113.70135247232736,570.70001352242,15.288,0.0,5.707116020805402,0.089790525880559,-2.0136317874919337e-08,0.00515897623059,2.0497454268765505e-05,-0.0004176544618652,4.295924983511481,16.95330801058295,30.54933895920013,26.44047024118768
0.89,31.22216278031353,131.01044686785715,17.18842958412766,-4.204972581916532,0.0002288874646324,28.60295272240454,0.001899497726196,4.15209825240622,315.028134248087,30.856222093435576,14.104147714327423,70.03559245546916,0.0012732729794091,113.70138775734613,582.2081731749336,15.288,0.0,5.723630652218278,0.0906929090413183,-2.1954216457014832e-08,0.005354091052678,2.0503771835007803e-05,-0.0004377925800917,4.204972588134833,16.781567039108225,30.856258046994444,28.902747757710436
0.9,31.22216227630641,131.01044823167135,17.48651959098833,-4.122497648978385,0.0002630501908157,31.554500848683595,0.0019111968257054,4.157519640307724,339.37814235421445,31.110748123815327,14.231160331546803,70.0387119675502,0.0013057909639689,113.70142307830596,591.8358525158357,15.288,0.0,5.740053262642848,0.0914413219886955,-2.3835071614023866e-08,0.0055502989516643,2.0511842781435647e-05,-0.0004575665724844,4.1224976573562335,16.63960224328207,31.11078944364268,31.8272131519835
0.91,31.22216176746392,131.01044960854267,17.787179878184947,-4.038582348084769,0.000296714754076,24.09016735056452,0.0019236946589411,4.1634067042033935,277.7421810230789,31.38487556124782,14.364819511371843,70.0419441092867,0.0013383471195618,113.70145844994188,602.2941465731934,15.288,0.0,5.756385111441336,0.092247355681292,-2.5778837526447944e-08,0.0057474889112508,2.052173499734435e-05,-0.0004779841234269,4.03858235896649,16.490057063795028,31.3849221690924,24.447292734849228
0.92,31.22216125398269,131.01045099793626,18.090258612601435,-3.9534244213092737,0.0003298139590343,28.60966436321245,0.001936973675066,4.169752794022548,315.02813424806214,31.67853986597327,14.505091040883428,70.0452894782664,0.0013709291645479,113.70149385319388,613.6001970347464,15.288,0.0,5.772618531566506,0.0931108209183807,-2.7785502250997145e-08,0.0059454521663955,2.0533507766823665e-05,-0.0004990594940553,3.9534244350448215,16.333406707381297,31.67859167302881,28.91193070500125
0.93,31.22216073577204,131.01045240009896,18.395827555320032,-3.875598266941677,0.0003630888421133,33.961783554448644,0.0019475216299272,4.174746551548156,359.1625070654728,31.92273267906394,14.628369749774064,70.04874849557157,0.0014035564371477,113.70152931449044,623.0781985616403,15.288,0.0,5.788761936579353,0.0938288856308962,-2.985491202735265e-08,0.0061442520086983,2.0547240002174145e-05,-0.0005197070552136,3.87559828392388,16.203381695260532,31.92278971292589,34.21741157308253
0.94,31.22216021272256,131.01045381532813,18.70397314663942,-3.793666633655618,0.0003955579649457,24.738335568607177,0.0019600135806552,4.180803438924917,283.0687504837787,32.20964537017886,14.766190445958127,70.05232166286198,0.0014362169069452,113.70156481548533,634.3098664284344,15.288,0.0,5.804815192404291,0.0946725228744824,-3.1986905421449826e-08,0.0063438973260027,2.0563011829425283e-05,-0.000541400642594,3.793666654247563,16.054964342129566,32.2097075042787,25.089128481108997
0.95,31.222159685116928,131.01045524285524,19.01447676444953,-3.713777716245104,0.0004277484262232,31.938239646987327,0.0019719095950955,4.1866091920743616,342.4218736174873,32.489274828893365,14.90144119827978,70.05600939541488,0.0014689222818503,113.70160037109656,645.3520061348745,15.288,0.0,5.820771903280859,0.0954947611384521,-3.418141563099852e-08,0.0065441389665912,2.058087823702113e-05,-0.0005633214100258,3.713777740844383,15.912472425859937,32.48934201945904,32.21147081652718
0.96,31.222159152665814,131.01045668346703,19.327565016494525,-3.637938576463004,0.0004599707216671,31.294753476443425,0.0019822610177467,4.1916750221980665,337.09533515678345,32.74271328099398,15.027668009284367,70.05981205598033,0.0015016845005541,113.7016359973386,655.4399361461682,15.288,0.0,5.836644649609064,0.0962400252539406,-3.643814538181701e-08,0.0067451739440662,2.0600942257405736e-05,-0.0005851382467625,3.637938605502679,15.784372102498494,32.74278553302599,31.574225858640553
0.97,31.22215861538742,131.01045813711403,19.643225276877367,-3.5618884512449047,0.0004917465264563,20.123187382598445,0.0019929143621742,4.196959269919208,245.02188719299323,33.00679912381854,15.157460959588628,70.06373008136259,0.0015344994174669,113.7016716867904,666.0352620549377,15.288,0.0,5.852431935822072,0.0970165932326306,-3.875691325788282e-08,0.0069469337367288,2.062328397481617e-05,-0.0006074829132322,3.561888485145837,15.653374251109415,33.00687636718229,20.55619472373809
0.98,31.22215807356285,131.01045960303207,19.96124028579099,-3.482379819584657,0.0005225353927014,29.175189625358048,0.0020054308219061,4.203280409140273,319.5937466429581,33.313223672167815,15.301632033211169,70.06776385269437,0.0015673637953337,113.70170743291068,678.4384588474841,15.288,0.0,5.868123131400672,0.0979176155729123,-4.1137618986266746e-08,0.0071491267076263,2.0647952485062235e-05,-0.0006309484684532,3.482379858739866,15.505557159788902,33.313305751835365,29.476418708778297
0.99,31.22215752704556,131.01046108161952,20.281725733750203,-3.411822555982179,0.0005542007544978,31.856494294604296,0.0020139434171047,4.20755968073196,341.6609485517054,33.543729587375665,15.419793297448296,70.0719136397501,0.0016002978110356,113.70174326310963,687.8384764694013,15.288,0.0,5.8837302306970685,0.0985954985599011,-4.3579919680913264e-08,0.0073518682889909,2.067505143197537e-05,-0.0006533109440211,3.411822600939933,15.393589051170764,33.54381664102661,32.133157194166984
1.0,31.22215697583332,131.0104625728825,20.60468520933148,-3.3379310857995814,0.0005849015052542,28.53160623155679,0.0020242493821507,4.21284227583035,314.2672081822764,33.815465101416834,15.551952338471958,70.07617973571044,0.0016332897464689,113.70177915906538,699.0062000315223,15.288,0.0,5.89924857339297,0.0993945763330919,-4.6083531958577806e-08,0.0075550657399674,2.070466059916665e-05,-0.00067678544223,3.3379311369873816,15.2653181799029,33.815556977530434,28.840953491367433
1.01,31.22215642010117,131.01046407634513,20.92998414332414,-3.2658719736975046,0.0006154403458286,29.827359795648725,0.0020338626737746,4.217814357041604,324.9203161036979,34.078171859275045,15.680940863598895,70.08056231030619,0.0016663601322271,113.70181514813729,709.8871353384143,15.288,0.0,5.914676025135131,0.1001671240480783,-4.8648203084415616e-08,0.0077585461447871,2.0736844327064e-05,-0.0007003908481199,3.265872031623332,15.14289711484159,34.078268532418505,30.124099230784402
1.02,31.222155859773693,131.01046559221265,21.257683248374875,-3.195956234498877,0.0006459278104927,24.927790717581257,0.0020425729839509,4.222360098312309,284.59063161540416,34.327497356952854,15.805276486583365,70.08506156664147,0.001699505973879,113.70185122444629,720.2899308321596,15.288,0.0,5.930016435664186,0.1009003480334444,-5.1273536392897474e-08,0.0079623158710043,2.077169910886139e-05,-0.0007240218980681,3.195956299704695,15.027937259636758,34.327598819056064,25.28286136954151
1.03,31.22215529491664,131.0104671203063,21.58773332864232,-3.1242704284745844,0.0006755747391413,20.39540468584384,0.0020524077763713,4.22756054613558,247.30469339049705,34.605270610767114,15.93922562219232,70.08967761328712,0.0017327320372237,113.70188739293413,731.9708579532937,15.288,0.0,5.945267085862758,0.1017171982122671,-5.39591736182348e-08,0.0081662549536442,2.0809300711394228e-05,-0.0007485513081467,3.124270501443381,14.902880288122985,34.605376729798984,20.828941516144326
1.04,31.222154725588847,131.0104686604661,21.920090494070774,-3.0562464931485107,0.0007055220936855,32.33081472880221,0.0020604810525908,4.231885607598943,345.46563688072297,34.852062248255834,16.062514116028822,70.09441057248857,0.001766043262585,113.70192365873709,742.4246611537981,15.288,0.0,5.960430219811613,0.1024429908153997,-5.670472746397048e-08,0.0083702832542566,2.0849731863219296e-05,-0.0007727004431783,3.056246574504672,14.79239266594413,34.85217307140715,32.60660118855566
1.05,31.222154151514328,131.01047021344277,22.25497224547477,-2.9870442477622587,0.0007347291543458,19.560482060617403,0.0020693834826528,4.2367142797467325,240.45625879819983,35.12167060077801,16.193493161740907,70.09926053142995,0.0017994372022929,113.70196001689004,753.9313261732412,15.288,0.0,5.975514267312206,0.103235858748757,-5.950959783730056e-08,0.0085745567533997,2.089313400398527e-05,-0.0007976555670125,2.987044338041802,14.674314809912758,35.12178601176369,20.014050330062958
1.06,31.222153572921545,131.01047177861503,22.59220254270103,-2.917084602921909,0.0007632063256095,27.79888930247956,0.0020789423944782,4.241965219793944,308.17968365593924,35.4109350820894,16.331071507814556,70.10422749440652,0.0018329351777426,113.70199649552164,766.3765029279824,15.288,0.0,5.990512870804457,0.1040865124414281,-6.23734753599628e-08,0.0087788302779353,2.0939559817332228e-05,-0.0008233576718335,2.917084702675708,14.550274203058242,35.41105496625868,28.12067779587568
1.07,31.222152989698063,131.01047335628883,22.931871333322565,-2.85219858746168,0.0007925058222908,32.7080179484521,0.0020857670665864,4.245812466978279,348.5093681440308,35.6486952909736,16.451003694771902,70.10931157077043,0.0018665342662996,113.70203308861603,776.6771005715301,15.288,0.0,6.005434729567729,0.1047857838263113,-6.529580373452429e-08,0.0089831683655936,2.098913727552136e-05,-0.0008481516247964,2.8521986974727778,14.448255733406532,35.64881977749706,32.98244026707904
1.08,31.222152401746584,131.0104749467288,23.274057016808456,-2.787352420871949,0.0008213691282901,22.05758536218416,0.0020927043489482,4.249786098828179,261.00157857466235,35.89471296148659,16.57365711855414,70.11451273478515,0.0019002408118756,113.70206980330228,787.4081696236086,15.288,0.0,6.020280850096824,0.1055093356479245,-6.827602107609575e-08,0.0091875624069544,2.104198516633893e-05,-0.0008734073286393,2.78735254179587,14.344444993761307,35.89484198184755,22.46325351046116
1.09,31.22215180933193,131.01047654921496,23.61855531211635,-2.719272715535212,0.0008487318863256,20.296013235055767,0.0021018071375849,4.254994897218984,246.54375332474407,36.19301260081975,16.714008636642387,70.11983093300135,0.0019340598442881,113.7021066442596,800.5234234596246,15.288,0.0,6.035042508165794,0.1063865746544951,-7.131379900453526e-08,0.0093917196185933,2.109814172649541e-05,-0.0009002052192007,2.7192728478875674,14.22229087440376,36.19314591931269,20.7372403957352
1.1,31.22215121252692,131.0104781635493,23.965311758698054,-2.654297763030113,0.0008764709575969,40.59299679193224,0.0021092110466387,4.259351436507058,413.1890617385841,36.46161596367435,16.844138820116903,70.12526606802629,0.0019679981237497,113.70214361884304,812.4224869149267,15.288,0.0,6.049722650188065,0.107176532956311,-7.440858985827668e-08,0.009595549001075,2.11576978731396e-05,-0.0009265373877588,2.654297907635536,14.113181841717653,36.46175363941042,40.815848241317575
1.11,31.22215061094533,131.01047979078237,24.314630696188107,-2.594310462879049,0.0009053954911656,29.74978573273321,0.0021135571617832,4.262106832077314,324.1593910376397,36.670841967634246,16.953966036814943,70.13081802789101,0.0020020609606615,113.70218073292476,821.7454375152253,15.288,0.0,6.064335366312574,0.1077919640172717,-7.755948325442285e-08,0.0097993075306703,2.122086476898668e-05,-0.0009516097985063,2.5943106207592392,14.02751983731374,36.67098418682542,30.053540727486677
1.12,31.222150004647663,131.01048143074976,24.666467736947105,-2.527633627898852,0.0009314578961059,11.296175354805836,0.0021224487543179,4.267424458317684,172.73281794065943,36.98512659537437,17.099432627057418,70.13648660343189,0.002036255505321,113.70221799431594,835.8629591604683,15.288,0.0,6.078874324059436,0.1087162184024746,-8.07659422264827e-08,0.0100028350205944,2.1287730943154983e-05,-0.0009796663127367,2.5276337994132767,13.904745382823052,36.98527290843854,12.075367226662694
1.13,31.222149394200464,131.0104830819109,25.020382507707545,-2.4659087439018594,0.0009587110981637,35.0395003204106,0.0021282453880891,4.271108502422316,367.5328077900705,37.23916089599211,17.224284488071735,70.14227163607558,0.0020705962039482,113.70225542038332,847.3559235792513,15.288,0.0,6.093329911033349,0.10946337869908,-8.402778291734574e-08,0.0102056475770962,2.135825425297045e-05,-0.0010063606533162,2.4659089301534425,13.80553074420646,37.23931148997925,35.29885203619159
1.14,31.222148778969377,131.01048474599102,25.376873947469463,-2.4077188101561355,0.0009868721697502,19.453863406392166,0.0021317081523184,4.273574736487837,239.69531773195544,37.44890313612983,17.333978015119783,70.14817287624075,0.0021050733864506,113.70229299584568,856.8985910016163,15.288,0.0,6.107721381922038,0.1100803524845636,-8.734372610744993e-08,0.0104081808798053,2.143273865189024e-05,-0.001032077370759,2.407719012285916,13.72333139481854,37.44905815364775,19.91773699512801
1.15,31.222148159420737,131.0104864217221,25.735580350396138,-2.343205046321213,0.0010118588660883,19.173060484853394,0.0021398127712582,4.278673943856695,237.41251153546767,37.768127002153406,17.48076386711938,70.15418990427499,0.0021397023435682,113.70233073935074,871.539662884572,15.288,0.0,6.1220312969252975,0.111019154503785,-9.07135183040831e-08,0.010609941792756,2.1511138753284623e-05,-0.0010610156936774,2.3432052646734487,13.603974737941249,37.768285944572405,19.644676216534688
1.16,31.22214753568624,131.01048810874616,26.09640137845577,-2.2871190185289367,0.0010398966692866,49.99369042302361,0.0021419670910552,4.280534492471189,490.0437743845894,37.96275273040209,17.58509319623113,70.16032241223779,0.0021744902349644,113.70236865831582,880.5146785139096,15.288,0.0,6.136265806685186,0.1115917099206785,-9.413644669446109e-08,0.0108108203199418,2.1593544932867908e-05,-0.0010866374068446,2.2871192548110475,13.52934109507362,37.96291607698891,50.176608716038004
1.17,31.222146906934448,131.01048980932444,26.45999114072121,-2.228151938593695,0.001066170840663,8.954859220564959,0.0021463384024244,4.283699281168433,153.70937929486794,38.214141137633646,17.708605016339188,70.16656986640318,0.0022094521746668,113.70240677284876,892.183621047684,15.288,0.0,6.150443778468832,0.1123311283830559,-9.761091246306224e-08,0.011011363482556,2.1680362719784088e-05,-0.0011140850325322,2.2281521935464457,13.436256367674735,38.21430861135766,9.926710824759063
1.18,31.222146274263835,131.01049152046983,26.825492703418007,-2.1653659916325143,0.0010899088536088,24.36872669194384,0.0021538619573439,4.288695749340104,280.02501822196746,38.544471394971055,17.858781268239408,70.17293188435518,0.0022445787890086,113.70244506533572,907.6428262762756,15.288,0.0,6.1645346354867625,0.1133026072450536,-1.0113728772320017e-07,0.0112105904417553,2.177129900220842e-05,-0.0011440064422252,2.1653662657975072,13.318050424875512,38.54464259745343,24.743236580047192
1.19,31.222145637180727,131.010493243525,27.19329562276328,-2.113279523874592,0.0011184843153979,42.486328948113176,0.0021530899031507,4.289092867642553,428.4078130529292,38.69488668459456,17.947769980311822,70.17940790869316,0.0022798952306311,113.7024835694886,914.7082695453267,15.288,0.0,6.178540421986596,0.1137452295573736,-1.0471402699181025e-07,0.0114089050095823,2.1866698460306696e-05,-0.0011687458678031,2.113279819727394,13.261170021082869,38.69506237569997,42.70227710263632
1.2,31.22214499526262,131.0104949796393,27.56373468368212,-2.0539742643390806,0.0011427553435562,4.478931396720849,0.0021581864149379,4.292868136428616,117.1843741360236,38.98689091161872,18.0846936224644,70.18599732774499,0.0023153922070752,113.70252226989984,928.532690375618,15.288,0.0,6.192483604155327,0.11460406725664,-1.0833989673591597e-07,0.0116064688960676,2.196683251188234e-05,-0.0011979144545,2.053974582096262,13.158482900764744,38.98707041520832,6.20399451571844
1.21,31.222144349608044,131.01049672582528,27.93595195460702,-1.995858691200156,0.0011669399376593,34.12799985139084,0.0021625319919796,4.296280796364557,359.92343213200894,39.27032399780629,18.21856170304092,70.19269949690877,0.002351094174129,113.70256119686098,942.048869297186,15.288,0.0,6.206341469164435,0.1154377190198502,-1.1201520175225285e-07,0.0118023563300034,2.2071368909073336e-05,-0.0012269440777086,1.9958590322057603,13.06012496820891,39.27050730030304,34.39736046870877
1.22,31.22214369938301,131.01049848435127,28.31060471285805,-1.9447834810572728,0.001194714427641,24.73818667113652,0.0021609723631167,4.29639618330348,283.0687504825761,39.42530717143439,18.308762375770907,70.19951376670814,0.0023869923284207,113.70260033606156,949.4650977263116,15.288,0.0,6.220142417127394,0.1158937923608133,-1.1573786086113024e-07,0.0119971874039336,2.2180828494918948e-05,-0.0012520753336804,1.9447838478830677,13.004081838437846,39.42549483673783,25.108502635754743
