Time,Latitude,Longitude,Altitude,Angle of Attack,Angle of Sideslip,X-Acceleration,Y-Acceleration,Z-Acceleration,Thrust,True Velocity,Ground Velocity,Pitch,Roll,Yaw,Dynamic Pressure,cp,parachute_deploy_gain,Wind Speed,Mach,omega_x,omega_y,omega_z,Cmq
0,31.2221860000000042,131.010383999999988,3.00000000364323682,0,0,0,0,0,2.2828121974499247,0,0,69.9999999962342088,0,113.699999993883324,0,15.2880000000000003,0,0,0,0,0,0,-0
0.01,31.2221859999997946,131.010384000000556,3.00000016469923247,0,0,0,0,0,34.2421869617492334,9.11367326775851009e-12,8.66229497295429822e-12,69.9999999962370651,-4.92863947922479589e-13,113.699999993882884,5.08594204168408172e-23,15.2880000000000003,0,0,2.67827100510624443e-14,-3.65918233213857746e-19,7.58941520739853104e-19,4.81114714040442593e-19,-1.83541113936281872e-32
0.02,31.2221859999996028,131.010384000001039,3.00000030885429547,0,0,0,0,0,25.8718762377664078,1.96992978605390895e-11,1.88456988716431921e-11,69.9999999962400494,-1.04152381447771591e-12,113.699999993882386,2.37621641206600858e-22,15.2880000000000003,0,0,5.78911013494094702e-14,-7.28448334638698292e-19,1.51788304147970621e-18,9.75781955236953991e-19,-7.93451985123442364e-32
0.03,31.222185999409362,131.010384001586402,3.00018176030779937,18.6493779029494604,-0.000129237623237530007,10.7928899806483045,-1.97644583900689674e-05,3.34983967390763571,180.342193598546658,0.0785672533977095078,0.0490694047558625918,69.9999999976775626,-4.2497891361524094e-12,113.699999994705607,0.00377978965327356543,15.2880000000000003,0,0,0.000230888677896110966,2.88330015245363835e-17,-7.25223402354589416e-10,1.08188208080271277e-11,1.51197624781400831e-13
0.04,31.2221859959356287,131.010384010943454,3.00162780953569674,9.74253989061216075,-4.88763086122285772e-05,51.6475445943311158,1.54548216767323456e-06,3.34965665682309899,548.635972453807767,0.346420694310776434,0.171860503977579737,70.0000000036447574,-2.28205307288861013e-11,113.699999999565534,0.0734838809649275282,15.2880000000000003,0,0,0.00101804013696402693,1.80009747884589399e-15,-1.58734069119923437e-08,2.61929145365345784e-11,1.45916869803439425e-11
0.05,31.222185985910329,131.010384038045004,3.00715844163023283,5.5769968489095687,-4.21135943534799539e-06,75.3242160169835273,4.73080294831520123e-05,3.34902689347595528,761.698429882464552,0.947854334293939504,0.409211128642743283,70.0000000010935537,-1.04766136577077691e-10,113.700000013612069,0.55013262299765131,15.2880000000000003,0,0,0.00278549703395658196,1.95473045844392346e-14,-1.13584749331540247e-07,4.14067569904437612e-11,2.85688606727574374e-10
0.06,31.222185966868647,131.010384089593572,3.01868664272593046,4.48500474963244322,2.31139019787050305e-05,56.3605563030587007,9.71465785775115924e-05,3.34799244711343214,590.487539073720654,1.60618980149218604,0.665693519146445256,69.9999999197690244,-2.82941102348924619e-10,113.700000040305838,1.57971028663545732,15.2880000000000003,0,0,0.00472017413217633904,1.01936766184118274e-13,-4.07864410983111553e-07,5.76522069423461223e-11,1.73837509686130208e-09
0.07,31.2221859390775336,131.010384164863126,3.03600551209402658,4.00448286551149391,4.63712119495135773e-05,85.8192455386477917,0.000147926970097503541,3.34656708333141317,855.293774977913927,2.27788210706903049,0.926660947343454056,69.9999996219982279,-5.49831570978999292e-10,113.700000079276109,3.1772067926123353,15.2880000000000003,0,0,0.00669410445039518576,3.35900025920073467e-13,-9.92070622953462368e-07,7.83315922772719921e-11,5.99658406989250883e-09
0.08,31.2221859009658012,131.01038426812616,3.06033476575187802,3.77263127792190334,7.06371256062416025e-05,17.6076228145981588,0.000196957592070898702,3.34480227118667583,241.217198863884818,2.92612482887636283,1.17954495655796454,69.9999989088305909,-9.15694670892462832e-10,113.700000132739973,5.24285298735243899,15.2880000000000003,0,0,0.00859912396431777512,8.49635706706491564e-13,-2.01744800413265681e-06,1.10032289818440005e-10,1.56647792516492608e-08
0.09,31.2221858556197738,131.010384390989856,3.0892797608365723,3.74258231141200604,9.5325675231994802e-05,53.4176180048964397,0.000237730218002333866,3.34289666486112669,563.093737704317618,3.46187703891102627,1.39384941462988121,69.9999975134546446,-1.31671842773002699e-09,113.70000019638816,7.33844512707370811,15.2880000000000003,0,0,0.0101735644468633635,1.80613395740032365e-12,-3.4856561047658452e-06,1.59232278560273843e-10,3.20202005890100843e-08
0.1,31.2221858028175774,131.010384534057465,3.12301320909491364,3.81071421019783685,0.000121971080758598364,50.732831688561788,0.000271545837515448313,3.34090447591365036,538.7437595981919,3.9029133825176725,1.57567038389986336,69.999995157830341,-1.72222432289554893e-09,113.700000270567642,9.32732681847184431,15.2880000000000003,0,0,0.0114696609641860067,3.37914451533694905e-12,-5.48904943388414521e-06,2.34452541412924053e-10,5.68476506314615152e-08
0.11,31.2221857431700727,131.010384695667796,3.16106164078641116,3.84323765504598036,0.000147145408783231387,40.0848474374385688,0.000307099758177995722,3.33859717034531034,442.865639305294906,4.36819921201157246,1.76578242121538631,69.9999915253729768,-2.07703942468805025e-09,113.700000354470319,11.6837607126815346,15.2880000000000003,0,0,0.0128370221364947634,5.76365694334259916e-12,-8.08162139954488366e-06,3.4437809457680147e-10,9.36754562129998513e-08
0.12,31.2221856770245907,131.01038487487628,3.20315617196047642,3.86558564807459826,0.000171348089099210797,43.7480799143332604,0.000342946594964391399,3.33600966231316054,475.585948135404465,4.83801864946757032,1.95742650583495204,69.9999862600106582,-2.3147200577597177e-09,113.700000447673773,14.3321420062794882,15.2880000000000003,0,0,0.0142177082532951912,9.17772063248746377e-12,-1.13223702306849879e-05,4.98555567062495836e-10,1.45354343598177095e-07
0.13,31.2221856047215205,131.010385070757366,3.24903338361815308,3.95285669440916232,0.000198169826234992146,48.2585391180499741,0.000371981107240517913,3.33344523512332414,515.915632623689476,5.21512035057569623,2.1172615234944101,69.9999789703044399,-2.35265113573284059e-09,113.700000549782459,16.6533950244453948,15.2880000000000003,0,0,0.0153259223232261182,1.38588880633063252e-11,-1.52681962163171846e-05,7.07166414280215559e-10,2.11287244421402401e-07
0.14,31.2221855263490333,131.010385283071088,3.29862557546706325,3.99981420118284792,0.000223008237377726162,44.9721767850953427,0.000403855591455553264,3.33052592490198407,486.239086056840392,5.63167615200940475,2.29059513099545553,69.9999692426645623,-2.0964169591742506e-09,113.700000660771011,19.4199179783547713,15.2880000000000003,0,0,0.0165500839355928395,2.00553635588333716e-11,-1.99811439493909854e-05,9.81252131659242702e-10,2.9859131057555361e-07
0.15,31.2221854420015994,131.010385511560628,3.35186028506811029,4.05975476911301225,0.000248539990764711958,43.4637160193537753,0.000433543226731567866,3.32747422849243879,472.54218587214001,6.01888316560526437,2.45383766868271946,69.99995661705006,-1.43188768134039915e-09,113.700000780625842,22.182048585914238,15.2880000000000003,0,0,0.0176879988684610287,2.80404916713566325e-11,-2.55291719775422389e-05,1.33309260321839681e-09,4.07727088477750495e-07
0.16,31.2221853515819241,131.010385756490507,3.40881389436676407,4.08854462484130732,0.000272210944932510383,34.4023069357135967,0.000465877824565354701,3.32404684464906053,391.12189082975641,6.44303061809316624,2.62971580822363071,69.9999405987561403,-2.27841984783363582e-10,113.700000909623355,25.4183784408083007,15.2880000000000003,0,0,0.0189344747787753703,3.81042963600432359e-11,-3.19913711614788564e-05,1.77662362644707755e-09,5.46937370926295155e-07
0.17,31.2221852554099399,131.010386016990765,3.46923909377793649,4.13347468842419552,0.00029684158695823977,43.4155809381403728,0.000495744973995866601,3.3205135250562221,471.78125980632376,6.83404379119085981,2.79420112365087148,69.9999206448319882,1.67575894446247236e-09,113.700001047478835,28.5969980778046526,15.2880000000000003,0,0,0.0200835795555658371,5.05622819343119236e-11,-3.94162603380559734e-05,2.32482468580976756e-09,7.14768170397066036e-07
0.18,31.2221851530022434,131.010386294375877,3.53351204963262022,4.16207877285686756,0.000320492787063832857,36.2151660219171347,0.000526966735016640565,3.31665933612355879,407.101567211914528,7.2444022294323478,2.96528531587496236,69.9998961790314524,4.45070668055043651e-09,113.700001195059045,32.1341903991183955,15.2880000000000003,0,0,0.0212895378539265934,6.5741708189353534e-11,-4.79243856484647045e-05,2.99669991322666987e-09,9.21230820748327094e-07
0.19,31.2221850444828668,131.010386588308563,3.60153760019172342,4.17456309251139679,0.000342914278589344943,40.9041800427263027,0.00055982867240863632,3.31244583927210501,448.953132831826849,7.67810673790947895,3.14433961722118216,69.9998665624008964,8.30674092292676784e-09,113.700001352409558,36.0967170721845179,15.2880000000000003,0,0,0.0225641073333706747,8.40032927522686365e-11,-5.75836346763551867e-05,3.80911503044151526e-09,1.17316671380156179e-06
0.2,31.2221849296486234,131.01038689934137,3.67347464118590317,4.20078915399145636,0.000366573034254704516,37.5214898208491761,0.000590466919182690893,3.30812712915434881,418.515630199161365,8.08216006412957277,3.31318683933006453,69.9998311045104487,1.34800080829191884e-08,113.700001520067786,39.9955165273270055,15.2880000000000003,0,0,0.0237515420632470921,1.05728805481567758e-10,-6.85028882131185225e-05,4.78351733027568889e-09,1.4690610466811608e-06
0.21,31.2221848088436893,131.01038722653837,3.74905730552401684,4.22722562033261262,0.000390310433246848657,36.0064697775761644,0.000620601272787201603,3.30359776763142721,404.818761014464428,8.48018829437500621,3.47992805775657654,69.9997890742529592,2.02433263776548733e-08,113.700001697833756,44.0315784885794201,15.2880000000000003,0,0,0.0249212734096428447,1.31320595517854955e-10,-8.07208291683553139e-05,5.93661589182972911e-09,1.81631626331753899e-06
0.22,31.2221846819136672,131.010387570319409,3.82840670130281646,4.2176244726165093,0.000410696285369717819,43.5935627685881499,0.000655758920494764063,3.29841875767922987,472.542185872136486,8.94831461811120121,3.67066782999472752,69.9997397083127737,2.88926538075102191e-08,113.700001886238866,49.0266756129506618,15.2880000000000003,0,0,0.0262970098082033268,1.61186003536399267e-10,-9.43348117723774896e-05,7.29106197993283208e-09,2.23980539128825791e-06
0.23,31.2221845484548304,131.01038793178239,3.91183756115468473,4.25320537954326383,0.0004356497720089569,36.207459360748949,0.000683686922722525747,3.29355466128287455,406.340642146102141,9.31799902525197865,3.82760028360492655,69.9996821549030983,3.9766623706965518e-08,113.70000208621326,53.1608354775167555,15.2880000000000003,0,0,0.0273834518362109196,1.95767624418301473e-10,-0.000109505708778552874,8.87784718088286285e-09,2.70740355927931971e-06
0.24,31.2221844093456014,131.010388308538637,3.99866964940866776,4.27135264557773553,0.00045883378920767232,37.3286080087975947,0.000713911697673520317,3.2882529474867046,416.232824001711379,9.7203332459195213,3.9956861712714935,69.9996155408946805,5.32509871046438109e-08,113.700002296918697,57.8502398901668755,15.2880000000000003,0,0,0.0285658473732890855,2.35534745143307651e-10,-0.00012617657385590063,1.07071802425012536e-08,3.25424194465518317e-06
0.25,31.2221842644570167,131.010388700938847,4.08900446593793809,4.29698686981540234,0.000482848983334858658,38.3649566400252979,0.000742483922667206905,3.28284626589867479,425.364080791506922,10.1009615935159527,4.1562806652626314,69.9995389781877293,6.97479781374676735e-08,113.700002518962805,62.4689963611702623,15.2880000000000003,0,0,0.0296844577155840929,2.80933085873043406e-10,-0.000144451636124542286,1.28055329635332884e-08,3.87142965072796435e-06
0.26,31.2221841140756986,131.010389108203611,4.18262110402873155,4.32755423691547136,0.000507438991606541483,41.7865661614553829,0.000769736419800412888,3.27732087646770287,455.80158342417883,10.4644497354123782,4.31094871887776954,69.9994515368878751,8.97024502886333285e-08,113.700002752408935,67.0452443356678742,15.2880000000000003,0,0,0.0307527002093570291,3.32431765373287754e-10,-0.00016436315770221847,1.51925047864838523e-08,4.56355359993810651e-06
0.27,31.2221839578137299,131.010389531387915,4.27982215321117465,4.33742811840656994,0.000529702335486379188,38.2242911032538473,0.000800211178185602123,3.27123004841987974,423.842199659872563,10.8736118498261902,4.48123226393084195,69.9993522521519935,1.13587393208351198e-07,113.700002998306658,72.3900346549699947,15.2880000000000003,0,0,0.0319551720828357214,3.90484337603431509e-10,-0.000186059811616844751,1.79019946498730075e-08,5.36790267753501075e-06
0.28,31.2221837957695953,131.010389970223883,4.38053283172365671,4.35979025650862262,0.000553527510562852902,44.1207307275094038,0.000828072271385077072,3.26514386100193477,476.346873201222195,11.2478718916014184,4.63949182586423614,69.9992400702920463,1.41938296327408329e-07,113.700003257081931,77.4582454645660761,15.2880000000000003,0,0,0.0330550782151640757,4.55595825375374429e-10,-0.000209619220926101062,2.09616181379585756e-08,6.25569396794615011e-06
0.29,31.2221836278828384,131.010390424876022,4.48480177698289584,4.38135974025744623,0.00057737648726709299,35.3536197607625553,0.000855659611391794222,3.2588361863853601,397.970310422111766,11.6195889013503368,4.79682445966682813,69.9991139044831527,1.7532937395312496e-07,113.700003529427192,82.6616578528940948,15.2880000000000003,0,0,0.0341475147840558241,5.28268525040872464e-10,-0.000235137545717689308,2.44023887909330158e-08,7.24907222782668121e-06
0.3,31.2221834544381096,131.010390894570321,4.59240982688131272,4.39617507281761988,0.000600356665334356751,33.1490797613948018,0.000884158719714270942,3.25217107922164672,378.185945710871067,12.0052186882677852,4.95887519756831807,69.998972627127344,2.14383684192303281e-07,113.700003815596887,88.2385269149682756,15.2880000000000003,0,0,0.0352808420099011907,6.09029939588318471e-10,-0.000262641159892275291,2.82471356422800846e-08,8.36561857411674722e-06
0.31,31.2221832755909574,131.01039137888381,4.7032380575360353,4.42235615181669761,0.000624899913490765827,34.9528590290802086,0.000910025197609511073,3.24555398289468222,394.16562209302117,12.3556398803864607,5.10879227158949156,69.9988150759387651,2.59766173767152649e-07,113.700004116072961,93.4639131761651498,15.2880000000000003,0,0,0.0363107024397255479,6.98403788157463991e-10,-0.000292187019282257228,3.25229566712151178e-08,9.57826248689966157e-06
0.32,31.2221830914257232,131.010391877587324,4.81722282885169673,4.45155794779377789,0.000649944303128982049,38.0379859115142835,0.000934821026682707218,3.23882361682650144,421.559393462426954,12.6924793110791878,5.25399282922068878,69.9986400687318024,3.12179641788393281e-07,113.700004431478234,98.6283237403037703,15.2880000000000003,0,0,0.0373006526995305274,7.96905013945712519e-10,-0.000323836613651358495,3.72580440687311147e-08,1.09050644159405278e-05
0.33,31.22218290196043,131.01039239063175,4.9343519698327194,4.48019701204722054,0.000675004219851668761,37.7093551175013246,0.000959261610436717115,3.23189933669563656,418.515630199168186,13.0256844327599097,5.39788776638052958,69.9984463826819052,3.72372687880250348e-07,113.700004762578004,103.87354288045799,15.2880000000000003,0,0,0.0382799263433428877,9.05047894999210997e-10,-0.000357667290238851605,4.24836225249657193e-08,1.23603484615852587e-05
0.34,31.222182707020778,131.010392918491164,5.05476263450916541,4.49049305198152204,0.000697378143373914754,29.5227085089536203,0.000987142430045659337,3.22427911658814059,345.465636880756449,13.4081741031825317,5.55863100914667463,69.9982327456812641,4.41143957445642244e-07,113.700005110463266,110.062177258613033,15.2880000000000003,0,0,0.0394040418267209702,1.02333461745717641e-09,-0.000393806243978271305,4.82396483202145133e-08,1.40087103268591529e-05
0.35,31.2221825067937928,131.010393460657156,5.17831168393457641,4.50711781535187139,0.000720712543856854714,32.3530371383660977,0.00101333646443235357,3.21661305844837253,370.576570052703289,13.7686530554979374,5.71176159517965232,69.9979978091806316,5.19362042776584697e-07,113.700005475786654,116.058400304168075,15.2880000000000003,0,0,0.0404634764462946869,1.15232390415689195e-09,-0.000432299813734132244,5.45552399130644805e-08,1.57912776608867467e-05
0.36,31.2221823012122108,131.010394017312592,5.30505329869157727,4.52767240178778962,0.000744729708600240731,36.5526511043957356,0.00103828652712813154,3.20885713174522058,407.862523277719447,14.1132764952183631,5.85938873702120233,69.9977401961163537,6.07939829707116331e-07,113.700005859608282,121.939407863977465,15.2880000000000003,0,0,0.0414763190843316643,1.29254043868676357e-09,-0.000473255972436325862,6.14699225552327593e-08,1.77198251922661022e-05
0.37,31.222182090341061,131.010394588280832,5.43493909097431604,4.55039311415752579,0.00076918150115683735,34.6835787828593496,0.00106234372950533948,3.20097384516078431,391.121890829766642,14.446930470491731,6.00318739776240751,69.9974584775585669,7.0785096329375243e-07,113.700006262864989,127.771540530283914,15.2880000000000003,0,0,0.042456928843506235,1.4445318520011827e-09,-0.000516746496826029863,6.90186481791334769e-08,1.98053803654614999e-05
0.38,31.2221818741223878,131.010395173719473,5.56801609611825477,4.56315131642791805,0.000792019287104061913,36.2353933787001239,0.00108827974821363053,3.19255015153205646,404.818761014460279,14.8084413239345949,6.1564787166299757,69.9971511865591651,8.20121521966083772e-07,113.700006686723384,134.244380272309172,15.2880000000000003,0,0,0.0435194095147296359,1.60882660749176723e-09,-0.000562873331420229127,7.72423853301427293e-08,2.21128406351508731e-05
0.39,31.2221816525004634,131.010395773780147,5.704329739781131,4.57922628245169783,0.000815489716137310881,30.9425419640016202,0.00111309493143926189,3.18402316666385765,357.640624933827439,15.1559126959619999,6.30488433186772657,69.9968167722787769,9.45855271408966431e-07,113.700007132429306,140.616382889747683,15.2880000000000003,0,0,0.0445406353688629561,1.78596578656278109e-09,-0.000611756345505213715,8.61868943159197994e-08,2.45968452142520012e-05
0.4,31.2221814256617982,131.010396387955836,5.84373750626454935,4.59349479979191955,0.000838670682925170751,29.5834243852937959,0.00113797512888990423,3.17521289611434332,345.465636880754005,15.505969085398343,6.45410901523083158,69.9964536498379317,1.08621525395706341e-06,113.700007600947828,147.185065961143067,15.2880000000000003,0,0,0.045569462889951777,1.97653506559195414e-09,-0.000663427505461186432,9.58835144134294998e-08,2.72901174189528038e-05
0.41,31.2221811937141673,131.010397015953487,5.98615797249314241,4.60939449845229365,0.000862163931524819621,33.360545626359837,0.00116210409424792778,3.16624854525325983,378.946870776686467,15.8471768437686258,6.60022848408685459,69.9960602026584695,1.24241947051318175e-06,113.700008093413757,153.73182724817184,15.2880000000000003,0,0,0.0465722905345462151,2.18109996727848554e-09,-0.000717942131686907965,1.06367950505874699e-07,3.01820283711074823e-05
0.42,31.2221809567080335,131.010397657635991,6.13155423418529733,4.63387609959193458,0.000887317919769279608,37.5676427387571721,0.001183742077125155,3.15743374731593907,416.232824001711379,16.155026338188506,6.73482947265292431,69.9956347739890248,1.41574639558456e-06,113.700008611107208,159.760443802515937,15.2880000000000003,0,0,0.0474770882933877245,2.400206535531791e-09,-0.00077537935552726017,1.17680930846389008e-07,3.32294321368729263e-05
0.43,31.222180714655078,131.010398312971745,6.27991949833728835,4.65367427313455995,0.000911660169575580258,33.0386483003103493,0.00120612360190941372,3.14823214930187856,375.903139513433644,16.4750454055619109,6.87353555569934649,69.9951756835756242,1.60752723178871754e-06,113.700009155418982,166.15023929888028,15.2880000000000003,0,0,0.0484176551665520677,2.63438237315801404e-09,-0.000835821567166909188,1.29864614855892046e-07,3.65287677570896608e-05
0.44,31.2221804673911407,131.010398982407111,6.43138341412837455,4.65757387742934892,0.000932929976641759203,30.4788052564327749,0.00123214974254881528,3.13809943757763454,353.075012538921555,16.8483715860516412,7.03046484016701978,69.9946811832270441,1.81916859536649675e-06,113.700009728069276,173.762989227436179,15.2880000000000003,0,0,0.0495148886868988364,2.88411342836306464e-09,-0.000899417740154189794,1.42975581697416844e-07,4.01983191819108926e-05
0.45,31.2221802146980103,131.010399666535704,6.58611776122768511,4.65827001030579346,0.000953562143933252499,35.4620561517945134,0.00125873275223327787,3.12754579585638304,397.209385356286873,17.2316459864824161,7.19073264961644831,69.9941493995125938,2.05218870761162579e-06,113.700010330973456,181.755888424112015,15.2880000000000003,0,0,0.0506413642318551335,3.14987863732273609e-09,-0.000966369542842942814,1.57083782729145849e-07,4.41725079750487196e-05
0.46,31.2221799565319174,131.010400365476642,6.74415901717088939,4.66907507286434065,0.00097630283571516251,41.3913707355688842,0.0012823814722795761,3.11722412848720953,449.71405889764344,17.5754687869478978,7.33738035579407555,69.9935783582983362,2.30821229426708146e-06,113.700010965912341,189.078525726536213,15.2880000000000003,0,0,0.0516519027755614896,3.43223060675433133e-09,-0.00103681314204437207,1.7224885851047691e-07,4.83373548649469587e-05
0.47,31.2221796928065203,131.010401079464799,6.90557672428163105,4.67806301106434042,0.000998761260684927557,28.0209900204918974,0.00130616618884544979,3.10657060381263461,331.007810630253402,17.9233234115620377,7.48533101007974988,69.9929660462147325,2.5889364060732201e-06,113.700011634803886,196.634049649816575,15.2880000000000003,0,0,0.0526742959306323727,3.73170463860384924e-09,-0.0011108841623615434,1.88532207060213475e-07,5.28148505664365441e-05
0.48,31.2221794239793269,131.010401807256216,7.07001851744381948,4.68642527483421745,0.00102109091231145262,27.6007969606275125,0.00132978852885184593,3.09563681785184297,327.203122301157407,18.2709832353803314,7.63313726727991071,69.9923104035261474,2.89614261094227829e-06,113.700012338884164,204.33305198470137,15.2880000000000003,0,0,0.0536961221459722679,4.04904859899578719e-09,-0.00118849531779471017,2.05948560519311644e-07,5.75998398329450787e-05
0.49,31.2221791502289392,131.010402548365278,7.23734841566291642,4.70156796398202914,0.00104489945272251677,34.6487244505178253,0.00135120419031512233,3.08484494341801163,389.60000969812296,18.589315545984995,7.7707981814672209,69.9916093757078812,3.23165731652504743e-06,113.700013079832303,211.511801733856089,15.2880000000000003,0,0,0.0546317638991248022,4.38486615800834454e-09,-0.00126967773493266863,2.2453662401782158e-07,6.26054017926546362e-05
0.5,31.2221788715876762,131.010403302704333,7.40754387012007864,4.72212438923579736,0.00106996435823571525,35.6033845714535389,0.00137072557486675028,3.0741588573465477,397.970310422105001,18.8826594549893159,7.8998011517407587,69.9908609011483378,3.5973597360057951e-06,113.700013859590555,218.236320199079358,15.2880000000000003,0,0,0.0554939729313439212,4.73968531279909998e-09,-0.00135450679800636423,2.44344941868023912e-07,6.78409867869358833e-05
0.51,31.2221785881337617,131.010404070060673,7.5805467220577798,4.73558879650721298,0.00109346949398930206,27.1956639286467201,0.00139183542187690463,3.06284319292573448,323.39843497208409,19.200774511812984,8.03722958125224807,69.9900628955037689,3.99519228958782199e-06,113.700014680103109,225.647740475438098,15.2880000000000003,0,0,0.0564289867670437692,5.11403675587933804e-09,-0.00144303978709531136,2.65418546512062939e-07,7.34915902759761199e-05
0.52,31.2221782998621009,131.010404850463146,7.75636774499504789,2.34115875272978347,-2.64508366622706692,32.6977764517543363,0.146272296169436988,3.19158626792826539,372.098451184341457,19.1934186505009592,8.17754151706040666,69.9892130391633316,5.492918540906312e-06,113.700016677738333,225.471074736251154,15.2880000000000003,0,1.25322153529023828,0.0564074805699794277,5.50895922409461994e-09,-0.00153332270922959665,1.96815382122475865e-06,7.80583136092852188e-05
0.53,31.2221780065368186,131.010405644314318,7.93510884721672483,2.38703499537676223,-2.60710959368129735,34.3403098442478765,0.150098275733358183,3.18333392596264497,386.55624643486243,19.514309819607643,8.3177534757744187,69.988323446308442,-2.77821374616423455e-05,113.699981675066667,233.069315242705272,15.2880000000000003,0,1.25798709306108347,0.0573506623046811451,5.9054369954949983e-09,-0.0015796114146309488,-4.96436748031396213e-05,8.1757813017834896e-05
0.54,31.2221777079989842,131.010406451881664,8.11684063163652958,2.43143718556818023,-2.5704787506726654,30.1369629433200394,0.153968665831014428,3.17486895852939988,349.270324209843579,19.8332923690686229,8.45724373876057456,69.9874066212298374,-0.000143202232246674599,113.699859255486885,240.746930253602898,15.2880000000000003,0,1.26274233800535884,0.058288240550533589,6.27584958135619713e-09,-0.00162872505113824677,-0.000102612311090726367,8.56763227875915074e-05
0.55,31.2221774045048441,131.010407272454131,8.301362349656495,2.47516461916934993,-2.53582303646526785,31.9515121934180897,0.157837245120630049,3.16624255968517776,365.250000591990727,20.1446588780589586,8.59405543195208388,69.9864609381244804,-0.000342853636727092985,113.699647197256581,248.360926080479857,15.2880000000000003,0,1.26747942955124526,0.0592034416087919568,6.62103889767571945e-09,-0.00168068326008119734,-0.000156881556874611708,8.97958623159429112e-05
0.56,31.2221770960548,131.010408106023618,8.48867393425657468,2.51883219519205381,-2.50354950834445278,29.809277205795393,0.16166737478791593,3.1575013054165475,346.226561946578727,20.44402148451179,8.72668267412248966,69.9854847422969186,-0.000628786788309684667,113.699343317044423,255.792779748650986,15.2880000000000003,0,1.27219852349330176,0.0600833698448939441,6.94170860304085488e-09,-0.00173557563508666343,-0.000212471211317981552,9.4104977554552218e-05
0.57,31.2221767827159482,131.010408952400837,8.67872365582518412,2.56008031036212236,-2.47115331174336506,29.4730631575973767,0.165616449969430424,3.14845735888680256,343.182829683302316,20.7510388851742142,8.86186613876049734,69.9844763385369362,-0.00100305031604481804,113.698945433252447,263.528376898776514,15.2880000000000003,0,1.27689940081365383,0.0609858005689132704,7.23867105303940372e-09,-0.00179346821431732419,-0.000269376168830753242,9.87025391121181792e-05
0.58,31.2221764644676156,131.010409811635327,8.87152789965941402,2.59727980897140132,-2.43709544329237682,38.865033899010534,0.169799474221594693,3.13895933389433424,426.12500585731533,21.0793350198268534,9.00427771123873555,69.9834339839893005,-0.00146771086533067333,113.698451345128973,271.927713497600109,15.2880000000000003,0,1.28158169736624816,0.0619507738801877636,7.51270057698893686e-09,-0.00185445410898124976,-0.000327617989956555577,0.000103671588548839632
0.59,31.2221761409353924,131.010410684738133,9.06737734059863598,2.63655691979595641,-2.40709733251976887,31.4697611162284581,0.17381680719531345,3.1295051428047187,360.68438819711065,21.3796302000948515,9.13701389721377844,69.9823558430032904,-0.0020249692819544955,113.697858709484322,279.725377810374198,15.2880000000000003,0,1.28625236663026055,0.062833460412833872,7.76424137484378e-09,-0.0019187540568767049,-0.000387335765200822781,0.000108792282655820581
0.6,31.2221758123154878,131.010411571168788,9.26612023819050989,2.66972433805944265,-2.37353699814062624,27.9467550088484842,0.178219087976837831,3.11938928166865326,329.48595949860578,21.718745992944207,9.28299265949394581,69.9812400238687644,-0.00267705500611009574,113.697165151764793,288.664046517349391,15.2880000000000003,0,1.29090662886156315,0.063830244651186932,7.99431391601846948e-09,-0.00198639785058083839,-0.000448484408288621957,0.000114411922631236506
0.61,31.2221754785623951,131.01041247104402,9.46779232467263654,2.70089609832588451,-2.34022728891760456,32.7801596552879246,0.182741909106937328,3.10893705132051323,372.09845118432969,22.0639072678191468,9.43097294629987459,69.9800845691511597,-0.00342625003305889898,113.696368241693875,297.906267263511893,15.2880000000000003,0,1.29554500105057091,0.0648448028938153898,8.20372243529100841e-09,-0.00205750066390493437,-0.000511098894443974593,0.000120388304570618807
0.62,31.2221751397813954,131.010413384070489,9.67231246786677445,2.73865843418712229,-2.31437243501510581,40.8049493926679929,0.186796081444631612,3.0989416241169998,442.86563930529212,22.3455208638268097,9.55708224965950492,69.978887453983134,-0.00427488740606575459,113.695465494308735,305.553475805305197,15.2880000000000003,0,1.30016721492794285,0.0656726037496120352,8.39339622028698008e-09,-0.00213213897561213925,-0.000575179066522890701,0.000126345376290249567
0.63,31.2221747958023457,131.010414310704505,9.87981315136587313,2.77297665558776263,-2.28715968587686103,23.053975891217295,0.191068668189611574,3.0884906327283792,286.112512747078938,22.6455370405786418,9.68942781614916093,69.9776466449577583,-0.00522521289930317785,113.694454517768492,313.807167816344247,15.2880000000000003,0,1.30477398393555766,0.0665544952466967793,8.56413003899180337e-09,-0.00221046456196216786,-0.000640785632305893461,0.000132742774127563576
0.64,31.2221744471636278,131.010415249475301,10.0898776233198486,2.80233882156424263,-2.25741205497431396,22.6284587687438048,0.195675223630538936,3.07740265301047033,282.307824417967538,22.9769784215854713,9.83248177330227158,69.9763600534667631,-0.00627949314489633596,113.693332896868228,323.053672710740784,15.2880000000000003,0,1.30935222674511031,0.0675287506933425624,8.71741608640422771e-09,-0.00229236226103802718,-0.000707758456336593901,0.000139672888441369248
0.65,31.2221740938469878,131.010416200426391,10.302520764695025,2.83663692835016468,-2.2330973720091043,40.1478184748108688,0.199923110185363267,3.06665124692246893,436.778144778747503,23.2591885945268011,9.95857269037244563,69.9750255710900575,-0.00743993854072163164,113.692098276875001,331.03133262096901,15.2880000000000003,0,1.31391384772481179,0.0683583231450077822,8.85414951793062283e-09,-0.00237794630508982464,-0.000776132169302926511,0.000146664053571891759
0.66,31.2221737353858835,131.01041716482078,10.5181049866222196,2.86855066296022221,-2.20820486213135148,34.1173546987538856,0.204329484697773178,3.05551010401602818,383.512515171600171,23.5521935644442948,10.0882884106938402,69.9736410356044303,-0.00870878137631215903,113.690748280212091,339.417097534754191,15.2880000000000003,0,1.3184548547397299,0.0692196276578036368,8.97485324545107209e-09,-0.00246750607509429142,-0.000846074344481550535,0.00015410178950372129
0.67,31.2221733719500278,131.010418142190616,10.7364995136513173,2.89596651727632715,-2.18117100130175334,23.4216875445187291,0.209055256036253162,3.04373126660786086,289.156244010342505,23.8737082096664182,10.227709749591348,69.9722041292179426,-0.0100884015344547429,113.689280373905689,348.739906386133043,15.2880000000000003,0,1.32297545703555808,0.0701647283987659603,9.08070760266907343e-09,-0.00256107352775123993,-0.000917545904951227531,0.000162125343868286409
0.68,31.2221730036935057,131.010419132110513,10.9575857270622734,2.92345318619133643,-2.15549231177829981,29.2994937261311286,0.213776898573694973,3.03178215926286754,340.899992485846269,24.186571157417891,10.3640867654681763,69.9707125990657204,-0.0115811936244538307,113.687692000755163,357.932614073275488,15.2880000000000003,0,1.32747950890712341,0.0710844085906353756,9.17284010757191451e-09,-0.00265869254004331111,-0.000990520045332858069,0.000170506988051244836
0.69,31.2221726306885081,131.010420134378194,11.1813085517184447,2.95354844483939649,-2.13287724865181882,36.1306731440530129,0.218301838010354632,3.01995572525570211,401.014072685363431,24.4700876168566204,10.4903153662637756,69.9691640526724541,-0.0131894928161622651,113.685980675088189,366.365341307857705,15.2880000000000003,0,1.33195785066121775,0.0719178458735008352,9.25234700940386285e-09,-0.00276043092667231822,-0.00106498904685124155,0.000179102991611483322
0.7,31.2221722528083987,131.010421149332672,11.4077671208138298,2.98257795168881312,-2.11054431529112163,30.2641607126294616,0.222902596473448983,3.00784589430315341,349.270324209852845,24.7546680976200193,10.6168295982093159,69.9675561008000386,-0.0149156135538776862,113.684143930553645,374.928198109372943,15.2880000000000003,0,1.3364138497571374,0.0727544167872669345,9.3201281721156336e-09,-0.00286645268100052834,-0.00114101342305222256,0.000188140750325117547
0.71,31.222171870101203,131.010422176837722,11.6369251953408437,3.00839682935608188,-2.08699397118992636,24.8265691997963955,0.227748632100986947,2.99518402053858646,301.331264063405797,25.0582959318182894,10.7498031302469403,69.9658862771516397,-0.016761927498023084,113.682179239406523,384.173496007329504,15.2880000000000003,0,1.34085209309703335,0.0736469748779808447,9.37728259708012451e-09,-0.00297683786713044901,-0.00121859163604196605,0.000197778074945685525
0.72,31.2221714825673438,131.010423216886579,11.8687834899944811,3.03050468835424569,-2.06194122438765959,30.4524250539811732,0.232889730388111615,2.98187457151232493,350.79220534145287,25.385603401394242,10.890827197481336,69.9641520408410571,-0.0187308554109881509,113.680084021442596,394.266288044490636,15.2880000000000003,0,1.34527029854867619,0.0746091350931899905,9.42483888664440465e-09,-0.00309170148950733015,-0.00129774689792462768,0.000208087889975013229
0.73,31.2221710902024583,131.010424269485497,12.1033464514701397,3.05849622036443014,-2.04183846666895441,38.5891014089259841,0.23757819934828267,2.96910793336569956,422.320318528233997,25.656735449502456,11.0124854448788376,69.9623507539244827,-0.0208249055822786501,113.677855603019097,402.724148848918901,15.2880000000000003,0,1.34966181373953287,0.0754062007742693496,9.46378795810745425e-09,-0.00321117115760760456,-0.00137851026977093855,0.000218432284808605396
0.74,31.2221706929466514,131.010425334792359,12.3406616616853828,3.08348985563853883,-2.02061751794688149,24.065294389892486,0.242505849046369709,2.95578329690142683,294.482813471059444,25.9458409968439945,11.1402327313998768,69.9604797766453856,-0.0230464946180587819,113.675491407865053,411.841860669986659,15.2880000000000003,0,1.35403607222105804,0.0762560980355866946,9.49516424660718991e-09,-0.00333537540093110712,-0.00146090982355403533,0.000229432297687234788
0.75,31.2221702911316008,131.010426411899118,12.5804731977768274,3.10626753179988047,-1.99882146703774999,28.1379218916434546,0.247620555077112475,2.94197110424082942,330.246885564414924,26.2468091120581519,11.2719753446447655,69.9585363705159864,-0.0253980503801906898,113.672988849688778,421.442186800013133,15.2880000000000003,0,1.35838844774492973,0.0771408667826218863,9.52038911313123266e-09,-0.00346423627028196119,-0.00154483883433629817,0.000241054973540453697
0.76,31.222169884653173,131.010427501084507,12.8228630374963544,3.13070231588037151,-1.97891398068089908,30.3084270259250737,0.25260972244312474,2.92818705815279667,349.270324209861712,26.527169484109077,11.3965609414501756,69.9565178687835498,-0.0278820029041154244,113.6703453316902,430.483684912809451,15.2880000000000003,0,1.36271764835377462,0.0779650750910529516,9.54034876260060694e-09,-0.00359793428460531469,-0.00163036158251013571,0.000253026558896331775
0.77,31.2221694734564537,131.010428602493221,13.0678750237465326,3.15501272889045037,-1.95967668531826611,28.3240588903063006,0.257616608713772732,2.91419448664337821,331.76876669607077,26.8020243857303448,11.5191731922235103,69.9544214273512353,-0.0305007850190570605,113.667558262162075,439.440266985579569,15.2880000000000003,0,1.36702021559446929,0.0787731092586880371,9.55603225207747489e-09,-0.00373661710109431848,-0.00171751763331382283,0.00026549597835991113
0.78,31.2221690575997357,131.010429715961976,13.3154653162291901,3.17645555392412904,-1.93941115823895838,23.2207317445421531,0.262872839348686771,2.89959509550182748,286.873437812889904,27.0947460218865608,11.6478412376833216,69.9522441817747165,-0.0332568456297522713,113.664625028929564,449.080809372814826,15.2880000000000003,0,1.37130235765657638,0.0796336619948940089,9.56856601440166294e-09,-0.00388035441894198346,-0.00180629625222224178,0.000278713435588362783
0.79,31.2221686371630867,131.010430841268175,13.5655732278357792,3.19595501784653457,-1.91871423049512346,33.1023257697389752,0.268310529594360803,2.88449260289735054,373.620332315953419,27.3978290002910292,11.7799892055084108,69.9499831602475126,-0.0361526552343482688,113.661542999225233,459.172846970918556,15.2880000000000003,0,1.37556319336132038,0.0805246747392260737,9.57907170305330956e-09,-0.00402921251318161516,-0.00189668579401791495,0.000292635708697337976
0.8,31.2221682119396995,131.010431978970615,13.8183604776350393,3.21898628392331343,-1.90083586300972818,33.5433473518915974,0.273460843847382284,2.86970965882639106,377.42502064505743,27.6644502800592207,11.899526965246114,69.947635404284739,-0.0391907781818235587,113.658309431938363,468.14182456685819,15.2880000000000003,0,1.37980603236463173,0.0813085304683328763,9.58829379298258076e-09,-0.00418346620664156264,-0.0019887996074177002,0.000306788278062154469
0.81,31.22216778202311,131.010433128810263,14.0737560163182529,3.23865893721786602,-1.8816207788731738,21.7621775791736098,0.278914982541146272,2.85420103863119268,273.937492693991885,27.953790976711236,12.0267876332340204,69.9451978009451096,-0.0423737364918567727,113.654921638592754,477.973841260650602,15.2880000000000003,0,1.38402340943097135,0.0821591678701850958,9.59741677249132492e-09,-0.00434315529504415102,-0.00208260662160048493,0.000321822105584590045
0.82,31.2221673475867441,131.010434290310513,14.3316269437682884,3.2565578210191144,-1.86203220158854488,28.0099158863981508,0.284546401875884647,2.838178538327639,328.725004432770049,28.2525908966897958,12.1572188652500888,69.9426672178353357,-0.0457040595380988277,113.651376919502468,488.23454971903351,15.2880000000000003,0,1.38821570955924822,0.0830376142386057559,9.60764390001291697e-09,-0.0045082795073345212,-0.00217805458586052634,0.000337619995586663777
0.83,31.2221669086134952,131.010435463513943,14.5919880735456058,3.27903501728478641,-1.84566088582019083,35.6486912745626014,0.289785777556428037,2.82267971372021398,395.68750322465047,28.5058544233934938,12.2719178048961286,69.9400404177246031,-0.0491842862703855965,113.647672567405237,497.014677275423935,15.2880000000000003,0,1.39238741182149828,0.0837822309864212217,9.61992152056657794e-09,-0.00467898847572176431,-0.00227517927953517669,0.000353536472739399382
0.84,31.2221664650032977,131.010436648689733,14.8549185633076117,3.29988930650993684,-1.8289235010973397,21.9491992035117143,0.295182118121854187,2.80671015512549449,275.459374825645227,28.7672162378672276,12.389315293514656,69.9373142567683601,-0.0528169167454308683,113.643805907577004,506.157641449621337,15.2880000000000003,0,1.39653881123250101,0.0845506564997429017,9.63515650415308709e-09,-0.00485546287843820375,-0.00237403073241816091,0.000370224960982028272
0.85,31.2221660170294406,131.010437845089484,15.1202082381098695,3.31586220902975581,-1.81004896145027283,23.949791952392637,0.301045331116868764,2.78967724735849076,292.960932339393764,29.0654363952025854,12.5193046655834443,69.9344854301222512,-0.0566044164753225082,113.639774309494754,516.693208647468282,15.2880000000000003,0,1.40066652745483156,0.0854274207169028604,9.65466335900439085e-09,-0.00503760349285209234,-0.00247450265556554971,0.000388085114126876605
0.86,31.2221655645283391,131.010439053155608,15.387985569271672,3.33447107756786121,-1.79316926077135119,30.0313383839673378,0.306686228602311761,2.77286290083496434,346.226561946558718,29.3350145712373767,12.6393645493198257,69.9315505147174719,-0.0605493403560830035,113.63557504758775,526.308647190916304,15.2880000000000003,0,1.40477345012877253,0.0862200095250552634,9.6791786355285563e-09,-0.00522568705090351027,-0.00257669855675600945,0.000406298007840075409
0.87,31.2221651075211852,131.010440272827054,15.6582358430297859,3.35406754904190763,-1.7773158303710157,27.954002027728361,0.312250394391615338,2.75600089660670466,327.964078366998024,29.5902668848515518,12.7544143246628376,69.9285061565543771,-0.0646542414533383403,113.631205388778227,535.493719656767098,15.2880000000000003,0,1.40885736562477959,0.0869704995634110467,9.70967849352527752e-09,-0.00541982095033962871,-0.00268062557633704001,0.000425047569227594651
0.88,31.2221646460400599,131.0104415040135,15.9309359878418579,3.37095400577080984,-1.76050697941050549,24.1385207060415397,0.318091004151187517,2.73841024516694853,294.482813471041823,29.8638547404178212,12.8756873193247667,69.9253488032689319,-0.0689216241878324032,113.626662662610002,545.427426422597478,15.2880000000000003,0,1.41291565560818189,0.0877748878432603324,9.74719213389914981e-09,-0.00562008354181256411,-0.00278627492678732228,0.000444816590751945685
0.89,31.2221641801597514,131.010442746507948,16.2060298182393936,3.38515273001971195,-1.74279813285591412,26.4893355815748492,0.324216482062811673,2.72006013436084482,315.028134248086985,30.1558793115732158,13.0032226932941555,69.9220749782570294,-0.0733540408597349591,113.621944135541924,556.131842971805213,15.2880000000000003,0,1.41695203306191231,0.0886334722399203384,9.79270849374536492e-09,-0.0058265491810258899,-0.00289363630094985856,0.000465655010817495106
0.9,31.2221637098089815,131.010444000501991,16.4835744354649663,3.40431006238261213,-1.7281007349290447,29.2758432642917725,0.329877909484901199,2.70241692612142703,339.378142354214447,30.398415073293922,13.1136490687914264,69.9186809415572554,-0.0779540848199761355,113.6170470412968,565.098396461174275,15.2880000000000003,0,1.4209680613501805,0.0893466076072332444,9.84704073594866078e-09,-0.00603942535718470733,-0.00300276835552461567,0.000486536974569192523
0.91,31.2221632350524843,131.010445265816628,16.7635215395792692,3.42078724965788128,-1.71246658974033883,22.2411812927242245,0.335822065464512431,2.68401534861511193,277.742181023078899,30.659379324512873,13.2303334817585529,69.9151631197936325,-0.0827242683564026055,113.611968687483156,574.827099676336502,15.2880000000000003,0,1.42496253736015155,0.0901139148195964496,9.91118762426045508e-09,-0.00625876865514281375,-0.0031136495124599985,0.000508522147733757811
0.92,31.2221627560768695,131.010446541940098,17.045728397161394,3.4346325614847717,-1.69595047878523508,26.5062108664696936,0.342054400575443562,2.66482685587599377,315.028134248062145,30.9387032567327154,13.3532587766635746,69.9115177165175794,-0.0876670847832517752,113.606706412496578,585.33293376532572,15.2880000000000003,0,1.42893355137439526,0.0909351920640594363,9.98627438012115814e-09,-0.00648452020271084954,-0.00322620223128896461,0.000531649976461044324
0.93,31.2221622727970498,131.010447829102446,17.3302629297208775,3.45308817113151845,-1.68211003969719197,31.5561995209853663,0.347836152112416086,2.64634140441247157,359.162507065472823,31.1713144054140834,13.4600231372610928,69.9077409734912578,-0.092785057499431639,113.601257513977316,594.151379355773543,15.2880000000000003,0,1.43288318054598474,0.0916191780606297052,1.00730043826107395e-08,-0.00671692045694419638,-0.00334049912108668476,0.00055482918464700077
0.94,31.2221617851101776,131.010449127583001,17.6172068482905857,3.46649342516404069,-1.66619995713140878,22.8634576677991177,0.354159469225868051,2.62654420577460135,283.068750483778672,31.4441485008146238,13.5805532366501964,69.9038291165764178,-0.098080652589181791,113.59561934934294,604.581129040816904,15.2880000000000003,0,1.43681138227327931,0.0924213952087362262,1.01721686410160791e-08,-0.00695616401111331419,-0.00345658612012696761,0.000579604381433137627
0.95,31.2221612932841488,131.010450436647858,17.9063545133823787,3.48010948742492898,-1.6507866832021767,29.6556511789026942,0.360486348186152716,2.6065201842853285,342.421873617487279,31.7100532940115372,13.6986211661194783,69.899778119267495,-0.103556400882347577,113.589789214686022,614.832467754661025,15.2880000000000003,0,1.44071656193440623,0.0932032530328915504,1.02848984669038203e-08,-0.00720213656853966721,-0.00357436068694518688,0.000605157293367006191
0.96,31.2221607970458983,131.010451757041693,18.1979196608149323,3.49587190033672135,-1.63675798474472622,29.0527360247228188,0.366607557715318666,2.58670940545573647,337.095335156783449,31.9512129420188025,13.8080836423306259,69.8955840238758981,-0.109214824673208144,113.583764406413991,624.202332911504527,15.2880000000000003,0,1.44460182859071828,0.0939123865228188165,1.04116681706469775e-08,-0.00745526178081652204,-0.0036939773965522036,0.00063117244909947955
0.97,31.2221602964131435,131.010453088714797,18.4918906545155082,3.50996546240377949,-1.62229666462816002,18.5239366798689709,0.372928935834901443,2.56626503388672234,245.021887192993233,32.2023556996806875,13.9209022208725699,69.8912427299254091,-0.115058484458959276,113.577542181717263,634.035700160440456,15.2880000000000003,0,1.44846680176571097,0.0946508701331577745,1.05533356722597419e-08,-0.00771565531923954027,-0.00381544059989644179,0.00065833354583686571
0.98,31.2221597916522384,131.010454430937671,18.7880631417046651,3.51917813274740832,-1.60594838525152239,27.0622303339576611,0.379813276335846328,2.5443995985034138,319.593746642958081,32.4933421062185275,14.0473756338335889,69.8867500887933915,-0.121089909650557548,113.571119829582813,645.527634577063623,15.2880000000000003,0,1.45230883707314695,0.0955064719685089769,1.07110617139462359e-08,-0.0079831426029617434,-0.00393862123261586993,0.000687292240726773847
0.99,31.2221592826250607,131.010455784086645,19.0865463579093309,3.53561867136013852,-1.59323315330577753,29.5941170853119289,0.385919028638029626,2.52397121605971675,341.660948551705417,32.7127307746856388,14.1490941805847878,69.8821018369460347,-0.127311680913200026,113.564494583999888,654.255257774274128,15.2880000000000003,0,1.45613089749052915,0.0961516367586422172,1.08853698048633554e-08,-0.00825806632219183018,-0.00406363045198198432,0.000715740984678135878
1,31.2221587693298055,131.010457148166324,19.3873438894056314,3.54730241990598483,-1.57868711159009334,26.4635877174443976,0.392579145986978906,2.50212770558506126,314.26720818227642,32.9709198164767727,14.2641073863402781,69.8772937601640081,-0.133726219641546934,113.557663847664443,664.604384660600772,15.2880000000000003,0,1.45993181781440184,0.0969108536888811517,1.10771018758418444e-08,-0.00854051568533076982,-0.00419045925227670788,0.000746042092634646627
1.01,31.2221582519324699,131.010458522721649,19.6903292685116966,3.55937611404818055,-1.56463238255992176,27.6893047242986654,0.399218241731181978,2.48009772480788193,324.920316103697928,33.2205491921332126,14.3760941928899477,69.8723214932882257,-0.14033605018555384,113.550624911732058,674.686551234045169,15.2880000000000003,0,1.46371105917444888,0.0976449188207361291,1.12871850920527844e-08,-0.00883045960722633229,-0.00431904677774979338,0.000777187222302496111
1.02,31.2221577303619249,131.010459907946853,19.9955598793291855,3.57226779680025519,-1.55123566613582109,23.0744299055651467,0.405783141959216553,2.45800002727210298,284.590631615404163,33.4575221456201959,14.4836384268475644,69.8671806504744808,-0.147143616740083805,113.543375152578989,684.326336119332154,15.2880000000000003,0,1.46746956525689654,0.0983417904076147459,1.15162546641743135e-08,-0.00912811971564434811,-0.00444944411385202535,0.000809091996451785406
1.03,31.222157204680606,131.010461303671121,20.3029895904691742,3.5817719809989863,-1.53666861298130009,18.8059254230279116,0.412768650211079002,2.43473512257887226,247.30469339049705,33.7212422492027031,14.6003353174346806,69.861866813320205,-0.154151321569750283,113.535911989233597,695.136371170222105,15.2880000000000003,0,1.4712066518211544,0.099117287500980894,1.17651304314658463e-08,-0.00943354367769626626,-0.00458162451305879105,0.000842729913436213781
1.04,31.222156674944511,131.010462709740665,20.612577293996079,3.59386639735685565,-1.5235010639995088,30.0618545824012635,0.419471249523023393,2.41185986803859187,345.465636880722968,33.9557296180655044,14.7068720313391079,69.8563753702024428,-0.161361636397770514,113.528232769063152,704.816563857201345,15.2880000000000003,0,1.47492286462700228,0.0998068679495639766,1.20345581141277896e-08,-0.00974682933115110679,-0.00471558424814061926,0.000876745397366685952
1.05,31.2221561408923876,131.010464126872165,20.9245278913667292,3.60315296591262735,-1.50942715331574884,18.027750821287615,0.426532856142114003,2.38793653100195336,240.456258798199826,34.2116607771795884,14.8207318782969608,69.8507018031911002,-0.168776990095386048,113.520334875268631,715.459855185963988,15.2880000000000003,0,1.47862028123588884,0.100559486351536345,1.23248764785455569e-08,-0.01006844773824506,-0.00485147554109269241,0.000912474488936716667
1.06,31.2221556027407239,131.01046555447229,21.2386758655159404,3.60999249837175817,-1.49462299863869785,25.7985151328363038,0.433926342767558537,2.36300499059234559,308.179683655939243,34.4860538716948639,14.9408964028325055,69.8448412563679,-0.17639988750657995,113.512215620274432,726.960571318651091,15.2880000000000003,0,1.48229731643858442,0.101366378546089625,1.26371102316328438e-08,-0.0103982567763937061,-0.00498918991125557772,0.000949893661762578269
1.07,31.2221550603832014,131.010466992832988,21.5551060600900257,3.6214088955327286,-1.48198443272967295,30.4306909572380064,0.440778027255576021,2.33905909884669017,348.509368144030759,34.7119006773312364,15.0442218672801111,69.8387889186577127,-0.184232909287205759,113.503872221871106,736.49099514395175,15.2880000000000003,0,1.48595611462315058,0.102030584337234748,1.29717111233518224e-08,-0.0107365986110611461,-0.00512882246168783803,0.000987194806677090843
1.08,31.2221545137275776,131.010468442208577,21.873892396935954,3.63147972375310291,-1.46904360106797904,20.3956722580879877,0.44781878200108155,2.31443153457116191,261.001578574662346,34.9454824779836457,15.1501403434171511,69.8325398089183125,-0.192278495820522116,113.495302059150603,746.413415338917048,15.2880000000000003,0,1.48959691433588515,0.102717533578263201,1.33292694160589006e-08,-0.0110837231064978576,-0.0052704253839192354,0.00102593810642201909
1.09,31.222153963024752,131.010469901911478,22.194842778172351,3.63593882702803795,-1.45410232295087094,18.7399855952530743,0.455604681435741787,2.28780901922716762,246.543753324744074,35.228244500716734,15.2729862108216867,69.8260889766893484,-0.200539111943188381,113.486502473908914,758.518137559769684,15.2880000000000003,0,1.4932175444860647,0.103549049442820548,1.37108686462603113e-08,-0.0114394020809298926,-0.00541385667393653753,0.00106739555836610428
1.1,31.2221534083437575,131.010471371752942,22.5179061257821544,3.64281847964366268,-1.44039789823477715,37.8770446691423146,0.463112021191844636,2.26156313156023314,413.189061738584087,35.4830014297405967,15.386089895205906,69.819431360934928,-0.209017214533636336,113.477470816715723,769.504541406125895,15.2880000000000003,0,1.49681872444792163,0.104298256025765812,1.41171845838548068e-08,-0.0118037299496025032,-0.0055591081198167816,0.00110932091572440864
1.11,31.2221528493183591,131.010472852740634,22.8433688986446874,3.65492083857223271,-1.42898561758530396,27.6608757967484458,0.46995008790695858,2.23663835720323645,324.159391037639693,35.6818228772543762,15.4797745786318863,69.8125617541210488,-0.217715277348716374,113.46820442144643,778.127885565401129,15.2880000000000003,0,1.5004039322548699,0.10488305431297261,1.4548224024204864e-08,-0.01217743557688678,-0.0057064202015877051,0.00115081863272498358
1.12,31.22215228600556,131.010474344720592,23.1711893859220623,3.6563814607491798,-1.41366193638342486,10.2717385743201941,0.478237018121144331,2.20799744963138922,172.73281794065943,35.9795016218331796,15.6075801082785919,69.8054749617947863,-0.22663567378177521,113.458700725623601,791.140331040323076,15.2880000000000003,0,1.50397158896234706,0.105758441651668686,1.50048205259760968e-08,-0.0125605390617160358,-0.00585574711882335883,0.00119688867532666407
1.13,31.2221517189426656,131.01047584621611,23.5009535172555424,3.66316868584680577,-1.40064614804342158,32.6566243891624026,0.485836604817339646,2.18071261680218598,367.532807790070478,36.220422405966346,15.7156948596483019,69.7981654737755264,-0.235781012597858164,113.448956912891276,801.745448939715516,15.2880000000000003,0,1.50751930524466626,0.106467002372921976,1.54884517147058944e-08,-0.0129524114200375764,-0.00600679800439025795,0.00124245515244073143
1.14,31.2221511475276046,131.010477358886078,23.833130643760466,3.67364994644226384,-1.38925102686655344,17.9712132940207923,0.492944085567359136,2.15434747695484141,239.695317731955441,36.4196209392641279,15.8092912528823621,69.7906279891785317,-0.245153567636182429,113.438970524232786,810.562424805502133,15.2880000000000003,0,1.51105183623389294,0.107052931645814878,1.59986039879077074e-08,-0.0133541817084266035,-0.00615995749550941624,0.00128799870190320683
1.15,31.2221505722023522,131.01047888151723,24.167380614771826,3.67325383993650734,-1.37397511055052823,17.7118374057901846,0.501595663180823048,2.12393910962037991,237.412511535467729,36.721820095516911,15.9384915926312907,69.782857087047617,-0.254755567752560919,113.428739149214053,824.043386759359464,15.2880000000000003,0,1.51456485459380197,0.107941632108933441,1.65368234126888822e-08,-0.013765207476616045,-0.00631492927583262361,0.00133861516088527497
1.16,31.2221499930917794,131.010480413767084,24.5036092134095718,3.68414842994118841,-1.36313264911117704,46.7662246605709271,0.508672647687017476,2.09709591181745436,490.043774384589426,36.9067201274579304,16.0270081199613301,69.7748471518500111,-0.264589487522662647,113.418260104172489,832.335767739448556,15.2880000000000003,0,1.5180598727092196,0.108485546517219561,1.7103733185388516e-08,-0.0141855461152391917,-0.00647169038938125076,0.00138639270421516336
1.17,31.2221494094059508,131.01048195781604,24.842431461722569,3.68915649048310978,-1.35030880365664419,8.09164328653360698,0.516605668998058487,2.06786384116560118,153.709379294867944,37.1450084247836259,16.1339403174314313,69.7665926055857852,-0.274657454614755381,113.407531087214323,843.090979549480039,15.2880000000000003,0,1.52154154795542129,0.109186401110001843,1.76984444767843904e-08,-0.0146166812452979706,-0.00663073889997425198,0.00143770524006978117
1.18,31.2221488221873216,131.010483510793989,25.1830417045976915,3.68636212737665936,-1.33485608533374323,22.6247880092715157,0.525713329068543622,2.03538972366306048,280.025018221967457,37.4575401698258048,16.2665690295030103,69.7580877482189265,-0.284961772707555183,113.396549593639492,857.309860626361228,15.2880000000000003,0,1.52499745901032724,0.110105500034120021,1.83237461969197591e-08,-0.0150568713842237686,-0.00679138284754933312,0.00149341463737200195
1.19,31.2221482309668161,131.010485073996506,25.5258062685963232,3.69979476305684818,-1.32546364673271722,39.7055708471037647,0.532436481116706828,2.0085862577645095,428.407813052929214,37.6007422388856014,16.3404185079301101,69.7493266663613696,-0.295504793186284587,113.385313070922322,863.849025794021259,15.2880000000000003,0,1.52843728917702615,0.110526866463121348,1.89789089507210937e-08,-0.0155072959838583897,-0.00695400745124591119,0.00154391932783357164
1.2,31.2221476353420258,131.010486648539597,25.871039729089194,3.69957879244593224,-1.31136800055483316,3.89015393708730528,0.541216750446961936,1.97630316951608531,117.184374136023607,37.8771375275116498,16.4603976258293514,69.7403036949809518,-0.30628847025709105,113.373819390622515,876.566584898924816,15.2880000000000003,0,1.53186242629820057,0.111339760413692257,1.96638632414356136e-08,-0.0159687243784370735,-0.00711883275817337072,0.00160149314216727562
1.21,31.2221470363563505,131.010488231545651,26.2179357838078531,3.69973724564964845,-1.29761882461047962,31.8387803325331369,0.549974260379114455,1.94374392161963994,359.923432132008998,38.1454285307580321,16.5775359297692475,69.7310126540978246,-0.317315111459050003,113.362066044983663,888.998716676262347,15.2880000000000003,0,1.53526706771125543,0.112128840182622244,2.03814863299962195e-08,-0.0164393640603132975,-0.00728517191890242031,0.00166031597721203708
1.22,31.2221464332164693,131.010489825209675,26.5671121371815211,3.71112839483168999,-1.28797450819949311,22.9948474882758767,0.556999870136602349,1.91531180381729405,283.068750482576149,38.2928456680304379,16.6526387475556099,69.7214476562525931,-0.328586776930236302,113.350050780457181,895.853208464272029,15.2880000000000003,0,1.53865822675299069,0.112562617789638747,2.11301880978462004e-08,-0.0169210340144774658,-0.00745361930034339846,0.00171550982033118367
1.23,31.2221458262404106,131.01049142865881,26.9183248049016655,3.70959615680900834,-1.27401867259767676,8.79924565563520034,0.566056812441853796,1.88133682115561873,159.796873822227951,38.56832342985183,16.7721684122503198,69.7116028553699039,-0.340105230967881256,113.337771664718403,908.758402394879113,15.2880000000000003,0,1.54203193195063171,0.113372839780355505,2.19115223462457121e-08,-0.0174131164334387772,-0.0076239040826134143,0.00177803899263835998
1.24,31.2221452158689523,131.010493040677403,27.2712347595656119,3.71217955348706763,-1.26166395418770527,38.6112800295374186,0.574479779612215746,1.84866741358144804,418.515630199805003,38.7965000287469337,16.8752311368483525,69.7014719982187074,-0.351872485335497309,113.325226499873082,919.511767805768955,15.2880000000000003,0,1.54538698799173124,0.114044026523931738,2.27269880355235809e-08,-0.0179149206097045863,-0.00779574303057628017,0.00184003773485168502
1.25,31.2221446013674573,131.010494663303518,27.6264141395664673,3.72116096061937007,-1.25162678006092865,18.5373192439931458,0.581865468832416299,1.81839350813360201,244.260946125734876,38.9523863626687117,16.9530913035287014,69.691049118591792,-0.363890340395663925,113.312413301011333,926.884279084451691,15.2880000000000003,0,1.54872494280189366,0.114502720273178676,2.35749532283102789e-08,-0.0184282138415538151,-0.00796969025533826939,0.00190029833587393665
1.26,31.2221439832253616,131.010496295188688,27.9834861379573532,3.71653644264967431,-1.23718077691105299,10.8212364485796613,0.59148476992671617,1.7819062661947529,177.298446336408631,39.2456245462898252,17.0786882537990579,69.680328126601367,-0.376160405903142481,113.299330295189648,940.85992414665418,15.2880000000000003,0,1.55204091243615383,0.115365175235388903,2.44575321481630456e-08,-0.018951966120242799,-0.00814534316423219489,0.0019689518455192085
1.27,31.2221433616047541,131.010497935887344,28.3423278137411501,3.72253480976337325,-1.22643672627969846,37.1458225658215824,0.599350731096559231,1.74971504317774151,405.579686079964688,39.4221156621397455,17.1636232631129353,69.6693024783251644,-0.388684666184961614,113.285975301426561,949.308491094250599,15.2880000000000003,0,1.55534050232466514,0.11588445215792606,2.53753579463315447e-08,-0.0194861478685765636,-0.0083226474278446632,0.00203348292229625161
1.28,31.2221427359208796,131.010499587027738,28.7033950368036024,3.72578803890422883,-1.21493124482981929,11.8794211491094313,0.607669139017875448,1.71599155802441805,186.429688124688823,39.6218939478687986,17.2566039592390794,69.6579660729505008,-0.401464574812770758,113.27234670450926,958.9211740035405,15.2880000000000003,0,1.55862669696832601,0.116472190983686566,2.63272732556991355e-08,-0.0200321418137312836,-0.00850200769642480737,0.00210098117564419583
