Time,Latitude,Longitude,Altitude,Angle of Attack,Angle of Sideslip,X-Acceleration,Y-Acceleration,Z-Acceleration,Thrust,True Velocity,Ground Velocity,Pitch,Roll,Yaw,Dynamic Pressure,cp,parachute_deploy_gain,Wind Speed,Mach,omega_x,omega_y,omega_z,Cmq,Angle of Attack(total),Angle of Attack(gust),True Velocity(gust),Acceleration
0.0,31.222216000000007,131.010392,3.000000004412624,0.0,0.0,0.0,0.0,0.0,2.2828121974499247,0.0,0.0,71.99999999612658,-1.0292491154817412e-14,119.99999999354436,0.0,15.288,0.0,0.0,0.0,0.0,0.0,0.0,-0.0,0.0,90.0,0.0,0.0
0.01,31.22221599999862,131.01039200000284,3.0000009727369523,0.0,0.0,0.0,0.0,0.0,34.24218696174923,5.916279387578309e-11,5.734623670548936e-11,71.99999999613168,-5.86671995824671e-13,119.9999999935449,2.1432944861733093e-21,15.288,0.0,0.0,1.7386402909615473e-13,-3.4220131069073734e-19,7.115076756936125e-19,5.488773498207866e-19,-1.1574302492039043e-31,0.0,89.99999999962336,5.916279387578309e-11,0.0
0.02,31.22221599999738,131.01039200000537,3.0000018317022668,0.0,0.0,0.0,0.0,0.0,25.871876237766408,1.2265415415436536e-10,1.1895038237325684e-10,71.9999999961369,-1.1836364828043265e-12,119.99999999354544,9.211895886571454e-21,15.288,0.0,0.0,3.6044858651615574e-13,-6.979551485375437e-19,1.4162390878091906e-18,1.0909784360635388e-18,-4.776231873571785e-31,0.0,89.99999999921916,1.2265415415436536e-10,0.0
0.03,31.22221599921969,131.01039200159065,3.0001883335529382,18.80143492628821,-0.0001350810307892,10.931161642028636,-1.75114298675875e-05,3.026590975169265,180.34219359854663,0.0798232026864394,0.0478175828508887,71.99999999765336,-5.341802909786072e-12,119.99999999436793,0.0039016003969354,15.288,0.0,0.0,0.0002345795854893,3.788270153300133e-17,-7.771883375645477e-10,1.1422790048099072e-11,1.7057759223764537e-13,18.80143492675591,89.51882325913425,0.079801984207741,11.342422482672777
0.04,31.222215995131297,131.01039200995308,3.001692634342189,9.19442604083399,-4.49173898918486e-05,52.29595764159784,6.445392950801871e-06,3.026413589912948,548.6359724538078,0.3504174083926908,0.1601447499964056,72.00000000319055,-3.111420077280171e-11,119.99999999870242,0.0751892535633216,15.288,0.0,0.0,0.0010297854387864,2.0082066977226968e-15,-1.520937588847922e-08,2.5623342884322286e-11,1.4654248781413086e-11,9.19442604094277,87.798916624545,0.3504103527855857,52.383455068075136
0.05,31.222215983575865,131.01039203366796,3.0074067499493786,5.158590039700252,1.707592688632746e-06,76.26884281015512,5.843947534199429e-05,3.0258124765658088,761.6984298824644,0.9592973585397016,0.3772700771701255,72.0000000004862,-1.3608731808076822e-10,120.0000000109612,0.5634958029902841,15.288,0.0,0.0,0.0028191251099456,2.086299069701397e-14,-1.0551247853743037e-07,3.973493515691201e-11,2.783064866637575e-10,5.158590039700515,83.94063169874748,0.959297626767734,76.32884071402438
0.06,31.222215961742712,131.0103920785344,3.019291017943491,4.109521257467909,3.140103977270004e-05,57.06876634333886,0.0001151069734147,3.024834864051463,590.4875390737208,1.6257536642597354,0.6118982818704327,71.99999992547217,-3.5903296759057166e-10,120.00000003412836,1.6184272268450337,15.288,0.0,0.0,0.0047776672697797,1.0694899894620088e-13,-3.741090980393931e-07,5.521401959501359e-11,1.6723176417636091e-09,4.109521257587776,79.78719176344794,1.6257585967235286,57.148873286519276
0.07,31.222215929936205,131.01039214392435,3.0371334573469446,3.649087515174788,5.707077112564807e-05,86.89643797254193,0.0001728541558773,3.0234947746384675,855.2937749779139,2.3057260079826607,0.8506307413593818,71.99999965378231,-6.907496536790437e-10,120.00000006788592,3.255354923652711,15.288,0.0,0.0,0.0067759305364855,3.495199904512709e-13,-9.036515915819006e-07,7.594816279105379e-11,5.728932851326001e-09,3.6490875156204896,75.6601668283889,2.305734972638426,86.94902215090157
0.08,31.222215886364623,131.01039223353447,3.0621840248716574,3.4254446680114707,8.413075603463509e-05,17.831756866644035,0.0002285946601282,3.021841001032126,241.2171988638848,2.961944911520492,1.0819695676346892,71.99999900671328,-1.141745983122182e-09,120.00000011415082,5.371998197385977,15.288,0.0,0.0,0.0087043901031071,8.800530155962314e-13,-1.829098470920821e-06,1.0943386634701918e-10,1.4896287129277132e-08,3.4254446690434226,71.81713637501419,2.9619581267487467,18.085991154451033
0.09,31.22221583454733,131.01039234010327,3.0919888289029,3.389560809024919,0.0001118726864415,54.09031716446879,0.0002748660999733,3.020060228038602,563.0937377043176,3.504225426410036,1.2780161667917422,71.99999774508822,-1.634190085504106e-09,120.00000016921716,7.519080503822694,15.288,0.0,0.0,0.0102980157586766,1.865782139518716e-12,-3.1503298654458527e-06,1.6284478329871028e-10,3.03536411425607e-08,3.389560810868955,68.76526501308032,3.504242999330529,54.17456206384468
0.1,31.22221577423132,131.0103924641528,3.1267248829165366,3.4447939461814814,0.0001419149103147,51.372195336549765,0.0003131602029306,3.0182021883815127,538.7437595981919,3.950569597142709,1.4443465951180965,71.99999562056465,-2.1287748602259068e-09,120.00000023339832,9.55649523509932,15.288,0.0,0.0,0.0116097108366932,3.485956000178229e-12,-4.949356763187612e-06,2.4573266549165286e-10,5.3761299442583966e-08,3.444793949101151,66.34639928474206,3.9505918890846927,51.460781166288626
0.11,31.222215706113143,131.01039260424562,3.165907002780892,3.4691423802630394,0.0001702373452339,40.591037561894986,0.0003534470100582,3.016051659024047,442.8656393052949,4.421478635995476,1.6182620895289603,71.99999235067894,-2.5564479031457968e-09,120.00000030601664,11.970509656144712,15.288,0.0,0.0,0.0129935974697161,5.942887149865172e-12,-7.273722517324353e-06,3.67769289312894e-10,8.842679949465076e-08,3.4691423844348632,63.88798785789768,4.421505376815134,40.70293476011277
0.12,31.222215630588888,131.0103927595646,3.2092596514826863,3.4852659299808075,0.0001974376474727,44.30042894095728,0.000394069215595,3.013641598889868,475.58594813540446,4.896982486381051,1.793579340340896,71.99998761802138,-2.8337988279882726e-09,120.00000038673312,14.683611096353944,15.288,0.0,0.0,0.0143909889875706,9.464337642181618e-12,-1.017558359402848e-05,5.395790443954697e-10,1.3700793350599625e-07,3.4852659355662303,61.5068242157714,4.897013499814194,44.40281567867803
0.13,31.222215548046687,131.0103929293088,3.256512891171917,3.5606043721293616,0.0002276507019012,48.86766833507025,0.0004268800875964,3.0112558910133567,515.9156326236895,5.278566579338586,1.939796541405244,71.99998107389406,-2.8573058577484587e-09,120.00000047523812,17.061052093156064,15.288,0.0,0.0,0.0155123760833565,1.4300406003001044e-11,-1.3705268062305584e-05,7.724776992181392e-10,1.989112774124932e-07,3.560604379397528,59.67313531776262,5.27860233862722,48.960358155653
0.14,31.222215458587108,131.01039311327068,3.30759734332425,3.6000732663755977,0.0002555702913645,45.540290862247225,0.0004629468001456,3.0085404980032777,486.2390860568404,5.70011779273801,2.098362647205908,71.99997235012626,-2.508533681468686e-09,120.00000057154703,19.894788765881632,15.288,0.0,0.0,0.0167512184495524,2.071534240530911e-11,-1.7917736259613292e-05,1.0787346240473087e-09,2.8081526258393346e-07,3.6000732754351943,57.72385750323359,5.700157937625502,45.639559681930805
0.15,31.222215362317904,131.01039331122794,3.3624387479639086,3.651605404442164,0.0002842753491325,44.01308509501,0.0004965057129938,3.005703619811542,472.54218587214,6.091938849578711,2.2476968067377374,71.99996103728932,-1.6446954747148112e-09,120.00000067569304,22.723773683610247,15.288,0.0,0.0,0.0179026934683374,2.9002783512213203e-11,-2.287326399669318e-05,1.47199345427166e-09,3.831202693354572e-07,3.651605415492516,55.98561718911576,6.091983503446133,44.115597174664394
0.16,31.22221525912812,131.01039352340948,3.421115382839859,3.67540086436193,0.0003108411545024,34.83804992586084,0.0005330990866742,3.002517946501868,391.1218908297564,6.521183188362317,2.4085903880902046,71.99994669525161,-1.0153513453738144e-10,120.00000078796704,26.03872642002185,15.288,0.0,0.0,0.019164148528834,3.9478358970291335e-11,-2.864207894220033e-05,1.9677461746207517e-09,5.135466997084602e-07,3.6754008774883777,54.15946979122355,6.521232015176687,34.96719658394182
0.17,31.2222151493826,131.01039374906244,3.4833737923187487,3.7139589864597298,0.0003384978477213,43.96471427482637,0.0005668629535037,2.999235483723449,471.78125980632376,6.916861975403744,2.559060925010733,71.99992884100092,2.3206494032971838e-09,120.0000009081849,29.29426197817256,15.288,0.0,0.0,0.0203269651395979,5.248754693205839e-11,-3.5267097947693114e-05,2.580363454062817e-09,6.706952682968329e-07,3.713959001863866,52.549031795895466,6.916915146521327,44.06689817851128
0.18,31.22221503253009,131.01039398932429,3.549599475912623,3.7380363034619775,0.0003650282082698,36.67395661481795,0.0006021794701355,2.9956556354306425,407.10156721191447,7.332140201215607,2.71556808256092,71.99990696207136,5.837017536380516e-09,120.00000103716444,32.917216366714264,15.288,0.0,0.0,0.0215473823438242,6.839750892601699e-11,-4.285557247677198e-05,3.331016495775474e-09,8.639362741436378e-07,3.738036321259578,50.93050624815799,7.332197539712479,36.796100973258795
0.19,31.22221490871209,131.01039424390297,3.619694897703461,3.747799769666444,0.0003901520189829,41.42208371271829,0.0006393759928961,2.991742733214697,448.9531328318269,7.771071983754382,2.879366399937307,71.99988049019642,1.0709144790974043e-08,120.00000117502664,36.97605053227239,15.288,0.0,0.0,0.0228373144884866,8.761416506509219e-11,-5.146771415177372e-05,4.238406957677133e-09,1.0996552116864756e-06,3.747799789945131,49.29705748437159,7.771133268690212,41.529983675580546
0.2,31.22221477769685,131.01039451327668,3.693822889232993,3.7700519460961166,0.0004166800650969,37.99697972290605,0.0006740224661302,2.987733789228414,418.51563019916136,8.179966026035371,3.0338260708461373,71.99984881140107,1.723179577184912e-08,120.0000013223286,40.969302182777255,15.288,0.0,0.0,0.024038975990988,1.1057590044953188e-10,-6.120032215177249e-05,5.3263847350253015e-09,1.376394225587184e-06,3.7700519690893857,47.8457752505109,8.180031477986942,38.11426270718793
0.21,31.222214639876928,131.01039479663547,3.771710975053407,3.7926098867321474,0.0004432924407074,36.46301043881366,0.0007080907240332,2.983530483977461,404.8187610144644,8.582757448615462,3.1863584283669346,71.99981127559042,2.5745201416596626e-08,120.00000147900325,45.103059028532826,15.288,0.0,0.0,0.0252227064089584,1.3774582723633048e-10,-7.20875523136271e-05,6.61341033873124e-09,1.7010673350603349e-06,3.792609912601061,46.47936953648762,8.582827080829217,36.584868250565684
0.22,31.22221449507626,131.01039509434258,3.8534832466471007,3.782921298925821,0.0004660920499522,44.14577847155813,0.0007479176313898,2.978724032883548,472.5421858721365,9.056569122268344,3.360845972992861,71.99976720416048,3.661811567390422e-08,120.00000164562512,50.21995530074818,15.288,0.0,0.0,0.0266151520780326,1.6960703048385348e-10,-8.421592474264931e-05,8.124635526119773e-09,2.0969540034515424e-06,3.7829213275976334,44.9464484092354,9.056642335836344,44.24615863872642
0.23,31.22221434283448,131.01039540734791,3.9394622486964206,3.813874679301352,0.0004940771488601,36.66675459308932,0.000779455230549,2.974212905336642,406.3406421461021,9.430647902846331,3.5044030163419806,71.99971583979395,5.0272885112871524e-08,120.00000182313076,54.45382429059888,15.288,0.0,0.0,0.0277145095638672,2.0669790509245914e-10,-9.77285871729516e-05,9.894576563683824e-09,2.5339062472561444e-06,3.813874711257219,43.79476959007253,9.430725512303388,36.78718303164376
0.24,31.222214184153326,131.01039573358457,4.028950821673608,3.829256049377765,0.0005200487408944,37.802126339316736,0.0008136255607606,2.9692962675112065,416.2328240017114,9.837806876534357,3.658163422426286,71.9996564062533,6.718950080713476e-08,120.0000020109434,59.25679777340223,15.288,0.0,0.0,0.0289110855155543,2.4956955046738006e-10,-0.0001125744417092,1.1934277804843484e-08,3.0448209172448607e-06,3.829256084638984,42.59361542722471,9.83788856559955,37.91856374864305
0.25,31.22221401888584,131.01039607335582,4.122052964664892,3.851417709838087,0.0005469594058717,38.85163035360012,0.0008459008130282,2.964283881833675,425.36408079150686,10.22297576958679,3.8050691648373967,71.99958811418384,8.786880969336211e-08,120.00000220974424,63.98709205399403,15.288,0.0,0.0,0.0300430411774988,2.987811646313829e-10,-0.0001288461362054,1.4273117985167728e-08,3.621333387698252e-06,3.8514177486178034,41.50703126619192,10.223061685769354,38.96455005232871
0.26,31.222213847358866,131.0103964259872,4.218542267117083,3.8780574625554745,0.0005745172425185,42.3164797140743,0.0008766626387865,2.959162938653076,455.8015834241788,10.590779679138215,3.946551912391076,71.99951013710364,1.1286401474734325e-07,120.00000241975916,68.67355887153568,15.288,0.0,0.0,0.0311239685467471,3.5491769188178554e-10,-0.0001465721578858,1.6932703957058654e-08,4.267712643344226e-06,3.8780575050466,40.51245375834074,10.590869924095635,42.41981967733593
0.27,31.22221366913008,131.0103967923915,4.318728802515264,3.886188503202341,0.0005994342651313,38.70936050721014,0.0009111181036949,2.953518013741325,423.84219965987256,11.004860953238978,4.102320296019413,71.99942161756776,1.4276417094868828e-07,120.0000026420792,74.14786134434608,15.288,0.0,0.0,0.0323408987462391,4.1858405402174807e-10,-0.0001658847815307,1.995072923688136e-08,5.018832267232506e-06,3.886188549362022,39.43841359495857,11.00495511215316,38.8218734782956
0.28,31.22221348431185,131.01039717233687,4.422535913956003,3.90556090261878,0.0006261175699806,44.68030766832924,0.0009425767186621,2.947879457547137,476.3468732012221,11.38358114165448,4.247086834352694,71.999321619057,1.7823531611327881e-07,120.000002877279,79.33831935330025,15.288,0.0,0.0,0.033453914386159,4.904408325040897e-10,-0.0001868529238516,2.3357766479368094e-08,5.847713054408178e-06,3.9055609527288775,38.49894431917428,11.383679491972384,44.77744842575601
0.29,31.222213292835256,131.0103975659655,4.530013412817602,3.9242599519377537,0.0006528240665589,35.802573724660256,0.0009737210635801,2.942037024315898,397.97031042211177,11.759725774384751,4.391004157029451,71.99920917567837,2.1999186079018322e-07,120.00000312617878,84.66717879828003,15.288,0.0,0.0,0.0345593650464213,5.711677680739745e-10,-0.0002095620322847,2.7188189988316943e-08,6.77505090435382e-06,3.9242600061534456,37.60352534239979,11.759828319749328,35.92324968749781
0.3,31.222213095024976,131.0103979726075,4.64093665799555,3.936939025755682,0.0006785438093183,33.570228713727204,0.0010059102294455,2.93586442972183,378.1859457108711,12.149968255527943,4.539237002744259,71.99908328532703,2.6880857935396905e-07,120.00000338923812,90.3787563598417,15.288,0.0,0.0,0.0357062504417728,6.614698865958865e-10,-0.0002340353597042,3.1467140861055e-08,7.817263716758327e-06,3.9369390841381695,36.71173884615234,12.150074840940263,33.698361337808635
0.31,31.22221289105846,131.01039839189684,4.755183729044857,3.9598342215431432,0.0007060286581592,35.396825578217346,0.0010350810412898,2.9297385597941448,394.1656220930212,12.504537499407316,4.6763673222047455,71.99894291513503,3.255120771695107e-07,120.00000366712923,95.72967338626896,15.288,0.0,0.0,0.0367483036680869,7.620720834468404e-10,-0.0002603234137215,3.622454560346964e-08,8.948994505138873e-06,3.9598342843844345,35.934338386209795,12.504648402129598,35.5178635353378
0.32,31.222212681031937,131.01039882363492,4.872689374180126,3.985461429033668,0.0007340760463279,38.52097867048992,0.0010630242168685,2.9235095146848846,421.55939346242695,12.84534566718622,4.809181081594425,71.99878701464397,3.909756427278764e-07,120.0000039606604,101.01782231644016,15.288,0.0,0.0,0.0377499198995686,8.737098716736534e-10,-0.0002884807530145,4.1491545539590986e-08,1.0187112828155184e-05,3.98546149652875,35.21473736963424,12.845460975581933,38.631757748577954
0.33,31.22221246496604,131.01039926777932,4.9934410812554,4.010606629086,0.0007621365968788,38.18822026147908,0.0010905599149574,2.917102431053817,418.5156301991682,13.18247167592885,4.940798912752974,71.99861449732019,4.661299779655886e-07,120.000004270781,106.38859400029033,15.288,0.0,0.0,0.0387407190563976,9.971421990244511e-10,-0.0003185760672934,4.7302669734505256e-08,1.154498667827874e-05,4.010606701382261,34.52805863348922,13.182591392065536,38.299473293007864
0.34,31.222212242662028,131.01039972474007,5.117579377337869,4.019339771238816,0.0007871574969313,29.898022638335373,0.0011220389395318,2.910051232417875,345.46563688075645,13.569536737955724,5.0878303926024735,71.99842423285973,5.519675040347761e-07,120.0000045987411,112.72655675097128,15.288,0.0,0.0,0.0398782837956187,1.1331556132162459e-09,-0.0003507224668667,5.37022358302301e-08,1.308298593306914e-05,4.019339848191799,33.76700548046532,13.5696603843662,30.039310197084795
0.35,31.22221201433324,131.01040019407705,5.2449575244483055,4.033762873683395,0.000813261106463,32.76415525156106,0.0011515840876071,2.902959820469776,370.5765700527033,13.934300103976534,5.227895396154902,71.99821502296155,6.495674834876441e-07,120.000004945438,118.8669740701126,15.288,0.0,0.0,0.040950312688979,1.2825853697215452e-09,-0.0003849609961885,6.072234695821837e-08,1.4746020857580124e-05,4.033762955530055,33.07785186209504,13.934427850732408,32.89250745069162
0.36,31.22221177990305,131.01040067594835,5.375631006350063,4.051723629010647,0.0008401329464575,37.01692984301412,0.0011797030485285,2.8957873473716007,407.8625232777193,14.282998147928636,5.362923567977223,71.9979856440668,7.600645476620651e-07,120.00000531213882,124.88900300695136,15.288,0.0,0.0,0.0419751331662584,1.4462801652534363e-09,-0.0004213876232777,6.84067806399068e-08,1.654507199147348e-05,4.051723715967022,32.44322602189087,14.283130115703262,37.13002398000203
0.37,31.222211539445663,131.01040117020102,5.509550188388412,4.071639898917391,0.0008674922629137,35.12417761390579,0.0012067983861697,2.88849906286036,391.1218908297666,14.620581431527652,5.494447309446232,71.99773482653193,8.846681943540367e-07,120.00000570002652,130.86067091914967,15.288,0.0,0.0,0.0429672939311924,1.6251202388969355e-09,-0.0004600660652957,7.679415042686734e-08,1.849041957573993e-05,4.071639991174516,31.85023865502424,14.620717696893658,35.24274792557624
0.38,31.222211292895075,131.01040167697127,5.646763233102716,4.08264881385344,0.0008930259828975,36.695642158537446,0.0012360471443664,2.880711738179021,404.8187610144602,14.986392916850402,5.634654729559426,71.99746126698146,1.0246533537040716e-06,120.0000061105033,137.4891296153862,15.288,0.0,0.0,0.0440424171304414,1.8200057922063743e-09,-0.0005010869196581,8.592980519823866e-08,2.0642694281337543e-05,4.082648911356968,31.228847973200924,14.986533193043764,36.808540518115166
0.39,31.22221104018777,131.0104021963902,5.787316652586672,4.096641430700089,0.0009192713382325,31.335681548387896,0.0012640110027448,2.872831219844713,357.64062493382744,15.337978856701952,5.770390286512262,71.99716358743511,1.1813915463769678e-06,120.00000654506955,144.01394309468844,15.288,0.0,0.0,0.0450757388736732,2.031886352449547e-09,-0.00054455673306,9.586443829735616e-08,2.295945663566148e-05,4.096641533664766,30.65298398882095,15.338123255506089,31.4670954954126
0.4,31.222210781536543,131.01040272801887,5.931064331106764,4.109028969993624,0.0009451871856381,29.95928076777898,0.0012920492774571,2.8646905607053603,345.465636880754,15.692185018814769,5.906873567965718,71.99684037970908,1.3563276523471372e-06,120.00000700500496,150.74021066990193,15.288,0.0,0.0,0.0461167659598875,2.2617341782092324e-09,-0.0005905037520737,1.0663253249436129e-07,2.5471259834659164e-05,4.1090290785164525,30.09246700352443,15.692333488470696,30.095929256306363
0.41,31.222210517064383,131.01040327160345,6.077922766619747,4.122888296344507,0.0009714525997821,33.78425365340317,0.0013192264430821,2.85640971467756,378.94687077668647,16.03742529732769,6.0405139809190125,71.99649020751959,1.5509747261474075e-06,120.0000074917568,157.44375780268788,15.288,0.0,0.0,0.0471314487675864,2.5105374204052982e-09,-0.0006389770219162,1.1827345344180344e-07,2.816813594418537e-05,4.122888410595805,29.56469007160549,16.037577892745222,33.904791300285986
0.42,31.22221024682894,131.0104038270252,6.227854084363214,4.14444025865494,0.0009995884754813,38.04468161607466,0.0013435485656724,2.8482703202464488,416.2328240017114,16.348862540904037,6.163613566771559,71.99611159893284,1.766920641656551e-06,120.00000800692096,163.6157044470786,15.288,0.0,0.0,0.0480467946810589,2.779304965995011e-09,-0.0006900467934588,1.308321832549104e-07,3.100973487310896e-05,4.144440378988911,29.104646754454564,16.34901955589459,38.15115260238947
0.43,31.222209970843565,131.0104043942566,6.380851271439565,4.1618082623168045,0.0010268052928652,33.45815353250911,0.0013687230309017,2.8397750580998298,375.9031395134336,16.67263197205097,6.290467308135904,71.99570306121484,2.005818691215035e-06,120.00000855220898,170.15779512382937,15.288,0.0,0.0,0.0489983878509763,3.0690566816849196e-09,-0.0007437862329608,1.443552931671376e-07,3.4086145072160934e-05,4.161808388761201,28.640125213458976,16.672793262249197,33.57845085853367
0.44,31.22220968892116,131.01040497368373,6.537047157143216,4.164954087655709,0.0010505545842624,30.86574023822051,0.0013980747538988,2.830419582421933,353.0750125389216,17.050421620730056,6.433992917638883,71.99526304125902,2.269416145406482e-06,120.00000912964636,177.9537948947602,15.288,0.0,0.0,0.050108743779844,3.380847125286677e-09,-0.0008003278134917,1.589055036683518e-07,3.750784460406397e-05,4.164954219916419,28.113519280259386,17.050586641458253,30.99524475496968
0.45,31.22220940081287,131.01040556582012,6.696617751072218,4.165241899529329,0.0010735835484822,35.912216710755274,0.0014280646808282,2.820677244966047,397.2093853562869,17.438293672974723,6.580571293039616,71.99478987454265,2.5595995397253085e-06,120.00000974147088,186.13940823302417,15.288,0.0,0.0,0.0512487363629523,3.7158016249566814e-09,-0.000859850913876,1.745604864109677e-07,4.121350642664912e-05,4.1652420376426775,27.591357195572936,17.43846231108416,36.02281959036367
0.46,31.222209106468902,131.0104061707686,6.859600379555308,4.174585124444534,0.0010989881252456,41.916816790010685,0.0014546917035209,2.811153314474766,449.7140588976434,17.786187321601275,6.714685486378061,71.99428180697711,2.8783880229668832e-06,120.0000103898448,193.6374175079873,15.288,0.0,0.0,0.0522712438446989,4.0751091178509895e-09,-0.0009224765531151,1.9138630415982226e-07,4.50966024037632e-05,4.1745852688465686,27.13985967570823,17.786359950252297,42.01097612387663
0.47,31.22220880579083,131.01040678873238,7.026066274755745,4.1823089530633855,0.0011240727220223,28.37640408484148,0.0014814747534716,2.801325368441072,331.0078106302534,18.138167428286582,6.849989708801916,71.99373704967608,3.2278903746588286e-06,120.00001107707628,201.37401505997488,15.288,0.0,0.0,0.0533057667609836,4.459978104761035e-09,-0.0009883252835099,2.094509673354327e-07,4.927107017839778e-05,4.182309103852639,26.69716826759888,18.13834399721685,28.514342615617974
0.48,31.222208499300592,131.0104074186346,7.195654207463586,4.189479568102716,0.0011490100608361,27.95074823096412,0.0015080719422187,2.7912412472910484,327.2031223011574,18.48995085190441,6.98515976370584,71.99315377257649,3.6103201777021456e-06,120.00001180491516,209.25751230436188,15.288,0.0,0.0,0.0543397174489847,4.8716620260348906e-09,-0.0010573190976925,2.2877013380347535e-07,5.373205427420879e-05,4.189479725385959,26.268461765425428,18.4901313379827,28.089773168283216
0.49,31.222208187201936,131.01040806005494,7.368224738812109,4.202723284133339,0.001175611380853,35.08821363242469,0.0015321405723077,2.781292092003844,389.60000969812296,18.812014261754847,7.111044804193205,71.99253015042137,4.027946338669921e-06,120.0000125755114,216.60722913930897,15.288,0.0,0.0,0.0552863302793499,5.311396446020465e-09,-0.0011294854492155,2.4938633613154685e-07,5.8398320167141767e-05,4.202723448262914,25.88860807032205,18.81219892635871,35.1982716047702
0.5,31.22220786953184,131.01040871291724,7.5437546994244835,4.220815778795054,0.0012036252596423,36.05491615971072,0.0015540388599792,2.7714444106710974,397.97031042210494,19.10875420627192,7.229005658018125,71.99186435180009,4.483102820610566e-06,120.00001339126192,223.4908652241728,15.288,0.0,0.0,0.0561585257949344,5.7804122391526605e-09,-0.0012048912160576,2.713531252030471e-07,6.327866493526626e-05,4.220815950099865,25.54902500917784,19.108943271285572,36.161276053538906
0.51,31.222207546379583,131.0104093770373,7.722184419225251,4.232567510615346,0.0012298790840397,27.54004661432325,0.0015777580800203,2.761017323676155,323.3984349720841,19.430597746636646,7.354673636736509,71.99115452520388,4.978202222778502e-06,120.00001425458936,231.07869697977367,15.288,0.0,0.0,0.0571045034845869,6.2799518101633574e-09,-0.0012835871653678,2.947201005874635e-07,6.854585242460463e-05,4.232567688976395,25.189423168613605,19.430790935591396,27.678103017910345
0.52,31.222207217918864,131.01041005255223,7.9035313592491105,4.240236809449812,14.259870676100435,33.3245157657169,-0.8688677870348366,2.749840526994292,372.0984511843415,20.39064053296397,7.482947213276249,71.99039378225469,0.0001096039290393,120.0001246187556,254.47303088678265,15.288,0.0,5.028581770051135,0.0599260918587623,6.846303245330831e-09,-0.0013801479589729,0.000200479461998,7.734257164180172e-05,14.864407565402836,37.64949311265136,22.607522912592483,33.44906433930195
0.53,31.222206884446503,131.0104107401486,8.087916383205837,4.249209700711172,14.064153840044296,34.989079882593785,-0.8910658061668683,2.7387956322758327,386.5562464348624,20.71197868674325,7.610608193001326,71.98958177581864,0.0006965115578888,120.0007421191264,262.55211275054126,15.288,0.0,5.047928695292723,0.0608705997765562,7.59534680346707e-09,-0.0014658080272106,0.0004963918253974,8.343592583198691e-05,14.679644703670292,37.15358121638782,22.899052304129743,35.10741674941097
0.54,31.22220654588551,131.01041144007317,8.275414089266297,4.257979214549936,13.874964890917092,30.733250030119343,-0.9135211849385564,2.7275161424726675,349.2703242098436,21.03161174718304,7.737595850146967,71.9887197487366,0.0018108693178535,120.00191425609636,270.7133226156535,15.288,0.0,5.06723245966,0.0618101026713639,8.539581471348751e-09,-0.0015551600930181,0.0007999603284819,8.98864530658453e-05,14.501348440889345,36.6730198132698,23.18984657507469,30.86756424916957
0.55,31.222206202547188,131.01041215171765,8.465818922867708,4.267749613360035,13.695587328416266,32.57197508941993,-0.9359707705040256,2.7160893882178265,365.2500005919907,21.343911640635287,7.862121175050131,71.98780558005295,0.0034658576401049,120.00365489463232,278.8075986791296,15.288,0.0,5.086469209005228,0.0627280600037681,9.684067990318735e-09,-0.001648174774952,0.0011108731100598,9.667538748644936e-05,14.332984782950891,36.21581393980609,23.474781528540102,32.69842112509134
0.56,31.22220585444745,131.0104128750822,8.659130951940622,4.279382963975755,13.528147680181284,30.40344371208544,-0.958203914589105,2.704590239183239,346.2265619465787,21.6445377529922,7.982806285486819,71.98683712815564,0.0056744304966683,120.0059776626174,286.71152217417807,15.288,0.0,5.105637654649617,0.0636117149776058,1.1033762430199406e-08,-0.0017449491190888,0.0014292415271836,0.0001037914706965,14.176818866962128,35.78724838228978,23.74984503686394,30.538538810129193
0.57,31.222205501677905,131.01041361001,8.855297279489966,4.288808493134384,13.359853225006251,30.063921027931453,-0.9811192315626271,2.6927088318228174,343.1828296833023,21.9528118096978,8.105819558854689,71.98581220954169,0.0084495264749887,120.00889617245376,294.93114992086294,15.288,0.0,5.12472852546039,0.0645178526819448,1.2593621747521125e-08,-0.0018455382195317,0.0017550383559791,0.0001113359963519,14.019445822179136,35.357044110103566,24.032407870824944,30.20020899552216
0.58,31.222205144229896,131.0104143565507,9.05433482242088,4.293369344107677,13.18280987525356,39.576693155289725,-1.0053755692226582,2.680205786579403,426.1250058573153,22.282166214895334,8.235435978021057,71.9847285859255,0.0118041923065321,120.01242415120416,303.8413339395641,15.288,0.0,5.143741075144376,0.0654859503964236,1.4368634136745592e-08,-0.0019500437837976,0.002088384912639,0.0001194031746717,13.852543113743932,34.90626114980781,24.334695077687467,39.68008221011595
0.59,31.222204781691936,131.0104151155865,9.256541650734288,4.303001610409209,13.026370738863932,32.087969219660344,-1.028684924313486,2.6678874998615685,360.68438819711065,22.584060331385388,8.356186302006531,71.98358388776208,0.0157523086566696,120.01657620418992,312.12435155955154,15.288,0.0,5.162703928149607,0.0663733505086778,1.6364048416101963e-08,-0.0020587802947435,0.002430057493435,0.000127766705764,13.707002220410738,34.50516544686198,24.612655744841074,32.215114232721525
0.6,31.222204414303263,131.01041588665663,9.4617623473518,4.304445044520016,12.85142158666121,28.520851793144345,-1.0542000967036549,2.654625429375809,329.4859594986058,22.924350089077887,8.489042587704873,71.98237567893848,0.0203079286922863,120.02136711840323,321.5948671831899,15.288,0.0,5.181598417736966,0.0673735999625566,1.8585252658194143e-08,-0.0021717369194914,0.0027798064104045,0.0001368048069672,13.541617342036714,34.05997183110706,24.92616232179764,28.663519690029062
0.61,31.22220404202745,131.0104166698694,9.670033655267416,4.304348679236002,12.677525736789274,33.41683307025431,-1.080407956313141,2.640949173594818,372.0984511843297,23.270752861735847,8.62371888337259,71.98110144023157,0.0254854284434554,120.02681202169438,331.3807119211539,15.288,0.0,5.200427119302309,0.0683918223105533,2.1037721207453013e-08,-0.0022890462835625,0.0031378274460208,0.0001463704585963,13.376980862330337,33.61754325639179,25.245924668926936,33.53843506090912
0.62,31.2222036650002,131.01041746497793,9.881272525310118,4.315982533045413,12.541856906931608,41.54500988656493,-1.1039321474397912,2.6281014014912945,442.86563930529206,23.55452982836276,8.738371232806832,71.9797585272992,0.0312995042404844,120.0329263822453,339.50519876861904,15.288,0.0,5.219189386808597,0.0692259965617228,2.3727070413074705e-08,-0.0024107768115732,0.0035041198188491,0.0001560310609419,13.25244480604244,33.26797323492311,25.508904850384315,41.64268758902875
0.63,31.222203283041697,131.0104182723836,10.09561486658304,4.323520160374941,12.399007234688035,23.56793191904472,-1.1287042723776253,2.614644916044984,286.11251274707894,23.85655716781105,8.858718295733329,71.97834442671804,0.0377642759193751,120.0397250558472,348.26044372455607,15.288,0.0,5.237871868302571,0.0701138146234341,2.665864491306721e-08,-0.0025371156377439,0.0038790238287726,0.000166310132224,13.120037503320228,32.90172609506633,25.789022806613787,23.739371438861017
0.64,31.222202896781013,131.01041909082045,10.312633581937495,4.324700332197407,12.243006319587897,23.137667244638173,-1.1554001889222656,2.6003120499695807,282.30782441796754,24.18974319625044,8.98885582098195,71.97685643835065,0.0448940073451653,120.04722305785955,358.04867919044614,15.288,0.0,5.256481301380858,0.0710932139414802,2.9838016575304735e-08,-0.0026678255846616,0.004261645840494,0.0001773169768175,12.973380528704624,32.504011894548,26.09826867978889,23.311975846705504
0.65,31.22220250621105,131.01041992033237,10.532344028254537,4.334541284756007,12.114829304396707,40.88181536638943,-1.1800299692544605,2.586601201039272,436.7781447787475,24.47432652978293,9.103462571537722,71.97529189156961,0.0527025958709955,120.05543501769004,366.51512180364017,15.288,0.0,5.274969494662473,0.0719297774565931,3.3270481855938795e-08,-0.0028030380205838,0.0046521797523308,0.0001884916877224,12.855986757075364,32.17477345662143,26.363171163069403,40.98055397567377
0.66,31.22220211081208,131.010420762018,10.75511778230794,4.341835725760514,11.98360311889446,34.77488294864621,-1.2055725813196647,2.5723946474442747,383.51251517160017,24.76965497466448,9.22137523016911,71.97364800878638,0.0612040743112737,120.0643757117979,375.4058374913727,15.288,0.0,5.293398406094845,0.0727979274778809,3.6961260537312286e-08,-0.002943152876028,0.0050515613405418,0.0002002976954017,12.735088699813648,31.83878275527605,26.6383407827634,34.890730911849275
0.67,31.22220171079201,131.010421615479,10.98082088710216,4.343487682331088,11.84120624285409,23.94292274077261,-1.232951641669501,2.5573243402133548,289.1562440103425,25.093287794306026,9.348159614976922,71.97192196974714,0.0704134109423772,120.07406089328826,385.2714518922385,15.288,0.0,5.311768159199988,0.0737492709660013,4.0916106707796495e-08,-0.0030881662276013,0.0054595738648347,0.0002129080086713,12.602007086498425,31.47603639400319,26.94008766162012,24.110653804954136
0.68,31.222201306340743,131.01042248035358,11.209331831674149,4.346285002716737,11.705573481678028,29.89653017410935,-1.2602945477960303,2.542101629711048,340.8999924858462,25.408431228302,9.472149525229,71.97011074109324,0.0803455436068829,120.08450629533696,395.00070230713214,15.288,0.0,5.330011102962073,0.0746756712637929,4.51407714124072e-08,-0.0032380949874021,0.0058760672790443,0.0002260433148054,12.47585634170662,31.130618123931093,27.23437416830581,30.03086977585589
0.69,31.22220089755402,131.0104233564727,11.440594242246444,4.353809251854607,11.585811333880653,36.81573946960481,-1.2865148294759745,2.5271636723892854,401.0140726853634,25.694563786347462,9.586844473977065,71.96821142217009,0.0910151380374136,120.09572735651882,403.9382858689506,15.288,0.0,5.34818229391214,0.0755168151652453,4.9640878861687215e-08,-0.0033929935182457,0.0063009975031945,0.0002395183911779,12.366386439429352,30.824844361793577,27.50208179240311,36.924793152126426
0.7,31.22220048429936,131.01042424413507,11.674709815571187,4.360625759366333,11.467473581135367,30.874561928895364,-1.3131736939749097,2.511900064582546,349.27032420985284,25.981804289886,9.701791997214103,71.96622091582248,0.1024367011283992,120.10773936075591,413.0107639487301,15.288,0.0,5.366286259163415,0.0763612221958843,5.44219162393183e-08,-0.0035530596047228,0.0067347039772674,0.0002536159851998,12.258194282477229,30.523298362720123,27.771108742311355,31.00439712986196
0.71,31.22220006664413,131.0104251432286,11.911641471289618,4.3636630975712976,11.342598425149776,25.367697542732856,-1.3412277651130382,2.495916321954065,301.33126406340574,26.28798539603224,9.82264231424459,71.96413614593595,0.1146250602772975,120.1205579229876,422.7927045090631,15.288,0.0,5.384267421550474,0.0772613032302338,5.948956812373911e-08,-0.0037183638401784,0.0071771783114135,0.000268536998107,12.142759076639551,30.20648207099581,28.05806183717233,25.525449434313227
0.72,31.22219964460132,131.01042605375292,12.151390005296347,4.362257539672058,11.209807362266623,31.066035011200007,-1.3709758519270707,2.4790814552434,350.79220534145287,26.61773738595946,9.950852041118177,71.96195390253487,0.1275953426656155,120.13419897789356,433.4561290765692,15.288,0.0,5.40217340903752,0.0782306673954651,6.48496111336858e-08,-0.0038890288273265,0.0076285496164166,0.0002843788158543,12.018550445669716,29.870692148147374,28.3673577188997,31.194934700451025
0.73,31.22219921817867,131.01042697571913,12.393960045888916,4.36994173595776,11.10280284705402,39.30741717090277,-1.3981323663021532,2.4631406492336136,422.320318528234,26.891787402500448,10.061331411376004,71.95967083762125,0.1413632093195048,120.14867902430784,442.41729731044046,15.288,0.0,5.420011553437605,0.0790363283986972,7.050801310983114e-08,-0.004065194788989,0.0080889909668613,0.0003003141919697,11.921782607445396,29.59946123606972,28.624917133063622,39.409324792731354
0.74,31.22219878731897,131.0104279092688,12.639400422284211,4.374111348324673,10.989840001092391,24.597572627216564,-1.4266537224665845,2.4464801562400904,294.48281347105944,27.183724505806,10.17737503862646,71.95728361862227,0.1559437297640706,120.1640139410448,452.0645419147414,15.288,0.0,5.437755100138894,0.0798945675993908,7.647051674137342e-08,-0.004247000599737,0.0085586604440875,0.0003171435425678,11.818380962496024,29.31427062389956,28.899438830016173,24.760072397913092
0.75,31.22219835241416,131.01042885362216,12.887448845903773,4.375884114744888,10.87374504342587,28.72266572479929,-1.4562418965381818,2.429209793496085,330.24688556441487,27.487493727388628,10.297069211651516,71.95478883438734,0.1713520743975521,120.18021971496412,462.21332902047885,15.288,0.0,5.455385721212035,0.0807875893197622,8.274316260329471e-08,-0.0044342871154183,0.0090369599140793,0.0003348213927478,11.711368774227184,29.02207291099631,29.18530282124134,28.86196852296479
0.76,31.2221979133558,131.0104298090249,13.138189395758491,4.380607753534301,10.767466860302816,30.92120304238444,-1.4851093987472583,2.412075894854131,349.27032420986166,27.770830392068568,10.410207066106796,71.95218302712026,0.1876032632572082,120.19731217789364,471.7799211122082,15.288,0.0,5.47293600532279,0.0816205656936565,8.933162699303293e-08,-0.0046272698486589,0.0095242479206155,0.0003529860002512,11.614712175036724,28.75505587155642,29.45224217546601,31.050675638980042
0.77,31.222197470091466,131.01043077560684,13.391667058656171,4.385753328042332,10.664684575018104,28.911470232731528,-1.514082280794152,2.394736416781228,331.7687666960708,28.048729203655707,10.521532316390603,71.94946264653787,0.204712461063239,120.2153073168448,481.2575201984368,15.288,0.0,5.49040782920495,0.0824375670210487,9.624168872803886e-08,-0.0048261142752057,0.0100207459468185,0.0003718296410016,11.521614160276997,28.49752909310645,29.714277543694777,29.049962455689926
0.78,31.222197022698406,131.01043175323133,13.647836939199708,4.387571223743829,10.556412678505128,23.74262652900624,-1.5444789997229025,2.3766238985518724,286.8734378128899,28.34443289554147,10.63839391793325,71.94662403439816,0.2226948704975922,120.23422116365124,491.4462327685808,15.288,0.0,5.507774572562588,0.0833069057382296,1.0347925869302953e-07,-0.0050308739199184,0.0105263939053937,0.0003916821124257,11.422356247566483,28.227076449632357,29.99326472840581,23.911212245129352
0.79,31.222196571279007,131.01043274171053,13.906636848822886,4.3873451574027005,10.445772539794412,33.75117407833544,-1.575910537137206,2.35789272806121,373.6203323159534,28.650490182525544,10.758435324280333,71.9436635663702,0.2415658313162912,120.25406988919046,502.1041207686388,15.288,0.0,5.525035101431103,0.0842066822399237,1.1105031773265953e-07,-0.0052415984031961,0.0110411252617981,0.0004124844102801,11.32029770861146,27.9514330192922,30.282233784287413,33.87011815456518
0.8,31.22219611560542,131.0104337415316,14.168232606001547,4.392444351963244,10.349833222740603,34.197821682118395,-1.6056868770834258,2.3397070392756505,377.42502064505743,28.92029904628413,10.86692897459625,71.94057730510207,0.2613411387842561,120.27487015859776,511.5926785907935,15.288,0.0,5.542223014743121,0.0849999285926863,1.1896072409029656e-07,-0.0054586286483951,0.011565573028914,0.0004335978880956,11.23397630565416,27.71343466297024,30.537220012571527,34.31535322823941
0.81,31.222195655794817,131.0104347524749,14.43255139452586,4.39354182983634,10.246873155062037,22.265037720573044,-1.6372096550886006,2.3205923736293834,273.9374926939919,29.212758205242903,10.98248548544496,71.93736140603535,0.2820364143777525,120.29663844768857,521.9788016170596,15.288,0.0,5.559329467970257,0.085859754163041,1.27216639900386e-07,-0.0056819744114238,0.0120995631605945,0.0004558916546812,11.139806941993918,27.45851649323193,30.813766787097823,22.445434037189003
0.82,31.22219519205649,131.01043577413296,14.699457004517,4.392789574250231,10.141915350819968,28.59291596172792,-1.6697507714555395,2.3008531849763214,328.72500443277005,29.51467932179132,11.100939796051335,71.93401188094327,0.3036672653214605,120.31939122516047,532.8104620253321,15.288,0.0,5.576346733978469,0.086747397290541,1.3582430984586364e-07,-0.0059115916196859,0.012642802438193,0.0004792048076887,11.04323366134541,27.19925174045041,31.09946144980749,28.73389698965365
0.83,31.22219472437993,131.01043680654638,14.968964636896716,4.398590072404594,10.0537418571628,36.3297352863381,-1.7000285078963366,2.281937968438961,395.68750322465047,29.77126248117101,11.204990047674936,71.93052463386611,0.3262493844593541,120.34314505476787,542.1005762279153,15.288,0.0,5.593257682366854,0.0875017939085973,1.4478977707801634e-07,-0.0061476440023346,0.0131954894232758,0.0005026589207393,10.964773709924026,26.98319823695456,31.34240889348372,36.44100717316775
0.84,31.222194252657605,131.010437849951,15.241155444157137,4.402676456386126,9.963580656461824,22.4536188843514,-1.7311997855112056,2.2624561748666068,275.4593748256452,30.03593215232512,11.311505383785734,71.92689565985617,0.349798025839091,120.36791603550252,551.7676600294186,15.288,0.0,5.610075162879889,0.0882799652192718,1.5411887553900592e-07,-0.0063903353280263,0.0137579033482583,0.0005271337735404,10.883962509951791,26.76294639067293,31.59313160973281,22.633620162144805
0.85,31.222193777213228,131.01043890370423,15.515813973257815,4.400797635237884,9.862144295372186,24.47954054555536,-1.7650502488951427,2.2415937246031734,292.96093233939376,30.33737335010858,11.429543758316,71.92312070885748,0.3743283772727573,120.39372021157428,562.8834893733274,15.288,0.0,5.626797115024593,0.0891662209801915,1.6381795002092184e-07,-0.0066394877371941,0.0143294479606843,0.0005531681590102,10.790606549383511,26.51482602570613,31.878877100444164,24.64524396569841
0.86,31.22219329786572,131.01043996819124,15.79307193199666,4.40280061575822,9.771141006627364,30.63893687464227,-1.7976175301492117,2.221127675869283,346.2265619465587,30.61028819945965,11.538489598979607,71.91919555868895,0.3998561208165029,120.42057413976896,573.041177526067,15.288,0.0,5.6434350523983206,0.0899686412743646,1.738928498864589e-07,-0.006895435401799,0.0149107008183064,0.0005796451055411,10.70847733918538,26.293907892664507,32.137706486078244,30.771891227962023
0.87,31.22219281464698,131.0104410433623,16.07291422252416,4.4064750271775885,9.685506140497312,28.5343181838014,-1.829739881103368,2.2006870502863505,327.964078366998,30.868933797040484,11.64284573904306,71.91511573272432,0.4263967845180217,120.4484942315622,582.7504000575143,15.288,0.0,5.659988128053816,0.0907291294404038,1.843497142431296e-07,-0.0071582803329558,0.0155017005889485,0.0006068085900134,10.63205872603736,26.087414264205734,32.383094023274865,28.67748743771353
0.88,31.222192327600872,131.01044212914246,16.355317194366105,4.407019480216371,9.59482979515275,24.669056792672134,-1.863449229992582,2.179339582949128,294.4828134710418,31.145891747481723,11.752895626262768,71.91087688223926,0.4539657176181465,120.47749670245769,593.2381645317259,15.288,0.0,5.6764523712840695,0.0915434483933185,1.9519469463230408e-07,-0.0074280852648871,0.0161023970307788,0.0006353122944186,10.54991076692951,25.868816997865363,32.64600970103138,24.835142985105843
0.89,31.22219183682092,131.01044322535583,16.6402232311729,4.404498845473572,9.499367394193964,27.049468551621768,-1.89878990978002,2.157049875215237,315.028134248087,31.44127916494462,11.868676165071898,71.90647442307451,0.4825783641644756,120.50759788105698,604.5275157944832,15.288,0.0,5.692826416919833,0.0924119428791948,2.0643402370159626e-07,-0.0077049079590169,0.0167127309160214,0.0006652201384993,10.462286658483276,25.63867712133413,32.92660961090529,27.20169142187345
0.9,31.22219134223104,131.01044433217035,16.927690851417758,4.408689021961665,9.419682121205476,29.871157860997315,-1.9314506582956763,2.13581522671955,339.37814235421445,31.6872834163056,11.968791636330112,71.9019035999302,0.5122505880339595,120.53881454377552,614.0075143628872,15.288,0.0,5.709097124752455,0.09313529858921,2.1807382262503566e-07,-0.0079889828091353,0.0173330281063505,0.0006951239168316,10.391893444840385,25.449711327353,33.16026713574433,30.009636457057248
0.91,31.222190843911854,131.01044544943386,17.217670516138806,4.40979061411016,9.33502371316765,22.744926228286108,-1.96572923670528,2.1136416274343124,277.7421810230789,31.951701472339128,12.074633925616444,71.89715983126594,0.5429974797099815,120.57116264859177,624.2801908263822,15.288,0.0,5.725278932770284,0.0939127837051976,2.3012028617167482e-07,-0.0082803423770333,0.0179631663932618,0.0007264670580545,10.315836369516498,25.24875762669471,33.411564788763265,22.92734702252832
0.92,31.22219034208627,131.01044657670755,17.51001588097227,4.407890941325953,9.245678844443454,27.064041837922897,-2.001657931371221,2.090498140249621,315.02813424806214,32.23447874334185,12.186189228322927,71.8922382590467,0.5748342017633241,120.6046582457588,635.3611918632193,15.288,0.0,5.741365891104773,0.0947442382170234,2.4257993888905497e-07,-0.0085788687600163,0.018602709315174,0.0007592977684753,10.234406449848915,25.03645730214001,33.68049189055314,27.218361037238253
0.93,31.22218983666032,131.01044771419174,17.80479653715721,4.412127055322412,9.170403377015807,32.17822452784314,-2.0349888564908336,2.0683944094839006,359.1625070654728,32.470605421897105,12.282947469574232,71.88713401220203,0.6077759045854522,120.63931737320712,644.6854342204441,15.288,0.0,5.757366274709876,0.0954385840113415,2.5545861482732454e-07,-0.0088848374349656,0.0192520606650508,0.0007921164356992,10.168411104801717,24.86111643558128,33.90494669653064,32.30878470081337
0.94,31.222189327517665,131.01044886212816,18.10209620542342,4.410310980328913,9.084179759053038,23.372181765013355,-2.071425182338163,2.044619770765761,283.0687504837787,32.746937829613735,12.392307452694688,71.88184216495507,0.6418373326845648,120.67515564900108,655.6862488333543,15.288,0.0,5.773279887597182,0.0962511114477673,2.687621826286951e-07,-0.0091984610495655,0.0199114768192412,0.0008270325846819,10.090086399641852,24.658270702996,34.16790662020172,23.552710093529655
0.95,31.22218881497632,131.01045001988692,18.40170404280341,4.409066190079344,9.000540569704118,30.250907250765984,-2.1078745325828594,2.020637062018442,342.4218736174873,33.0163663461156,12.499413614010235,71.87635760350337,0.6770337449193515,120.71218923819016,666.500896271568,15.288,0.0,5.789100332516464,0.0970433546023549,2.824974573090542e-07,-0.00951955086437,0.0205803802094282,0.0008629189145443,10.01445769774879,24.46277973476007,34.42436039849191,30.39150372515253
0.96,31.22218829872015,131.01045118810998,18.703839101171905,4.4107817614875,8.924174698672289,29.638970183623428,-2.1431329023041106,1.9970322433160808,337.09533515678345,33.26107034898787,12.59863915187684,71.87067514613027,0.7133801527884814,120.75043405278277,676.3975524662729,15.288,0.0,5.804840011529655,0.0977629341301899,2.966698696146647e-07,-0.0098486149958267,0.0212596342341781,0.0008993381853851,9.946770670381673,24.286854471519604,34.65721533378282,29.78337976058965
0.97,31.22218777877296,131.01045236675563,19.00848940110467,4.410691880768854,8.845493651626857,18.972786283906856,-2.1795330039127703,1.972676080352482,245.02188719299323,33.51576735201111,12.70093656533416,71.86478946051037,0.750891806057291,120.78990626197916,686.7761625077542,15.288,0.0,5.820497381636581,0.0985118934872771,3.112857808058506e-07,-0.0101857602786152,0.0219492612199626,0.0009372200334963,9.876340212762372,24.105658730062608,34.89970144841147,19.19917796177597
0.98,31.222187255450784,131.0104535551976,19.315445398286386,4.404847905842409,8.756813958256233,27.619961180119045,-2.219161249583894,1.946531049053196,319.5937466429581,33.810337595725805,12.815738790549084,71.85869514008647,0.7895837097766665,120.83062178431273,698.8807674375292,15.288,0.0,5.836061853433143,0.0993780592080154,3.263522807238452e-07,-0.0105307220251635,0.0226485355894331,0.000977448305132,9.794544780207396,23.899100907314317,35.180505938738854,27.77725536059792
0.99,31.22218672859445,131.01045475376043,19.624819008932896,4.408169643816968,8.687293237385923,30.183083804704506,-2.2543029661654344,1.9223846239594835,341.6609485517054,34.0332949185459,12.907872759182364,71.85238661536819,0.8294711384037805,120.87259682974135,708.1074515699764,15.288,0.0,5.8515452483519645,0.1000337424823461,3.418751534794657e-07,-0.0108838989241145,0.0233580757981799,0.0010168613352321,9.73405505420835,23.743185233815684,35.39266925960298,30.328138625169753
1.0,31.22218619820288,131.0104559624481,19.936613836826407,4.405889898619414,8.608070299019557,27.010552773077457,-2.292607532727585,1.8964703747881555,314.2672081822764,34.29508526924814,13.01218163446933,71.8458583743384,0.8705683204774468,120.91584651512132,719.0216024420316,15.288,0.0,5.866942890344121,0.1008035750405235,3.578606175928428e-07,-0.0112453612136175,0.0240778260652658,0.0010586819983121,9.662526006382658,23.56265841932616,35.642156773186265,27.17393255104551
1.01,31.22218566447404,131.01045718087025,20.250700185102826,4.404330620223177,8.53141395520056,28.250509664861944,-2.330781469665552,1.8704075984014288,324.9203161036979,34.548324094167405,13.11372095794125,71.83910468522186,0.9128900542072956,120.96038656457128,729.6574705539728,15.288,0.0,5.882252608047695,0.1015482800467839,3.743154304498603e-07,-0.0116150277045309,0.0248074385884692,0.0011015250174924,9.593723012626574,23.38952899967071,35.883488885546114,28.408137270295498
1.02,31.222185127324863,131.0104584091938,20.56713680037471,4.403995356791169,8.458207822952152,23.57420655801728,-2.3685187031029487,1.8443514771081768,284.59063161540416,34.7889039348312,13.211193181075808,71.83211978554208,0.9564505887624618,121.00623213300392,739.832415503252,15.288,0.0,5.897478156011423,0.1022557842172933,3.91245491926802e-07,-0.0119931385354309,0.0255471959902945,0.0011452690568681,9.528656938956331,23.22615909365284,36.112695689430986,23.764568753884944
1.03,31.22218458682952,131.01045964727163,20.88587632018981,4.399777202543133,8.378784440519016,19.248619440594847,-2.408661204228304,1.8168657906612549,247.30469339049705,35.056279009492286,13.31705022679961,71.82489780225036,1.0012638483041147,121.05339804434604,751.2252929216886,15.288,0.0,5.912616783747917,0.1030420562163515,4.0865716707296363e-07,-0.012379713355409,0.0262969455554373,0.0011912338910989,9.456417080183634,23.047112317331077,36.3677293945044,19.48363416990977
1.04,31.22218404305531,131.01046089497197,21.206876529814146,4.398911523015218,8.306735258215356,30.648360545331165,-2.447168291094955,1.7899866910996023,345.46563688072297,35.29439196246972,13.413604353464324,71.81743277565893,1.0473441659657048,121.10189955408669,761.4415773927851,15.288,0.0,5.927670657469592,0.1037423251078784,4.265568373259022e-07,-0.0127748353916733,0.0270566619469552,0.0012375656949465,9.392361428538033,22.888174351657696,36.59464465296525,30.797965665216694
1.05,31.222183495690544,131.01046215290827,21.530347378254977,4.394876821150627,8.229863219460798,18.456313107726668,-2.487735662432504,1.7618359925985612,240.45625879819983,35.5539964980344,13.516867183558196,71.80971857876015,1.0947054130669795,121.15175144896648,772.6601885018106,15.288,0.0,5.9426480655434295,0.1045057733497535,4.449497104710942e-07,-0.013179053508118,0.027827196521862,0.0012860753032534,9.322688507490271,22.71718169394853,36.84229967164215,18.706372933345403
1.06,31.222182944992685,131.01046342057143,21.85611911028009,4.388128222950656,8.149097812138814,26.325494611456783,-2.530202807906252,1.7324763994657364,308.17968365593924,35.832117781150046,13.625908055089804,71.80174887148915,1.1433620744005977,121.20296916802192,784.7711876062184,15.288,0.0,5.957542659520769,0.1053236573712632,4.6384315337302643e-07,-0.0135921514398634,0.0286079426012322,0.0013367212259613,9.24842676426812,22.53648719933365,37.10786372814879,26.50349160510144
1.07,31.22218239083451,131.0104646982108,22.184278592083555,4.387062505122553,8.079767478843523,31.015387806914788,-2.56954311331245,1.7044956574731722,348.5093681440308,36.061604296320176,13.719526047166756,71.79351713394519,1.193328821945464,121.2555683578485,794.8304453132382,15.288,0.0,5.972362996551105,0.1059985944244013,4.832431198652046e-07,-0.0140145136584582,0.0293994283471796,0.0013870417976383,9.18701049724103,22.38681524709472,37.326568893750704,31.168287377891566
1.08,31.222181833103267,131.01046598604265,22.514901487713363,4.384577363567874,8.008811514615795,20.84786577010429,-2.609956582407064,1.6757321109029226,261.00157857466235,36.29884894520401,13.815520596151895,71.78501682993667,1.2446196091021646,121.30956391909538,805.2974469482576,15.288,0.0,5.98711001773056,0.1066963435959332,5.031557241507868e-07,-0.0144464065109375,0.0302019426944238,0.0014391476965771,9.12360468382716,22.233536936027196,37.552777478447744,21.077320954946984
1.09,31.222181272097345,131.01046728347683,22.847790775223388,4.375625055964269,7.927236191088171,19.168110781998504,-2.654638869384572,1.6445004711714877,246.54375332474407,36.58541347227432,13.927026341187,71.77624128656274,1.2972483086117454,121.36497067789864,818.0364660731439,15.288,0.0,6.001775035812536,0.1075390714467724,5.235886991454738e-07,-0.0148875061042937,0.0310146862590438,0.0014947505285888,9.047916708718898,22.052531082033404,37.82665189468192,19.42081255451218
1.1,31.222180707898136,131.01046859035057,23.182893981513725,4.369745197714206,7.852184142547262,38.550703021262514,-2.6977070277928,1.6138613322534667,413.1890617385841,36.84391947459064,14.029611479453754,71.76718369334804,1.3512286945060743,121.42180336792192,829.6108029716657,15.288,0.0,6.016360915435119,0.1082993328700464,5.445486392137552e-07,-0.0153378883455142,0.0318376071957404,0.0015508015020912,8.979517194462959,21.88954975699936,38.07348034414754,38.67866175349303
1.11,31.22218014006172,131.0104699075237,23.520504617983665,4.3702019813207285,7.789249445828913,28.19925812022258,-2.7369137328509665,1.5850194902212773,324.1593910376397,37.04633357711457,14.114406138406636,71.75783706685247,1.4065746062407944,121.48007680389676,838.7241189197337,15.288,0.0,6.03088154619635,0.1088947254912689,5.66040161877514e-07,-0.0157984048667226,0.0326720478390426,0.0016060875119241,8.92486536957898,21.75979903005155,38.26610063848979,28.376066360515665
1.12,31.22217956865111,131.01047123486143,23.860579796379334,4.358316642894692,7.705566376664531,10.581493229772,-2.784430005046755,1.5515250381832837,172.73281794065943,37.347921226178016,14.230466747484716,71.74819439931326,1.4632991583130148,121.53980504879448,852.4076681752385,15.288,0.0,6.045330609501195,0.109781639498479,5.880702946061567e-07,-0.0162690347589669,0.0335177488921067,0.0016673422977476,8.846240731571044,21.574879715169523,38.55466336968313,11.051166425713848
1.13,31.22217899431461,131.0104725711012,24.20269494857589,4.352870862920648,7.634087395973048,33.25390059763116,-2.827982679342767,1.5198746360611952,367.5328077900705,37.59258900835259,14.328491496934374,71.73824824519683,1.5214168327568829,121.60100361748472,863.5841868103308,15.288,0.0,6.059698549267496,0.1105012501920968,6.106486228992154e-07,-0.0167489696628385,0.0343730730577043,0.0017277170033804,8.781484782544632,21.423417527732877,38.788203709512814,33.408523012865125
1.14,31.22217841631705,131.01047391765613,24.547331037951885,4.35189927394831,7.5711740866168995,18.37467374304708,-2.8686908717620208,1.4895005899680542,239.69531773195544,37.795393943256656,14.413213863856551,71.72799140929335,1.5809399530421775,121.66368576627876,872.8981713931779,15.288,0.0,6.074004360610009,0.1110978157009532,6.337779568938501e-07,-0.0172395395319306,0.0352401701132469,0.0017878555861572,8.726471165607286,21.29585928945818,38.98121311694735,18.65681201300666
1.15,31.222177835188543,131.01047527348743,24.89413925809685,4.338414478872696,7.4876666540750625,18.108566710415484,-2.9182533932626087,1.454093930350066,237.41251153546767,38.1015882270941,14.530569705145057,71.7174165830246,1.641880539609836,121.72786444426588,887.0692434639196,15.288,0.0,6.088230744477398,0.111998297997506,6.574675750584926e-07,-0.017739921121865,0.0361173765982156,0.0018545911956348,8.647524499246115,21.11302835616693,39.27440318644497,18.399749463814377
1.16,31.222177251078566,131.0104766383012,25.243022886692216,4.338215035473833,7.427639503380659,47.537060607987286,-2.9587548904841,1.4233223717967716,490.0437743845894,38.290051236019615,14.6106466690789,71.70651602086448,1.70425187938556,121.7935539484266,895.8363976794137,15.288,0.0,6.102383738825657,0.112552721623999,6.817243746017774e-07,-0.0182501433737223,0.0370045547252668,0.0019173045537539,8.595600704757002,20.99468763398928,39.45351691270832,47.650311733749206
1.17,31.222176663013496,131.01047801395111,25.59461216739305,4.331332654453249,7.357070431668679,8.356343583832748,-3.004149635500825,1.3896321540394183,153.70937929486794,38.53211360280969,14.707602346516536,71.69528220520112,1.7680652270876431,121.86076645079751,907.1681738563772,15.288,0.0,6.116472782411155,0.1132647077717914,7.065498830546309e-07,-0.018771948682065,0.0379044914825924,0.0019845241969683,8.531334516207005,20.84837297430409,39.68458645079334,8.988018171270166
1.18,31.222176072262453,131.0104793979887,25.94808114896241,4.315602296807197,7.272548019446082,23.07461936469385,-3.056276306117911,1.351964720665622,280.02501822196746,38.84875121354454,14.828120577844505,71.68370726291865,1.8333326494268385,121.92951499094552,922.1074303105136,15.288,0.0,6.130463854472873,0.1141959159413135,7.319577371571021e-07,-0.0193031991752143,0.0388133045175885,0.0020573861750899,8.450692985707503,20.66436826149443,39.98805536519179,23.315374590402072
1.19,31.222175478245763,131.0104807915143,26.303805152777983,4.318708432852169,7.220147561495261,40.373746631923616,-3.094691192359285,1.3215602975777812,428.4078130529292,38.99533451651208,14.894764672875535,71.6717830709032,1.9000664613248284,121.9998128869537,929.047364844307,15.288,0.0,6.144393021305176,0.1146272577759041,7.579504955371559e-07,-0.0198452678524199,0.0397331413006501,0.0021230696275414,8.407312587230688,20.569226075470564,40.12647336517672,40.513739055966724
1.2,31.22217488045573,131.01048219547133,26.662106433822053,4.306262762514219,7.142781331621185,4.0884925522741895,-3.144897124648012,1.2843709222406827,117.1843741360236,39.27570962071328,15.003697394466624,71.65950183758271,1.9682764610509471,122.07167082133084,942.4225919167628,15.288,0.0,6.158261975888043,0.1154518906314907,7.845322441127947e-07,-0.0203990262523512,0.040665232353366,0.0021979264317081,8.33468790444561,20.40607732083407,40.39479114655721,5.315614540250095
1.21,31.222174280173604,131.01048360740967,27.022158385877063,4.294406561538442,7.067231254034732,32.39656263760408,-3.194954446664698,1.246956726021594,359.92343213200894,39.54796940210972,15.110037264420791,71.64685511998809,2.0379745564369087,122.1451017130951,955.5006033686803,15.288,0.0,6.1720475286451775,0.1162526771723132,8.117171014996744e-07,-0.0209622941154226,0.0416057213621639,0.0022741947525869,8.264020091177567,20.24839527528671,40.65527467837632,32.577598219098924
1.22,31.22217367640996,131.01048502919025,27.384593953747967,4.295502646102631,7.013433359539616,23.433338865977632,-3.235046000364685,1.2148275415302845,283.0687504825761,39.69877414048728,15.177842044413588,71.6338346511916,2.109170848568231,122.22011659665536,962.7680265639322,15.288,0.0,6.185777702620222,0.116696450448106,8.395046267743743e-07,-0.0215371911661235,0.0425579281611981,0.0023453933654851,8.218716931774082,20.151753489789048,40.79769257973151,23.68676210434583
1.23,31.22217306954604,131.01048646006518,27.74916287526652,4.281996907437448,6.936744520134018,9.048476207908829,-3.2867777511606246,1.1758802390490104,159.79687382222795,39.97828172095655,15.286386904875856,71.62043234383474,2.181873659672501,122.29672464748867,976.3387012932014,15.288,0.0,6.19943662677663,0.1175185599097957,8.679039991735464e-07,-0.0221229377930946,0.043520332487966,0.0024260583702093,8.146423487474333,19.9921280954284,41.06524306016786,9.69848049991351
