Time,Latitude,Longitude,Altitude,Angle of Attack,Angle of Sideslip,X-Acceleration,Y-Acceleration,Z-Acceleration,Thrust,True Velocity,Ground Velocity,Pitch,Roll,Yaw,Dynamic Pressure,cp,parachute_deploy_gain,Wind Speed,Mach,omega_x,omega_y,omega_z,Cmq,Angle of Attack(total),Angle of Attack(gust),True Velocity(gust),Acceleration
0.0,31.222216000000007,131.010392,3.000000004412624,0.0,0.0,0.0,0.0,0.0,2.2828121974499247,0.0,0.0,71.99999999612658,-1.0292491154817412e-14,119.99999999354436,0.0,15.288,0.0,0.0,0.0,0.0,0.0,0.0,-0.0,0.0,90.0,0.0,0.0
0.01,31.22221599999862,131.01039200000284,3.0000009727369523,0.0,0.0,0.0,0.0,0.0,34.24218696174923,5.916279387578309e-11,5.734623670548936e-11,71.99999999613168,-5.86671995824671e-13,119.9999999935449,2.1432944861733093e-21,15.288,0.0,0.0,1.7386402909615473e-13,-3.4220131069073734e-19,7.115076756936125e-19,5.488773498207866e-19,-1.1574302492039043e-31,0.0,89.99999999962336,5.916279387578309e-11,0.0
0.02,31.22221599999738,131.01039200000537,3.0000018317022668,0.0,0.0,0.0,0.0,0.0,25.871876237766408,1.2265415415436536e-10,1.1895038237325684e-10,71.9999999961369,-1.1836364828043265e-12,119.99999999354544,9.211895886571454e-21,15.288,0.0,0.0,3.6044858651615574e-13,-6.979551485375437e-19,1.4162390878091906e-18,1.0909784360635388e-18,-4.776231873571785e-31,0.0,89.99999999921916,1.2265415415436536e-10,0.0
0.03,31.22221599921969,131.01039200159065,3.0001883335529382,18.80143492628821,-0.0001350810307892,10.931161642028636,-1.75114298675875e-05,3.026590975169265,180.34219359854663,0.0798232026864394,0.0478175828508887,71.99999999765336,-5.341802909786072e-12,119.99999999436793,0.0039016003969354,15.288,0.0,0.0,0.0002345795854893,3.788270153300133e-17,-7.771883375645477e-10,1.1422790048099072e-11,1.7057759223764537e-13,18.80143492675591,89.51882325913425,0.079801984207741,11.342422482672777
0.04,31.222215995131297,131.01039200995308,3.001692634342189,9.19442604083399,-4.49173898918486e-05,52.29595764159784,6.445392950801871e-06,3.026413589912948,548.6359724538078,0.3504174083926908,0.1601447499964056,72.00000000319055,-3.111420077280171e-11,119.99999999870242,0.0751892535633216,15.288,0.0,0.0,0.0010297854387864,2.0082066977226968e-15,-1.520937588847922e-08,2.5623342884322286e-11,1.4654248781413086e-11,9.19442604094277,87.798916624545,0.3504103527855857,52.383455068075136
0.05,31.222215983575865,131.01039203366796,3.0074067499493786,5.158590039700252,1.707592688632746e-06,76.26884281015512,5.843947534199429e-05,3.0258124765658088,761.6984298824644,0.9592973585397016,0.3772700771701255,72.0000000004862,-1.3608731808076822e-10,120.0000000109612,0.5634958029902841,15.288,0.0,0.0,0.0028191251099456,2.086299069701397e-14,-1.0551247853743037e-07,3.973493515691201e-11,2.783064866637575e-10,5.158590039700515,83.94063169874748,0.959297626767734,76.32884071402438
0.06,31.222215961742712,131.0103920785344,3.019291017943491,4.109521257467909,3.140103977270004e-05,57.06876634333886,0.0001151069734147,3.024834864051463,590.4875390737208,1.6257536642597354,0.6118982818704327,71.99999992547217,-3.5903296759057166e-10,120.00000003412836,1.6184272268450337,15.288,0.0,0.0,0.0047776672697797,1.0694899894620088e-13,-3.741090980393931e-07,5.521401959501359e-11,1.6723176417636091e-09,4.109521257587776,79.78719176344794,1.6257585967235286,57.148873286519276
0.07,31.222215929936205,131.01039214392435,3.0371334573469446,3.649087515174788,5.707077112564807e-05,86.89643797254193,0.0001728541558773,3.0234947746384675,855.2937749779139,2.3057260079826607,0.8506307413593818,71.99999965378231,-6.907496536790437e-10,120.00000006788592,3.255354923652711,15.288,0.0,0.0,0.0067759305364855,3.495199904512709e-13,-9.036515915819006e-07,7.594816279105379e-11,5.728932851326001e-09,3.6490875156204896,75.6601668283889,2.305734972638426,86.94902215090157
0.08,31.222215886364623,131.01039223353447,3.0621840248716574,3.4254446680114707,8.413075603463509e-05,17.831756866644035,0.0002285946601282,3.021841001032126,241.2171988638848,2.961944911520492,1.0819695676346892,71.99999900671328,-1.141745983122182e-09,120.00000011415082,5.371998197385977,15.288,0.0,0.0,0.0087043901031071,8.800530155962314e-13,-1.829098470920821e-06,1.0943386634701918e-10,1.4896287129277132e-08,3.4254446690434226,71.81713637501419,2.9619581267487467,18.085991154451033
0.09,31.22221583454733,131.01039234010327,3.0919888289029,3.389560809024919,0.0001118726864415,54.09031716446879,0.0002748660999733,3.020060228038602,563.0937377043176,3.504225426410036,1.2780161667917422,71.99999774508822,-1.634190085504106e-09,120.00000016921716,7.519080503822694,15.288,0.0,0.0,0.0102980157586766,1.865782139518716e-12,-3.1503298654458527e-06,1.6284478329871028e-10,3.03536411425607e-08,3.389560810868955,68.76526501308032,3.504242999330529,54.17456206384468
0.1,31.22221577423132,131.0103924641528,3.1267248829165366,3.4447939461814814,0.0001419149103147,51.372195336549765,0.0003131602029306,3.0182021883815127,538.7437595981919,3.950569597142709,1.4443465951180965,71.99999562056465,-2.1287748602259068e-09,120.00000023339832,9.55649523509932,15.288,0.0,0.0,0.0116097108366932,3.485956000178229e-12,-4.949356763187612e-06,2.4573266549165286e-10,5.3761299442583966e-08,3.444793949101151,66.34639928474206,3.9505918890846927,51.460781166288626
0.11,31.222215706113143,131.01039260424562,3.165907002780892,3.4691423802630394,0.0001702373452339,40.591037561894986,0.0003534470100582,3.016051659024047,442.8656393052949,4.421478635995476,1.6182620895289603,71.99999235067894,-2.5564479031457968e-09,120.00000030601664,11.970509656144712,15.288,0.0,0.0,0.0129935974697161,5.942887149865172e-12,-7.273722517324353e-06,3.67769289312894e-10,8.842679949465076e-08,3.4691423844348632,63.88798785789768,4.421505376815134,40.70293476011277
0.12,31.222215630588888,131.0103927595646,3.2092596514826863,3.4852659299808075,0.0001974376474727,44.30042894095728,0.000394069215595,3.013641598889868,475.58594813540446,4.896982486381051,1.793579340340896,71.99998761802138,-2.8337988279882726e-09,120.00000038673312,14.683611096353944,15.288,0.0,0.0,0.0143909889875706,9.464337642181618e-12,-1.017558359402848e-05,5.395790443954697e-10,1.3700793350599625e-07,3.4852659355662303,61.5068242157714,4.897013499814194,44.40281567867803
0.13,31.222215548046687,131.0103929293088,3.256512891171917,3.5606043721293616,0.0002276507019012,48.86766833507025,0.0004268800875964,3.0112558910133567,515.9156326236895,5.278566579338586,1.939796541405244,71.99998107389406,-2.8573058577484587e-09,120.00000047523812,17.061052093156064,15.288,0.0,0.0,0.0155123760833565,1.4300406003001044e-11,-1.3705268062305584e-05,7.724776992181392e-10,1.989112774124932e-07,3.560604379397528,59.67313531776262,5.27860233862722,48.960358155653
0.14,31.222215458587108,131.01039311327068,3.30759734332425,3.6000732663755977,0.0002555702913645,45.540290862247225,0.0004629468001456,3.0085404980032777,486.2390860568404,5.70011779273801,2.098362647205908,71.99997235012626,-2.508533681468686e-09,120.00000057154703,19.894788765881632,15.288,0.0,0.0,0.0167512184495524,2.071534240530911e-11,-1.7917736259613292e-05,1.0787346240473087e-09,2.8081526258393346e-07,3.6000732754351943,57.72385750323359,5.700157937625502,45.639559681930805
0.15,31.222215362317904,131.01039331122794,3.3624387479639086,3.651605404442164,0.0002842753491325,44.01308509501,0.0004965057129938,3.005703619811542,472.54218587214,6.091938849578711,2.2476968067377374,71.99996103728932,-1.6446954747148112e-09,120.00000067569304,22.723773683610247,15.288,0.0,0.0,0.0179026934683374,2.9002783512213203e-11,-2.287326399669318e-05,1.47199345427166e-09,3.831202693354572e-07,3.651605415492516,55.98561718911576,6.091983503446133,44.115597174664394
0.16,31.22221525912812,131.01039352340948,3.421115382839859,3.67540086436193,0.0003108411545024,34.83804992586084,0.0005330990866742,3.002517946501868,391.1218908297564,6.521183188362317,2.4085903880902046,71.99994669525161,-1.0153513453738144e-10,120.00000078796704,26.03872642002185,15.288,0.0,0.0,0.019164148528834,3.9478358970291335e-11,-2.864207894220033e-05,1.9677461746207517e-09,5.135466997084602e-07,3.6754008774883777,54.15946979122355,6.521232015176687,34.96719658394182
0.17,31.2222151493826,131.01039374906244,3.4833737923187487,3.7139589864597298,0.0003384978477213,43.96471427482637,0.0005668629535037,2.999235483723449,471.78125980632376,6.916861975403744,2.559060925010733,71.99992884100092,2.3206494032971838e-09,120.0000009081849,29.29426197817256,15.288,0.0,0.0,0.0203269651395979,5.248754693205839e-11,-3.5267097947693114e-05,2.580363454062817e-09,6.706952682968329e-07,3.713959001863866,52.549031795895466,6.916915146521327,44.06689817851128
0.18,31.22221503253009,131.01039398932429,3.549599475912623,3.7380363034619775,0.0003650282082698,36.67395661481795,0.0006021794701355,2.9956556354306425,407.10156721191447,7.332140201215607,2.71556808256092,71.99990696207136,5.837017536380516e-09,120.00000103716444,32.917216366714264,15.288,0.0,0.0,0.0215473823438242,6.839750892601699e-11,-4.285557247677198e-05,3.331016495775474e-09,8.639362741436378e-07,3.738036321259578,50.93050624815799,7.332197539712479,36.796100973258795
0.19,31.22221490871209,131.01039424390297,3.619694897703461,3.747799769666444,0.0003901520189829,41.42208371271829,0.0006393759928961,2.991742733214697,448.9531328318269,7.771071983754382,2.879366399937307,71.99988049019642,1.0709144790974043e-08,120.00000117502664,36.97605053227239,15.288,0.0,0.0,0.0228373144884866,8.761416506509219e-11,-5.146771415177372e-05,4.238406957677133e-09,1.0996552116864756e-06,3.747799789945131,49.29705748437159,7.771133268690212,41.529983675580546
0.2,31.22221477769685,131.01039451327668,3.693822889232993,3.7700519460961166,0.0004166800650969,37.99697972290605,0.0006740224661302,2.987733789228414,418.51563019916136,8.179966026035371,3.0338260708461373,71.99984881140107,1.723179577184912e-08,120.0000013223286,40.969302182777255,15.288,0.0,0.0,0.024038975990988,1.1057590044953188e-10,-6.120032215177249e-05,5.3263847350253015e-09,1.376394225587184e-06,3.7700519690893857,47.8457752505109,8.180031477986942,38.11426270718793
0.21,31.222214639876928,131.01039479663547,3.771710975053407,3.7926098867321474,0.0004432924407074,36.46301043881366,0.0007080907240332,2.983530483977461,404.8187610144644,8.582757448615462,3.1863584283669346,71.99981127559042,2.5745201416596626e-08,120.00000147900325,45.103059028532826,15.288,0.0,0.0,0.0252227064089584,1.3774582723633048e-10,-7.20875523136271e-05,6.61341033873124e-09,1.7010673350603349e-06,3.792609912601061,46.47936953648762,8.582827080829217,36.584868250565684
0.22,31.22221449507626,131.01039509434258,3.8534832466471007,3.782921298925821,0.0004660920499522,44.14577847155813,0.0007479176313898,2.978724032883548,472.5421858721365,9.056569122268344,3.360845972992861,71.99976720416048,3.661811567390422e-08,120.00000164562512,50.21995530074818,15.288,0.0,0.0,0.0266151520780326,1.6960703048385348e-10,-8.421592474264931e-05,8.124635526119773e-09,2.0969540034515424e-06,3.7829213275976334,44.9464484092354,9.056642335836344,44.24615863872642
0.23,31.22221434283448,131.01039540734791,3.9394622486964206,3.813874679301352,0.0004940771488601,36.66675459308932,0.000779455230549,2.974212905336642,406.3406421461021,9.430647902846331,3.5044030163419806,71.99971583979395,5.0272885112871524e-08,120.00000182313076,54.45382429059888,15.288,0.0,0.0,0.0277145095638672,2.0669790509245914e-10,-9.77285871729516e-05,9.894576563683824e-09,2.5339062472561444e-06,3.813874711257219,43.79476959007253,9.430725512303388,36.78718303164376
0.24,31.222214184153326,131.01039573358457,4.028950821673608,3.829256049377765,0.0005200487408944,37.802126339316736,0.0008136255607606,2.9692962675112065,416.2328240017114,9.837806876534357,3.658163422426286,71.9996564062533,6.718950080713476e-08,120.0000020109434,59.25679777340223,15.288,0.0,0.0,0.0289110855155543,2.4956955046738006e-10,-0.0001125744417092,1.1934277804843484e-08,3.0448209172448607e-06,3.829256084638984,42.59361542722471,9.83788856559955,37.91856374864305
0.25,31.22221401888584,131.01039607335582,4.122052964664892,3.851417709838087,0.0005469594058717,38.85163035360012,0.0008459008130282,2.964283881833675,425.36408079150686,10.22297576958679,3.8050691648373967,71.99958811418384,8.786880969336211e-08,120.00000220974424,63.98709205399403,15.288,0.0,0.0,0.0300430411774988,2.987811646313829e-10,-0.0001288461362054,1.4273117985167728e-08,3.621333387698252e-06,3.8514177486178034,41.50703126619192,10.223061685769354,38.96455005232871
0.26,31.222213847358866,131.0103964259872,4.218542267117083,3.8780574625554745,0.0005745172425185,42.3164797140743,0.0008766626387865,2.959162938653076,455.8015834241788,10.590779679138215,3.946551912391076,71.99951013710364,1.1286401474734325e-07,120.00000241975916,68.67355887153568,15.288,0.0,0.0,0.0311239685467471,3.5491769188178554e-10,-0.0001465721578858,1.6932703957058654e-08,4.267712643344226e-06,3.8780575050466,40.51245375834074,10.590869924095635,42.41981967733593
0.27,31.22221366913008,131.0103967923915,4.318728802515264,3.886188503202341,0.0005994342651313,38.70936050721014,0.0009111181036949,2.953518013741325,423.84219965987256,11.004860953238978,4.102320296019413,71.99942161756776,1.4276417094868828e-07,120.0000026420792,74.14786134434608,15.288,0.0,0.0,0.0323408987462391,4.1858405402174807e-10,-0.0001658847815307,1.995072923688136e-08,5.018832267232506e-06,3.886188549362022,39.43841359495857,11.00495511215316,38.8218734782956
0.28,31.22221348431185,131.01039717233687,4.422535913956003,3.90556090261878,0.0006261175699806,44.68030766832924,0.0009425767186621,2.947879457547137,476.3468732012221,11.38358114165448,4.247086834352694,71.999321619057,1.7823531611327881e-07,120.000002877279,79.33831935330025,15.288,0.0,0.0,0.033453914386159,4.904408325040897e-10,-0.0001868529238516,2.3357766479368094e-08,5.847713054408178e-06,3.9055609527288775,38.49894431917428,11.383679491972384,44.77744842575601
0.29,31.222213292835256,131.0103975659655,4.530013412817602,3.9242599519377537,0.0006528240665589,35.802573724660256,0.0009737210635801,2.942037024315898,397.97031042211177,11.759725774384751,4.391004157029451,71.99920917567837,2.1999186079018322e-07,120.00000312617878,84.66717879828003,15.288,0.0,0.0,0.0345593650464213,5.711677680739745e-10,-0.0002095620322847,2.7188189988316943e-08,6.77505090435382e-06,3.9242600061534456,37.60352534239979,11.759828319749328,35.92324968749781
0.3,31.222213095024976,131.0103979726075,4.64093665799555,3.936939025755682,0.0006785438093183,33.570228713727204,0.0010059102294455,2.93586442972183,378.1859457108711,12.149968255527943,4.539237002744259,71.99908328532703,2.6880857935396905e-07,120.00000338923812,90.3787563598417,15.288,0.0,0.0,0.0357062504417728,6.614698865958865e-10,-0.0002340353597042,3.1467140861055e-08,7.817263716758327e-06,3.9369390841381695,36.71173884615234,12.150074840940263,33.698361337808635
0.31,31.22221289105846,131.01039839189684,4.755183729044857,3.9598342215431432,0.0007060286581592,35.396825578217346,0.0010350810412898,2.9297385597941448,394.1656220930212,12.504537499407316,4.6763673222047455,71.99894291513503,3.255120771695107e-07,120.00000366712923,95.72967338626896,15.288,0.0,0.0,0.0367483036680869,7.620720834468404e-10,-0.0002603234137215,3.622454560346964e-08,8.948994505138873e-06,3.9598342843844345,35.934338386209795,12.504648402129598,35.5178635353378
0.32,31.222212681031937,131.01039882363492,4.872689374180126,3.985461429033668,0.0007340760463279,38.52097867048992,0.0010630242168685,2.9235095146848846,421.55939346242695,12.84534566718622,4.809181081594425,71.99878701464397,3.909756427278764e-07,120.0000039606604,101.01782231644016,15.288,0.0,0.0,0.0377499198995686,8.737098716736534e-10,-0.0002884807530145,4.1491545539590986e-08,1.0187112828155184e-05,3.98546149652875,35.21473736963424,12.845460975581933,38.631757748577954
0.33,31.22221246496604,131.01039926777932,4.9934410812554,4.010606629086,0.0007621365968788,38.18822026147908,0.0010905599149574,2.917102431053817,418.5156301991682,13.18247167592885,4.940798912752974,71.99861449732019,4.661299779655886e-07,120.000004270781,106.38859400029033,15.288,0.0,0.0,0.0387407190563976,9.971421990244511e-10,-0.0003185760672934,4.7302669734505256e-08,1.154498667827874e-05,4.010606701382261,34.52805863348922,13.182591392065536,38.299473293007864
0.34,31.222212242662028,131.01039972474007,5.117579377337869,4.019339771238816,0.0007871574969313,29.898022638335373,0.0011220389395318,2.910051232417875,345.46563688075645,13.569536737955724,5.0878303926024735,71.99842423285973,5.519675040347761e-07,120.0000045987411,112.72655675097128,15.288,0.0,0.0,0.0398782837956187,1.1331556132162459e-09,-0.0003507224668667,5.37022358302301e-08,1.308298593306914e-05,4.019339848191799,33.76700548046532,13.5696603843662,30.039310197084795
0.35,31.22221201433324,131.01040019407705,5.2449575244483055,4.033762873683395,0.000813261106463,32.76415525156106,0.0011515840876071,2.902959820469776,370.5765700527033,13.934300103976534,5.227895396154902,71.99821502296155,6.495674834876441e-07,120.000004945438,118.8669740701126,15.288,0.0,0.0,0.040950312688979,1.2825853697215452e-09,-0.0003849609961885,6.072234695821837e-08,1.4746020857580124e-05,4.033762955530055,33.07785186209504,13.934427850732408,32.89250745069162
0.36,31.22221177990305,131.01040067594835,5.375631006350063,4.051723629010647,0.0008401329464575,37.01692984301412,0.0011797030485285,2.8957873473716007,407.8625232777193,14.282998147928636,5.362923567977223,71.9979856440668,7.600645476620651e-07,120.00000531213882,124.88900300695136,15.288,0.0,0.0,0.0419751331662584,1.4462801652534363e-09,-0.0004213876232777,6.84067806399068e-08,1.654507199147348e-05,4.051723715967022,32.44322602189087,14.283130115703262,37.13002398000203
0.37,31.222211539445663,131.01040117020102,5.509550188388412,4.071639898917391,0.0008674922629137,35.12417761390579,0.0012067983861697,2.88849906286036,391.1218908297666,14.620581431527652,5.494447309446232,71.99773482653193,8.846681943540367e-07,120.00000570002652,130.86067091914967,15.288,0.0,0.0,0.0429672939311924,1.6251202388969355e-09,-0.0004600660652957,7.679415042686734e-08,1.849041957573993e-05,4.071639991174516,31.85023865502424,14.620717696893658,35.24274792557624
0.38,31.222211292895075,131.01040167697127,5.646763233102716,4.08264881385344,0.0008930259828975,36.695642158537446,0.0012360471443664,2.880711738179021,404.8187610144602,14.986392916850402,5.634654729559426,71.99746126698146,1.0246533537040716e-06,120.0000061105033,137.4891296153862,15.288,0.0,0.0,0.0440424171304414,1.8200057922063743e-09,-0.0005010869196581,8.592980519823866e-08,2.0642694281337543e-05,4.082648911356968,31.228847973200924,14.986533193043764,36.808540518115166
0.39,31.22221104018777,131.0104021963902,5.787316652586672,4.096641430700089,0.0009192713382325,31.335681548387896,0.0012640110027448,2.872831219844713,357.64062493382744,15.337978856701952,5.770390286512262,71.99716358743511,1.1813915463769678e-06,120.00000654506955,144.01394309468844,15.288,0.0,0.0,0.0450757388736732,2.031886352449547e-09,-0.00054455673306,9.586443829735616e-08,2.295945663566148e-05,4.096641533664766,30.65298398882095,15.338123255506089,31.4670954954126
0.4,31.222210781536543,131.01040272801887,5.931064331106764,4.109028969993624,0.0009451871856381,29.95928076777898,0.0012920492774571,2.8646905607053603,345.465636880754,15.692185018814769,5.906873567965718,71.99684037970908,1.3563276523471372e-06,120.00000700500496,150.74021066990193,15.288,0.0,0.0,0.0461167659598875,2.2617341782092324e-09,-0.0005905037520737,1.0663253249436129e-07,2.5471259834659164e-05,4.1090290785164525,30.09246700352443,15.692333488470696,30.095929256306363
0.41,31.222210517064383,131.01040327160345,6.077922766619747,4.122888296344507,0.0009714525997821,33.78425365340317,0.0013192264430821,2.85640971467756,378.94687077668647,16.03742529732769,6.0405139809190125,71.99649020751959,1.5509747261474075e-06,120.0000074917568,157.44375780268788,15.288,0.0,0.0,0.0471314487675864,2.5105374204052982e-09,-0.0006389770219162,1.1827345344180344e-07,2.816813594418537e-05,4.122888410595805,29.56469007160549,16.037577892745222,33.904791300285986
0.42,31.22221024682894,131.0104038270252,6.227854084363214,4.14444025865494,0.0009995884754813,38.04468161607466,0.0013435485656724,2.8482703202464488,416.2328240017114,16.348862540904037,6.163613566771559,71.99611159893284,1.766920641656551e-06,120.00000800692096,163.6157044470786,15.288,0.0,0.0,0.0480467946810589,2.779304965995011e-09,-0.0006900467934588,1.308321832549104e-07,3.100973487310896e-05,4.144440378988911,29.104646754454564,16.34901955589459,38.15115260238947
0.43,31.222209970843565,131.0104043942566,6.380851271439565,4.1618082623168045,0.0010268052928652,33.45815353250911,0.0013687230309017,2.8397750580998298,375.9031395134336,16.67263197205097,6.290467308135904,71.99570306121484,2.005818691215035e-06,120.00000855220898,170.15779512382937,15.288,0.0,0.0,0.0489983878509763,3.0690566816849196e-09,-0.0007437862329608,1.443552931671376e-07,3.4086145072160934e-05,4.161808388761201,28.640125213458976,16.672793262249197,33.57845085853367
0.44,31.22220968892116,131.01040497368373,6.537047157143216,4.164954087655709,0.0010505545842624,30.86574023822051,0.0013980747538988,2.830419582421933,353.0750125389216,17.050421620730056,6.433992917638883,71.99526304125902,2.269416145406482e-06,120.00000912964636,177.9537948947602,15.288,0.0,0.0,0.050108743779844,3.380847125286677e-09,-0.0008003278134917,1.589055036683518e-07,3.750784460406397e-05,4.164954219916419,28.113519280259386,17.050586641458253,30.99524475496968
0.45,31.22220940081287,131.01040556582012,6.696617751072218,4.165241899529329,0.0010735835484822,35.912216710755274,0.0014280646808282,2.820677244966047,397.2093853562869,17.438293672974723,6.580571293039616,71.99478987454265,2.5595995397253085e-06,120.00000974147088,186.13940823302417,15.288,0.0,0.0,0.0512487363629523,3.7158016249566814e-09,-0.000859850913876,1.745604864109677e-07,4.121350642664912e-05,4.1652420376426775,27.591357195572936,17.43846231108416,36.02281959036367
0.46,31.222209106468902,131.0104061707686,6.859600379555308,4.174585124444534,0.0010989881252456,41.916816790010685,0.0014546917035209,2.811153314474766,449.7140588976434,17.786187321601275,6.714685486378061,71.99428180697711,2.8783880229668832e-06,120.0000103898448,193.6374175079873,15.288,0.0,0.0,0.0522712438446989,4.0751091178509895e-09,-0.0009224765531151,1.9138630415982226e-07,4.50966024037632e-05,4.1745852688465686,27.13985967570823,17.786359950252297,42.01097612387663
0.47,31.22220880579083,131.01040678873238,7.026066274755745,4.1823089530633855,0.0011240727220223,28.37640408484148,0.0014814747534716,2.801325368441072,331.0078106302534,18.138167428286582,6.849989708801916,71.99373704967608,3.2278903746588286e-06,120.00001107707628,201.37401505997488,15.288,0.0,0.0,0.0533057667609836,4.459978104761035e-09,-0.0009883252835099,2.094509673354327e-07,4.927107017839778e-05,4.182309103852639,26.69716826759888,18.13834399721685,28.514342615617974
0.48,31.222208499300592,131.0104074186346,7.195654207463586,4.189479568102716,0.0011490100608361,27.95074823096412,0.0015080719422187,2.7912412472910484,327.2031223011574,18.48995085190441,6.98515976370584,71.99315377257649,3.6103201777021456e-06,120.00001180491516,209.25751230436188,15.288,0.0,0.0,0.0543397174489847,4.8716620260348906e-09,-0.0010573190976925,2.2877013380347535e-07,5.373205427420879e-05,4.189479725385959,26.268461765425428,18.4901313379827,28.089773168283216
0.49,31.222208187201936,131.01040806005494,7.368224738812109,4.202723284133339,0.001175611380853,35.08821363242469,0.0015321405723077,2.781292092003844,389.60000969812296,18.812014261754847,7.111044804193205,71.99253015042137,4.027946338669921e-06,120.0000125755114,216.60722913930897,15.288,0.0,0.0,0.0552863302793499,5.311396446020465e-09,-0.0011294854492155,2.4938633613154685e-07,5.8398320167141767e-05,4.202723448262914,25.88860807032205,18.81219892635871,35.1982716047702
0.5,31.22220786953184,131.01040871291724,7.5437546994244835,4.220815778795054,0.0012036252596423,36.05491615971072,0.0015540388599792,2.7714444106710974,397.97031042210494,19.10875420627192,7.229005658018125,71.99186435180009,4.483102820610566e-06,120.00001339126192,223.4908652241728,15.288,0.0,0.0,0.0561585257949344,5.7804122391526605e-09,-0.0012048912160576,2.713531252030471e-07,6.327866493526626e-05,4.220815950099865,25.54902500917784,19.108943271285572,36.161276053538906
0.51,31.222207546379583,131.0104093770373,7.722184419225251,4.232567510615346,0.0012298790840397,27.54004661432325,0.0015777580800203,2.761017323676155,323.3984349720841,19.430597746636646,7.354673636736509,71.99115452520388,4.978202222778502e-06,120.00001425458936,231.07869697977367,15.288,0.0,0.0,0.0571045034845869,6.2799518101633574e-09,-0.0012835871653678,2.947201005874635e-07,6.854585242460463e-05,4.232567688976395,25.189423168613605,19.430790935591396,27.678103017910345
0.52,31.222207217724392,131.01041005251307,7.903523142499553,-2.803885808523636,0.0001633229581048,33.11811105821233,0.0014189494250309,3.152149768495889,372.0984511843415,18.95209484683585,7.485146225290019,71.99040780477164,1.887854808271904e-05,120.00002921937784,219.83380051990247,15.288,0.0,2.514290561184429,0.0556983472277937,6.809170514826305e-09,-0.0012923447195864,1.2948661455293162e-05,6.731280468464685e-05,2.803885813276493,25.546404179697248,18.95212050154612,33.26778216594145
0.53,31.22220688327364,131.01041073991072,8.087869040232798,-2.690679533533963,0.0002034455681248,34.78087118677548,0.0014419118483497,3.1517467525221456,386.5562464348624,19.273158045206536,7.616000962209122,71.98968122233782,4.169952204440312e-05,120.0000535703505,227.3411768497472,15.288,0.0,2.523962155424067,0.0566420382580055,7.325482428554433e-09,-0.0012411692785085,1.2952563223874188e-05,6.574130264534206e-05,2.690679541219658,25.16632860058886,19.27319000236165,34.923380566351426
0.54,31.222206542900327,131.01041143946767,8.275295223369087,-2.5813889411465527,0.0002429665052138,30.52324348852616,0.0014645970869258,3.151231188245443,349.2703242098436,19.592341886622936,7.746243399367434,71.98898396816013,6.45265062121899e-05,120.00007793378248,234.9293210844588,15.288,0.0,2.5336105890834326,0.0575802119456194,7.81924767237496e-09,-0.0011900191772359,1.2957346657472411e-05,6.407474698741395e-05,2.581388952573256,24.798814247740182,19.59238005171233,30.68547951730052
0.55,31.222206196900306,131.01041215057347,8.465595745687757,-2.4764888435387964,0.0002819615224917,32.360173942024474,0.0014866057390415,3.150563918401711,365.2500005919907,19.903858834809533,7.874079624133331,71.98831599803978,8.736119358881225e-05,120.00010231114496,242.4550041952781,15.288,0.0,2.543224008966756,0.0584958591084163,8.290529542031036e-09,-0.0011390128262179,1.2963059112677707e-05,6.230236758567441e-05,2.476488859580141,24.449584195309864,19.90390312522192,32.51318060067349
0.56,31.22220584527447,131.0104128732262,8.65877029241082,-2.376180859052027,0.0003205658283428,30.189850258853465,0.0015076314521211,3.1497188025789526,346.2265619465787,20.20325641885813,7.9981315147827265,71.98767721989508,0.0001102053604825,120.00012670431433,249.79933774392367,15.288,0.0,2.5528018379767508,0.0593758942035791,8.739410495864985e-09,-0.0010881931327296,1.2969754087685316e-05,6.0416832756511866e-05,2.376180880663151,24.12234144394281,20.20330677322069,30.353711296318718
0.57,31.222205488099785,131.01041360726705,8.854765590795626,-2.2778600191627665,0.0003585020851406,29.848551952552423,0.0015290445216228,3.148818719566567,343.1828296833023,20.510463086264416,8.124565590313354,71.98706750592233,0.0001330608747782,120.0001511151812,257.44904753173165,15.288,0.0,2.562339503069424,0.0602788854280765,9.16600819379372e-09,-0.0010376271887342,1.297748353799082e-05,5.848429151763804e-05,2.277860047359405,23.79520852989224,20.510519399640263,30.014181903408446
0.58,31.22220512535312,131.01041435274365,9.053598187966644,-2.18010348741213,0.0003954941403841,39.35957394984581,0.0015517837966916,3.14794083579874,426.1250058573153,20.839293528502417,8.257656231507386,71.98648669944889,0.0001559296977424,120.00017554584214,265.7651613271625,15.288,0.0,2.5718366884417043,0.0612454335813679,9.57045632816032e-09,-0.000987357809709,1.298630364071928e-05,5.6542068193674166e-05,2.180103523268439,23.454612973702677,20.839355652576717,39.48525795062131
0.59,31.222204756607884,131.01041511053612,9.255565775199258,-2.0881453841405726,0.0004325442380312,31.869094095580977,0.001572417316507,3.1467911954638645,360.68438819711065,21.13977616056877,8.38194124440743,71.98593465163351,0.0001788139027561,120.00019999894576,273.47927006322607,15.288,0.0,2.5813077584863606,0.0621286755678506,9.952849260030929e-09,-0.0009373281381425,1.2996292008928408e-05,5.444998305866576e-05,2.088145428919905,23.150919038833766,21.139844104458795,32.02407618922581
0.6,31.222204382088336,131.0104158801817,9.460512558679287,-1.9950414953933848,0.0004682835675861,28.300260373964704,0.0015955758365467,3.145756906116672,329.4859594986058,21.479670339287686,8.518386860671884,71.98541118447774,0.0002017156788949,120.00022447656198,282.33864089159846,15.288,0.0,2.590743428171824,0.0631277524003797,1.0313359415321851e-08,-0.0008876455276242,1.3007501790410214e-05,5.239192360224737e-05,1.9950415503298768,22.81693740168236,21.479743897098476,28.474559281794683
0.61,31.22220400174301,131.01041666178668,9.668474912620573,-1.904251023343441,0.0005033467617546,33.19454273691001,0.0016189754069683,3.144639750587514,372.0984511843297,21.825741606893143,8.656707626865774,71.9849160982204,0.0002246373268218,120.00024898117448,291.50394893340786,15.288,0.0,2.6001450298801974,0.0641449902542879,1.065215240219478e-08,-0.0008383480102894,1.3019999843829372e-05,5.027844504405542e-05,1.9042510898431724,22.48626178989683,21.82582067241759,33.34316165714645
0.62,31.222203615692464,131.01041745510213,9.879369410126158,-1.8215436846264064,0.0005394334353622,41.32099317634852,0.0016378199270929,3.1430615461451854,442.86563930529206,22.107404489637503,8.775060974788493,71.98444916894184,0.0002475812697056,120.00027351521076,299.0702017487105,15.288,0.0,2.60951228177628,0.0649729408942806,1.0969423291175328e-08,-0.0007895029064099,1.3033848130353424e-05,4.7959117853927375e-05,1.8215437644735328,22.222955138251407,22.107489223643384,41.440358536638556
0.63,31.222203223743048,131.01041826052764,10.093331609418431,-1.7394043039994516,0.0005746962760473,23.342221170261176,0.0016577616073823,3.141473815572199,286.11251274707894,22.40777118332468,8.899164583334576,71.98401010961499,0.0002705500153795,120.00029808152532,307.24585178498967,15.288,0.0,2.618838768635895,0.0658558677747053,1.1265397679294112e-08,-0.0007411341912034,1.3049124160381297e-05,4.5631661597793576e-05,1.7394043989096153,21.94889302208239,22.40786145640462,23.55266756958728
0.64,31.222202826509303,131.0104190767952,10.309934054513928,-1.6570652194158757,0.0006086491976512,22.91029901764841,0.0016796849429126,3.1399322645961094,282.30782441796754,22.74004919464791,9.03310171332446,71.98359860006664,0.0002935461960604,120.0003226822337,316.41894100445944,15.288,0.0,2.6281270816614115,0.0668325876833014,1.1540397441673174e-08,-0.0006934292420594,1.306585360690651e-05,4.332666803554414e-05,1.6570653311647028,21.653611940416614,22.740144801040305,23.124467097117176
0.65,31.222202423970817,131.010419903947,10.52919175837478,-1.580424098282573,0.0006434835981957,40.652775944952445,0.0016980583665508,3.1380219580457687,436.7781447787475,23.02243220259776,9.151557368965738,71.98321426793848,0.0003165725300811,120.00034732022507,324.31940497180386,15.288,0.0,2.637355342690116,0.067662673534073,1.1794719669304728e-08,-0.0006464252992131,1.3084105182524473e-05,4.089047389449092e-05,1.5804242292494493,21.40800193604388,23.022533280765,40.77370938145172
0.66,31.22220201559585,131.01042074308,10.75147598169703,-1.504902442952272,0.0006776761020735,34.54420015334154,0.0017169888851173,3.136053678257108,383.51251517160017,23.31579742783368,9.273371693021785,71.9828567100186,0.0003396318443885,120.00037199905294,332.6302987815499,15.288,0.0,2.6465514614708403,0.0685250425264589,1.2028643779811445e-08,-0.0006000752193629,1.3103989496127424e-05,3.8441408494352e-05,1.5049025955002415,21.158621123639684,23.315903876946862,34.68625952528007
0.67,31.222201601578416,131.010421593794,10.97665242555848,-1.429484228917728,0.0007106365356208,23.71063596449816,0.0017376726199733,3.134102010899002,289.1562440103425,23.638117113471782,9.404103661136707,71.98252552251823,0.0003627271390065,120.00039672167188,341.8830961162228,15.288,0.0,2.655716988485845,0.06947251537684,1.2242518282283824e-08,-0.0005544770247569,1.3125565062008812e-05,3.6010601083168566e-05,1.429484405519681,20.891372380591324,23.638228739997764,23.91687388174259
0.68,31.22220118209469,131.0104224557255,11.204599234088423,-1.356502770144277,0.0007434386913656,29.66265703318013,0.0017575714705079,3.131981416384612,340.8999924858462,23.95170150663919,9.53208747448059,71.9822202596348,0.0003858615319425,120.00042149117937,351.00645517934043,15.288,0.0,2.6648205065861945,0.0703943221189089,1.2436718170526872e-08,-0.0005097174610358,1.3148892339373808e-05,3.3542104734899496e-05,1.3565029738292604,20.63745297096176,23.951818285715746,29.82754654593144
0.69,31.222200757227416,131.01042332870364,11.435259712463877,-1.2869545347062918,0.0007767820350299,36.5802826145387,0.00177528777383,3.12960784710096,401.0140726853634,24.235542579274902,9.650824371353364,71.98194042751457,0.0004090382478055,120.00044631088544,359.36703506069983,15.288,0.0,2.673885085832113,0.071228719602342,1.2611648185495556e-08,-0.0004658702414464,1.317403732228138e-05,3.101933807031284e-05,1.2869547690925578,20.41241098992416,24.235664595911636,36.71391459089871
0.7,31.222200326832542,131.01042421302574,11.668735246336585,-1.2189422428223953,0.000809760764343,30.63754631574757,0.001792882304655,3.1271195194916195,349.27032420985284,24.52049126009109,9.769859633339433,71.9816854871541,0.0004322606184338,120.00047118445671,367.8589604401878,15.288,0.0,2.682915149433173,0.07206637900758,1.2767725046745876e-08,-0.0004229699607371,1.320109139904712e-05,2.849336648603069e-05,1.2189425117496733,20.19125820711935,24.520618457014507,30.79672261707713
0.71,31.222199890965246,131.01042510857795,11.90498845518394,-1.1515238528321434,0.0008417532819091,25.12916359630484,0.0018115590642412,3.1245808417284247,301.33126406340574,24.824802613536978,9.894837776557774,71.98145487232419,0.0004555321232796,120.0004961155006,377.0376853527935,15.288,0.0,2.6918861402310843,0.0729609526746963,1.2905406645974256e-08,-0.0003810896341187,1.3230126968215296e-05,2.5990112492106e-05,1.1515241604476292,19.96037201153506,24.824934835833304,25.322675051583605
0.72,31.222199449626416,131.01042601535846,12.14401981684406,-1.0846723049452331,0.000872555359264,30.826022906072687,0.0018316121616458,3.122001841601532,350.79220534145287,25.15317274576156,10.027212089237851,71.98124798656336,0.0004788563890602,120.0005211078375,387.0693031961112,15.288,0.0,2.7008158101205337,0.073926243198785,1.30251650225974e-08,-0.0003402887215232,1.3261226889579169e-05,2.351394939289906e-05,1.084672655863204,19.717147417063813,25.15330980643688,30.98371486861258
0.73,31.22219900281145,131.0104269333767,12.38583366442602,-1.021818489969256,0.0009049959430046,39.06591642653582,0.0018476855983415,3.119077862029543,422.320318528234,25.424566598213847,10.141911367051504,71.98106420888884,0.0005022372138462,120.00054616547368,395.4578634924932,15.288,0.0,2.7097107646254046,0.0747240851172505,1.3127485464647116e-08,-0.0003006230573685,1.3294479574070107e-05,2.09966984678784e-05,1.0218188906913477,19.519995846278437,25.424708754644143,39.19023445156237
0.74,31.2221985504524,131.01042786277293,12.630478540908296,-0.959582660690506,0.0009364925872688,24.35462753138737,0.0018647490649409,3.1160896427654814,294.48281347105944,25.714228163267563,10.262213294644248,71.9809028599458,0.0005256784867605,120.0005712925792,404.5105771366988,15.288,0.0,2.7185617377704654,0.0755756236796928,1.3212900778754396e-08,-0.0002621546973465,1.3329975755335814e-05,1.8518086126773327e-05,0.9595831176264252,19.313966440925604,25.71437526717917,24.553164772217265
0.75,31.22219809292802,131.01042880276563,12.877691844627828,-0.8982587966185815,0.0009671978117341,28.478313254642607,0.0018823839172731,3.1130024996335286,330.24688556441487,26.015960677077647,10.386197069041316,71.98076322223034,0.0005491842458291,120.00059649299956,414.0495534533265,15.288,0.0,2.7273517632997555,0.0764626464828477,1.3282013732981888e-08,-0.0002250075161845,1.336774637649424e-05,1.608020368310745e-05,0.8982593172894493,19.10393492904045,26.016112604154635,28.647951304336697
0.76,31.222197630119886,131.01042975359923,13.127557390232516,-0.8389938235739735,0.0009983534660892,30.675460609774404,0.001898427103689,3.1097089063684606,349.27032420986166,26.29680601409711,10.50366747521719,71.9806445338618,0.0005727586482845,120.0006217712407,423.0270805736084,15.288,0.0,2.7361009289758,0.0772882875680589,1.3335402034496088e-08,-0.000189224340989,1.3407897851856096e-05,1.3668606333295702e-05,0.8389944175220447,18.91228862656333,26.29696283509284,30.832680336101074
0.77,31.22219716196569,131.01043071540232,13.380119906133686,-0.7811363479124748,0.0010294266571964,28.664366558482648,0.0019138822490784,3.1062620513968,331.7687666960708,26.57208756721675,10.6193645298339,71.98054599573584,0.0005964060036071,120.00064713190773,431.919668660974,15.288,0.0,2.7448102035537567,0.0780975832604653,1.3373679826429372e-08,-0.000154863328442,1.3450529943919048e-05,1.1303370481829704e-05,0.7811370261892883,18.72804924883955,26.572249269177927,28.8321830216505
0.78,31.22219668853229,131.01043168803693,13.635334224619532,-0.7239544135601272,0.0010594912322871,23.494208768165343,0.0019302859988264,3.102725955733305,286.8734378128899,26.865528847638128,10.740625656734668,71.9804667682149,0.0006201307678657,120.00067257962068,441.5010852378277,15.288,0.0,2.753471675183168,0.0789602590343781,1.3397506585744252e-08,-0.0001220047828562,1.3495719972265815e-05,9.003166969614828e-06,0.7239551887891442,18.535647735299808,26.865695272131717,23.69820157152273
0.79,31.222196209911367,131.0104326713139,13.893137898728448,-0.6677093021221086,0.0010888115973443,33.50148350892967,0.0019471294014291,3.0990666050903903,373.6203323159534,27.16951623101628,10.865093156944027,71.98040597343879,0.000643937558191,120.00069811914211,451.5377311272106,15.288,0.0,2.7620744237828414,0.0798539381651447,1.340756810605962e-08,-9.072793302970484e-05,1.35435445869377e-05,6.770725773969601e-06,0.6677101898258962,18.340467532580156,27.16968726114204,33.64451834865801
0.8,31.22219572586732,131.01043366571946,14.153696523344731,-0.6135409408774781,0.0011193317899983,33.946871219734575,0.0019613391320578,3.095164423754095,377.42502064505743,27.436521230441123,10.97806502366746,71.98036269984111,0.000667831179021,120.00072375578335,460.444678235089,15.288,0.0,2.7706402996942456,0.0806389297432894,1.3404533647842964e-08,-6.107008414732066e-05,1.3594150964915928e-05,4.60213122722023e-06,0.6135419618805287,18.172168762858,27.43669705466753,34.087682706018136
0.81,31.222195236507204,131.01043467103267,14.416937030826256,-0.5599511449068225,0.001148630690763,22.012881776900823,0.0019767884259806,3.091169900227368,273.9374926939919,27.72660756934767,11.098121118507592,71.98033598940404,0.0006918165794751,120.00074949463868,470.2208263729109,15.288,0.0,2.7791649078784224,0.081491767178057,1.3389153556216562e-08,-3.31220784368805e-05,1.3647611702311811e-05,2.5223466543908706e-06,0.55995232296451,17.992899753574616,27.72678799583465,22.228861855335204
0.82,31.222194742029192,131.0104356868447,14.6827229459428,-0.5072940479957103,0.0011772156842664,28.33959739771584,0.0019925966577564,3.0870395394771704,328.72500443277005,28.026318280846283,11.221096624062884,71.98032483989282,0.000715898863957,120.00077534086752,480.4292087361106,15.288,0.0,2.787644411684409,0.0823728992943453,1.336221255350076e-08,-6.977397429310366e-06,1.3703984946639667e-05,5.370798777089057e-07,0.5072954138690958,17.811381686094705,28.02650319745354,28.507237638069377
0.83,31.2221942424141,131.0104367131952,14.951069241054793,-0.4564931361848592,0.0012074553760318,36.07526592056278,0.0020051994389154,3.082657432426777,395.68750322465047,28.279833434038764,11.32972238502859,71.98032820651646,0.0007400833038644,120.0008013000384,489.1474638816621,15.288,0.0,2.7960773971728057,0.0831182640928406,1.3324496383913733e-08,1.7297135760799176e-05,1.3763380855627116e-05,-1.3434429229939423e-06,0.4564947330494066,17.660486977843583,28.280023100685693,36.206734071244796
0.84,31.222193737548046,131.01043775031908,15.222056891793711,-0.4064635404014328,0.0012370936272181,22.198049662768813,0.0020180756802956,3.078137071881173,275.4593748256452,28.541593566772328,11.440838443361592,71.98034499427803,0.0007643752844166,120.00082737794092,498.2315719500618,15.288,0.0,2.8044564530863254,0.0838878690914411,1.3276825222604116e-08,3.963289551422554e-05,1.3825923230361285e-05,-3.10663975935656e-06,0.406465422945628,17.5073971443094,28.541787888984867,22.41045159600023
0.85,31.22219322774317,131.01043879757256,15.495470174798005,-0.3568804405851689,0.0012648074703335,24.222937115149907,0.0020330595303176,3.0735176804975723,292.96093233939376,28.84078924282825,11.563473975182212,71.98037406278736,0.0007887803466047,120.00085358007,508.7186831136565,15.288,0.0,2.8127873197497326,0.0847675099262571,1.322009466887098e-08,5.992569304777572e-05,1.3891635832660372e-05,-4.746414685735605e-06,0.3568826818278451,17.335777769434486,28.840987918321083,24.417149660641577
0.86,31.22219271281307,131.0104398553401,15.771440633934247,-0.3086376431453145,0.0012935088959706,30.381325144201725,0.0020459331219714,3.068685804697492,346.2265619465587,29.110933184690225,11.677060989383415,71.98041423381437,0.0008133042555796,120.000879912692,518.2796426217159,15.288,0.0,2.8210757810051867,0.0855617708847155,1.3155162116124744e-08,7.811893675279934e-05,1.3960679871545368e-05,-6.245200899800567e-06,0.3086403536731939,17.183613637044516,29.11113636859245,30.53590925896097
0.87,31.222192192782263,131.01044092357122,16.049952978587424,-0.2614279392418105,0.0013225933711419,28.27573599137465,0.0020576236718997,3.063670840585546,327.964078366998,29.366555232598344,11.786093418993593,71.98046428124765,0.000837952928141,120.00090638200572,527.407487106127,15.288,0.0,2.8293214389156445,0.0863133569228001,1.308294750984777e-08,9.413131404120432e-05,1.4033157559008444e-05,-7.5911832122701696e-06,0.261431284772199,17.042056015284828,29.366762985079248,28.441225872089078
0.88,31.22219166768756,131.01044200219005,16.33098336750724,-0.214914157561904,0.001350572920015,24.40956480340656,0.0020702045297394,3.0585097919547204,294.4828134710418,29.640809262522367,11.90082609224691,71.9805229319516,0.000862732437547,120.00093299436077,537.2898932272772,15.288,0.0,2.8375223325856767,0.0871197129324787,1.3004407385655076e-08,0.0001078783769883,1.4109161132139109e-05,-8.78082021815257e-06,0.2149184011639334,16.892826776354145,29.64102141002053,24.600433742617913
0.89,31.2221911376146,131.0104430910199,16.614473997544355,-0.1691655646243071,0.0013774093536532,26.789128722753222,0.0020836622077678,3.0531882675528115,315.028134248087,29.93379957416888,12.021290143032692,71.98058886708424,0.0008876490443032,120.00095975625057,547.949363292374,15.288,0.0,2.84567780369778,0.0879811460028766,1.2920527613027329e-08,0.0001192764909414,1.4188781946390912e-05,-9.804275374941418e-06,0.1691711722084717,16.736320947123026,29.934015937124176,26.962555158274817
0.9,31.222190602482303,131.01044419022816,16.90048323219288,-0.1245376854777076,0.0014062926989884,29.60998957560951,0.0020937101695522,3.0476507638049504,339.37814235421445,30.17657202646259,12.126154766784987,71.98066072326553,0.0009127092467966,120.00098667459784,556.8581903003649,15.288,0.0,2.8537910259644828,0.0886949867670746,1.28323026638576e-08,0.0001282491361037,1.4272165413812428e-05,-1.0627013278400787e-05,0.1245456252156562,16.60878788567477,30.176792926403166,29.766418364147324
0.91,31.22219006236477,131.01044529966197,17.188961365577867,-0.0805817010127337,0.0014340503071598,22.482996415655183,0.0021046295007328,3.041947775301451,277.7421810230789,30.43807411453068,12.236746186360367,71.98073708535185,0.0009379196290249,120.00101375624789,566.5354789404446,15.288,0.0,2.8618502803485737,0.0894638849586514,1.2740786923779464e-08,0.000134707893606,1.4359399137723916e-05,-1.1258617232448694e-05,0.0805944603363612,16.473641858240764,30.438299374626148,22.687850901385318
0.92,31.222189517475226,131.01044641888143,17.47976184168096,-0.0373754163742155,0.0014606412079438,26.80141688694321,0.002116396977577,3.036065906639642,315.02813424806214,30.718233838310034,12.3530417009532,71.98081649081917,0.000963286968539,120.00104100809932,576.9964312250269,15.288,0.0,2.869861792984581,0.0902876294062475,1.264707685589268e-08,0.000138565021548,1.4450523308742963e-05,-1.1687256225365191e-05,0.0374039466084714,16.331326615613545,30.71846327529443,26.97283166106815
0.93,31.22218896771676,131.01044754808666,17.77295414349216,0.0050235777950425,0.0014892229066266,31.91492865969129,0.0021249600983668,3.029990502052772,359.1625070654728,30.950990409144367,12.45460600465402,71.98089742893744,0.0009888182316978,120.00106843758267,585.7570375635315,15.288,0.0,2.8778297922408527,0.0909720529908559,1.2552259641943644e-08,0.0001397401781479,1.4545700783532302e-05,-1.187534741505397e-05,0.0052396677854607,16.214985373423257,30.95122433573149,32.05843911220835
0.94,31.222188412972205,131.0104486875194,18.068621921273287,0.0466913921069731,0.0015155893778152,23.10830294774724,0.0021357082293664,3.0237290048170733,283.0687504837787,31.22459880477328,12.568738587459617,71.98097834029089,0.0010145205158028,120.00109605228748,596.1421303749772,15.288,0.0,2.885754202713094,0.0917765569395238,1.2457466346050189e-08,0.0001381452521791,1.4645079224485089e-05,-1.184325222792888e-05,0.0467159834290722,16.080376912607665,31.22483687299601,23.305291390169003
0.95,31.22218785354755,131.0104498365484,18.366554091571096,0.0876203018902613,0.0015420075495855,29.98649934367104,0.0021457121898578,3.0172706567757346,342.4218736174873,31.491191026134807,12.680631142645575,71.98105761551878,0.0010404012017106,120.0011238596456,606.3478291893742,15.288,0.0,2.89363184545493,0.0925604463405693,1.236389083611656e-08,0.0001336963533398,1.4748677238464717e-05,-1.155937543303632e-05,0.0876338695316869,15.951405826353502,31.49143324411425,30.137917474641547
0.96,31.222187289131288,131.01045099581643,18.66696972229596,0.1279146741002368,0.001569405521413,29.37407860793777,0.002153878485378,3.0106281083923,337.09533515678345,31.732678873960577,12.784688198590755,71.98113359542418,0.0010664678285629,120.00115186791948,615.6651874947747,15.288,0.0,2.9014689467218058,0.0932705553781724,1.2272698578168316e-08,0.0001262996436391,1.4856743853602324e-05,-1.1003277160259718e-05,0.1279243013670317,15.836432417094164,31.73292539560337,29.527959298121864
0.97,31.222186719743835,131.01045216528144,18.96985673174208,0.1674967478874852,0.0015960576003768,18.70748345340272,0.0021623314477581,3.003783646156862,245.02188719299323,31.98431851420091,12.891814714149923,71.98120456848659,0.0010927281883587,120.00118008527964,625.4501388554806,15.288,0.0,2.9092647557322526,0.0940105106988949,1.2185126139023632e-08,0.0001158615135426,1.496940087459992e-05,-1.0173651481792017e-05,0.167504352018748,15.718425127100488,31.984569222342483,18.94710157327324
0.98,31.222186145689395,131.0104533443159,19.27500535698227,0.2061576984150144,0.0016204048815234,27.35433921617477,0.0021728618552341,2.996693454861688,319.5937466429581,32.276425993677044,13.011387224774124,71.98126877162905,0.0011191902504296,120.00120851977736,636.9079050428758,15.288,0.0,2.9170139948253184,0.0948694197648788,1.2102471456212396e-08,0.0001023033618184,1.5086641888857514e-05,-9.064903238394769e-06,0.2061640665008359,15.583615169043906,32.27668052628059,27.517995027568713
0.99,31.222185566810488,131.01045453324474,19.582527487517552,0.2446134363525051,0.0016481420985196,29.91715729439629,0.0021787319742153,2.989470944594641,341.6609485517054,32.49586113090383,13.10840783720117,71.981324386624,0.0011458622468926,120.0012371802365,645.578464549632,15.288,0.0,2.924722598681879,0.0955147322829977,1.2026008131208322e-08,8.552434146657077e-05,1.5208689793918812e-05,-7.629442251133961e-06,0.2446189886331328,15.484048252371522,32.49612002045924,30.06614777208909
1.0,31.22218498310519,131.01045573207207,19.892426680525315,0.2821563289204516,0.0016736341010392,26.74432500016958,0.0021865950373634,2.9819924830044764,314.2672081822764,32.754704090183694,13.217545316271812,71.98136954947735,0.0011727524495576,120.0012660753549,655.8845010855429,15.288,0.0,2.93238824765488,0.0962758832491287,1.1957071836069666e-08,6.543007472439256e-05,1.533565748670603e-05,-5.8831940213952655e-06,0.2821612924873319,15.36818430842221,32.754966984013485,26.910057667433357
1.01,31.22218439476313,131.01045694040667,20.20457306825777,0.3191362635911227,0.0016992953275317,27.98404683637532,0.0021935982013515,2.9743093798182665,324.9203161036979,33.00487282254176,13.323925838343188,71.98140233678845,0.0011998694624234,120.0012952139729,665.9216193604864,15.288,0.0,2.940009874394329,0.097011545760204,1.1897040740174768e-08,4.193866980073662e-05,1.5467603444490445e-05,-3.799634036314692e-06,0.3191407876064172,15.257929334208631,33.00513974722759,28.141666589581995
1.02,31.22218380170327,131.0104581584159,20.51902537956001,0.3556324541665262,0.0017253575135788,23.307576952258263,0.0021994994864405,2.966431348047995,284.59063161540416,33.24220738097839,13.426262010876616,71.98142077546963,0.001227222017622,120.00132460535656,675.5127953905138,15.288,0.0,2.9475893763189664,0.0977094922513564,1.184730035350972e-08,1.4947541610256187e-05,1.5604702790488303e-05,-1.3639409329575667e-06,0.355636639390701,15.15489438125462,33.24247839950282,23.495592419982103
1.03,31.222183203997,131.0104593859525,20.835736180519945,0.3912281587057271,0.0017497399568756,18.981904649184383,0.0022066173104243,2.958275271262111,247.30469339049705,33.50671273372745,13.536927923399588,71.9814228409164,0.0012548190186352,120.0013542587876,686.284680218301,15.288,0.0,2.955125395592207,0.0984873101551645,1.1809284812785549e-08,-1.5633070360972586e-05,1.5747051877100963e-05,1.43780116581197e-06,0.3912320714181885,15.041660746492168,33.50698758223712,19.21104113681631
1.04,31.222182601708383,131.01046062288438,21.15466316406805,0.426570683126261,0.0017753986486088,30.38162519330905,0.0022116504354106,2.949953919754624,345.46563688072297,33.741553827708714,13.638342267391872,71.98140644571023,0.0012826696943661,120.00138418389712,695.9171078200069,15.288,0.0,2.9626190339354785,0.0991779427212111,1.1784458908368072e-08,-4.9895569713604176e-05,1.5894771501429715e-05,4.621005519199349e-06,0.426574377669862,14.94271453951828,33.74183270667625,30.524504621808106
1.05,31.222181994539127,131.01046186982708,21.47601645532301,0.4610477231682973,0.0017996609945004,18.189645067067023,0.0022175556533673,2.941348505815545,240.45625879819983,33.9981801669754,13.74641934460944,71.98136945172594,0.0013107834196629,120.00141439085944,706.5213555051774,15.288,0.0,2.970074457064904,0.0999326174972142,1.1774289899090584e-08,-8.797991206803178e-05,1.604816483772371e-05,8.209849821341336e-06,0.4610512354923088,14.836043126127237,33.99846285706332,18.425925312344347
1.06,31.2221813827366,131.0104631262703,21.79962611922217,0.4946585881227313,0.0018226508826588,26.059073218024263,0.0022241333834521,2.932446150944102,308.17968365593924,34.27356429519492,13.86022232600086,71.98130965063253,0.0013391699582511,120.00144488967,717.9909915221853,15.288,0.0,2.977488504796947,0.1007424362565149,1.1780338583986097e-08,-0.0001299561911417,1.6207243884052502e-05,1.2224715615184256e-05,0.4946619459564977,14.723242813515665,34.273850596526025,26.223549385186317
1.07,31.222180766179427,131.01046439246454,22.125579091688166,0.528398081106012,0.0018479999103335,30.74927591534577,0.0022275174456045,2.923441791070581,348.5093681440308,34.49967377617443,13.95870571907576,71.98122476837182,0.0013678393761384,120.0014756910384,727.4729217046881,15.288,0.0,2.9848654765018403,0.1014074270244089,1.1804163447475224e-08,-0.0001759535433734,1.63722557691645e-05,1.6660265878224537e-05,0.5284013125676353,14.632190075826426,34.49996405932149,30.88793431399509
1.08,31.22218014476234,131.0104656686271,22.453951140299107,0.5614770266830882,0.0018726840993234,20.58215851357302,0.0022309500245067,2.914172985262472,261.00157857466235,34.73364957220969,14.059544546279312,71.98111248144784,0.0013968018577305,120.00150680578112,737.3505260126998,15.288,0.0,2.9922058600655705,0.1020955475957184,1.18473636600949e-08,-0.00022609742734,1.6543408184939913e-05,2.1552679143059623e-05,0.5614801495394464,14.539179970339086,34.73394373274009,20.787439915560018
1.09,31.22217951877195,131.01046695416676,22.78454505532379,0.5931765305300541,0.0018943968957029,18.902931613526658,0.002236761278378,2.9044753139161954,246.54375332474407,35.017570680481064,14.175755688090783,71.98097040389287,0.0014260678503334,120.00153824456883,749.4305534396196,15.288,0.0,2.9995053231963573,0.1029304848643601,1.191161184947804e-08,-0.0002804424347471,1.6720671254455004e-05,2.6950769930202765e-05,0.5931795554327617,14.427673675999914,35.01786825164954,19.1247694218235
1.1,31.22217888828716,131.0104682489208,23.117308326009542,0.6247745533228806,0.0019173566572949,38.28612340846477,0.0022405570355773,2.894609812808681,413.1890617385841,35.273071415620734,14.283096938017632,71.9807960860683,0.001455648061904,120.00157001856942,760.382373784947,15.288,0.0,3.00676531510918,0.1036818918776447,1.1998588016205024e-08,-0.000339086033775,1.6904174733748645e-05,3.282318591713937e-05,0.6247774952654649,14.328996633010345,35.273372593300124,38.39539056497144
1.11,31.222178252889627,131.0104695537524,23.452534847665017,0.6568571133650936,0.0019431626295415,27.935340426938065,0.0022407998504297,2.8847122537741594,324.1593910376397,35.4717935748596,14.37279409595323,71.98058700951589,0.0014855535034176,120.001602139804,768.949463867832,15.288,0.0,3.013992804271407,0.1042664114978427,1.2109968315679024e-08,-0.0004022359458291,1.70943773339684e-05,3.9154131545778e-05,0.65685998743564,14.253589655310446,35.472098806131626,28.083888879163066
1.12,31.22217761264444,131.01047086852742,23.790181772926296,0.6865405084031305,0.0019632172361776,10.318405039970228,0.002246096880323,2.8741244469854528,172.73281794065943,35.77089621811679,14.493465052113676,71.98034060589346,0.0015157953182037,120.00163461991228,781.9465339511642,15.288,0.0,3.0211846429168845,0.1051459996834786,1.2247516085050215e-08,-0.0004699919490015,1.729138176701788e-05,4.613385252450418e-05,0.6865433152507919,14.140855297426974,35.771204599559056,10.711212767497136
1.13,31.22217696816551,131.0104721919793,24.129824019775214,0.7167743081491486,0.0019861280183329,32.99169951018166,0.0022478027285095,2.86350306729431,367.5328077900705,36.01238525221223,14.596233783358928,71.98005419794707,0.0015463852976834,120.0016674706246,792.5141458305836,15.288,0.0,3.0283360605189142,0.105856245214479,1.2413098271436742e-08,-0.0005423240939989,1.749494937971953e-05,5.359152327886775e-05,0.716777059706743,14.051519057381984,36.012697232471744,33.11573480143755
1.14,31.22217631876492,131.01047352552743,24.47194327850928,0.747354275289351,0.00201113194334,18.1134399235264,0.0022467800374546,2.852813339959522,239.69531773195544,36.21152542952436,14.685820010813703,71.97972509728817,0.0015773350084164,120.00170070483529,801.2768878129607,15.288,0.0,3.035456581846617,0.1064420167668069,1.2608459348415964e-08,-0.0006195326344026,1.770576248517004e-05,6.155765267831979e-05,0.7473569811110151,13.9790724703635,36.21184133739122,18.33671875946925
1.15,31.222175664947606,131.01047486813025,24.81619037497325,0.775268170729772,0.0020300447049517,17.84847645538845,0.0022508960196356,2.841311132537461,237.41251153546767,36.51525332251968,14.807683046662047,71.97935055334763,0.0016086562644631,120.00173433441492,814.7479019358069,15.288,0.0,3.042532438887468,0.1073352271086912,1.2835510986089889e-08,-0.0007015854387619,1.7923573793543147e-05,7.029291708827812e-05,0.7752708284054751,13.869146836118793,36.51557220119619,18.073216808221222
1.16,31.22217500685628,131.01047621949334,25.16246850743909,0.8052142808645684,0.0020552903309838,47.27813730722991,0.002248216814601,2.8301403614295766,490.0437743845894,36.699902196848456,14.892624376961749,71.97892769994279,0.0016403615319952,120.00176837230944,822.9813301736522,15.288,0.0,3.0495668787509733,0.1078784171648176,1.3096173536228096e-08,-0.0007885738602368,1.814850293595958e-05,7.940530531232646e-05,0.8052169037275203,13.803959061565816,36.70022504109863,47.36276983835676
1.17,31.22217434358812,131.01047758147945,25.51140903025025,0.8334935891547912,0.0020772722840435,8.098749625349011,0.0022479279535403,2.8183895837671544,153.70937929486794,36.9387653160484,14.994256297326912,71.97845366238788,0.0016724630693855,120.001802832371,833.7010767927965,15.288,0.0,3.0565735308663964,0.1085809767294242,1.3392277870995077e-08,-0.0008809058267066,1.838144948868425e-05,8.927698946462417e-05,0.8334961775068005,13.720051409338168,36.93909161321569,8.575142587336844
1.18,31.222173676334403,131.01047895163092,25.86218482307253,0.8595514088509939,0.0020946923122389,22.818514999371068,0.002251073671078,2.8058755505582544,280.02501822196746,37.253015099132114,15.119134502286284,71.97792546026561,0.0017049737123865,120.00183772680512,847.9179629177834,15.288,0.0,3.0635370485207525,0.1095051429988337,1.3725940794254373e-08,-0.0009782948747543,1.862156135265152e-05,9.998716447303376e-05,0.8595539609966836,13.610657018794738,37.25334413263102,22.99037993268219
1.19,31.222173004559007,131.01048033105397,26.21517190735493,0.8891021362397433,0.0021215191257468,40.11913023252198,0.0022448200380251,2.794110514449374,428.4078130529292,37.3953590914541,15.19074077132856,71.97734002172433,0.0017379067098785,120.00187307011063,854.3811711846068,15.288,0.0,3.070469851120321,0.1099240006955627,1.4099117774985677e-08,-0.001081084804684,1.886957984603371e-05,0.0001109112987522,0.8891046671504871,13.562860634190312,37.39569233889902,40.2163109847265
1.2,31.22217232780176,131.01048172069807,26.57069331469613,0.9149827365916788,0.002140439808718,3.8355902915177817,0.0022450221267499,2.781180075059504,117.1843741360236,37.67293941711971,15.30410942264064,71.97669429028942,0.0017712749631053,120.0019088763387,867.082528942622,15.288,0.0,3.0773727998254934,0.1107403949230871,1.4513792180486288e-08,-0.0011895557419481,1.9126036923776583e-05,0.0001229412976746,0.914985239965254,13.468714295325071,37.67327563661856,4.737797012791684
1.21,31.22217164725533,131.0104831181027,26.927921102757374,0.9405614379544353,0.002159488317737,32.14548271853593,0.0022442773359117,2.767963924702396,359.92343213200894,37.942300979762486,15.414856818301812,71.97598504216309,0.0018050923582205,120.0019451587976,879.4959577278897,15.288,0.0,3.084234289820815,0.111532638528325,1.4972219190055542e-08,-0.0013033669901596,1.939002703621039e-05,0.0001356622349015,0.9405639167740028,13.378730758839906,37.94264019139413,32.264433801524035
