Time,Latitude,Longitude,Altitude,Angle of Attack,Angle of Sideslip,X-Acceleration,Y-Acceleration,Z-Acceleration,Thrust,True Velocity,Ground Velocity,Pitch,Roll,Yaw,Dynamic Pressure,cp,parachute_deploy_gain,Wind Speed,Mach,omega_x,omega_y,omega_z,Cmq,Angle of Attack(total),Angle of Attack(gust),True Velocity(gust),Acceleration
0.0,31.222216000000007,131.010392,3.000000004412624,0.0,0.0,0.0,0.0,0.0,2.2828121974499247,0.0,0.0,71.99999999612658,-1.0292491154817412e-14,119.99999999354436,0.0,15.288,0,0.0,0.0,0.0,0.0,0.0,-0.0,0.0,90.0,0.0,0.0
0.01,31.22221599999862,131.01039200000284,3.0000009727369523,0.0,0.0,0.0,0.0,0.0,34.24218696174923,5.916279387578309e-11,5.734623670548936e-11,71.99999999613168,-5.86671995824671e-13,119.9999999935449,2.1432944861733093e-21,15.288,0,0.0,1.7386402909615473e-13,-3.4220131069073734e-19,7.115076756936125e-19,5.488773498207866e-19,-1.1574302492039043e-31,0.0,89.99999999962336,5.916279387578309e-11,0.0
0.02,31.22221599999738,131.01039200000537,3.0000018317022668,0.0,0.0,0.0,0.0,0.0,25.871876237766408,1.2265415415436536e-10,1.1895038237325684e-10,71.9999999961369,-1.1836364828043265e-12,119.99999999354544,9.211895886571454e-21,15.288,0,0.0,3.6044858651615574e-13,-6.979551485375437e-19,1.4162390878091906e-18,1.0909784360635388e-18,-4.776231873571785e-31,0.0,89.99999999921916,1.2265415415436536e-10,0.0
0.03,31.22221599921969,131.01039200159065,3.0001883335529382,18.80143492628821,-0.0001350810307892,10.931161642028636,-1.75114298675875e-05,3.026590975169265,180.34219359854663,0.0798232026864394,0.0478175828508887,71.99999999765336,-5.341802909786072e-12,119.99999999436793,0.0039016003969354,15.288,0,0.0,0.0002345795854893,3.788270153300133e-17,-7.771883375645477e-10,1.1422790048099072e-11,1.7057759223764537e-13,18.80143492675591,89.51882325913425,0.079801984207741,11.342422482672777
0.04,31.222215995131297,131.01039200995308,3.001692634342189,9.19442604083399,-4.49173898918486e-05,52.29595764159784,6.445392950801871e-06,3.026413589912948,548.6359724538078,0.3504174083926908,0.1601447499964056,72.00000000319055,-3.111420077280171e-11,119.99999999870242,0.0751892535633216,15.288,0,0.0,0.0010297854387864,2.0082066977226968e-15,-1.520937588847922e-08,2.5623342884322286e-11,1.4654248781413086e-11,9.19442604094277,87.798916624545,0.3504103527855857,52.383455068075136
0.05,31.222215983575865,131.01039203366796,3.0074067499493786,5.158590039700252,1.707592688632746e-06,76.26884281015512,5.843947534199429e-05,3.0258124765658088,761.6984298824644,0.9592973585397016,0.3772700771701255,72.0000000004862,-1.3608731808076822e-10,120.0000000109612,0.5634958029902841,15.288,0,0.0,0.0028191251099456,2.086299069701397e-14,-1.0551247853743037e-07,3.973493515691201e-11,2.783064866637575e-10,5.158590039700515,83.94063169874748,0.959297626767734,76.32884071402438
0.06,31.222215961742712,131.0103920785344,3.019291017943491,4.109521257467909,3.140103977270004e-05,57.06876634333886,0.0001151069734147,3.024834864051463,590.4875390737208,1.6257536642597354,0.6118982818704327,71.99999992547217,-3.5903296759057166e-10,120.00000003412836,1.6184272268450337,15.288,0,0.0,0.0047776672697797,1.0694899894620088e-13,-3.741090980393931e-07,5.521401959501359e-11,1.6723176417636091e-09,4.109521257587776,79.78719176344794,1.6257585967235286,57.148873286519276
0.07,31.222215929936205,131.01039214392435,3.0371334573469446,3.649087515174788,5.707077112564807e-05,86.89643797254193,0.0001728541558773,3.0234947746384675,855.2937749779139,2.3057260079826607,0.8506307413593818,71.99999965378231,-6.907496536790437e-10,120.00000006788592,3.255354923652711,15.288,0,0.0,0.0067759305364855,3.495199904512709e-13,-9.036515915819006e-07,7.594816279105379e-11,5.728932851326001e-09,3.6490875156204896,75.6601668283889,2.305734972638426,86.94902215090157
0.08,31.222215886364623,131.01039223353447,3.0621840248716574,3.4254446680114707,8.413075603463509e-05,17.831756866644035,0.0002285946601282,3.021841001032126,241.2171988638848,2.961944911520492,1.0819695676346892,71.99999900671328,-1.141745983122182e-09,120.00000011415082,5.371998197385977,15.288,0,0.0,0.0087043901031071,8.800530155962314e-13,-1.829098470920821e-06,1.0943386634701918e-10,1.4896287129277132e-08,3.4254446690434226,71.81713637501419,2.9619581267487467,18.085991154451033
0.09,31.22221583454733,131.01039234010327,3.0919888289029,3.389560809024919,0.0001118726864415,54.09031716446879,0.0002748660999733,3.020060228038602,563.0937377043176,3.504225426410036,1.2780161667917422,71.99999774508822,-1.634190085504106e-09,120.00000016921716,7.519080503822694,15.288,0,0.0,0.0102980157586766,1.865782139518716e-12,-3.1503298654458527e-06,1.6284478329871028e-10,3.03536411425607e-08,3.389560810868955,68.76526501308032,3.504242999330529,54.17456206384468
0.1,31.22221577423132,131.0103924641528,3.1267248829165366,3.4447939461814814,0.0001419149103147,51.372195336549765,0.0003131602029306,3.0182021883815127,538.7437595981919,3.950569597142709,1.4443465951180965,71.99999562056465,-2.1287748602259068e-09,120.00000023339832,9.55649523509932,15.288,0,0.0,0.0116097108366932,3.485956000178229e-12,-4.949356763187612e-06,2.4573266549165286e-10,5.3761299442583966e-08,3.444793949101151,66.34639928474206,3.9505918890846927,51.460781166288626
0.11,31.222215706113143,131.01039260424562,3.165907002780892,3.4691423802630394,0.0001702373452339,40.591037561894986,0.0003534470100582,3.016051659024047,442.8656393052949,4.421478635995476,1.6182620895289603,71.99999235067894,-2.5564479031457968e-09,120.00000030601664,11.970509656144712,15.288,0,0.0,0.0129935974697161,5.942887149865172e-12,-7.273722517324353e-06,3.67769289312894e-10,8.842679949465076e-08,3.4691423844348632,63.88798785789768,4.421505376815134,40.70293476011277
0.12,31.222215630588888,131.0103927595646,3.2092596514826863,3.4852659299808075,0.0001974376474727,44.30042894095728,0.000394069215595,3.013641598889868,475.58594813540446,4.896982486381051,1.793579340340896,71.99998761802138,-2.8337988279882726e-09,120.00000038673312,14.683611096353944,15.288,0,0.0,0.0143909889875706,9.464337642181618e-12,-1.017558359402848e-05,5.395790443954697e-10,1.3700793350599625e-07,3.4852659355662303,61.5068242157714,4.897013499814194,44.40281567867803
0.13,31.222215548046687,131.0103929293088,3.256512891171917,3.5606043721293616,0.0002276507019012,48.86766833507025,0.0004268800875964,3.0112558910133567,515.9156326236895,5.278566579338586,1.939796541405244,71.99998107389406,-2.8573058577484587e-09,120.00000047523812,17.061052093156064,15.288,0,0.0,0.0155123760833565,1.4300406003001044e-11,-1.3705268062305584e-05,7.724776992181392e-10,1.989112774124932e-07,3.560604379397528,59.67313531776262,5.27860233862722,48.960358155653
0.14,31.222215458587108,131.01039311327068,3.30759734332425,3.6000732663755977,0.0002555702913645,45.540290862247225,0.0004629468001456,3.0085404980032777,486.2390860568404,5.70011779273801,2.098362647205908,71.99997235012626,-2.508533681468686e-09,120.00000057154703,19.894788765881632,15.288,0,0.0,0.0167512184495524,2.071534240530911e-11,-1.7917736259613292e-05,1.0787346240473087e-09,2.8081526258393346e-07,3.6000732754351943,57.72385750323359,5.700157937625502,45.639559681930805
0.15,31.222215362317904,131.01039331122794,3.3624387479639086,3.651605404442164,0.0002842753491325,44.01308509501,0.0004965057129938,3.005703619811542,472.54218587214,6.091938849578711,2.2476968067377374,71.99996103728932,-1.6446954747148112e-09,120.00000067569304,22.723773683610247,15.288,0,0.0,0.0179026934683374,2.9002783512213203e-11,-2.287326399669318e-05,1.47199345427166e-09,3.831202693354572e-07,3.651605415492516,55.98561718911576,6.091983503446133,44.115597174664394
0.16,31.22221525912812,131.01039352340948,3.421115382839859,3.67540086436193,0.0003108411545024,34.83804992586084,0.0005330990866742,3.002517946501868,391.1218908297564,6.521183188362317,2.4085903880902046,71.99994669525161,-1.0153513453738144e-10,120.00000078796704,26.03872642002185,15.288,0,0.0,0.019164148528834,3.9478358970291335e-11,-2.864207894220033e-05,1.9677461746207517e-09,5.135466997084602e-07,3.6754008774883777,54.15946979122355,6.521232015176687,34.96719658394182
0.17,31.2222151493826,131.01039374906244,3.4833737923187487,3.7139589864597298,0.0003384978477213,43.96471427482637,0.0005668629535037,2.999235483723449,471.78125980632376,6.916861975403744,2.559060925010733,71.99992884100092,2.3206494032971838e-09,120.0000009081849,29.29426197817256,15.288,0,0.0,0.0203269651395979,5.248754693205839e-11,-3.5267097947693114e-05,2.580363454062817e-09,6.706952682968329e-07,3.713959001863866,52.549031795895466,6.916915146521327,44.06689817851128
0.18,31.22221503253009,131.01039398932429,3.549599475912623,3.7380363034619775,0.0003650282082698,36.67395661481795,0.0006021794701355,2.9956556354306425,407.10156721191447,7.332140201215607,2.71556808256092,71.99990696207136,5.837017536380516e-09,120.00000103716444,32.917216366714264,15.288,0,0.0,0.0215473823438242,6.839750892601699e-11,-4.285557247677198e-05,3.331016495775474e-09,8.639362741436378e-07,3.738036321259578,50.93050624815799,7.332197539712479,36.796100973258795
0.19,31.22221490871209,131.01039424390297,3.619694897703461,3.747799769666444,0.0003901520189829,41.42208371271829,0.0006393759928961,2.991742733214697,448.9531328318269,7.771071983754382,2.879366399937307,71.99988049019642,1.0709144790974043e-08,120.00000117502664,36.97605053227239,15.288,0,0.0,0.0228373144884866,8.761416506509219e-11,-5.146771415177372e-05,4.238406957677133e-09,1.0996552116864756e-06,3.747799789945131,49.29705748437159,7.771133268690212,41.529983675580546
0.2,31.22221477769685,131.01039451327668,3.693822889232993,3.7700519460961166,0.0004166800650969,37.99697972290605,0.0006740224661302,2.987733789228414,418.51563019916136,8.179966026035371,3.0338260708461373,71.99984881140107,1.723179577184912e-08,120.0000013223286,40.969302182777255,15.288,0,0.0,0.024038975990988,1.1057590044953188e-10,-6.120032215177249e-05,5.3263847350253015e-09,1.376394225587184e-06,3.7700519690893857,47.8457752505109,8.180031477986942,38.11426270718793
0.21,31.222214639876928,131.01039479663547,3.771710975053407,3.7926098867321474,0.0004432924407074,36.46301043881366,0.0007080907240332,2.983530483977461,404.8187610144644,8.582757448615462,3.1863584283669346,71.99981127559042,2.5745201416596626e-08,120.00000147900325,45.103059028532826,15.288,0,0.0,0.0252227064089584,1.3774582723633048e-10,-7.20875523136271e-05,6.61341033873124e-09,1.7010673350603349e-06,3.792609912601061,46.47936953648762,8.582827080829217,36.584868250565684
0.22,31.22221449507626,131.01039509434258,3.8534832466471007,3.782921298925821,0.0004660920499522,44.14577847155813,0.0007479176313898,2.978724032883548,472.5421858721365,9.056569122268344,3.360845972992861,71.99976720416048,3.661811567390422e-08,120.00000164562512,50.21995530074818,15.288,0,0.0,0.0266151520780326,1.6960703048385348e-10,-8.421592474264931e-05,8.124635526119773e-09,2.0969540034515424e-06,3.7829213275976334,44.9464484092354,9.056642335836344,44.24615863872642
0.23,31.22221434283448,131.01039540734791,3.9394622486964206,3.813874679301352,0.0004940771488601,36.66675459308932,0.000779455230549,2.974212905336642,406.3406421461021,9.430647902846331,3.5044030163419806,71.99971583979395,5.0272885112871524e-08,120.00000182313076,54.45382429059888,15.288,0,0.0,0.0277145095638672,2.0669790509245914e-10,-9.77285871729516e-05,9.894576563683824e-09,2.5339062472561444e-06,3.813874711257219,43.79476959007253,9.430725512303388,36.78718303164376
0.24,31.222214184153326,131.01039573358457,4.028950821673608,3.829256049377765,0.0005200487408944,37.802126339316736,0.0008136255607606,2.9692962675112065,416.2328240017114,9.837806876534357,3.658163422426286,71.9996564062533,6.718950080713476e-08,120.0000020109434,59.25679777340223,15.288,0,0.0,0.0289110855155543,2.4956955046738006e-10,-0.0001125744417092,1.1934277804843484e-08,3.0448209172448607e-06,3.829256084638984,42.59361542722471,9.83788856559955,37.91856374864305
0.25,31.22221401888584,131.01039607335582,4.122052964664892,3.851417709838087,0.0005469594058717,38.85163035360012,0.0008459008130282,2.964283881833675,425.36408079150686,10.22297576958679,3.8050691648373967,71.99958811418384,8.786880969336211e-08,120.00000220974424,63.98709205399403,15.288,0,0.0,0.0300430411774988,2.987811646313829e-10,-0.0001288461362054,1.4273117985167728e-08,3.621333387698252e-06,3.8514177486178034,41.50703126619192,10.223061685769354,38.96455005232871
0.26,31.222213847358866,131.0103964259872,4.218542267117083,3.8780574625554745,0.0005745172425185,42.3164797140743,0.0008766626387865,2.959162938653076,455.8015834241788,10.590779679138215,3.946551912391076,71.99951013710364,1.1286401474734325e-07,120.00000241975916,68.67355887153568,15.288,0,0.0,0.0311239685467471,3.5491769188178554e-10,-0.0001465721578858,1.6932703957058654e-08,4.267712643344226e-06,3.8780575050466,40.51245375834074,10.590869924095635,42.41981967733593
0.27,31.22221366913008,131.0103967923915,4.318728802515264,3.886188503202341,0.0005994342651313,38.70936050721014,0.0009111181036949,2.953518013741325,423.84219965987256,11.004860953238978,4.102320296019413,71.99942161756776,1.4276417094868828e-07,120.0000026420792,74.14786134434608,15.288,0,0.0,0.0323408987462391,4.1858405402174807e-10,-0.0001658847815307,1.995072923688136e-08,5.018832267232506e-06,3.886188549362022,39.43841359495857,11.00495511215316,38.8218734782956
0.28,31.22221348431185,131.01039717233687,4.422535913956003,3.90556090261878,0.0006261175699806,44.68030766832924,0.0009425767186621,2.947879457547137,476.3468732012221,11.38358114165448,4.247086834352694,71.999321619057,1.7823531611327881e-07,120.000002877279,79.33831935330025,15.288,0,0.0,0.033453914386159,4.904408325040897e-10,-0.0001868529238516,2.3357766479368094e-08,5.847713054408178e-06,3.9055609527288775,38.49894431917428,11.383679491972384,44.77744842575601
0.29,31.222213292835256,131.0103975659655,4.530013412817602,3.9242599519377537,0.0006528240665589,35.802573724660256,0.0009737210635801,2.942037024315898,397.97031042211177,11.759725774384751,4.391004157029451,71.99920917567837,2.1999186079018322e-07,120.00000312617878,84.66717879828003,15.288,0,0.0,0.0345593650464213,5.711677680739745e-10,-0.0002095620322847,2.7188189988316943e-08,6.77505090435382e-06,3.9242600061534456,37.60352534239979,11.759828319749328,35.92324968749781
0.3,31.222213095024976,131.0103979726075,4.64093665799555,3.936939025755682,0.0006785438093183,33.570228713727204,0.0010059102294455,2.93586442972183,378.1859457108711,12.149968255527943,4.539237002744259,71.99908328532703,2.6880857935396905e-07,120.00000338923812,90.3787563598417,15.288,0,0.0,0.0357062504417728,6.614698865958865e-10,-0.0002340353597042,3.1467140861055e-08,7.817263716758327e-06,3.9369390841381695,36.71173884615234,12.150074840940263,33.698361337808635
0.31,31.22221289105846,131.01039839189684,4.755183729044857,3.9598342215431432,0.0007060286581592,35.396825578217346,0.0010350810412898,2.9297385597941448,394.1656220930212,12.504537499407316,4.6763673222047455,71.99894291513503,3.255120771695107e-07,120.00000366712923,95.72967338626896,15.288,0,0.0,0.0367483036680869,7.620720834468404e-10,-0.0002603234137215,3.622454560346964e-08,8.948994505138873e-06,3.9598342843844345,35.934338386209795,12.504648402129598,35.5178635353378
0.32,31.222212681031937,131.01039882363492,4.872689374180126,3.985461429033668,0.0007340760463279,38.52097867048992,0.0010630242168685,2.9235095146848846,421.55939346242695,12.84534566718622,4.809181081594425,71.99878701464397,3.909756427278764e-07,120.0000039606604,101.01782231644016,15.288,0,0.0,0.0377499198995686,8.737098716736534e-10,-0.0002884807530145,4.1491545539590986e-08,1.0187112828155184e-05,3.98546149652875,35.21473736963424,12.845460975581933,38.631757748577954
0.33,31.22221246496604,131.01039926777932,4.9934410812554,4.010606629086,0.0007621365968788,38.18822026147908,0.0010905599149574,2.917102431053817,418.5156301991682,13.18247167592885,4.940798912752974,71.99861449732019,4.661299779655886e-07,120.000004270781,106.38859400029033,15.288,0,0.0,0.0387407190563976,9.971421990244511e-10,-0.0003185760672934,4.7302669734505256e-08,1.154498667827874e-05,4.010606701382261,34.52805863348922,13.182591392065536,38.299473293007864
0.34,31.222212242662028,131.01039972474007,5.117579377337869,4.019339771238816,0.0007871574969313,29.898022638335373,0.0011220389395318,2.910051232417875,345.46563688075645,13.569536737955724,5.0878303926024735,71.99842423285973,5.519675040347761e-07,120.0000045987411,112.72655675097128,15.288,0,0.0,0.0398782837956187,1.1331556132162459e-09,-0.0003507224668667,5.37022358302301e-08,1.308298593306914e-05,4.019339848191799,33.76700548046532,13.5696603843662,30.039310197084795
0.35,31.22221201433324,131.01040019407705,5.2449575244483055,4.033762873683395,0.000813261106463,32.76415525156106,0.0011515840876071,2.902959820469776,370.5765700527033,13.934300103976534,5.227895396154902,71.99821502296155,6.495674834876441e-07,120.000004945438,118.8669740701126,15.288,0,0.0,0.040950312688979,1.2825853697215452e-09,-0.0003849609961885,6.072234695821837e-08,1.4746020857580124e-05,4.033762955530055,33.07785186209504,13.934427850732408,32.89250745069162
0.36,31.22221177990305,131.01040067594835,5.375631006350063,4.051723629010647,0.0008401329464575,37.01692984301412,0.0011797030485285,2.8957873473716007,407.8625232777193,14.282998147928636,5.362923567977223,71.9979856440668,7.600645476620651e-07,120.00000531213882,124.88900300695136,15.288,0,0.0,0.0419751331662584,1.4462801652534363e-09,-0.0004213876232777,6.84067806399068e-08,1.654507199147348e-05,4.051723715967022,32.44322602189087,14.283130115703262,37.13002398000203
0.37,31.222211539445663,131.01040117020102,5.509550188388412,4.071639898917391,0.0008674922629137,35.12417761390579,0.0012067983861697,2.88849906286036,391.1218908297666,14.620581431527652,5.494447309446232,71.99773482653193,8.846681943540367e-07,120.00000570002652,130.86067091914967,15.288,0,0.0,0.0429672939311924,1.6251202388969355e-09,-0.0004600660652957,7.679415042686734e-08,1.849041957573993e-05,4.071639991174516,31.85023865502424,14.620717696893658,35.24274792557624
0.38,31.222211292895075,131.01040167697127,5.646763233102716,4.08264881385344,0.0008930259828975,36.695642158537446,0.0012360471443664,2.880711738179021,404.8187610144602,14.986392916850402,5.634654729559426,71.99746126698146,1.0246533537040716e-06,120.0000061105033,137.4891296153862,15.288,0,0.0,0.0440424171304414,1.8200057922063743e-09,-0.0005010869196581,8.592980519823866e-08,2.0642694281337543e-05,4.082648911356968,31.228847973200924,14.986533193043764,36.808540518115166
0.39,31.22221104018777,131.0104021963902,5.787316652586672,4.096641430700089,0.0009192713382325,31.335681548387896,0.0012640110027448,2.872831219844713,357.64062493382744,15.337978856701952,5.770390286512262,71.99716358743511,1.1813915463769678e-06,120.00000654506955,144.01394309468844,15.288,0,0.0,0.0450757388736732,2.031886352449547e-09,-0.00054455673306,9.586443829735616e-08,2.295945663566148e-05,4.096641533664766,30.65298398882095,15.338123255506089,31.4670954954126
0.4,31.222210781536543,131.01040272801887,5.931064331106764,4.109028969993624,0.0009451871856381,29.95928076777898,0.0012920492774571,2.8646905607053603,345.465636880754,15.692185018814769,5.906873567965718,71.99684037970908,1.3563276523471372e-06,120.00000700500496,150.74021066990193,15.288,0,0.0,0.0461167659598875,2.2617341782092324e-09,-0.0005905037520737,1.0663253249436129e-07,2.5471259834659164e-05,4.1090290785164525,30.09246700352443,15.692333488470696,30.095929256306363
0.41,31.222210517064383,131.01040327160345,6.077922766619747,4.122888296344507,0.0009714525997821,33.78425365340317,0.0013192264430821,2.85640971467756,378.94687077668647,16.03742529732769,6.0405139809190125,71.99649020751959,1.5509747261474075e-06,120.0000074917568,157.44375780268788,15.288,0,0.0,0.0471314487675864,2.5105374204052982e-09,-0.0006389770219162,1.1827345344180344e-07,2.816813594418537e-05,4.122888410595805,29.56469007160549,16.037577892745222,33.904791300285986
0.42,31.22221024682894,131.0104038270252,6.227854084363214,4.14444025865494,0.0009995884754813,38.04468161607466,0.0013435485656724,2.8482703202464488,416.2328240017114,16.348862540904037,6.163613566771559,71.99611159893284,1.766920641656551e-06,120.00000800692096,163.6157044470786,15.288,0,0.0,0.0480467946810589,2.779304965995011e-09,-0.0006900467934588,1.308321832549104e-07,3.100973487310896e-05,4.144440378988911,29.104646754454564,16.34901955589459,38.15115260238947
0.43,31.222209970843565,131.0104043942566,6.380851271439565,4.1618082623168045,0.0010268052928652,33.45815353250911,0.0013687230309017,2.8397750580998298,375.9031395134336,16.67263197205097,6.290467308135904,71.99570306121484,2.005818691215035e-06,120.00000855220898,170.15779512382937,15.288,0,0.0,0.0489983878509763,3.0690566816849196e-09,-0.0007437862329608,1.443552931671376e-07,3.4086145072160934e-05,4.161808388761201,28.640125213458976,16.672793262249197,33.57845085853367
0.44,31.22220968892116,131.01040497368373,6.537047157143216,4.164954087655709,0.0010505545842624,30.86574023822051,0.0013980747538988,2.830419582421933,353.0750125389216,17.050421620730056,6.433992917638883,71.99526304125902,2.269416145406482e-06,120.00000912964636,177.9537948947602,15.288,0,0.0,0.050108743779844,3.380847125286677e-09,-0.0008003278134917,1.589055036683518e-07,3.750784460406397e-05,4.164954219916419,28.113519280259386,17.050586641458253,30.99524475496968
0.45,31.22220940081287,131.01040556582012,6.696617751072218,4.165241899529329,0.0010735835484822,35.912216710755274,0.0014280646808282,2.820677244966047,397.2093853562869,17.438293672974723,6.580571293039616,71.99478987454265,2.5595995397253085e-06,120.00000974147088,186.13940823302417,15.288,0,0.0,0.0512487363629523,3.7158016249566814e-09,-0.000859850913876,1.745604864109677e-07,4.121350642664912e-05,4.1652420376426775,27.591357195572936,17.43846231108416,36.02281959036367
0.46,31.222209106468902,131.0104061707686,6.859600379555308,4.174585124444534,0.0010989881252456,41.916816790010685,0.0014546917035209,2.811153314474766,449.7140588976434,17.786187321601275,6.714685486378061,71.99428180697711,2.8783880229668832e-06,120.0000103898448,193.6374175079873,15.288,0,0.0,0.0522712438446989,4.0751091178509895e-09,-0.0009224765531151,1.9138630415982226e-07,4.50966024037632e-05,4.1745852688465686,27.13985967570823,17.786359950252297,42.01097612387663
0.47,31.22220880579083,131.01040678873238,7.026066274755745,4.1823089530633855,0.0011240727220223,28.37640408484148,0.0014814747534716,2.801325368441072,331.0078106302534,18.138167428286582,6.849989708801916,71.99373704967608,3.2278903746588286e-06,120.00001107707628,201.37401505997488,15.288,0,0.0,0.0533057667609836,4.459978104761035e-09,-0.0009883252835099,2.094509673354327e-07,4.927107017839778e-05,4.182309103852639,26.69716826759888,18.13834399721685,28.514342615617974
0.48,31.222208499300592,131.0104074186346,7.195654207463586,4.189479568102716,0.0011490100608361,27.95074823096412,0.0015080719422187,2.7912412472910484,327.2031223011574,18.48995085190441,6.98515976370584,71.99315377257649,3.6103201777021456e-06,120.00001180491516,209.25751230436188,15.288,0,0.0,0.0543397174489847,4.8716620260348906e-09,-0.0010573190976925,2.2877013380347535e-07,5.373205427420879e-05,4.189479725385959,26.268461765425428,18.4901313379827,28.089773168283216
0.49,31.222208187201936,131.01040806005494,7.368224738812109,4.202723284133339,0.001175611380853,35.08821363242469,0.0015321405723077,2.781292092003844,389.60000969812296,18.812014261754847,7.111044804193205,71.99253015042137,4.027946338669921e-06,120.0000125755114,216.60722913930897,15.288,0,0.0,0.0552863302793499,5.311396446020465e-09,-0.0011294854492155,2.4938633613154685e-07,5.8398320167141767e-05,4.202723448262914,25.88860807032205,18.81219892635871,35.1982716047702
0.5,31.22220786953184,131.01040871291724,7.5437546994244835,4.220815778795054,0.0012036252596423,36.05491615971072,0.0015540388599792,2.7714444106710974,397.97031042210494,19.10875420627192,7.229005658018125,71.99186435180009,4.483102820610566e-06,120.00001339126192,223.4908652241728,15.288,0,0.0,0.0561585257949344,5.7804122391526605e-09,-0.0012048912160576,2.713531252030471e-07,6.327866493526626e-05,4.220815950099865,25.54902500917784,19.108943271285572,36.161276053538906
0.51,31.222207546379583,131.0104093770373,7.722184419225251,4.232567510615346,0.0012298790840397,27.54004661432325,0.0015777580800203,2.761017323676155,323.3984349720841,19.430597746636646,7.354673636736509,71.99115452520388,4.978202222778502e-06,120.00001425458936,231.07869697977367,15.288,0,0.0,0.0571045034845869,6.2799518101633574e-09,-0.0012835871653678,2.947201005874635e-07,6.854585242460463e-05,4.232567688976395,25.189423168613605,19.430790935591396,27.678103017910345
0.52,31.22220721775757,131.01041005248203,7.903524108825063,1.8189020224769703,2.6158181972247743,33.11369581309144,-0.1481734694435112,2.8960953363486044,372.0984511843415,19.461922845193865,7.48365645839845,71.99040172209178,2.5247030957774542e-05,120.0000359159374,231.8203294828748,15.288,0,1.2571452966994965,0.0571966816926816,6.8153004586553185e-09,-0.0013399792344442,3.647619526308519e-05,7.167140319570271e-05,3.185688358002506,27.467661386165563,19.872671881533957,33.24042981034115
0.53,31.22220688354775,131.0104107397123,8.087877782890478,1.8634459759797053,2.578410880070883,34.777060936794086,-0.1520374767790395,2.888886215179347,386.5562464348624,19.786748789286428,7.612048886437782,71.98962548236413,0.0001297351406517,120.00014614156164,239.6189815972849,15.288,0,1.2619812768028198,0.0581514342074102,7.391947717095377e-09,-0.0013759554791301,8.741152115585665e-05,7.482267432487977e-05,3.180925811133734,27.075560934740867,20.19162793353392,34.89717390219568
0.54,31.222206543645672,131.0104114389554,8.275319403359132,1.906545958494121,2.542322142043264,30.52005111008907,-0.1559457914358088,2.881487169987521,349.2703242098436,20.109640301229064,7.739782043086093,71.98882803379223,0.0003250328755245,120.00035186226089,247.49881639028013,15.288,0,1.2668058647049307,0.0591005076223869,8.010056305127334e-09,-0.0014143040388484,0.0001396882672894,7.816164162607925e-05,3.1774098449591737,26.69648815896563,20.50885629896928,30.656170784413348
0.55,31.22220619835143,131.01041214959818,8.465643225815278,1.9488455922610588,2.50818098769212,32.35761460896977,-0.1598518034175339,2.873940766217345,365.2500005919907,20.42481440330341,7.8650651800380516,71.98800800926189,0.0006134512427043,120.00065550867455,255.3129374287695,15.288,0,1.2716131276828455,0.0600269061495561,8.671199453497037e-09,-0.0014550478999882,0.0001932509739085,8.167216359307348e-05,3.1759320564221145,26.33654187869904,20.81867272902828,32.48538611913664
0.56,31.222205847670047,131.0104128716361,8.658849126349352,1.9908514822950367,2.476389399412485,30.18794099720784,-0.1637182818898075,2.866286115888858,346.2265619465787,20.727825446528225,7.986520307679216,71.98716401475677,0.0009972618341099,120.0010594703854,262.939609094741,15.288,0,1.2764027715645243,0.0609175642956758,9.376931996536515e-09,-0.0014982646308515,0.0002481192481791,8.534397453339686e-05,3.1770309337120466,25.999677492815906,21.116694685024463,30.324151784095527
0.57,31.222205491682505,131.0104136049078,8.854884024080736,2.030720645755965,2.4444679623261028,29.847302500210645,-0.1677044720906989,2.8583666419602154,343.1828296833023,21.03859076650036,8.11031518429083,71.98629462024365,0.0014787344495818,120.00156613508632,270.87794403426943,15.288,0,1.2811725045959887,0.0618310176002666,1.0128833701114582e-08,-0.0015440133465443,0.0003042881065539,8.92668305738831e-05,3.1775379398134644,25.66257921905363,21.422450420001983,29.984326758973776
0.58,31.22220513036964,131.01041434945847,9.053764658989456,2.0671584230895528,2.4108958206447086,39.35898895526047,-0.1719269315844343,2.850055151557017,426.1250058573153,21.37091388204524,8.240724675138217,71.98539835407264,0.0020601590599451,120.00217791187104,279.4977056840563,15.288,0,1.2859221640187564,0.0628078340277623,1.0928504966978984e-08,-0.001592374555859,0.0003617789099267,9.351525216907475e-05,3.175380312556114,25.310760500839017,21.749504769001238,39.46241737168462
0.59,31.22220476330898,131.01041510616562,9.255788915205626,2.105036839670047,2.3813296462687767,31.869197201725928,-0.1759805626206027,2.841768356007652,360.68438819711065,21.674866710522167,8.362281757049875,71.98447366708734,0.0027439744202706,120.00289736680992,287.4991101260026,15.288,0,1.290658927718354,0.0637012783387991,1.1777597427996836e-08,-0.0016435304510912,0.0004207291350415,9.789035222681531e-05,3.1779488634333206,24.997943614450293,22.04881741432584,31.996130185229
0.6,31.22220439072892,131.0104158745639,9.460801194751715,2.1378409911653846,2.3482347476175227,28.301049811179315,-0.1804234040775092,2.832914601219814,329.4859594986058,22.01815081608425,8.495956851789796,71.98351896139242,0.0035326511834107,120.0037270989119,296.67214293323684,15.288,0,1.2953781492825331,0.0647103216950036,1.2677859537783912e-08,-0.0016975119256879,0.0004810943098149,0.0001027048203716,3.1752182644573845,24.65243679318981,22.3869074126076,28.443055007460014
0.61,31.2222040125821,131.01041665475682,9.668838065689144,2.168845704552108,2.3153809441564555,33.19602935811782,-0.1849874944732483,2.8237657777044447,372.0984511843297,22.367559794655065,8.631464066749853,71.98253258268541,0.0044287184566926,120.0046697690556,306.1565974784484,15.288,0,1.3000804913030737,0.0657373727207159,1.3631060968778453e-08,-0.00175441773668,0.0005429090414033,0.0001078301207999,3.17211593718571,24.31007263740495,22.731160001095105,33.31642595905909
0.62,31.222203628993256,131.01041744649305,9.879816301927049,2.204961783786581,2.289892877690872,41.32321476579772,-0.1890757865087724,2.8149903775406133,442.86563930529206,22.65258178608508,8.746959153570906,71.981512818666,0.0054347621444993,120.0057280977728,314.0024411204122,15.288,0,1.304765809605998,0.0665751995264855,1.4639033245475512e-08,-0.0018143157392703,0.0006061732008667,0.0001129302402922,3.178502276555034,24.039295849441807,23.012181569203804,41.41941572570686
0.63,31.222203239772508,131.01041825016966,10.09387163962728,2.238158019710649,2.263049735766492,23.345184328007967,-0.193383838443337,2.805820235256088,286.11251274707894,22.95624887566278,8.868161148010781,71.98045794637503,0.0065532717936195,120.0069047047272,322.47090192103155,15.288,0,1.3094308670373391,0.0674678301291447,1.57035520119837e-08,-0.0018773347027617,0.000670946835801,0.0001184168169102,3.1824738677893274,23.75667915875634,23.311635475654448,23.513988513440513
0.64,31.22220284553839,131.01041906451613,10.310576818640758,2.2671845965361386,2.2337132950405807,22.91400487549497,-0.1980308090910322,2.796102418246963,282.30782441796754,23.291753029218484,8.999161918380388,71.9793661945682,0.0077867601822568,120.00820223326949,331.9586571452985,15.288,0,1.3140770526181702,0.0684540356349422,1.6826523793835214e-08,-0.0019433881854702,0.0007370716598642,0.0001243722375271,3.182294206521435,23.451026877737213,23.64253501954076,23.084822381142185
0.65,31.22220244627416,131.01041988957235,10.529947026885504,2.3000746216267385,2.209723018187994,40.65725738593223,-0.2023117142903153,2.786657362575532,436.7781447787475,23.57737679101993,9.11464107513916,71.97823577255068,0.0091376783358248,120.00962326263117,340.1429435180836,15.288,0,1.3186931642953477,0.0692936501302227,1.8009756229348466e-08,-0.0020125739117633,0.0008045821062629,0.000130376670869,3.1891371203111665,23.198129123966595,23.924393230212125,40.753146718162476
0.66,31.222202041451364,131.01042072643318,10.752353698023892,2.33089262109207,2.185166764736694,34.5494668727093,-0.2067529076877611,2.776873579822764,383.51251517160017,23.87393548340509,9.23343736448174,71.97706484272072,0.0106085017691198,120.01117039849036,348.7460153704193,15.288,0,1.323293524181234,0.0701654089051523,1.9255019977751693e-08,-0.0020851324642776,0.0008736436607248,0.0001367731833817,3.194585961301629,22.94086027081388,24.217097471898335,34.661497873455964
0.67,31.222201631267826,131.01042157469607,10.97766271305905,2.3579161813079974,2.1584981818121145,23.716690631305607,-0.2115174787839834,2.7665399513492632,289.1562440103425,24.199379045408715,9.361114831187432,71.97585146731076,0.0122018781575128,120.01284642694146,358.31110679662726,15.288,0,1.327878732279553,0.0711220671229233,2.056430004121404e-08,-0.0021610958785871,0.0009442178786652,0.0001436852375238,3.196287274950762,22.66412254132632,24.538354951889318,23.878440012850543
0.68,31.22220121590349,131.010422433995,11.2057524010158,2.384887511734976,2.1331423760824646,29.669517250670445,-0.2162748206846654,2.756049959843881,340.8999924858462,24.516058569294504,9.486006665151608,71.97459366891356,0.0139204464417465,120.01465412507912,367.7423223014426,15.288,0,1.3324327858973832,0.0720529748580323,2.193959231020485e-08,-0.002240505684235,0.0010162782604334,0.0001509110639578,3.1992743541470885,22.40129187445117,24.851054388073823,29.79803416447214
0.69,31.22220079544469,131.01042330415703,11.436566243018484,2.413858135237392,2.110825972080609,36.58797389414335,-0.2208328951446122,2.745656144339353,401.0140726853634,24.80299946563106,9.601612251215895,71.97328944202688,0.0157668054444753,120.0165962280868,376.392616734276,15.288,0,1.3369677643743587,0.0728964872354936,2.3382881587244253e-08,-0.0023234228948126,0.0010898170561471,0.0001583241711912,3.206191000448701,22.16905668521379,25.134492235717637,36.69151439378105
0.7,31.222200369750524,131.01042418547735,11.670205788735144,2.4418428203421367,2.0887947944201435,30.64608237923561,-0.225467532094121,2.735013418196345,349.27032420985284,25.091015677562,9.71747913167944,71.97193671076649,0.0177435306893465,120.01867544962133,385.1761853082118,15.288,0,1.3414856178543626,0.073743166738523,2.4896118569094403e-08,-0.0024099869442191,0.001164894276101,0.0001661261279025,3.2129453681557023,21.94066507160347,25.41905012214942,30.76870974221438
0.71,31.222199938879555,131.01042507784,11.906633823647468,2.467111193850866,2.065537030494037,25.138551392348926,-0.2303477646683133,2.7238899313409126,301.33126406340574,25.398333559853263,9.839256357258977,71.97053345292022,0.0198532380372443,120.02089453810903,394.66037937659024,15.288,0,1.3459736692678563,0.0746465813292995,2.6481330985823865e-08,-0.0025002689896162,0.0012415084299937,0.0001744564809037,3.217210517598681,21.701499913209087,25.722717083982637,25.28674361313683
0.72,31.22219950283598,131.01042598124107,12.145850997561906,2.489228759776488,2.040790269319815,30.836267379124862,-0.2355257424006124,2.712204957626069,350.79220534145287,25.729644782821,9.968399880099929,71.9690774619932,0.0220986215390677,120.0232563321062,405.01460874814194,15.288,0,1.3504415426500551,0.0756205205663217,2.8140598710930725e-08,-0.0025943688891687,0.0013196823665068,0.0001833794612435,3.2184567477588706,21.44875900598963,26.050143590360182,30.956209619144023
0.73,31.2221990616186,131.01042689568794,12.387861811578448,2.5160643944101406,2.020954354404708,39.07705432882703,-0.2402456909181864,2.7009768616681087,422.320318528234,26.004029985656505,10.079822688800682,71.96756648854557,0.0244824647647265,120.02576376199848,413.68934048135,15.288,0,1.3548921799340734,0.0764271590233546,2.987606283633504e-08,-0.0026923966798055,0.0013994468633414,0.0001923334339234,3.226795719796659,21.2451248406532,26.321414932098754,39.17102461025714
0.74,31.222198615162405,131.01042782131884,12.632714964735772,2.540352153343542,2.0000017738427687,24.36666628803165,-0.2452058906525711,2.689263487160946,294.48281347105944,26.29662745513346,10.196816862538908,71.96599827838706,0.0270074501320325,120.02841965210315,423.04143833632446,15.288,0,1.3593204337014355,0.0772873312829141,3.168982978029724e-08,-0.0027944635481966,0.0014808298145953,0.0002018660904285,3.2327657680370336,21.0316431137188,26.6107232039208,24.515845692622676
0.75,31.2221981638498,131.01042875735007,12.880148029326412,2.562736797791745,1.9784657905987864,28.49126273507412,-0.2503531738787994,2.677123672589203,330.24688556441487,26.60124588574829,10.31746633791052,71.96437052327674,0.029676281549167,120.03122684910868,432.8888884347843,15.288,0,1.363718796810787,0.0781828409789085,3.358414397153044e-08,-0.0029005107644444,0.0015637255727417,0.0002119488229843,3.237180235116817,20.813538779290383,26.91196080884319,28.617856665184274
0.76,31.22219770756508,131.0104297040243,13.130244971086212,2.586398718880698,1.9588015572648247,30.689343603440246,-0.2553726313731914,2.665000901227073,349.27032420986166,26.88497988473448,10.431566337967553,71.96268087967033,0.0324916399294878,120.03418817632226,442.16206967689055,15.288,0,1.3680968403031584,0.079016977137241,3.55611229645354e-08,-0.0030106921898437,0.0016481976622137,0.0002223413259695,3.2440337746696626,20.61487183985121,27.192607780388112,30.80589644523292
0.77,31.222197246248687,131.0104306614683,13.383050664543036,2.609870988572521,1.9398093184991367,28.679199938084903,-0.2604099561727701,2.652693317997796,331.7687666960708,27.163131663567988,10.543860071214116,71.96092694606344,0.0354562355135971,120.03730648811448,451.3476510230757,15.288,0,1.3724550452535704,0.0798347138322773,3.762294022214464e-08,-0.0031251348328481,0.0017342853082436,0.0002331751013691,3.251412572531874,20.423860971307004,27.46777799173525,28.802796813387292
0.78,31.22219677997032,131.0104316295424,13.638520095060352,2.630900511942243,1.919791598832565,23.51000003146424,-0.2656978675480745,2.6398573829297134,286.8734378128899,27.459387918250727,10.661694315090626,71.95910623027855,0.0385727961053145,120.04058466005117,461.2353225133156,15.288,0,1.3767887686582587,0.0807056683373267,3.977184426726935e-08,-0.003243901444275,0.0018219779636974,0.0002446703959015,3.256477610251838,20.22376491554287,27.7608916537579,23.65923802320093
0.79,31.22219630882464,131.01043260805557,13.896590965768944,2.650253431997998,1.899334457767493,33.51824328971246,-0.2711670732675832,2.6265809433517378,373.6203323159534,27.76614418554373,10.782711943538157,71.95721629950835,0.0418440588760076,120.04402557013948,471.5863654901025,15.288,0,1.381093866733468,0.0816074908513333,4.2010111843736e-08,-0.0033670519269854,0.0019112640384395,0.0002567896685394,3.2601750336795803,20.02036361754924,28.064436305367067,33.6220923242733
0.8,31.22219583257817,131.01043359749255,14.157428999771748,2.6724613447936254,1.8816653143790103,33.964629167518126,-0.2763440235790618,2.613572607463816,377.42502064505743,28.03595042334743,10.892190157028974,71.95525451685842,0.0452728634609929,120.04763221253248,480.7837484219672,15.288,0,1.3853806238690014,0.0824007210203985,4.43399805942668e-08,-0.0034948189998354,0.0020022556157303,0.0002691170730509,3.2680492279767077,19.84558651507768,28.331468591313897,34.06615860763987
0.81,31.222195351340783,131.01043459763082,14.420961277529146,2.691808509253165,1.8626789795343592,22.031643412196235,-0.2818279923072323,2.599934471384783,273.9374926939919,28.328776808253902,11.008734088813272,71.95321824590518,0.0488620208767743,120.0514075487018,490.8670344499996,15.288,0,1.389646839640713,0.0832616173161636,4.67638359234526e-08,-0.003627240907784,0.0020949219781567,0.0002822243695848,3.273049462997814,19.65870338734514,28.62131420171458,22.18631104340946
0.82,31.22219486531372,131.01043560805945,14.687051477878343,2.7096106375191744,1.8433253403311665,28.359373634409348,-0.2874906130483041,2.585847664155658,328.72500443277005,28.631186820494868,11.128178053822088,71.95110480056321,0.0526143422705896,120.05535454052946,501.3901812614389,15.288,0,1.3938905925882756,0.0841506886558466,4.9284108874625947e-08,-0.0037643222798422,0.002189211501559,0.0002960092885521,3.2767826402014983,19.46909717093614,28.9206857411552,28.478471376301822
0.83,31.22219437448016,131.01043662881665,14.955714711338947,2.731162549170008,1.8271502907293315,36.09609024600925,-0.2927546116767945,2.5722052683927727,395.68750322465047,28.88745040515809,11.23322567438572,71.94891139518946,0.056532666441032,120.05947618216167,510.3925703022617,15.288,0,1.3981102480468066,0.0849041371899604,5.1903175476658114e-08,-0.0039061922112668,0.0022851595821425,0.0003099065872115,3.285604650282242,19.31219122654267,29.174409858257043,36.18880595230311
0.84,31.222193878727992,131.0104376601363,15.2270320638639,2.751313557763421,1.810603753070976,22.21993366304598,-0.2981750574945326,2.558150769560636,275.4593748256452,29.151920073790887,11.340741414872047,71.94663534717937,0.0606197403471173,120.06377536399133,519.7672734336631,15.288,0,1.402303892241994,0.0856817117259827,5.462336102514821e-08,-0.004053006075267,0.0023828156932639,0.0003244898286666,3.293249447130313,19.152635617658618,29.436281712390965,22.368694546505825
0.85,31.22219337837255,131.01043870137235,15.500787974111285,2.7673377079280885,1.7919400562595065,24.24588027732672,-0.304066564968885,2.543173032824418,292.96093233939376,29.453740215762643,11.459777428826316,71.94427380874872,0.0648783225321336,120.06825499623604,530.5717080253572,15.288,0,1.4064735204143657,0.0865690721875146,5.744720489823799e-08,-0.0042046860610442,0.0024820746192568,0.0003401099034853,3.296469275305011,18.97281667758066,29.735171616391412,24.380789486259015
0.86,31.22219287322893,131.01043975290852,15.777114084337468,2.785503169539941,1.7752499168514004,30.40535406620373,-0.3097317003234756,2.528378018025684,346.2265619465587,29.726533106637408,11.56972661554742,71.94182387126713,0.0693112635556103,120.07291808432592,540.4309131550331,15.288,0,1.4106220207613347,0.0873711248465986,6.037707415461479e-08,-0.0043614674444312,0.0025830387585065,0.0003560496990263,3.302734733729737,18.81369461067292,30.00534409647827,30.511869575944253
0.87,31.222192363323725,131.010440814693,16.05599522816597,2.804439211834031,1.7595773475340086,28.300871348596672,-0.3153181162078908,2.5135368410850902,327.964078366998,29.98480575176193,11.675090205994303,71.93928254636705,0.0739213943584737,120.07776761590104,549.8478190198466,15.288,0,1.4147491909690488,0.0881305075469262,6.341546336518044e-08,-0.0045234446332413,0.0026857151856434,0.0003724711268171,3.3103653348920217,18.665741068985664,30.26115607136739,28.414021398874905
0.88,31.22219184869568,131.01044188664864,16.33740768063113,2.821055680416723,1.74296252181876,24.43581366124235,-0.3211833794988228,2.498061434568459,294.4828134710418,30.26165722060804,11.786146516530836,71.93664692412875,0.0787115036668985,120.08280652689716,560.0331116220777,15.288,0,1.4188540475529805,0.0889445041014353,6.656488748683952e-08,-0.0046906878084619,0.0027900952253632,0.0003897979883796,3.3156926970682137,18.5092333328752,30.535398908527725,24.565269365124063
0.89,31.222191329432608,131.01044296859737,16.621293762821423,2.8353720554867574,1.7254546875768055,26.81649796506918,-0.327335224406455,2.4819239500318413,315.028134248087,30.557191453905183,11.902931145488076,71.93391386843477,0.0836844309096606,120.08803781739364,571.0094815897329,15.288,0,1.4229362581205582,0.0898134205433442,6.98279223147329e-08,-0.0048632637169591,0.0028961686925728,0.0004080747955676,3.318749421630899,18.34459056114418,30.82818427730416,26.933095959310698
0.9,31.22219080545486,131.01044406070568,16.9077119356244,2.853794557432046,1.710925218714806,29.638514572312825,-0.3330159707584759,2.466392425498465,339.37814235421445,30.80257098916246,12.004059805953563,71.93108030574166,0.0888430651933242,120.0934645301854,580.2009522202753,15.288,0,1.426996139647437,0.0905349304325011,7.320709445507026e-08,-0.0050413505102979,0.0030039935980091,0.0004264031758051,3.327008752001437,18.210966418118147,31.07128255506987,29.742823290443294
0.91,31.222190276838344,131.01044516281962,17.196612606465848,2.869931568153325,1.69546198771798,22.512683994624485,-0.3389803807855865,2.4501993530911625,277.7421810230789,31.06662558368525,12.110912721803132,71.92814305296358,0.0941901948452611,120.09908961014088,590.1747430586418,15.288,0,1.4310302704143345,0.0913113374636159,7.670501558888835e-08,-0.0052250003119293,0.0031135485854177,0.0004457126126839,3.332970734096744,18.068851308248,31.332909264056788,22.648163837500544
0.92,31.222189743798943,131.01044627449758,17.487849358476872,2.8838158886652288,1.6791244339954798,26.83227356425012,-0.3452346955433071,2.4333199505489644,315.02813424806214,31.34928495768952,12.223473897486231,71.925098861493,0.0997286231344892,120.1049160183804,600.9461878496982,15.288,0,1.4350406187773033,0.0921424355188785,8.032441833420294e-08,-0.0054141681884194,0.0032247568720549,0.0004660384558676,3.336685712448288,17.91872273900841,31.61300345384056,26.944593847440014
0.93,31.222189206240603,131.01044739593902,17.781491753150252,2.901528225433992,1.6654355257799731,31.94698845336145,-0.3510319354686931,2.417044733553764,359.1625070654728,31.58460142209032,12.321246624324564,71.9219445450097,0.1054611379013755,120.11094669282194,609.9845837174665,15.288,0,1.4390292619472158,0.0928343898879409,8.406780913611838e-08,-0.0056090601602479,0.0033376902783981,0.0004864247039883,3.345171136658699,17.79641256640371,31.84617058537207,32.04021535356666
0.94,31.222188664046456,131.01044852738568,18.07762349439568,2.91495716657474,1.6496962089600449,23.14156303461621,-0.3573750647743653,2.3996286773548414,283.0687504837787,31.86068014820304,12.4316124071964,71.9186767312248,0.111390494840633,120.11718454875044,620.6771985249577,15.288,0,1.4429961589555715,0.0936461615096818,8.793775601831263e-08,-0.005809844222592,0.003452394292455,0.0005082264964691,3.3490482660350263,17.654090444926034,32.119778019914776,23.268387877358876
0.95,31.222188117525768,131.0104496682041,18.376033664750885,2.928522113207795,1.63444802660335,30.020976593874465,-0.3637202714325278,2.382011154696737,342.4218736174873,32.12973456523153,12.539723258561835,71.9152920937469,0.1175195180282459,120.12363256324257,631.186257102669,15.288,0,1.4469397179431562,0.0944372947912704,9.19371321355434e-08,-0.0060164285806984,0.0035687673958101,0.0005307270572222,3.3534065143180025,17.517607005105315,32.38643824166422,30.117524885470072
0.96,31.22218756636587,131.01045081903783,18.67694133407488,2.9438542913534085,1.6205701891442,29.40979769725976,-0.3698559923827303,2.3645743711653178,337.09533515678345,32.37370864709762,12.63995863415513,71.91178710385074,0.1238510281885735,120.13029372159691,640.7898375503976,15.288,0,1.450863047698462,0.0951547184812679,9.606839841678993e-08,-0.0062291738570862,0.0036869625570768,0.0005536504799502,3.3600914104838497,17.396011822878744,32.62823327732033,29.50701960560603
0.97,31.222187010588144,131.01045197984428,18.980334499163074,2.9577447708657507,1.60626313072841,18.7444540794112,-0.3761923753645473,2.346584068027,245.02188719299323,32.62779836477332,12.7432625078193,71.90815826365754,0.13038787385952,120.13717103089614,650.8690077729401,15.288,0,1.4547657698609535,0.0959018823095195,1.0033432698967236e-07,-0.0064481819781708,0.0038069840834942,0.0005775973271944,3.365418694090327,17.27088067999143,32.880076538483515,18.8945107432491
0.98,31.2221864505,131.01045314999368,19.286003558107048,2.9674846614649666,1.5900865335546397,27.3925578702144,-0.3830960768810103,2.3273560063383214,319.5937466429581,32.922267133978465,12.859056960113223,71.9044020317028,0.13713287011083,120.1442674635024,662.6508690743577,15.288,0,1.4586452436884425,0.0967677390477798,1.0473794990105709e-07,-0.0066733102349508,0.0039287042229055,0.0006031403996211,3.366315364428765,17.12730751781416,33.172005282199336,27.493918877770145
0.99,31.222185885943635,131.01045432981144,19.594060430192503,2.983282996685048,1.5775073862641753,29.956668279067376,-0.3892113835001294,2.3093714803721808,341.6609485517054,33.14417061569596,12.952200626360852,71.90051464434012,0.1440889137092755,120.151586086868,671.5939343860249,15.288,0,1.4625044323188212,0.097420314000151,1.092819085319138e-07,-0.0069048515066235,0.0040522329472541,0.0006282550948743,3.3743529153785423,17.021642390178666,33.39193359094632,30.04807242598906
1.0,31.222185316917336,131.01045551930133,19.90450872723668,2.995035402889344,1.563114333147713,26.785125011370702,-0.3958851542370565,2.29015441970812,314.2672081822764,33.40539588595124,13.05750520707812,71.89649250090699,0.1512587032229595,120.15912975290397,682.2016251400768,15.288,0,1.4663421733569193,0.0981884746635314,1.139690001790436e-07,-0.0071428855517507,0.0041775613586729,0.0006550159646648,3.3780671265955973,16.8980830684807,33.65089885477722,26.88576675856968
1.01,31.222184743613106,131.0104567180707,20.217218699759364,3.0070836871664626,1.549207288291806,28.02615258622571,-0.4025360339343517,2.2707714366052056,324.9203161036979,33.657943984795246,13.160038361951024,71.89233182533864,0.1586450582726705,120.16690144402716,692.5348396575944,15.288,0,1.470157930487647,0.0989311383368737,1.1880221927820389e-07,-0.007387390274648,0.0043046291922662,0.0006825384994999,3.382364758086098,16.780354497124762,33.901263245807364,28.12087599919895
1.02,31.2221841659494,131.0104579262872,20.53224911235461,3.019791521624197,1.5359514118585589,23.351006827993807,-0.4091102797916034,2.251326042508952,284.59063161540416,33.89766266532966,13.258504531958428,71.88802882833053,0.1662507125424219,120.17490405344869,702.4134614566185,15.288,0,1.473952649065082,0.0996361000881793,1.237843087214525e-07,-0.0076385569947333,0.0044334869970681,0.000710749336339,3.387639681718755,16.670205675390104,34.13890045275423,23.46285063780025
1.03,31.222183583998408,131.0104591438031,20.849552593703063,3.029604562828536,1.5215357879741715,19.02671394677895,-0.4161062171442838,2.230865263224341,247.30469339049705,34.16448799858457,13.365341466664509,71.88357967905335,0.1740783530270247,120.18314042629883,713.493328558346,15.288,0,1.4777256475747147,0.100420744856017,1.2891818257922298e-07,-0.0078964298989919,0.0045641081249375,0.0007405047541522,3.3898992409186484,16.54876453223034,34.40346219108555,19.161569555210235
1.04,31.22218299782513,131.01046037048573,21.169086926169275,3.0415780263745007,1.5085058827459032,30.427876925413145,-0.4228138283811523,2.210741629934616,345.46563688072297,34.401684286537325,13.46288076824186,71.87898042739641,0.1821307532034226,120.19161349920913,723.4127625461541,15.288,0,1.4814774738672496,0.1011183079009011,1.3420678452569614e-07,-0.0081610939839958,0.0046964879954968,0.0007706140210068,3.394797312563134,16.442568440412394,34.63861246179608,30.51101185270469
1.05,31.222182407127743,131.01046160695284,21.49106215231204,3.0511453897630068,1.4945776866693468,18.23735352368745,-0.4298837486329679,2.189700151315028,240.45625879819983,34.66061300457878,13.56711710381658,71.87422709772342,0.1904106124988749,120.20032613254412,734.3207535271778,15.288,0,1.4852102068819943,0.1018797580536885,1.396527037179237e-07,-0.0084329521432965,0.0048307773419186,0.00080225284466,3.39722513688652,16.327757701329183,34.89535409517796,18.373367963929827
1.06,31.222181812156364,131.01046285269248,21.81530848714753,3.0586099230030266,1.4799256702668346,26.10815664690652,-0.437287718382956,2.1677764845451284,308.17968365593924,34.938251579630915,13.677118064818483,71.86931555360134,0.198920754791164,120.2092813184088,746.1087508045023,15.288,0,1.4889222648285936,0.1026962114368188,1.4525924191946524e-07,-0.0087118901082169,0.0049668696688066,0.0008354018282448,3.3975275852718134,16.20606374953493,35.170691912211794,26.201647256136482
1.07,31.222181212788136,131.010464107956,22.14191285462461,3.06992351226236,1.4674183760158912,30.799757630189568,-0.4441428948829015,2.14670741428858,348.5093681440308,35.16668501574821,13.771711341038635,71.86424155940769,0.2076640489596586,120.21848209719802,755.8733563128097,15.288,0,1.4926157934716706,0.1033680412420146,1.510292761707032e-07,-0.008998201864492,0.005104859124705,0.0008684711665919,3.402305977357697,16.10771253343256,35.39716135695523,30.877672932267046
1.08,31.222180608915806,131.01046537296205,22.47095099642933,3.080070133414277,1.4546112641625384,20.634047184912543,-0.4511871228738116,2.1250423453696223,261.00157857466235,35.40295597968675,13.868673877118464,71.8590008257563,0.216643260431535,120.22793140503109,766.0400900673277,15.288,0,1.4962910338456457,0.1040629163694825,1.569657661134364e-07,-0.009292103615293,0.0052447973816098,0.0009028343709498,3.405978166088627,16.007003685103903,35.63142123847805,20.748090948775467
1.09,31.222180000829216,131.0104666471173,22.80222585290911,3.08542904939424,1.4398221209282516,18.95621812244596,-0.4589816487536037,2.101637070086598,246.54375332474407,35.68907118714027,13.981118125657009,71.85358912388214,0.2258611277467217,120.23763214156044,778.447127630999,15.288,0,1.499945818670744,0.1049043112701759,1.6307218700793605e-07,-0.0095934061802049,0.0053865438771675,0.0009396124756347,3.4045492738525907,15.886003635585723,35.91521411377409,19.077886361806524
1.1,31.222179388608023,131.01046793025856,23.13568497788936,3.0928139575226927,1.4262578865981663,38.340830312823336,-0.4664932758476264,2.0785562517398883,413.1890617385841,35.946800094734165,14.08464686782328,71.84800200699003,0.2353204135928043,120.24758724220004,789.7055534710246,15.288,0,1.5035808695820745,0.1056622761808253,1.6935169752862146e-07,-0.0099021935552954,0.0055300904404193,0.0009768287506368,3.4055445226544427,15.778687244249909,36.17081302282512,38.39996459822289
1.11,31.22217877182707,131.01046922325338,23.47162206481545,3.104608851566344,1.414964033686266,27.99150182807951,-0.4733275646308892,2.056624111248128,324.1593910376397,36.14783338638986,14.17040878168695,71.84223492734345,0.2450239073649149,120.25779967222093,798.5373773034061,15.288,0,1.5071996656715936,0.1062535976505506,1.7580686334929448e-07,-0.0102190885967026,0.0056756751103353,0.0010136947760338,3.4115626048876595,15.69637875084196,36.37007282549079,28.070944343035293
1.12,31.22217815055094,131.0104705259679,23.809994287158023,3.107337899278828,1.399794978673561,10.375990493574532,-0.4816218815019145,2.0314516052474967,172.73281794065943,36.44906192204865,14.287379360458514,71.83628343368723,0.254974266048881,120.26827225198956,811.8752476583811,15.288,0,1.510800631663099,0.1071394433849515,1.8244101642094898e-07,-0.0105441131386612,0.0058232525983686,0.0010546177328273,3.4077930243186807,15.573348362079898,36.6689193303599,10.583946994574054
1.13,31.22217752540283,131.01047183712967,24.15037692374128,3.1145680920362,1.386912077172708,33.050742320561,-0.4892209810791178,2.0074572944355498,367.5328077900705,36.69276099490352,14.386334125652784,71.83014277428933,0.2651744115159145,120.27900808283135,822.7410650292371,15.288,0,1.5143813820158432,0.1078561938943194,1.89258328726704e-07,-0.010876736565678,0.0059725349052499,0.0010951244100473,3.409129569423882,15.47547786183326,36.91059536013928,33.115265209528864
1.14,31.22217689568222,131.01047315816615,24.49325125720518,3.1249170067917404,1.3756345306726858,18.173967403984825,-0.4963216476964117,1.9842628831951363,239.69531773195544,36.89416964302248,14.472005491523456,71.82380825904332,0.2756269204279798,120.29000991333167,831.7706040211793,15.288,0,1.517946672595513,0.1084486422892389,1.9626087800400974e-07,-0.0112179228212077,0.0061239027956361,0.001135639113252,3.4140298556390847,15.39570018923138,37.11023305015064,18.28870486307603
1.15,31.222176261900824,131.0104744880313,24.83826839271483,3.1259884828967244,1.3605120276444058,17.910454465404555,-0.5049780084417493,1.9575405378383035,237.41251153546767,37.199974241603165,14.590239983058115,71.81727528260491,0.2863343047789144,120.30128041482897,845.5883138326243,15.288,0,1.5214921809926183,0.1093479659918977,2.034527697565503e-07,-0.0115671301097689,0.006277062971317,0.0011806577456502,3.4089529104533898,15.275042291621554,37.4136628886385,18.024187829237132
1.16,31.22217562420325,131.01047582642963,25.18533162592633,3.136651956435124,1.3497767065422877,47.34162371351536,-0.5120434595558838,1.9339230355222807,490.0437743845894,37.38688675702794,14.671257607793784,71.81053888722215,0.2972993349862961,120.31282253733872,854.0785614234096,15.288,0,1.5250147972775747,0.1098978189389314,2.108374158346668e-07,-0.011924410703982,0.0064319926998012,0.0012232001075822,3.41447831216723,15.202696314759049,37.59888957541022,47.38387471117023
1.17,31.222174981667727,131.01047717523593,25.53507167486618,3.142282680025188,1.337077515437526,8.163730622381756,-0.5199697842774709,1.9082210892077929,153.70937929486794,37.62791011920205,14.769116308552125,71.80359429948429,0.3085244337351659,120.32463886664912,865.0970304204058,15.288,0,1.5285231732395137,0.110606737640322,2.1841655915885418e-07,-0.0122910321730775,0.0065891851251076,0.0012688934207951,3.414663071191453,15.109810698289875,37.83791870162792,8.399891307432053
1.18,31.22217433550648,131.0104785319792,25.88666219063648,3.141239174259874,1.3217785419596089,22.884966599247967,-0.5290798782214405,1.8796880303763497,280.02501822196746,37.944181794784726,14.890473624263146,71.79643653184355,0.3200121866467673,120.33673215879882,879.671137094765,15.288,0,1.5320099665196991,0.1115368565508507,2.261957560036829e-07,-0.0126655158461732,0.0067479551789795,0.0013184998951149,3.407745763426927,14.989066480649775,38.15178786695356,22.968126803415508
1.19,31.222173685171768,131.01047989777302,26.240478820830543,3.154004344749437,1.3124849131887348,40.187131529244645,-0.5357841095750315,1.8561006872382368,428.4078130529292,38.08882130364238,14.958065630760032,71.7890603938167,0.3317652527991767,120.34910525399457,886.3602342987039,15.288,0,1.5354813786329276,0.111962471198911,2.341771507389885e-07,-0.0130488699793419,0.0069086841344289,0.0013635394296848,3.415936131111088,14.934922507576356,38.29496792173664,40.2335396767678
1.2,31.222173030190696,131.01048127357498,26.596844175474025,3.1551128850207664,1.2985312794434705,3.90509184963524,-0.5445600040048933,1.827730692674832,117.1843741360236,38.36846122179666,15.067844961208268,71.78146105015148,0.3437858391352305,120.36176051087136,899.3921534331665,15.288,0,1.5389378372298868,0.1127849291298141,2.423633458352396e-07,-0.0134417553705306,0.0070715899469848,0.0014148577122039,3.411629524334296,14.830277512609964,38.5724165771807,4.345904674172572
1.21,31.22217237177978,131.0104826569094,26.954931190038,3.156519066872152,1.2849209284058238,32.21649358953326,-0.5533112928133461,1.7991158602493966,359.92343213200894,38.63988453478359,15.175020989588027,71.77363308050509,0.3560765825054579,120.37470075096653,912.1306118881556,15.288,0,1.5423735444616844,0.1135832428976026,2.5076015126394496e-07,-0.0138426474189563,0.0072359925926104,0.0014673118854153,3.407779876181856,14.72994510063038,38.84170252452692,32.271433659969205
1.22,31.222171709009928,131.01048404966176,27.315373378151445,3.1674926712923908,1.2753777616599686,23.256705263893537,-0.560314853672976,1.7741026830689453,283.0687504825761,38.78878846742592,15.243748630739976,71.76557138138845,0.3686397822544837,120.38792843312778,919.1423651175376,15.288,0,1.545795514666125,0.1140214148469271,2.593688257509111e-07,-0.0142531014814763,0.007402480495612,0.0015165893893837,3.41437267873706,14.675554446960804,38.98910779418927,23.331003681730717
1.23,31.22217104224936,131.01048545107935,27.67792045484133,3.167415914557236,1.2615625897524747,8.875452162680132,-0.5693637174860612,1.7442483335245482,159.79687382222795,39.06749167450797,15.353102901221032,71.75727081308625,0.3814774745894021,120.4014457510398,932.3656937621082,15.288,0,1.5491997807601687,0.1148411455371753,2.681936487464809e-07,-0.0146725951895195,0.0075707856175258,0.0015723881406664,3.409170290369511,14.574280021063965,39.26564145094227,9.063124647924475
