Time,Latitude,Longitude,Altitude,Angle of Attack,Angle of Sideslip,X-Acceleration,Y-Acceleration,Z-Acceleration,Thrust,True Velocity,Ground Velocity,Pitch,Roll,Yaw,Dynamic Pressure,cp,parachute_deploy_gain,Wind Speed,Mach,omega_x,omega_y,omega_z,Cmq,Angle of Attack(total),Angle of Attack(gust),True Velocity(gust),Acceleration
0.0,31.222186000000004,131.010384,3.000000003643237,0.0,0.0,0.0,0.0,0.0,2.2828121974499247,0.0,0.0,69.99999999623421,0.0,113.69999999388332,0.0,15.288,0,0.0,0.0,0.0,0.0,0.0,-0.0,0.0,90.0,0.0,0.0
0.01,31.22218600000153,131.01038399999584,2.99999882256592,0.0,0.0,0.0,0.0,0.0,34.24218696174923,7.502283530665459e-11,7.190531319924593e-11,69.99999999623329,-4.83564628150269e-13,113.69999999388072,3.446445726795683e-21,15.288,0,0.0,2.204725565824978e-13,-3.659182332138578e-19,7.589415207398531e-19,4.811147140404426e-19,-1.5108918610345807e-31,0.0,89.9999999995224,7.502283530665459e-11,0.0
0.02,31.22218600000288,131.01038399999217,2.999997775701936,0.0,0.0,0.0,0.0,0.0,25.871876237766408,1.5320717031631675e-10,1.4674636035870463e-10,69.99999999623222,-9.67129256300373e-13,113.69999999387804,1.4372842949972735e-20,15.288,0,0.0,4.5023593667086093e-13,-7.284483346386986e-19,1.5178830414797062e-18,9.757819552369542e-19,-6.170906918166791e-31,0.0,89.99999999902465,1.5320717031631675e-10,0.0
0.03,31.22218599928065,131.01038400193067,3.000201659671132,18.81500467334555,-0.00012974450181,11.96616230539064,-1.8916256735984712e-05,3.349833086198469,180.34219359854663,0.0882870268161719,0.0553390044312322,69.99999999799445,-4.212591857125379e-12,113.69999999488518,0.0047728553458352,15.288,0,0.0,0.0002594525584132,3.2187251995663407e-17,-7.20264389268894e-10,1.2365134327422308e-11,1.6874092354518158e-13,18.815004673776716,89.46786891739345,0.0882666465974854,12.426199017587786
0.04,31.22218599548236,131.0103840121632,3.001799604587872,9.46752327608497,-4.6177622759613696e-05,55.21900012092241,3.931876292165237e-06,3.349616504302861,548.6359724538078,0.3767519978512604,0.1853356633749705,70.00000000507204,-2.4624598767003407e-11,113.70000000019972,0.086915163246288,15.288,0,0.0,0.0011071759353184,1.6174128009138757e-15,-1.3693172015529268e-08,2.7753303060112748e-11,1.3689612277852356e-11,9.467523276196548,87.63554493451223,0.3767447442872393,55.32050167054111
0.05,31.222185984749512,131.01038404118162,3.00777936418888,5.376730308971262,-2.257790939128127e-06,80.28807156553681,5.266841443842784e-05,3.348887800834877,761.6984298824644,1.018787885905993,0.4366201147110198,70.00000000894464,-1.1355399380652658e-10,113.70000001523856,0.635552918586145,15.288,0,0.0,0.0029939522895272,1.6418815498809788e-14,-9.32122351075408e-08,4.303264669380585e-11,2.5199270302492604e-10,5.3767303089717045,83.57022052969386,1.0187875312530217,80.35788377762394
0.06,31.22218596447235,131.01038409608267,3.0201664202003013,4.296730121134882,2.4863835723705905e-05,60.21296515808257,0.0001057204249726,3.347700952379021,590.4875390737208,1.721098934225416,0.7081674028809783,69.99999995523842,-3.0560354507026086e-10,113.70000004366592,1.8138247671743823,15.288,0,0.0,0.0050578622752421,8.328976953118383e-14,-3.2824985336199985e-07,5.923438275930214e-11,1.4991363363716091e-09,4.296730121206683,79.20467073327266,1.7211028398275985,60.305955550063224
0.07,31.22218593493329,131.01038417609837,3.038741944736831,3.8204913578752526,4.8016684030909405e-05,91.4060317508128,0.0001597686613101,3.346072557365335,855.2937749779139,2.4375792548422868,0.9844712334613328,69.99999973536046,-5.939103491363046e-10,113.7000000850886,3.6383156301599167,15.288,0,0.0,0.007163413150771,2.709313825263564e-13,-7.906546256197275e-07,7.920022733617308e-11,5.114174483651565e-09,3.820491358176508,74.87999294483174,2.437586797285377,91.46725557277466
0.08,31.222185894468456,131.01038428575305,3.0647976109320942,3.588632851766762,7.220043782492885e-05,19.18449428359557,0.0002119618497595,3.3440615022685813,241.2171988638848,3.1292508166901074,1.2522236515868983,69.99999919480445,-9.914748373602156e-10,113.7000001418522,5.996012698481753,15.288,0,0.0,0.0091960591623389,6.80386533246681e-13,-1.5973238302190878e-06,1.0839624626357699e-10,1.3263625118823921e-08,3.58863285249208,70.86684630658345,3.1292621579083604,19.473766155861934
0.09,31.22218584634549,131.01038441616095,3.0957981580345013,3.551302481506045,9.685468678862004e-05,57.102946699906326,0.0002554087225869,3.341892818148368,563.0937377043176,3.701810007254615,1.479132491047967,69.99999812344194,-1.4359264356978275e-09,113.7000002093888,8.390904013834115,15.288,0,0.0,0.010878666406854,1.440096519545733e-12,-2.748643691533636e-06,1.5214952332699618e-10,2.6999776649034504e-08,3.5513024828250237,67.68737872952666,3.701825221153239,57.20065357568538
0.1,31.222185790329306,131.01038456796124,3.1319266121977414,3.608446747536112,0.0001234669721807,54.26147302645416,0.0002914860332524,3.3396271157106168,538.7437595981919,4.174070299823608,1.6716491241860567,69.9999963052332,-1.902380107712657e-09,113.70000028805804,10.668380938744466,15.288,0,0.0,0.0122665227999911,2.687800116751415e-12,-4.315796035622946e-06,2.1749089204950437e-10,4.7802076800548326e-08,3.608446749645647,65.17160335282355,4.174089693970246,54.36414778470795
0.11,31.222185727066616,131.0103847393952,3.172681775073216,3.633547373470009,0.0001485939126744,42.987553988990406,0.0003293995000288,3.337005588796181,442.8656393052949,4.672024955140527,1.8729475711242067,69.99999349387662,-2.3433348587116544e-09,113.70000037699285,13.365573690709628,15.288,0,0.0,0.0137298902182575,4.5789425819531184e-12,-6.340230783164189e-06,3.1157625832417107e-10,7.860218435507205e-08,3.6335473765043056,62.62546922225161,4.672048296217748,43.116880735560244
0.12,31.22218565692512,131.0103849294629,3.2177790417108385,3.650108937861461,0.0001727442530266,46.86777100765684,0.000367618259785,3.334068179146888,475.58594813540446,5.17479364099247,2.0758708919414386,69.99998941286465,-2.702771525550512e-09,113.70000047573096,16.396890189902592,15.288,0,0.0,0.0152074069417046,7.288473386564583e-12,-8.86736416607888e-06,4.42271554299792e-10,1.217615295152289e-07,3.6501089419435786,60.16906436414164,5.174820775596283,46.986210423745625
0.13,31.222185580265183,131.0103851371844,3.2669395832841857,3.7280113734654137,0.0001995014041665,51.64515456841877,0.0003986198234033,3.3311573548369657,515.9156326236895,5.579364582999854,2.2451120211463422,69.99998375846928,-2.9114380666036422e-09,113.70000058383452,19.060875702782603,15.288,0,0.0,0.0163963474924215,1.100846422415094e-11,-1.1941028436408576e-05,6.179653149059831e-10,1.7678562106638216e-07,3.728011378795934,58.279338776943774,5.579395920607139,51.75247433579817
0.14,31.22218549718016,131.01038536230575,3.320091807147376,3.768719651034081,0.0002242721760019,48.1660778383537,0.0004326225136175,3.32784677779744,486.2390860568404,6.025734265159953,2.428648685938864,69.99997621008868,-2.890941335368725e-09,113.70000070125378,22.232643351545065,15.288,0,0.0,0.0177081261985351,1.5941871344608664e-11,-1.560901486259027e-05,8.477542742712431e-10,2.495765160917323e-07,3.7687196576976176,56.27980129251342,6.025769493750979,48.280903250602165
0.15,31.22218540777004,131.01038560455507,3.377159065217065,3.821894709649632,0.000249725644238,46.56959330999435,0.0004643042952466,3.324387732286376,472.54218587214,6.441023336496372,2.6014999612196745,69.99996641132823,-2.546763407193136e-09,113.70000082794672,25.402620271850456,15.288,0,0.0,0.0189285691155931,2.2314099732464315e-11,-1.992367942778425e-05,1.1417519574710292e-09,3.4051816697623295e-07,3.821894717796148,54.501255563441134,6.441062563308839,46.68809885900716
0.16,31.22218531193176,131.01038586421257,3.4382223512025254,3.8463320955387794,0.0002733212404609,36.974247749122085,0.0004987816203583,3.3205066466509234,391.1218908297564,6.895451966878468,2.7877331692857847,69.99995397923414,-1.77088415515292e-09,113.70000096417354,29.113317717489338,15.288,0,0.0,0.0202640360420561,3.0367358387834494e-11,-2.4945905791363795e-05,1.5114297685186711e-09,4.5643121540033697e-07,3.846332105235269,52.641145594326446,6.895494900078523,37.12304892183151
0.17,31.222185210004127,131.010386140357,3.503019838429153,3.8860314262554336,0.000297865039677,46.520531453299206,0.0005306403365217,3.31650761597812,471.78125980632376,7.314788342774694,2.9619016331667103,69.99993849340957,-4.3039914767238207e-10,113.70000110959404,32.761746921137856,15.288,0,0.0,0.0214963781445172,4.0366633128431416e-11,-3.0713078585132897e-05,1.96747427715988e-09,5.961228045584824e-07,3.886031437653654,51.00464968745696,7.314835131305714,46.63860064094784
0.18,31.22218510147516,131.01038643438045,3.571950002194137,3.9107265153396016,0.0003214293682635,38.895647526122765,0.0005639254295027,3.312149448254175,407.10156721191447,7.754626295791602,3.1430587898572058,69.9999195084231,1.6149322372810674e-09,113.70000126508234,36.81988229018681,15.288,0,0.0,0.0227889722876034,5.2593391349219385e-11,-3.731786027786564e-05,2.525509173087448e-09,7.6786585232224e-07,3.9107265285284982,49.36615848311875,7.754676785798701,39.036415444581515
0.19,31.222184986476247,131.0103867459258,3.644912152926752,3.920599115663931,0.0003437679584038,43.86258669386953,0.0005989384366483,3.307389681300437,448.9531328318269,8.219206165926856,3.332657190859447,69.99989653019398,4.538529095696477e-09,113.70000143063515,41.36350714675367,15.288,0,0.0,0.02415428010977,6.735860419174937e-11,-4.481243905342629e-05,3.199401151670645e-09,9.773118416308382e-07,3.92059913071168,47.71893898797248,8.21926016487149,43.987104227715655
0.2,31.222184864792144,131.01038707557822,3.722074668489528,3.943376465171875,0.000367328732016,40.28070981710589,0.0006315894240138,3.30251450988504,418.51563019916136,8.65238089736321,3.511445117640573,69.99986902534273,8.534090245934178e-09,113.7000016067622,45.83799876721736,15.288,0,0.0,0.025427299120469,8.499785987217288e-11,-5.328041996372527e-05,4.006766070954748e-09,1.2232205148646746e-06,3.9433764822533854,46.2587826635041,8.652438597225508,40.41586552155969
0.21,31.22218473678744,131.01038742234647,3.803156063113743,3.9664546506877016,0.000390962054969,38.67679184347145,0.0006636984664108,3.297405915846789,404.8187610144644,9.079179692250786,3.688002035198235,69.99983642883521,1.3827831253856693e-08,113.70000179318536,50.47126980736161,15.288,0,0.0,0.0266815841422463,1.0586558589671407e-10,-6.275155280099118e-05,4.961340042512481e-09,1.5117124669161171e-06,3.9664546699249135,44.88773728276958,9.079241104426773,38.817098210937615
0.22,31.2221846022986,131.01038778667507,3.8882846911135607,3.956175711337521,0.0004112685792646,46.713636108302936,0.0007011135033803,3.291572407481395,472.5421858721365,9.580256326712124,3.889976788904857,69.99979815126248,2.0662823443484168e-08,113.70000199039316,56.195522894218605,15.288,0,0.0,0.0281541581291438,1.3033127211465288e-10,-7.330053770532661e-05,6.0817207473359025e-09,1.8632831045819008e-06,3.956175732680424,43.35679625546934,9.580320928629488,46.8294591882524
0.23,31.222184460898035,131.01038816972698,3.977794004014759,3.9879066397329104,0.0004360962274406,38.89105719050748,0.0007308686121188,3.286096544282012,406.3406421461021,9.977039034039262,4.056142701351626,69.99975353557706,2.9316661139418326e-08,113.70000219928508,60.9462612310605,15.288,0,0.0,0.0293202403623685,1.5880617816859538e-10,-8.505067486192354e-05,7.393319440773217e-09,2.2514912291167663e-06,3.987906663538912,42.20670487756048,9.97710753587448,39.0296395118868
0.24,31.222184313516166,131.01038856897196,4.070963590490852,4.003523997322975,0.000459165577055,40.0792299321398,0.0007630441688766,3.280134925833028,416.2328240017114,10.408422364424831,4.234121060914368,69.99970190737699,4.010976417051318e-08,113.70000241888,66.32994780718496,15.288,0,0.0,0.030588009649109,1.91711512587616e-10,-9.795845222523724e-05,8.904557280909524e-09,2.7052895870113487e-06,4.003524023611085,41.011349410369874,10.408494489985014,40.21323112692186
0.25,31.22218416001652,131.01038898478134,4.167901030441617,4.0261356185860135,0.0004830526730531,41.17760020658354,0.0007934613160587,3.2740610008587527,425.36408079150686,10.816813039390448,4.4041629376391525,69.99964258149416,5.3372865854010094e-08,113.70000264972064,71.63651430352668,15.288,0,0.0,0.0317882126436337,2.2947426169209347e-10,-0.0001121037688082,1.0637152702866709e-08,3.217380562698304e-06,4.026135647516394,39.93186687113378,10.816888917126896,41.30755663120434
0.26,31.222184000702686,131.0103894163294,4.26837241014618,4.053359329950934,0.000507503069958,44.80261175215926,0.0008224724146494,3.2678597736729302,455.8015834241788,11.207047269494833,4.567925492611352,69.99957484039399,6.947299261165984e-08,113.70000289176392,76.89781807056055,15.288,0,0.0,0.0329350617559806,2.7254099134167665e-10,-0.0001275114371842,1.260720913253598e-08,3.7915697709142366e-06,4.053359361668992,38.945390435244384,11.207126987890645,44.921630958721536
0.27,31.22218383516388,131.01038986473338,4.372698316214008,4.0614460923241,0.0005296455772492,41.029837477288126,0.0008548809954683,3.2610328932384265,423.84219965987256,11.645685385842508,4.748226940060522,69.99949794024376,8.879821051920497e-08,113.70000314600205,83.0342688744587,15.288,0,0.0,0.0342241635563461,3.2137296827284217e-10,-0.0001442952656441,1.4842505534226832e-08,4.458527942364847e-06,4.061446126801262,37.8838346421185,11.645768582375233,41.15922617924542
0.28,31.222183663504484,131.01039032970942,4.48079961904222,4.081133040992532,0.0005533279247169,47.27661484082626,0.0008845140695959,3.254218495915602,476.3468732012221,12.047344998676092,4.915789434712848,69.99941106884992,1.1178948978424788e-07,113.70000341275257,88.85982357848233,15.288,0,0.0,0.0354045979054623,3.764736350660473e-10,-0.0001625146963723,1.7365685655384934e-08,5.194620655212288e-06,4.081133078439725,36.956255322213885,12.047431915223257,47.38848224631549
0.29,31.22218348566054,131.0103908114315,4.592727908358551,4.1001100265020245,0.0005770279952742,37.989969791857405,0.0009138463939581,3.247164755122801,397.97031042211177,12.446314684600782,5.082367374004485,69.99931338876085,1.3891902435864665e-07,113.70000369260468,94.8417675268915,15.288,0,0.0,0.0365771315767517,4.3836067907166327e-10,-0.0001822432988888,2.0202163500922312e-08,6.018074062137429e-06,4.100110067036654,36.07377590258778,12.446405323946324,38.12849176886316
0.3,31.222183301933686,131.01039130907952,4.708251093558373,4.112858061667493,0.0005998635114143,35.655053282557844,0.000944131403186,3.2397207148238625,378.1859457108711,12.860033399289696,5.253940723820665,69.99920403105713,1.707002607527005e-07,113.7000039856728,101.2505662360602,15.288,0,0.0,0.03779301412572,5.075709863465428e-10,-0.0002035013069687,2.3370674033523645e-08,6.94335970778e-06,4.112858105337573,35.19685285507256,12.860127625629724,35.80193592228613
0.31,31.222183112488807,131.0103918222051,4.827243246502713,4.136140889545823,0.0006242383343011,37.56633644061071,0.0009716215464757,3.232339252743767,394.1656220930212,13.2364445751808,5.4126574282679245,69.99908210036875,2.0768081583188525e-07,113.7000042923011,107.26326115439352,15.288,0,0.0,0.0388992619788015,5.846561731689753e-10,-0.0002263323252403,2.6893437641668458e-08,7.948283231812338e-06,4.1361409365698805,34.43286455705216,13.236542630309057,37.70514091683033
0.32,31.22218291741533,131.01039235056504,4.949637017503345,4.1622282001352975,0.0006491019906456,40.83513712643371,0.0009979686925508,3.224840963348891,421.55939346242695,13.59846554462374,5.566374262777002,69.99894668612772,2.504388718903276e-07,113.70000461297312,113.2095365840355,15.288,0,0.0,0.0399632243410653,6.701756367872645e-10,-0.00025078340164,3.0793566854276295e-08,9.047716714467492e-06,4.16222825066026,33.72644865222576,13.598567505326,40.96227562489027
0.33,31.222182716732533,131.01039289410716,5.075419569102976,4.187801887681037,0.0006739743721461,40.48743503284469,0.0010239291638211,3.217136801802925,418.5156301991682,13.956637761217308,5.718704299733134,69.99879684673242,2.995902922462564e-07,113.70000494831164,119.25032483364384,15.288,0,0.0,0.0410158804634189,7.647061680070125e-10,-0.0002769136723495,3.509664608790402e-08,1.0253455741189656e-05,4.187801941818244,33.053267359159875,13.956743628864118,40.61505097607
0.34,31.222182510255863,131.01039345333336,5.204736257784645,4.19642921746386,0.0006961879027693,31.814592723444047,0.0010535137542081,3.208669900766693,345.46563688075645,14.367047160772364,5.88887983533068,69.99863160305904,3.557915789971256e-07,113.70000529927128,126.36523219087664,15.288,0,0.0,0.042222056531773,8.688448410811866e-10,-0.0003048202762282,3.9835373705550826e-08,1.1618525957862828e-05,4.196429275109305,32.30947868183619,14.367156517712404,31.97598901989736
0.35,31.222182298183583,131.0103940277045,5.337435501771672,4.210915783240843,0.0007193441544952,34.813487415034444,0.0010813034848195,3.200164272309822,370.5765700527033,14.754132934586384,6.050986755458457,69.99844991734221,4.1975736284587617e-07,113.70000566632532,133.26448209504355,15.288,0,0.0,0.0433596939127697,9.832256819293898e-10,-0.0003345386312107,4.503361101379695e-08,1.309465610343774e-05,4.210915844572415,31.63649055965014,14.75424592890194,34.96026256388454
0.36,31.222182080444604,131.0103946174141,5.4735747500461605,4.22903876037745,0.0007431682866607,39.2632255716727,0.0011077666085529,3.1915717453569297,407.8625232777193,15.124417129017054,6.2072589919251575,69.99825073022951,4.922382611919288e-07,113.70000605036684,140.03566173682628,15.288,0,0.0,0.0444479595865755,1.1084921261805627e-09,-0.0003661511460057,5.0723697896912267e-08,1.4691545926915382e-05,4.229038825557203,31.017264542603208,15.124533865618538,39.39272792946638
0.37,31.22218185710795,131.01039522227452,5.613102797925907,4.249164960780052,0.0007674149135003,37.28328237034959,0.001133274451316,3.1828514669894137,391.1218908297666,15.483077353331511,6.359470679857624,69.99803294268581,5.740349991123437e-07,113.70000645214331,146.75405277514704,15.288,0,0.0,0.0455020695186381,1.245311285088233e-09,-0.0003997125883071,5.6934243389647934e-08,1.641828325195534e-05,4.2491650299519,30.439178816713017,15.483197898584232,37.418894813348615
0.38,31.2221816281124,131.0103958424523,5.756069531572451,4.260095806433531,0.0007900626414612,38.9278000801764,0.0011607546399008,3.1735466295306622,404.8187610144602,15.87126705947922,6.521735074464384,69.99779542676283,6.659911329739736e-07,113.70000687263192,154.20298254405043,15.288,0,0.0,0.0466429667223463,1.3943646956867835e-09,-0.0004353006984059,6.369875435270817e-08,1.8328108041903096e-05,4.260095879559656,29.83470194713067,15.87139116222873,39.05694584372078
0.39,31.22218139339905,131.0103964781077,5.9025231349944285,4.274091258047817,0.0008133283308351,33.320076729592266,0.0011870382950339,3.164143363712209,357.64062493382744,16.24457853509073,6.678818328235205,69.9975369905506,7.690136753559805e-07,113.70000731287368,161.54010621938565,15.288,0,0.0,0.0477401448128051,1.5563705124515804e-09,-0.0004730068442167,7.105463478762673e-08,2.0383860516746246e-05,4.274091335289374,29.274934656826048,16.244706292406182,33.46997636540994
0.4,31.22218115316572,131.01039712870306,6.0523126585892895,4.286421841403391,0.0008363022448449,31.88018820767003,0.0012133780841982,3.1544430614236454,345.465636880754,16.62063299903514,6.836764518435374,69.99725641601981,8.840594270905819e-07,113.70000777359816,169.10340080049767,15.288,0,0.0,0.0488453895716005,1.7320643186450851e-09,-0.0005128553637434,7.9027539265021e-08,2.2612406375611563e-05,4.286421922834417,28.730746964325096,16.620764365084565,32.03586915718869
0.41,31.22218090752676,131.01039779392735,6.205351877049411,4.30025870409831,0.0008595777771371,35.882550741685804,0.0012389121673015,3.1445895889870297,378.94687077668647,16.987310563534386,6.99141560549392,69.9969524610574,1.0121301778427253e-06,113.70000825570062,176.64448930727934,15.288,0,0.0,0.0499230826371405,1.922193031274436e-09,-0.0005548883906878,8.764667734700782e-08,2.5005077415911235e-05,4.300258789847355,28.21875643368965,16.987445585695873,36.020076248499606
0.42,31.222180656535848,131.0103984736348,6.36160173428776,4.322008670726048,0.0008844838439129,40.34064925656127,0.001261804338223,3.134918999355981,416.2328240017114,17.318628721060172,7.133856886815013,69.99662385300175,1.154276942054023e-06,113.70000876021427,183.59942989625057,15.288,0,0.0,0.0508968652507098,2.1275184665783874e-09,-0.0005991661829955,9.694534598491077e-08,2.752657757470936e-05,4.322008761057615,27.772396468009568,17.318767655457478,40.462275036947325
0.43,31.222180400205527,131.0103991677914,6.521055075967404,4.339436441324956,0.0009085827200945,35.541853595187746,0.0012854696362701,3.124839917627212,375.9031395134336,17.662848429084132,7.280642039343927,69.99626930133451,1.3115939750280808e-06,113.70000928827632,190.96736675963504,15.288,0,0.0,0.0519085689713619,2.3488101247838237e-09,-0.0006457514522491,1.0695800287133593e-07,3.0255957891170616e-05,4.339436536261635,27.322335771349252,17.662991148924057,35.67895714766603
0.44,31.22218013836212,131.0103998768696,6.683849332059896,4.342209064313268,0.0009296474314902,32.82948243168077,0.0013129688908547,3.113754688841357,353.0750125389216,18.063580761318697,7.446730341918701,69.99588746395321,1.4852372182848018e-06,113.7000098413532,199.7278270846888,15.288,0,0.0,0.0530863610987301,2.586862292117705e-09,-0.0006947575786514,1.1773083546077225e-07,3.329010177793299e-05,4.342209163639375,26.81344244367223,18.06372678999575,32.9768158972058
0.45,31.22217987077456,131.0104006014978,6.850166573233225,4.3420317510315165,0.0009500780330031,38.11022602597878,0.001341042003417,3.1022288449712887,397.2093853562869,18.47486275310604,7.616350301328129,69.99547690348253,1.6764536248320808e-06,113.70001042108892,208.92306716049887,15.288,0,0.0,0.0542951637545535,2.842521175226318e-09,-0.0007463379956615,1.2932090054593452e-07,3.657529369088674e-05,4.342031854775571,26.30944884471334,18.47501199101448,38.23628058998621
0.46,31.22217959739673,131.01040134180155,7.020045503401754,4.351169003849846,0.0009725797783515,44.3937050866137,0.0013660055515545,3.09098240974522,449.7140588976434,18.844323061800488,7.771531995684422,69.99503610583268,1.8865779683531e-06,113.70001102895836,217.3591612614144,15.288,0,0.0,0.0553810645782081,3.1166808800591503e-09,-0.000800596194505,1.417768495237597e-07,4.001824400409673e-05,4.351169112337076,25.873596578896564,18.844475834274814,44.50118229261506
0.47,31.22217931813738,131.01040209802923,7.193559875579052,4.358630093683735,0.0009947969928181,30.22514089990685,0.0013910994973101,3.079396422776949,331.0078106302534,19.2180591098146,7.9280875671397615,69.99456352718363,2.1170044481277104e-06,113.70001166656292,226.0625808853568,15.288,0,0.0,0.0564795377574197,3.4102493884459798e-09,-0.0008576351980594,1.551487523304888e-07,4.3718862242359527e-05,4.35863020698899,25.44665981168229,19.218215372160817,30.381603425148434
0.48,31.22217903348153,131.01040286886197,7.370336324605091,4.365514409145237,0.001016880998596,29.779838936311712,0.001416009414045,3.067527859335786,327.2031223011574,19.5915905767454,8.084483592791102,69.99405758812365,2.369198154608765e-06,113.70001233476164,234.93171707892955,15.288,0,0.0,0.057577416115756,3.7241711041759195e-09,-0.0009173883913609,1.6944871263079066e-07,4.767297940601472e-05,4.365514527349481,25.03354780044292,19.59175030803913,29.937410312943754
0.49,31.22217874361868,131.01040365378466,7.5502307795521535,4.3786401372577615,0.0010404145545081,37.2489281064929,0.0014385799934191,3.0558405437943126,389.60000969812296,19.93403005898306,8.23012235628909,69.99351671352461,2.644660619562788e-06,113.700013034871,243.21198709852868,15.288,0,0.0,0.0585839249886784,4.059374595909599e-09,-0.0009798792959512,1.8470833984680338e-07,5.180951737438081e-05,4.378640260624215,24.667474291142685,19.934193486919103,37.37406598941686
0.5,31.22217844858332,131.0104044527036,7.733219389747018,-10.61067009605468,-15.875003543928337,38.614297043566765,0.9106361689330874,3.9017150681105273,397.97031042210494,19.433821560312783,8.36606535597106,69.99293932307316,2.9449363413826395e-06,113.70001376847225,231.15513692571105,15.288,0,7.5154709336958545,0.0571139850470504,4.416640996685587e-09,-0.0010584230784109,3.2419929184031423e-05,5.455715778994462e-05,19.01840348800905,12.86108276398542,16.971965040515183,38.82159933431
0.51,31.222178148000253,131.01040526569906,7.919250285027816,-10.36456595162803,-15.644866504397488,29.702917298092096,0.9328388787608553,3.911408571833873,323.3984349720841,19.75220653816909,8.521434820481442,69.9923687650606,-9.904598542579208e-05,113.6999056481042,238.78695979611075,15.288,0,7.5452959245945985,0.0580498072828491,4.732017971258508e-09,-0.0009217611138188,-0.0001846758773018,4.829036285471405e-05,18.69484282040165,12.638682059956087,17.325140897358427,29.97386530641055
0.52,31.22217784119644,131.01040609300955,8.108327542698106,-10.123747754243318,-15.41735855197102,35.53903821109443,0.9559768839854262,3.921490260564701,372.0984511843415,20.08001646657208,8.679258035041553,69.99187716281644,-0.0005465090729553,113.69942987281144,246.77412143191464,15.288,0,7.575015592785733,0.0590133345427177,4.871153212601474e-09,-0.0007825749195062,-0.0004073164405404,4.167816339998095e-05,18.37646488229988,12.416835956263949,17.687382744111886,35.767516193273025
0.53,31.222177528027125,131.01040693502492,8.300562792333043,-9.89254736528492,-15.198805719798596,37.279342180019846,0.9792383480967092,3.931455274782031,386.5562464348624,20.404840448773832,8.83588690554514,69.99146600954379,-0.0013484164485106,113.69857689241071,254.8178664941052,15.288,0,7.60463461413361,0.0599680926076741,4.8302775946475914e-09,-0.0006407443938877,-0.0006357702205567,3.4675967319746434e-05,18.070843395089064,12.202131316276152,18.045318875809983,37.49886133864602
0.54,31.22217720837584,131.01040779201324,8.496032505751653,-9.669592739527497,-14.987544981512448,32.82382491035587,1.002710020647775,3.9413597972959415,349.2703242098436,20.728235486413272,8.99189669922725,69.99113682304862,-0.0025139982978368,113.69733688252526,262.9541231760678,15.288,0,7.634174487941867,0.0609186574809211,4.6055505823765935e-09,-0.0004961963198386,-0.0008702385726237,2.7278361974915464e-05,17.775857866559495,11.993576255046936,18.40075390151498,33.07481256459282
0.55,31.222176882499863,131.01040866322705,8.694523505945613,-9.457176708326806,-14.787313735801693,34.74630417029891,1.026089714734472,3.9510178620809135,365.2500005919907,21.04438991634641,9.14520468498208,69.9908911006342,-0.0040525570082389,113.6956999419568,271.0314694433923,15.288,0,7.663600639256816,0.0618479490298544,4.193171816391319e-09,-0.000349143993149,-0.0011104743922104,1.9486554316212414e-05,17.495845138890463,11.79343028120123,18.74730479216824,34.98526912493454
0.56,31.22217655038304,131.01040954866377,8.896035227261219,-9.256639447129356,-14.600534683318251,32.474975411902825,1.0491343670488684,3.960287058725336,346.2265619465787,21.34879807326356,9.294214793387331,69.99073027078539,-0.0059732547155497,113.6936563197493,278.92374994401047,15.288,0,7.692912562630368,0.0627427253496952,3.5894577188552994e-09,-0.000199584118632,-0.0013565685683576,1.1300174353353244e-05,17.233542755198837,11.603162956143615,19.080092573352733,32.732378228771026
0.57,31.222176212080207,131.01041044812882,9.100512358604616,-9.05809024559155,-14.412744904788076,32.11771616072002,1.0728763218010249,3.9697959643712064,343.1828296833023,21.66135860022217,9.446066487637747,69.99065572809157,-0.0082852655055828,113.69119625276784,287.14515540218395,15.288,0,7.722097422541949,0.0636614672060938,2.790781817253506e-09,-4.758398521805978e-05,-0.0016085008784151,2.7335291609599315e-06,16.9716057286228,11.414116871819914,19.42121060157554,32.379901713581454
0.58,31.222175867553386,131.01041136168044,9.307971787734978,-8.855677595685702,-14.215032080396872,42.07164801069226,1.0980660252971,3.979983913182679,426.1250058573153,21.99594677294336,9.605709183693948,69.99066885348454,-0.0109978647572052,113.68830987089424,296.0784359207445,15.288,0,7.751155191785035,0.0646449535894577,1.793522255349658e-09,0.0001068632969257,-0.0018663698795492,-6.23361225385552e-06,16.699458712116584,11.22090915326018,19.78589128904469,42.27374583924035
0.59,31.22217551638892,131.01041229039615,9.518721103240011,-8.671096596621988,-14.040598049241158,34.23207861529283,1.1220720221416536,3.9892788860455486,360.68438819711065,22.30243938728736,9.755244524157856,69.99077113018092,-0.0141209488585233,113.68498664437227,304.38090529254055,15.288,0,7.780121406149299,0.0655458754184715,5.937999220272301e-10,0.0002640852569411,-0.0021307988402337,-1.5619110276865334e-05,16.456394415685274,11.043483011801383,20.11895517524052,34.48200397275527
0.6,31.222175158778,131.01041323370916,9.732598966581552,-8.475474095794116,-13.845224281247178,30.49666083791268,1.1485025631144794,3.999814447044909,329.4859594986058,22.64885815797997,9.918946405417447,69.99096403461488,-0.0176645659122094,113.68121588191347,313.90365571495533,15.288,0,7.808971345411026,0.0665641453542353,-8.122581429142081e-10,0.0004239000300306,-0.0024015889976767,-2.5460129415990315e-05,16.19006571138163,10.8552185431771,20.49515895243822,30.779277054715667
0.61,31.22217479465549,131.01041419174928,9.949642744728637,-8.283254479345278,-13.651062404523392,35.61879799855227,1.1756192711084352,4.010548093527072,372.0984511843297,23.001873407742234,10.084904250819006,69.99124906042715,-0.0216390240951104,113.67698661665072,323.75845295129415,15.288,0,7.83771356523733,0.06760180947023,-2.4285952016546567e-09,0.0005863457665931,-0.0026788990898025,-3.576504691582961e-05,15.926669360776426,10.669407742751575,20.87779926452591,35.86314748516597
0.62,31.222174424115863,131.01041516421168,10.169765910659551,-8.12079633757142,-13.500137625738482,44.12392659232026,1.199576310678579,4.019258916923846,442.86563930529206,23.29033316194956,10.227825268440368,69.99162771492361,-0.0260548865518097,113.67228761104026,331.9226739631641,15.288,0,7.866358983970008,0.0684497539348195,-4.2592151684495185e-09,0.0007513653339597,-0.0029627308090142,-4.6404433092529245e-05,15.715421545486183,10.511449032710264,21.189303866364625,44.32284200602304
0.63,31.2221740469632,131.01041615158536,10.393108422253349,-7.9552577334005825,-13.34108381357608,25.306007161710443,1.2248506403512411,4.028549979201685,286.11251274707894,23.59788128924944,10.377490807855008,69.99210138506555,-0.0309223537238059,113.66710801490484,340.7393011817231,15.288,0,7.894856725257479,0.0693538055592842,-6.3078588647839714e-09,0.0009190603180152,-0.0032533580821994,-5.7509597680142365e-05,15.495847781536806,10.350368808977322,21.52115384529354,25.653917293361555
0.64,31.222173663751686,131.0104171523174,10.619227983633085,-7.7826543753346655,-13.167207452481083,24.85326476847679,1.2522104198839303,4.038840685977232,282.30782441796754,23.937918992640185,10.538615382919057,69.99267144163241,-0.0362517495123317,113.66143684661728,350.62232093140966,15.288,0,7.923233811921546,0.0703533505427691,-8.578307545606518e-09,0.0010889508284777,-0.0035500669670331,-6.9120764807126e-05,15.260199706579932,10.181996779924011,21.88777644313113,25.210415202340098
0.65,31.22217327444685,131.01041816645912,10.848139884750305,-7.631460438638817,-13.024822604047802,43.42333966524012,1.2771301312664476,4.047560474902849,436.7781447787475,24.227807579973977,10.681890900291291,69.99333913010894,-0.0420531693794299,113.65526337237682,359.15792959840485,15.288,0,7.951444805097204,0.0712055146465229,-1.1074134749629421e-08,0.001261075853336,-0.003853015459557,-8.101392089831457e-05,15.062447710708822,10.034414911093377,22.199449089805093,43.63026741670283
0.66,31.222172878540352,131.01041919535368,11.080227873241844,-7.48000109550629,-12.878990478372184,37.02893592246965,1.3029748840854134,4.056622702929452,383.51251517160017,24.52900824977801,10.829138594849008,69.99410579311578,-0.0483368617193748,113.64857668895368,368.1353542460562,15.288,0,7.9795344857334545,0.0720909320260183,-1.3798865476429977e-08,0.0014358112160591,-0.0041629544993608,-9.338389358431448e-05,14.86177096635929,9.886450798130252,22.52297421632972,37.273261553731025
0.67,31.22217247619612,131.01042023851073,11.315352804350564,-7.32288466794378,-12.720607489565872,25.688553503103552,1.3307870195708171,4.066593990813064,289.1562440103425,24.85975315035213,10.98678806108358,69.99497277140442,-0.0551137818040584,113.6413651495261,378.1214955191253,15.288,0,8.007529409865906,0.0730631874804637,-1.6756363217274742e-08,0.0016129958717361,-0.0044797119865353,-0.0001063199855337,14.647646827423126,9.732521914244728,22.877979617426043,26.04246458880935
0.68,31.222172067561768,131.01042129548475,11.55338841281116,-7.172253839940629,-12.569931619259131,31.917747235309225,1.3584510759351305,4.076285880823099,340.8999924858462,25.18189338225248,11.141330898913912,69.99594139711375,-0.0623948923697621,113.63361709777782,387.9757466689385,15.288,0,8.03533820197765,0.0740101612063766,-1.9950430224022203e-08,0.0017925032547906,-0.0048031703543757,-0.0001196804594246,14.4435311700922,9.58497055658662,23.223213861756697,32.20565298957617
0.69,31.22217165269896,131.01042236606642,11.794275824256044,-7.033981109726209,-12.437180576455276,39.15777270755669,1.384742167154886,4.085040312827316,401.0140726853634,25.474086356165746,11.285243877989895,69.99701289447846,-0.0701910227570948,113.62532102357332,397.02239350812215,15.288,0,8.063018841276834,0.0748691265145229,-2.338472536257333e-08,0.0019742558498552,-0.0051332968070769,-0.0001333419856316,14.261136663205717,9.44990557811193,23.53576474884069,39.39462182384281
0.7,31.22217123145981,131.01042345061938,12.038119677715828,-6.898302670671003,-12.306091071209602,32.936213189789285,1.4114192665633407,4.0938270990096415,349.27032420985284,25.76758221596396,11.429577890027764,69.99818853426487,-0.0785129375400893,113.61646547898556,406.2140505469597,15.288,0,8.090592612728523,0.075731928250217,-2.706275881131604e-08,0.0021583465360545,-0.0054703653738289,-0.0001474516183032,14.081610441968383,9.317440257270604,23.84937392950628,33.219657793930715
0.71,31.222170803881014,131.01042454900394,12.28488108216166,-6.759962136747357,-12.167700301399112,27.16906544175092,1.4395526464522788,4.1032101858693215,301.33126406340574,26.080925426782407,11.580862655140264,69.99946945372805,-0.0873716693324894,113.60703874329715,416.143680448432,15.288,0,8.11797564403775,0.076653069555296,-3.0988131853486105e-08,0.0023447109070717,-0.0058143714856558,-0.0001621275082802,13.894615488156823,9.1822180368983,24.18396160214852,27.514846222166565
0.72,31.22217036994884,131.0104256612175,12.534560303257024,-6.618229578599864,-12.020465431827304,33.131178538853625,1.469466045962205,4.113348343108726,350.79220534145287,26.418938623844028,11.740777173852589,70.00085694691597,-0.0967785473412627,113.59702877017864,426.9899252062145,15.288,0,8.14523650364325,0.0776467250004754,-3.5164504663636846e-08,0.0025333455801999,-0.0061654210084559,-0.0001774368410862,13.698447458504146,9.043210450670411,24.544589072367877,33.41786881932159
0.73,31.22216992964419,131.01042678727134,12.787161574267166,-6.494645264301202,-11.902328880378253,41.755425990453205,1.496368875337986,4.121702310484453,422.320318528234,26.699184538695462,11.880311508335817,70.00235219334154,-0.1067453089272942,113.58642309220744,436.0862119342243,15.288,0,8.1723896883544,0.0784706069085636,-3.959563550506452e-08,0.0027242670834993,-0.0065236566140913,-0.0001928284628854,13.536500036389588,8.923381069927565,24.84298891382065,41.98503482660873
0.74,31.22216948289061,131.0104279273369,13.04273489015106,-6.368708225413785,-11.7775409551198,26.35413041147176,1.5246800977592612,4.130614528548896,294.48281347105944,26.998175274979392,12.026400956572342,70.00395640425317,-0.1172833602456792,113.57520958445916,445.89697633509167,15.288,0,8.199384922142542,0.0793495885571054,-4.42850471846729e-08,0.0029174798377798,-0.00688920694791,-0.0002088118188195,13.367780561047727,8.801110492599998,25.161164255367574,26.719408966682312
0.75,31.22216903002468,131.0104290804567,13.30100837760144,-6.242283257447808,-11.649316290985944,30.66935389466557,1.5540690510230548,4.139896810411804,330.24688556441487,27.30962878028972,12.176813228838292,70.00567061568103,-0.1284042125074274,113.56337602289582,456.2328205750516,15.288,0,8.226211258420706,0.0802652068050426,-4.9236403691607806e-08,0.0031126653279972,-0.0072615953075819,-0.0002253462076315,13.195977730528718,8.678310993976957,25.49233979846901,30.986499391387273
0.76,31.222168570923817,131.01043024692967,13.562068518078863,-6.123407244597135,-11.532206553621592,32.967817231019126,1.5825436741935734,4.148517723159076,349.27032420986166,27.599952123066373,12.319756367863608,70.0074959170235,-0.1401193583043742,113.55091019720064,465.9729435483513,15.288,0,8.252911173512157,0.0811187295031696,-5.44530768818423e-08,0.0033099176427079,-0.0076411130541563,-0.0002421679455607,13.037630373341088,8.563742860743673,25.80068356422359,33.26547184030277
0.77,31.22216810551768,131.01043142691287,13.825961357765852,-6.008031071975459,-11.419101527310303,30.860813552866848,1.6110223866383222,4.156958296254849,331.7687666960708,27.88473851316457,12.460714881057024,70.00943334179357,-0.1524404557236632,113.53779972560264,475.62665956257456,15.288,0,8.27948754038575,0.0819559862017205,-5.99384573730546e-08,0.003509268170675,-0.0080279410062509,-0.0002593959962335,12.884594347985972,8.453087281296689,26.10288128334146,31.18117234088324
0.78,31.222167633855488,131.01043262023703,14.09263995300894,-5.890600097126998,-11.299875054621722,25.44651170163001,1.6409585326630585,4.1659496408538415,286.8734378128899,28.18820117683485,12.608171703242094,70.01148389196203,-0.1653792596217915,113.52403212490844,486.022795757255,15.288,0,8.305878350262887,0.0828481420569358,-6.569597828468152e-08,0.0037106284714864,-0.0084220340902021,-0.0002772578476527,12.725367445364911,8.3402690813017,26.424705124566547,25.837430969375475
0.79,31.22216715600936,131.01043382667012,14.362039480461055,-5.773124423954704,-11.178102647604096,35.92102170347317,1.6719234342088198,4.175263446930067,373.6203323159534,28.50258771919052,12.75939544968233,70.01364855273933,-0.1789477184955408,113.50959470780678,496.9117435493852,15.288,0,8.332122831340513,0.0837724123991736,-7.172909650249488e-08,0.0039139090812415,-0.0088233427130337,-0.0002957010049941,12.56402515598586,8.227388154287533,26.757852806683733,36.20149103341626
0.8,31.22216667174964,131.01043504680706,14.634331027065244,-5.665722992914623,-11.072920456358691,36.38536664348084,1.7009448927644637,4.183413968822673,377.42502064505743,28.77931912974976,12.89739200959667,70.01592832643605,-0.193158164383739,113.4944743813458,506.59436217752784,15.288,0,8.358252777464624,0.0845860179830326,-7.80411184499653e-08,0.004119307850486,-0.0092323797260369,-0.00031423256086,12.422120887737458,8.125986764165548,27.050795694789503,36.66454788679783
0.81,31.2221661811632,131.01043628037692,14.909438783936372,-5.555404861418586,-10.95994181438474,23.88945984555488,1.731769255057154,4.192272309212127,273.9374926939919,29.07977506574456,13.043639789859911,70.01832415572675,-0.2080229105104527,113.47865807427844,517.2135974894726,15.288,0,8.384254849556429,0.0854693608438425,-8.463553567764398e-08,0.004326686622846,-0.0096490087506942,-0.0003334889358025,12.272133647353986,8.021317808645119,27.368671243909613,24.316259243142788
0.82,31.222165684420748,131.01043752687855,15.187221333640837,-5.445164551709546,-10.844789820102232,30.510775953724007,1.7635899169870235,4.201421710470232,328.72500443277005,29.39021997172621,13.193316575850384,70.020836933821,-0.2235543378461695,113.46213264576237,528.301611648589,15.288,0,8.410102255636987,0.0863820708103209,-9.151584820105829e-08,0.0045358630709146,-0.0100729990660429,-0.0003533345715854,12.12040204401685,7.91677941503308,27.69687770722028,30.8491433119763
0.83,31.22216518149308,131.01043878635994,15.467693942351154,-5.345779158942424,-10.748544239379363,38.60726612832905,1.7928156701337787,4.209107735941565,395.68750322465047,29.65349753234156,13.326464328274476,70.023467493142,-0.2397649727780756,113.44488480514448,537.7945702078599,15.288,0,8.435779648859194,0.0871561571181418,-9.868534036106917e-08,0.0047468543675949,-0.0105045155871867,-0.0003730727209463,11.99051026019696,7.825106885211642,27.975005866074756,38.87739412387955
0.84,31.22216467226517,131.0104400591086,15.75094019280293,-5.246341222819738,-10.650178836311786,24.076112957949228,1.8229068302667244,4.217031067393173,275.4593748256452,29.92531044750228,13.462548503041132,70.026216687267,-0.256667160982538,113.42690144770349,547.6840328730042,15.288,0,8.461328567319102,0.0879553378682421,-1.061470925259836e-07,0.0049597042939586,-0.0109437867442864,-0.0003933637152079,11.858857277299348,7.733556666867275,28.262001359537624,24.5105192825269
0.85,31.22216415701344,131.0104413443352,16.03673666973515,-5.141641253410247,-10.539264050960732,26.19348205418681,1.855805177427164,4.226108286525023,292.96093233939376,30.235600564108367,13.611990413911592,70.02908515070492,-0.2742732415335311,113.40816949019934,559.085242974998,15.288,0,8.48672855985392,0.0888676173774675,-1.1390450529012533e-07,0.0051741129324066,-0.0113903386571892,-0.0004146125382937,11.713819273356464,7.635824613000743,28.58941691430877,26.597039426015204
0.86,31.22216363555636,131.01044264251038,16.325219263812716,-5.043925172033327,-10.4401341880881,32.63851627526561,1.8871868093335489,4.234261338021179,346.2265619465587,30.516227040181302,13.751029753566076,70.03207367129149,-0.2925960689014679,113.38867529445552,569.4957311614903,15.288,0,8.511997095343105,0.0896927186796128,-1.2196056480279617e-07,0.0053902427112239,-0.0118446416226847,-0.0004359282907193,11.582540540941004,7.5465795204502575,28.885354438271488,32.96609148477814
0.87,31.222163107906567,131.01044395357175,16.616371955276698,-4.95021690180738,-10.347108521161813,30.431250022461946,1.9179701222156968,4.241940154850004,327.964078366998,30.782054244094823,13.88485974264482,70.03518292960543,-0.3116484602267179,113.36840526741965,579.4445105476487,15.288,0,8.537132941936262,0.0904743301966784,-1.3031840813032376e-07,0.0056080412810189,-0.012306732516192,-0.0004574804646298,11.45862985074814,7.462383989308349,29.165554310915105,30.785282905905397
0.88,31.222162574088586,131.0104452774258,16.910169870529394,-4.8547420134927854,-10.248515049753104,26.380460727064705,1.9503560946620409,4.250177218204756,294.4828134710418,31.067096733384783,14.025320938815144,70.03841353755855,-0.3314432425632806,113.34734580878671,590.2088805257688,15.288,0,8.562120685899195,0.0913124271506584,-1.389811495554215e-07,0.0058274215749695,-0.0127765765727417,-0.0004797650482077,11.329102711019164,7.376205179273145,29.465834357503294,26.791726399288557
0.89,31.22216203417159,131.0104466138557,17.206552990096277,-4.757693192199958,-10.144623279763364,28.86887161226569,1.9843810200598448,4.258970337018086,315.028134248087,31.37148797276152,14.17244250795337,70.04176608912748,-0.3519934152778901,113.32548313631328,601.813983442226,15.288,0,8.586940848534876,0.0922074023968042,-1.4795190527564617e-07,0.0060482943682596,-0.0132541325365996,-0.0005028137835404,11.194279141969538,7.288211535436126,29.786287132448763,29.248732357657033
0.9,31.22216148807216,131.01044796306587,17.505581508148968,-4.670137020548976,-10.058529964763624,31.819312401662668,2.015403123403077,4.266176013610662,339.37814235421445,31.624395731675683,14.301601602098966,70.04524113694296,-0.3733123945967248,113.30280303095932,611.5388296040295,15.288,0,8.611632323806646,0.092951065119236,-1.5723362559866624e-07,0.0062707156294664,-0.0137396702744969,-0.0005254918758878,11.079692493328158,7.212286983706232,30.05250875979932,32.167230985018485
0.91,31.222160935850088,131.01044932486857,17.807203796740357,-4.5808564176287145,-9.966968006016373,24.353795776595035,2.048054863000956,4.27393601264748,277.7421810230789,31.89662551805744,14.437414809537742,70.04883920889964,-0.3954132081313111,113.2792916814772,622.0946470510094,15.288,0,8.636187843915325,0.0937515274912679,-1.6682931023062722e-07,0.0064945693925947,-0.0142330978866054,-0.000548920163759,10.959585387388888,7.134399152422917,30.33890200466939,24.810651472506017
0.92,31.222160377691736,131.01045069872438,18.11126798094475,-4.490067857133167,-9.87025925790918,28.87203569341743,2.082365788483064,4.282245215967304,315.02813424806214,32.18813112594358,14.579845252900457,70.05256063793983,-0.4183090121501799,113.25493515433593,633.498843282879,15.288,0,8.660595866135722,0.0946086541905999,-1.7674214723655517e-07,0.00671962823926,-0.0147340721281498,-0.0005731158361439,10.834335122450794,7.054724772192785,30.645371532286774,29.262062751089328
0.93,31.222159813501023,131.01045208487778,18.417845778036195,-4.4074999241262445,-9.78938532407367,34.22281858654509,2.113779102987691,4.289046592123057,359.1625070654728,32.43097010214609,14.70531879582014,70.05640586426684,-0.442013136137746,113.22971932361564,643.0746567674894,15.288,0,8.684868971357503,0.0953227460571301,-1.869747050202629e-07,0.0069459735433874,-0.0152429268338391,-0.0005968726479281,10.72700555981135,6.985909840474076,30.9007276551947,34.55524988729217
0.94,31.222159243164874,131.0104534836244,18.727023597427216,-4.320175174946651,-9.696364094611818,24.997954848072307,2.1484005937324446,4.297084734152562,283.0687504837787,32.71591371312392,14.84532841010082,70.06037516104425,-0.4665387381425893,113.2036302545414,654.4051778556335,15.288,0,8.709006919836481,0.0961606021845745,-1.9752951819019865e-07,0.0071736256942507,-0.0157598748421282,-0.0006218325951968,10.606828172955591,6.911085007619241,31.200072261644344,25.455418065902958
0.95,31.22215866695399,131.0104548941904,19.038582763270973,-4.235073957723515,-9.6063323953461,32.196364843468785,2.1829230322196143,4.30486702437114,342.4218736174873,32.99372833384473,14.9827831306828,70.06446876808424,-0.4918994916820751,113.17665347012397,665.546511699214,15.288,0,8.733000079251223,0.0969775127303593,-2.084098685503328e-07,0.0074023107445459,-0.0162844613710876,-0.0006470851419999,10.490425842032046,6.839353114608757,31.49182886184024,32.55615060469935
0.96,31.22215808457931,131.01045631736253,19.35274984645192,-4.154489100575655,-9.524532000583068,31.55130093358313,2.216061709786912,4.311835410982469,337.09533515678345,33.24577050752476,15.111240764517836,70.0686869902477,-0.518109072832972,113.14877448406344,675.7333042228476,15.288,0,8.756867285140718,0.0977186794211512,-2.196177947475959e-07,0.0076322638813345,-0.0168173904648373,-0.0006722632904839,10.383504006031952,6.773892534327288,31.75654156153989,31.92158274137593
0.97,31.22215749605336,131.0104577530888,19.669512169312373,-4.073571755353701,-9.440244071698707,20.37807264760476,2.250301227137001,4.319082128768291,245.02188719299323,33.50833690817902,15.24327192356211,70.07302998655342,-0.5451814671370759,113.1199784932629,686.4280985341447,15.288,0,8.780606257863585,0.0984907880279265,-2.311560603619109e-07,0.0078634179767204,-0.0173586891706124,-0.0006980726747922,10.274323014078709,6.7082287314757725,32.03216697151868,20.951949094987732
0.98,31.222156901645583,131.0104592005996,19.988652412343143,-3.988606047389124,-9.344884180758196,29.428332802161343,2.2878523058153326,4.327544765668422,319.5937466429581,33.81268852384849,15.38966687530881,70.07749782850102,-0.5731306458345728,113.09025071371424,698.9327676627292,15.288,0,8.804201017097862,0.0993857242111536,-2.430280223023919e-07,0.0080954500312985,-0.017907783240915,-0.0007251766174701,10.153544995442145,6.6371414870666365,32.35129686261508,29.832678112882423
0.99,31.22215630120749,131.01046066029252,20.310286221249928,-3.913780046495511,-9.271035831196832,32.10781245247077,2.320538866595137,4.333703250647126,341.6609485517054,34.0422088101458,15.510108395707014,70.08209070413861,-0.6019709794943728,113.05957593038636,708.4317883622776,15.288,0,8.827669521764545,0.1000607169415994,-2.552358300890997e-07,0.0083285031311694,-0.0184651833675895,-0.000751094117125,10.056630611918044,6.580351174686432,32.59226448456428,32.481956606385104
1.0,31.22215569473341,131.01046213217197,20.634417126881583,-3.8350475837595672,-9.186449744700468,28.781112468549303,2.356458606958373,4.3410340198470765,314.2672081822764,34.31242379899161,15.64453358403461,70.08680852121249,-0.6317162233079727,113.02793959494434,719.7005788935265,15.288,0,8.851004749086892,0.1008553323290645,-2.677819828328836e-07,0.0085624812184272,-0.0190308534567072,-0.000778300276193,9.94847555743842,6.518337167292202,32.8755942390482,29.201881933448433
1.01,31.222155082389257,131.01046361575789,20.960910507279426,-3.758322559040404,-9.104834756846742,30.074942773912102,2.3921316245683566,4.348042833452159,324.9203161036979,34.57376590128048,15.775803604498591,70.09165123235496,-0.6623807435653793,112.99532650986136,730.6826790596433,15.288,0,8.874203466700273,0.1016238758554513,-2.806693765609861e-07,0.0087971959316147,-0.0196045263535121,-0.0008057002308404,9.843976545611538,6.459384909960779,33.14959341771073,30.481633044259333
1.02,31.22215446409813,131.01046511125472,21.289827027299808,-3.6839687302138655,-9.02717830064003,25.17327855554632,2.4272375990111983,4.354599666609177,284.59063161540416,34.82193093718272,15.902439659874716,70.09661868081605,-0.6939786922026119,112.96172170957692,741.1863588609007,15.288,0,8.897271420117164,0.102353695891358,-2.93900106965571e-07,0.0090326677461439,-0.0201864419907886,-0.000833177822744,9.744180789694262,6.404102251216622,33.40980431330627,25.6621895763712
1.03,31.22215383992096,131.01046661848144,21.62111742840586,-3.607485791993709,-8.942682589143393,20.63870809172661,2.4647613072297614,4.361941783814042,247.30469339049705,35.09820870674289,16.038677240440958,70.10171062390167,-0.7265241717956263,112.92711028448072,752.9702248111955,15.288,0,8.920204501267035,0.1031661574616512,-3.074766340838476e-07,0.0092687711343322,-0.0207764893399801,-0.0008617119336865,9.637408848337904,6.345912712424132,33.69919177546003,21.238122707115647
1.04,31.222153209911347,131.0104681372756,21.95473774392803,-3.535129397125039,-8.866528999281856,32.57184158050656,2.500466934726804,4.36831061409866,345.46563688072297,35.343928249357226,16.164284832932438,70.10692681199005,-0.7600318076910868,112.89147677272184,763.5256226212631,15.288,0,8.94300604850564,0.1038888059722664,-3.214013583805474e-07,0.0095054253923526,-0.0213746624247786,-0.0008898718207791,9.54004888193386,6.294053005814411,33.956729320092364,32.958448635494435
1.05,31.222152573800138,131.01046966839067,22.29090543880596,-3.461320230589111,-8.78509733403416,19.79913507252878,2.538214473166691,4.375293270160816,240.45625879819983,35.61220890774424,16.297574044148835,70.11226689277368,-0.7945160761691334,112.8548058752565,775.1357791583417,15.288,0,8.96568868041534,0.1046777786022639,-3.3567557306009215e-07,0.0097428243209868,-0.0219816603219472,-0.0009189901170805,9.437405080471695,6.240233309989302,34.23764977678777,20.43505501661169
1.06,31.2221519318056,131.01047121120084,22.629444389322167,-3.386536012590545,-8.699426345940925,28.035076752289488,2.5778350293234222,4.382799245793101,308.17968365593924,35.89994446873441,16.43745213891657,70.11773052251844,-0.8299921340269875,112.81708157249584,787.6864788536454,15.288,0,8.988242833620884,0.105523945592205,-3.503024078713765e-07,0.0099806966520056,-0.0225970087361951,-0.000949002961794,9.330614033984483,6.18504809620677,34.53868615913795,28.49244972223508
1.07,31.222151283816576,131.01047276601216,22.970444472388245,-3.3175330635697144,-8.62663448213779,32.94163751181259,2.614089681772645,4.388719913763427,348.5093681440308,36.136822458471215,16.55973426107699,70.12331731963633,-0.8664755045984109,112.77828745954524,798.0893881454857,15.288,0,9.010681532551144,0.1062206311803703,-3.652836391329369e-07,0.0102191307338877,-0.0232211504128128,-0.0009780535354914,9.238048357491111,6.1390089075913,34.786867818686225,33.3353537450178
1.08,31.22215062973836,131.01047433309037,23.313984030729035,-3.248488126821256,-8.552138407627462,22.288535794667247,2.651354805142,4.394821342696299,261.00157857466235,36.381881356451686,16.684738533495125,70.12902677366915,-0.9039814112928408,112.73840745445736,808.9237525290274,15.288,0,9.033006263333345,0.1069413722632705,-3.806211603370436e-07,0.0104581311868772,-0.0238543336795049,-0.0010076822713693,9.144027770217251,6.093186575509872,35.04349728505497,22.87188153185329
1.09,31.222149969824496,131.0104759117101,23.65985868979946,-3.1755861895325426,-8.46589418065919,20.524197604902096,2.6929408334543448,4.402390833622175,246.54375332474407,36.67865356127461,16.82739686550628,70.13485830811966,-0.9425252598156733,112.6974252849841,822.147276460741,15.288,0,9.055203914613454,0.1078141291288431,-3.963182577779883e-07,0.0106973706475775,-0.0244959294261193,-0.0010391072605343,9.0378206218884,6.041336712718308,35.35366758041137,21.163073092287785
1.1,31.222149304143294,131.0104775016712,24.00801390746601,-3.1061984649080654,-8.387044996507964,40.81831417787611,2.732749732743428,4.409011871680656,413.1890617385841,36.94610502294592,16.959864024019076,70.14081127746519,-0.9821226311486037,112.65532449689844,834.1528734227286,15.288,0,9.07727888389274,0.1086007091598111,-4.12377124937292e-07,0.0109367564630663,-0.0251459149631671,-0.0010700710856773,8.939908623902774,5.995260612977845,35.63337093621446,41.14659255771044
1.11,31.222148632324146,131.01047910403082,24.35875397355557,-3.0425430449142112,-8.321841726225593,29.972122543929345,2.7684636865238894,4.413810391784447,324.1593910376397,37.15485717303958,17.072093885455978,70.14688498191198,-1.0227894125928485,112.6120883151146,843.5773104535942,15.288,0,9.09925228660138,0.1092147550146766,-4.287980887045085e-07,0.011176605393774,-0.0258053932705697,-0.0010996799572844,8.856913640815867,5.958920643616345,35.85225650405047,30.421608161741606
1.12,31.222147954426383,131.0104807186237,24.712034417845214,-2.9709663834749165,-8.233581941693574,11.515430307069792,2.812637424678776,4.4216272760707644,172.73281794065943,37.46755092273912,17.219859492596104,70.15307859177113,-1.0645412140329542,112.56770026307696,857.8069736136683,15.288,0,9.121114602445244,0.1101343409823133,-4.455836280754672e-07,0.0114167463203544,-0.026474171146338,-0.0011327229908046,8.749723409639756,5.9094546389061255,36.178669631892696,12.651752930253503
1.13,31.22214727098901,131.01048234389685,25.06741473581298,-2.905090617951785,-8.159062858671637,35.25556823982093,2.852634192118074,4.427584508287881,367.5328077900705,37.720678566676,17.34707280756699,70.15939133964646,-1.1073949524099047,112.52214247817317,869.4069913036402,15.288,0,9.142851390798093,0.1108788440700837,-4.627383485670433e-07,0.0116566240231402,-0.0271509490770116,-0.0011642963024873,8.657524134491739,5.869745455526724,36.44338313872346,35.64682480003994
1.14,31.22214658140912,131.01048398158906,25.425393838498675,-2.8432789205475464,-8.094228631611896,19.66662633499202,2.8896079834712625,4.4321600607601646,239.69531773195544,37.92999474823358,17.459182555651804,70.16582219554867,-1.1513661984694985,112.47539853504728,879.0524039352144,15.288,0,9.164491517820949,0.1114945733577539,-4.80260822279785e-07,0.0118967696681299,-0.0278374856564206,-0.0011948355471737,8.575949589217764,5.837383856879646,36.662781187456645,20.365904558907765
1.15,31.2221458861325,131.01048563042286,25.785609900733466,-2.773922787154925,-8.006503676853207,19.38241666445113,2.935561891860711,4.439852625187024,237.41251153546767,38.247695865941935,17.6082584229681,70.17237003810206,-1.1964705835080058,112.42745194663416,893.8090096983793,15.288,0,9.186008802624327,0.1124289074208198,-4.981554114457103e-07,0.01213661729938,-0.028532454404526,-0.0012290914749947,8.470453978033852,5.79178320485098,36.99412631229572,20.099947529999124
1.16,31.222145185283367,131.01048729003656,26.14796246910452,-2.714417004604152,-7.945123917492019,50.19952567908859,2.9721580931867075,4.443800307992822,490.0437743845894,38.44208591361759,17.7150243776933,70.17903379121323,-1.2427249965097542,112.37828489370376,902.88605781185,15.288,0,9.207412453950166,0.1130007780702381,-5.164241375698361e-07,0.0123760517408273,-0.0292357712058699,-0.0012596654454185,8.393197203982618,5.764050232596316,37.19806460463437,50.48339789786031
1.17,31.22214447807876,131.01048896271269,26.513105654523496,-2.651413573565629,-7.872103668026685,9.157048609814955,3.013647323251648,4.4493154996334425,153.70937929486794,38.69268734976163,17.840909150440815,70.18581213320383,-1.2901450885865346,112.32788087864952,914.66405431005,15.288,0,9.22873075942672,0.1137378914224804,-5.350642595830884e-07,0.0126157437355938,-0.0299497118208262,-0.0012923872782732,8.303957648420838,5.730204913136248,37.46002694043825,10.617439326256319
1.18,31.22214376555881,131.01049064543778,26.880182324414047,-2.583771062108734,-7.78362157709981,24.56716944891055,3.061915516257826,4.457027357936871,280.02501822196746,39.021505325912685,17.9933496843558,70.19270374308272,-1.3387474475271184,112.27622240976346,930.2432940000864,15.288,0,9.249917832127458,0.1147049333111752,-5.540838196539884e-07,0.0128545415960586,-0.0306711569982836,-0.0013279943299852,8.198750725394985,5.6875833149419295,37.802614137342026,25.15524267880519
1.19,31.222143047258616,131.01049233956687,27.2495819821846,-2.5287976926268416,-7.731164271338309,42.68089898972196,3.096149045837692,4.459388000013044,428.4078130529292,39.17213891155824,18.08483967476977,70.19970724819588,-1.3885491744527043,112.22329145644063,937.405874134428,15.288,0,9.27101083868129,0.1151482054835649,-5.734807399179764e-07,0.0130929447933501,-0.0314018770393166,-0.0013577969205425,8.131842094383389,5.669328851607896,37.96141228880886,43.024776801507656
1.2,31.222142322787647,131.01049404626303,27.621639367905853,-2.46509805187122,-7.650889695593935,4.669502750032784,3.1422505978517927,4.465760795975982,117.1843741360236,39.463049634561806,18.22407414849213,70.20682099435993,-1.4395657770230097,112.1690716859784,951.3468056117432,15.288,0,9.29198266970821,0.1160038372967806,-5.932544662041364e-07,0.0133311702908567,-0.0321428901310988,-0.0013927193019674,8.035960173918786,5.634413685918841,38.264819078747706,7.184776561532009
1.21,31.222141593178424,131.01049576250924,27.99549633431791,-2.4027038146994744,-7.572749204899327,34.314463626304075,3.1881240099185875,4.471755615022201,359.92343213200894,39.745510532931895,18.36025369560633,70.21404342635495,-1.491814725420697,112.11354468200405,964.9796158011186,15.288,0,9.31281912509636,0.1168346398349802,-6.134132079744887e-07,0.013568122633655,-0.0328911003705121,-0.001427568372729,7.942660598390241,5.601972525746117,38.55944609769836,34.751160368310686
1.22,31.22214085765388,131.01049749059857,28.37181015261645,-2.348665027704536,-7.519065327295248,24.920407315117146,3.2238307653584326,4.4739020987049285,283.0687504825761,39.90069197210349,18.45295401375297,70.22137276589766,-1.5453124489441517,112.05669314158008,972.494457206018,15.288,0,9.333569584058594,0.117291304405781,-6.339521157323713e-07,0.0138045699659428,-0.0336492325536249,-0.001458064336526,7.875332635182646,5.586772561823952,38.722987153317234,25.52323618869308
1.23,31.22214011653496,131.01049922961124,28.750321188252524,-2.287053773978904,-7.439889009761741,9.847108936416491,3.271217778182133,4.479868791205261,159.79687382222795,40.19084003083856,18.591468026295946,70.22880701912554,-1.600074359483764,111.99850084551746,986.653487276768,15.288,0,9.354210008081765,0.1181447227436796,-6.548750967077213e-07,0.0140400185751347,-0.034416077345254,-0.0014936620679038,7.781589113962206,5.556019654836193,39.02546637847863,11.302019489647115
