Time,Latitude,Longitude,Altitude,Angle of Attack,Angle of Sideslip,X-Acceleration,Y-Acceleration,Z-Acceleration,Thrust,True Velocity,Ground Velocity,Pitch,Roll,Yaw,Dynamic Pressure,cp,parachute_deploy_gain,Wind Speed,Mach,omega_x,omega_y,omega_z,Cmq
0,31.2221860000000042,131.010383999999988,3.00000000364323682,0,0,0,0,0,2.2828121974499247,0,0,69.9999999962342088,0,113.699999993883324,0,15.2880000000000003,0,0,0,0,0,0,-0
0.01,31.2221859999997946,131.010384000000556,3.00000016469923247,0,0,0,0,0,34.2421869617492334,9.11367326775851009e-12,8.66229497295429822e-12,69.9999999962370651,-4.92863947922479589e-13,113.699999993882884,5.08594204168408172e-23,15.2880000000000003,0,0,2.67827100510624443e-14,-3.65918233213857746e-19,7.58941520739853104e-19,4.81114714040442593e-19,-1.83541113936281872e-32
0.02,31.2221859999996028,131.010384000001039,3.00000030885429547,0,0,0,0,0,25.8718762377664078,1.96992978605390895e-11,1.88456988716431921e-11,69.9999999962400494,-1.04152381447771591e-12,113.699999993882386,2.37621641206600858e-22,15.2880000000000003,0,0,5.78911013494094702e-14,-7.28448334638698292e-19,1.51788304147970621e-18,9.75781955236953991e-19,-7.93451985123442364e-32
0.03,31.222185999409362,131.010384001586402,3.00018176030779937,18.6493779029494604,-0.000129237623237530007,10.7928899806483045,-1.97644583900689674e-05,3.34983967390763571,180.342193598546658,0.0785672533977095078,0.0490694047558625918,69.9999999976775626,-4.2497891361524094e-12,113.699999994705607,0.00377978965327356543,15.2880000000000003,0,0,0.000230888677896110966,2.88330015245363835e-17,-7.25223402354589416e-10,1.08188208080271277e-11,1.51197624781400831e-13
0.04,31.2221859959356287,131.010384010943454,3.00162780953569674,9.74253989061216075,-4.88763086122285772e-05,51.6475445943311158,1.54548216767323456e-06,3.34965665682309899,548.635972453807767,0.346420694310776434,0.171860503977579737,70.0000000036447574,-2.28205307288861013e-11,113.699999999565534,0.0734838809649275282,15.2880000000000003,0,0,0.00101804013696402693,1.80009747884589399e-15,-1.58734069119923437e-08,2.61929145365345784e-11,1.45916869803439425e-11
0.05,31.222185985910329,131.010384038045004,3.00715844163023283,5.5769968489095687,-4.21135943534799539e-06,75.3242160169835273,4.73080294831520123e-05,3.34902689347595528,761.698429882464552,0.947854334293939504,0.409211128642743283,70.0000000010935537,-1.04766136577077691e-10,113.700000013612069,0.55013262299765131,15.2880000000000003,0,0,0.00278549703395658196,1.95473045844392346e-14,-1.13584749331540247e-07,4.14067569904437612e-11,2.85688606727574374e-10
0.06,31.222185966868647,131.010384089593572,3.01868664272593046,4.48500474963244322,2.31139019787050305e-05,56.3605563030587007,9.71465785775115924e-05,3.34799244711343214,590.487539073720654,1.60618980149218604,0.665693519146445256,69.9999999197690244,-2.82941102348924619e-10,113.700000040305838,1.57971028663545732,15.2880000000000003,0,0,0.00472017413217633904,1.01936766184118274e-13,-4.07864410983111553e-07,5.76522069423461223e-11,1.73837509686130208e-09
0.07,31.2221859390775336,131.010384164863126,3.03600551209402658,4.00448286551149391,4.63712119495135773e-05,85.8192455386477917,0.000147926970097503541,3.34656708333141317,855.293774977913927,2.27788210706903049,0.926660947343454056,69.9999996219982279,-5.49831570978999292e-10,113.700000079276109,3.1772067926123353,15.2880000000000003,0,0,0.00669410445039518576,3.35900025920073467e-13,-9.92070622953462368e-07,7.83315922772719921e-11,5.99658406989250883e-09
0.08,31.2221859009658012,131.01038426812616,3.06033476575187802,3.77263127792190334,7.06371256062416025e-05,17.6076228145981588,0.000196957592070898702,3.34480227118667583,241.217198863884818,2.92612482887636283,1.17954495655796454,69.9999989088305909,-9.15694670892462832e-10,113.700000132739973,5.24285298735243899,15.2880000000000003,0,0,0.00859912396431777512,8.49635706706491564e-13,-2.01744800413265681e-06,1.10032289818440005e-10,1.56647792516492608e-08
0.09,31.2221858556197738,131.010384390989856,3.0892797608365723,3.74258231141200604,9.5325675231994802e-05,53.4176180048964397,0.000237730218002333866,3.34289666486112669,563.093737704317618,3.46187703891102627,1.39384941462988121,69.9999975134546446,-1.31671842773002699e-09,113.70000019638816,7.33844512707370811,15.2880000000000003,0,0,0.0101735644468633635,1.80613395740032365e-12,-3.4856561047658452e-06,1.59232278560273843e-10,3.20202005890100843e-08
0.1,31.2221858028175774,131.010384534057465,3.12301320909491364,3.81071421019783685,0.000121971080758598364,50.732831688561788,0.000271545837515448313,3.34090447591365036,538.7437595981919,3.9029133825176725,1.57567038389986336,69.999995157830341,-1.72222432289554893e-09,113.700000270567642,9.32732681847184431,15.2880000000000003,0,0,0.0114696609641860067,3.37914451533694905e-12,-5.48904943388414521e-06,2.34452541412924053e-10,5.68476506314615152e-08
0.11,31.2221857431700727,131.010384695667796,3.16106164078641116,3.84323765504598036,0.000147145408783231387,40.0848474374385688,0.000307099758177995722,3.33859717034531034,442.865639305294906,4.36819921201157246,1.76578242121538631,69.9999915253729768,-2.07703942468805025e-09,113.700000354470319,11.6837607126815346,15.2880000000000003,0,0,0.0128370221364947634,5.76365694334259916e-12,-8.08162139954488366e-06,3.4437809457680147e-10,9.36754562129998513e-08
0.12,31.2221856770245907,131.01038487487628,3.20315617196047642,3.86558564807459826,0.000171348089099210797,43.7480799143332604,0.000342946594964391399,3.33600966231316054,475.585948135404465,4.83801864946757032,1.95742650583495204,69.9999862600106582,-2.3147200577597177e-09,113.700000447673773,14.3321420062794882,15.2880000000000003,0,0,0.0142177082532951912,9.17772063248746377e-12,-1.13223702306849879e-05,4.98555567062495836e-10,1.45354343598177095e-07
0.13,31.2221856047215205,131.010385070757366,3.24903338361815308,3.95285669440916232,0.000198169826234992146,48.2585391180499741,0.000371981107240517913,3.33344523512332414,515.915632623689476,5.21512035057569623,2.1172615234944101,69.9999789703044399,-2.35265113573284059e-09,113.700000549782459,16.6533950244453948,15.2880000000000003,0,0,0.0153259223232261182,1.38588880633063252e-11,-1.52681962163171846e-05,7.07166414280215559e-10,2.11287244421402401e-07
0.14,31.2221855263490333,131.010385283071088,3.29862557546706325,3.99981420118284792,0.000223008237377726162,44.9721767850953427,0.000403855591455553264,3.33052592490198407,486.239086056840392,5.63167615200940475,2.29059513099545553,69.9999692426645623,-2.0964169591742506e-09,113.700000660771011,19.4199179783547713,15.2880000000000003,0,0,0.0165500839355928395,2.00553635588333716e-11,-1.99811439493909854e-05,9.81252131659242702e-10,2.9859131057555361e-07
0.15,31.2221854420015994,131.010385511560628,3.35186028506811029,4.05975476911301225,0.000248539990764711958,43.4637160193537753,0.000433543226731567866,3.32747422849243879,472.54218587214001,6.01888316560526437,2.45383766868271946,69.99995661705006,-1.43188768134039915e-09,113.700000780625842,22.182048585914238,15.2880000000000003,0,0,0.0176879988684610287,2.80404916713566325e-11,-2.55291719775422389e-05,1.33309260321839681e-09,4.07727088477750495e-07
0.16,31.2221853515819241,131.010385756490507,3.40881389436676407,4.08854462484130732,0.000272210944932510383,34.4023069357135967,0.000465877824565354701,3.32404684464906053,391.12189082975641,6.44303061809316624,2.62971580822363071,69.9999405987561403,-2.27841984783363582e-10,113.700000909623355,25.4183784408083007,15.2880000000000003,0,0,0.0189344747787753703,3.81042963600432359e-11,-3.19913711614788564e-05,1.77662362644707755e-09,5.46937370926295155e-07
0.17,31.2221852554099399,131.010386016990765,3.46923909377793649,4.13347468842419552,0.00029684158695823977,43.4155809381403728,0.000495744973995866601,3.3205135250562221,471.78125980632376,6.83404379119085981,2.79420112365087148,69.9999206448319882,1.67575894446247236e-09,113.700001047478835,28.5969980778046526,15.2880000000000003,0,0,0.0200835795555658371,5.05622819343119236e-11,-3.94162603380559734e-05,2.32482468580976756e-09,7.14768170397066036e-07
0.18,31.2221851530022434,131.010386294375877,3.53351204963262022,4.16207877285686756,0.000320492787063832857,36.2151660219171347,0.000526966735016640565,3.31665933612355879,407.101567211914528,7.2444022294323478,2.96528531587496236,69.9998961790314524,4.45070668055043651e-09,113.700001195059045,32.1341903991183955,15.2880000000000003,0,0,0.0212895378539265934,6.5741708189353534e-11,-4.79243856484647045e-05,2.99669991322666987e-09,9.21230820748327094e-07
0.19,31.2221850444828668,131.010386588308563,3.60153760019172342,4.17456309251139679,0.000342914278589344943,40.9041800427263027,0.00055982867240863632,3.31244583927210501,448.953132831826849,7.67810673790947895,3.14433961722118216,69.9998665624008964,8.30674092292676784e-09,113.700001352409558,36.0967170721845179,15.2880000000000003,0,0,0.0225641073333706747,8.40032927522686365e-11,-5.75836346763551867e-05,3.80911503044151526e-09,1.17316671380156179e-06
0.2,31.2221849296486234,131.01038689934137,3.67347464118590317,4.20078915399145636,0.000366573034254704516,37.5214898208491761,0.000590466919182690893,3.30812712915434881,418.515630199161365,8.08216006412957277,3.31318683933006453,69.9998311045104487,1.34800080829191884e-08,113.700001520067786,39.9955165273270055,15.2880000000000003,0,0,0.0237515420632470921,1.05728805481567758e-10,-6.85028882131185225e-05,4.78351733027568889e-09,1.4690610466811608e-06
0.21,31.2221848088436893,131.01038722653837,3.74905730552401684,4.22722562033261262,0.000390310433246848657,36.0064697775761644,0.000620601272787201603,3.30359776763142721,404.818761014464428,8.48018829437500621,3.47992805775657654,69.9997890742529592,2.02433263776548733e-08,113.700001697833756,44.0315784885794201,15.2880000000000003,0,0,0.0249212734096428447,1.31320595517854955e-10,-8.07208291683553139e-05,5.93661589182972911e-09,1.81631626331753899e-06
0.22,31.2221846819136672,131.010387570319409,3.82840670130281646,4.2176244726165093,0.000410696285369717819,43.5935627685881499,0.000655758920494764063,3.29841875767922987,472.542185872136486,8.94831461811120121,3.67066782999472752,69.9997397083127737,2.88926538075102191e-08,113.700001886238866,49.0266756129506618,15.2880000000000003,0,0,0.0262970098082033268,1.61186003536399267e-10,-9.43348117723774896e-05,7.29106197993283208e-09,2.23980539128825791e-06
0.23,31.2221845484548304,131.01038793178239,3.91183756115468473,4.25320537954326383,0.0004356497720089569,36.207459360748949,0.000683686922722525747,3.29355466128287455,406.340642146102141,9.31799902525197865,3.82760028360492655,69.9996821549030983,3.9766623706965518e-08,113.70000208621326,53.1608354775167555,15.2880000000000003,0,0,0.0273834518362109196,1.95767624418301473e-10,-0.000109505708778552874,8.87784718088286285e-09,2.70740355927931971e-06
0.24,31.2221844093456014,131.010388308538637,3.99866964940866776,4.27135264557773553,0.00045883378920767232,37.3286080087975947,0.000713911697673520317,3.2882529474867046,416.232824001711379,9.7203332459195213,3.9956861712714935,69.9996155408946805,5.32509871046438109e-08,113.700002296918697,57.8502398901668755,15.2880000000000003,0,0,0.0285658473732890855,2.35534745143307651e-10,-0.00012617657385590063,1.07071802425012536e-08,3.25424194465518317e-06
0.25,31.2221842644570167,131.010388700938847,4.08900446593793809,4.29698686981540234,0.000482848983334858658,38.3649566400252979,0.000742483922667206905,3.28284626589867479,425.364080791506922,10.1009615935159527,4.1562806652626314,69.9995389781877293,6.97479781374676735e-08,113.700002518962805,62.4689963611702623,15.2880000000000003,0,0,0.0296844577155840929,2.80933085873043406e-10,-0.000144451636124542286,1.28055329635332884e-08,3.87142965072796435e-06
0.26,31.2221841140756986,131.010389108203611,4.18262110402873155,4.32755423691547136,0.000507438991606541483,41.7865661614553829,0.000769736419800412888,3.27732087646770287,455.80158342417883,10.4644497354123782,4.31094871887776954,69.9994515368878751,8.97024502886333285e-08,113.700002752408935,67.0452443356678742,15.2880000000000003,0,0,0.0307527002093570291,3.32431765373287754e-10,-0.00016436315770221847,1.51925047864838523e-08,4.56355359993810651e-06
0.27,31.2221839578137299,131.010389531387915,4.27982215321117465,4.33742811840656994,0.000529702335486379188,38.2242911032538473,0.000800211178185602123,3.27123004841987974,423.842199659872563,10.8736118498261902,4.48123226393084195,69.9993522521519935,1.13587393208351198e-07,113.700002998306658,72.3900346549699947,15.2880000000000003,0,0,0.0319551720828357214,3.90484337603431509e-10,-0.000186059811616844751,1.79019946498730075e-08,5.36790267753501075e-06
0.28,31.2221837957695953,131.010389970223883,4.38053283172365671,4.35979025650862262,0.000553527510562852902,44.1207307275094038,0.000828072271385077072,3.26514386100193477,476.346873201222195,11.2478718916014184,4.63949182586423614,69.9992400702920463,1.41938296327408329e-07,113.700003257081931,77.4582454645660761,15.2880000000000003,0,0,0.0330550782151640757,4.55595825375374429e-10,-0.000209619220926101062,2.09616181379585756e-08,6.25569396794615011e-06
0.29,31.2221836278828384,131.010390424876022,4.48480177698289584,4.38135974025744623,0.00057737648726709299,35.3536197607625553,0.000855659611391794222,3.2588361863853601,397.970310422111766,11.6195889013503368,4.79682445966682813,69.9991139044831527,1.7532937395312496e-07,113.700003529427192,82.6616578528940948,15.2880000000000003,0,0,0.0341475147840558241,5.28268525040872464e-10,-0.000235137545717689308,2.44023887909330158e-08,7.24907222782668121e-06
0.3,31.2221834544381096,131.010390894570321,4.59240982688131272,4.39617507281761988,0.000600356665334356751,33.1490797613948018,0.000884158719714270942,3.25217107922164672,378.185945710871067,12.0052186882677852,4.95887519756831807,69.998972627127344,2.14383684192303281e-07,113.700003815596887,88.2385269149682756,15.2880000000000003,0,0,0.0352808420099011907,6.09029939588318471e-10,-0.000262641159892275291,2.82471356422800846e-08,8.36561857411674722e-06
0.31,31.2221832755909574,131.01039137888381,4.7032380575360353,4.42235615181669761,0.000624899913490765827,34.9528590290802086,0.000910025197609511073,3.24555398289468222,394.16562209302117,12.3556398803864607,5.10879227158949156,69.9988150759387651,2.59766173767152649e-07,113.700004116072961,93.4639131761651498,15.2880000000000003,0,0,0.0363107024397255479,6.98403788157463991e-10,-0.000292187019282257228,3.25229566712151178e-08,9.57826248689966157e-06
0.32,31.2221830914257232,131.010391877587324,4.81722282885169673,4.45155794779377789,0.000649944303128982049,38.0379859115142835,0.000934821026682707218,3.23882361682650144,421.559393462426954,12.6924793110791878,5.25399282922068878,69.9986400687318024,3.12179641788393281e-07,113.700004431478234,98.6283237403037703,15.2880000000000003,0,0,0.0373006526995305274,7.96905013945712519e-10,-0.000323836613651358495,3.72580440687311147e-08,1.09050644159405278e-05
0.33,31.22218290196043,131.01039239063175,4.9343519698327194,4.48019701204722054,0.000675004219851668761,37.7093551175013246,0.000959261610436717115,3.23189933669563656,418.515630199168186,13.0256844327599097,5.39788776638052958,69.9984463826819052,3.72372687880250348e-07,113.700004762578004,103.87354288045799,15.2880000000000003,0,0,0.0382799263433428877,9.05047894999210997e-10,-0.000357667290238851605,4.24836225249657193e-08,1.23603484615852587e-05
0.34,31.222182707020778,131.010392918491164,5.05476263450916541,4.49049305198152204,0.000697378143373914754,29.5227085089536203,0.000987142430045659337,3.22427911658814059,345.465636880756449,13.4081741031825317,5.55863100914667463,69.9982327456812641,4.41143957445642244e-07,113.700005110463266,110.062177258613033,15.2880000000000003,0,0,0.0394040418267209702,1.02333461745717641e-09,-0.000393806243978271305,4.82396483202145133e-08,1.40087103268591529e-05
0.35,31.2221825067937928,131.010393460657156,5.17831168393457641,4.50711781535187139,0.000720712543856854714,32.3530371383660977,0.00101333646443235357,3.21661305844837253,370.576570052703289,13.7686530554979374,5.71176159517965232,69.9979978091806316,5.19362042776584697e-07,113.700005475786654,116.058400304168075,15.2880000000000003,0,0,0.0404634764462946869,1.15232390415689195e-09,-0.000432299813734132244,5.45552399130644805e-08,1.57912776608867467e-05
0.36,31.2221823012122108,131.010394017312592,5.30505329869157727,4.52767240178778962,0.000744729708600240731,36.5526511043957356,0.00103828652712813154,3.20885713174522058,407.862523277719447,14.1132764952183631,5.85938873702120233,69.9977401961163537,6.07939829707116331e-07,113.700005859608282,121.939407863977465,15.2880000000000003,0,0,0.0414763190843316643,1.29254043868676357e-09,-0.000473255972436325862,6.14699225552327593e-08,1.77198251922661022e-05
0.37,31.222182090341061,131.010394588280832,5.43493909097431604,4.55039311415752579,0.00076918150115683735,34.6835787828593496,0.00106234372950533948,3.20097384516078431,391.121890829766642,14.446930470491731,6.00318739776240751,69.9974584775585669,7.0785096329375243e-07,113.700006262864989,127.771540530283914,15.2880000000000003,0,0,0.042456928843506235,1.4445318520011827e-09,-0.000516746496826029863,6.90186481791334769e-08,1.98053803654614999e-05
0.38,31.2221818741223878,131.010395173719473,5.56801609611825477,4.56315131642791805,0.000792019287104061913,36.2353933787001239,0.00108827974821363053,3.19255015153205646,404.818761014460279,14.8084413239345949,6.1564787166299757,69.9971511865591651,8.20121521966083772e-07,113.700006686723384,134.244380272309172,15.2880000000000003,0,0,0.0435194095147296359,1.60882660749176723e-09,-0.000562873331420229127,7.72423853301427293e-08,2.21128406351508731e-05
0.39,31.2221816525004634,131.010395773780147,5.704329739781131,4.57922628245169783,0.000815489716137310881,30.9425419640016202,0.00111309493143926189,3.18402316666385765,357.640624933827439,15.1559126959619999,6.30488433186772657,69.9968167722787769,9.45855271408966431e-07,113.700007132429306,140.616382889747683,15.2880000000000003,0,0,0.0445406353688629561,1.78596578656278109e-09,-0.000611756345505213715,8.61868943159197994e-08,2.45968452142520012e-05
0.4,31.2221814256617982,131.010396387955836,5.84373750626454935,4.59349479979191955,0.000838670682925170751,29.5834243852937959,0.00113797512888990423,3.17521289611434332,345.465636880754005,15.505969085398343,6.45410901523083158,69.9964536498379317,1.08621525395706341e-06,113.700007600947828,147.185065961143067,15.2880000000000003,0,0,0.045569462889951777,1.97653506559195414e-09,-0.000663427505461186432,9.58835144134294998e-08,2.72901174189528038e-05
0.41,31.2221811937141673,131.010397015953487,5.98615797249314241,4.60939449845229365,0.000862163931524819621,33.360545626359837,0.00116210409424792778,3.16624854525325983,378.946870776686467,15.8471768437686258,6.60022848408685459,69.9960602026584695,1.24241947051318175e-06,113.700008093413757,153.73182724817184,15.2880000000000003,0,0,0.0465722905345462151,2.18109996727848554e-09,-0.000717942131686907965,1.06367950505874699e-07,3.01820283711074823e-05
0.42,31.2221809567080335,131.010397657635991,6.13155423418529733,4.63387609959193458,0.000887317919769279608,37.5676427387571721,0.001183742077125155,3.15743374731593907,416.232824001711379,16.155026338188506,6.73482947265292431,69.9956347739890248,1.41574639558456e-06,113.700008611107208,159.760443802515937,15.2880000000000003,0,0,0.0474770882933877245,2.400206535531791e-09,-0.00077537935552726017,1.17680930846389008e-07,3.32294321368729263e-05
0.43,31.222180714655078,131.010398312971745,6.27991949833728835,4.65367427313455995,0.000911660169575580258,33.0386483003103493,0.00120612360190941372,3.14823214930187856,375.903139513433644,16.4750454055619109,6.87353555569934649,69.9951756835756242,1.60752723178871754e-06,113.700009155418982,166.15023929888028,15.2880000000000003,0,0,0.0484176551665520677,2.63438237315801404e-09,-0.000835821567166909188,1.29864614855892046e-07,3.65287677570896608e-05
0.44,31.2221804673911407,131.010398982407111,6.43138341412837455,4.65757387742934892,0.000932929976641759203,30.4788052564327749,0.00123214974254881528,3.13809943757763454,353.075012538921555,16.8483715860516412,7.03046484016701978,69.9946811832270441,1.81916859536649675e-06,113.700009728069276,173.762989227436179,15.2880000000000003,0,0,0.0495148886868988364,2.88411342836306464e-09,-0.000899417740154189794,1.42975581697416844e-07,4.01983191819108926e-05
0.45,31.2221802146980103,131.010399666535704,6.58611776122768511,4.65827001030579346,0.000953562143933252499,35.4620561517945134,0.00125873275223327787,3.12754579585638304,397.209385356286873,17.2316459864824161,7.19073264961644831,69.9941493995125938,2.05218870761162579e-06,113.700010330973456,181.755888424112015,15.2880000000000003,0,0,0.0506413642318551335,3.14987863732273609e-09,-0.000966369542842942814,1.57083782729145849e-07,4.41725079750487196e-05
0.46,31.2221799565319174,131.010400365476642,6.74415901717088939,4.66907507286434065,0.00097630283571516251,41.3913707355688842,0.0012823814722795761,3.11722412848720953,449.71405889764344,17.5754687869478978,7.33738035579407555,69.9935783582983362,2.30821229426708146e-06,113.700010965912341,189.078525726536213,15.2880000000000003,0,0,0.0516519027755614896,3.43223060675433133e-09,-0.00103681314204437207,1.7224885851047691e-07,4.83373548649469587e-05
0.47,31.2221796928065203,131.010401079464799,6.90557672428163105,4.67806301106434042,0.000998761260684927557,28.0209900204918974,0.00130616618884544979,3.10657060381263461,331.007810630253402,17.9233234115620377,7.48533101007974988,69.9929660462147325,2.5889364060732201e-06,113.700011634803886,196.634049649816575,15.2880000000000003,0,0,0.0526742959306323727,3.73170463860384924e-09,-0.0011108841623615434,1.88532207060213475e-07,5.28148505664365441e-05
0.48,31.2221794239793269,131.010401807256216,7.07001851744381948,4.68642527483421745,0.00102109091231145262,27.6007969606275125,0.00132978852885184593,3.09563681785184297,327.203122301157407,18.2709832353803314,7.63313726727991071,69.9923104035261474,2.89614261094227829e-06,113.700012338884164,204.33305198470137,15.2880000000000003,0,0,0.0536961221459722679,4.04904859899578719e-09,-0.00118849531779471017,2.05948560519311644e-07,5.75998398329450787e-05
0.49,31.2221791502289392,131.010402548365278,7.23734841566291642,4.70156796398202914,0.00104489945272251677,34.6487244505178253,0.00135120419031512233,3.08484494341801163,389.60000969812296,18.589315545984995,7.7707981814672209,69.9916093757078812,3.23165731652504743e-06,113.700013079832303,211.511801733856089,15.2880000000000003,0,0,0.0546317638991248022,4.38486615800834454e-09,-0.00126967773493266863,2.2453662401782158e-07,6.26054017926546362e-05
0.5,31.2221788715876762,131.010403302704333,7.40754387012007864,4.72212438923579736,0.00106996435823571525,35.6033845714535389,0.00137072557486675028,3.0741588573465477,397.970310422105001,18.8826594549893159,7.8998011517407587,69.9908609011483378,3.5973597360057951e-06,113.700013859590555,218.236320199079358,15.2880000000000003,0,0,0.0554939729313439212,4.73968531279909998e-09,-0.00135450679800636423,2.44344941868023912e-07,6.78409867869358833e-05
0.51,31.2221785881337617,131.010404070060673,7.5805467220577798,4.73558879650721298,0.00109346949398930206,27.1956639286467201,0.00139183542187690463,3.06284319292573448,323.39843497208409,19.200774511812984,8.03722958125224807,69.9900628955037689,3.99519228958782199e-06,113.700014680103109,225.647740475438098,15.2880000000000003,0,0,0.0564289867670437692,5.11403675587933804e-09,-0.00144303978709531136,2.65418546512062939e-07,7.34915902759761199e-05
0.52,31.2221782998674264,131.010404850463857,7.75636795277497626,4.74574769224104909,7.31242439233968256,32.7537619674710143,-0.417436866920538885,3.05096226726603792,372.098451184341457,19.6874052187505768,8.17731046974690656,69.9892128712149599,6.58698639781494765e-06,113.700017842098987,237.226457142155851,15.2880000000000003,0,2.50644307058047655,0.0578592562156002854,5.5088192278375742e-09,-0.00154119117345392497,2.87182966565621746e-05,8.04781998967433207e-05
0.53,31.2221780068919088,131.010405644402454,7.93511635214555167,4.75645612737697387,7.20963206467520301,34.3969111458954231,-0.428282201145368469,3.03900215352916891,386.55624643486243,20.0088597396768044,8.31638373498449646,69.988305922000805,0.000156821249152512852,113.700178139964521,245.032329043728623,15.2880000000000003,0,2.51597451950740414,0.0588040965187533043,5.97815341896057602e-09,-0.00163754223564647138,0.00017779280875958916,8.69041780505392308e-05
0.54,31.2221777092164494,131.010406452188221,8.11686563678870598,4.76692807965758369,7.11039434017316641,30.1941805526186755,-0.439256003930878769,3.02678545961064094,349.270324209843579,20.3284524964651929,8.45471308199749494,69.9873427168478628,0.000544285417061664213,113.700590919857831,252.918016709277765,15.2880000000000003,0,2.52548585404394643,0.0597434710999479382,6.5515170970397601e-09,-0.0017380399482827256,0.000330743459660228542,9.37092151838816523e-05
0.55,31.222177407108564,131.010407273112918,8.30141520622389528,4.7785114369613666,7.0164162035351918,32.0093474681000671,-0.450229363489839496,3.01440645138956098,365.250000591990727,20.6405220589310971,8.59034329333955604,69.9863208832799444,0.00117493643513408644,113.701262524362392,260.738275293017807,15.2880000000000003,0,2.53496139706662582,0.060660741421167251,7.22921942898567776e-09,-0.00184265131763012191,0.00048741131529617636,0.000100872868473409743
0.56,31.2221771005778024,131.010408107170605,8.48876513260045051,4.79217238995002237,6.92880216478059641,29.8677319982536957,-0.461099959725697173,3.00194589298221004,346.226561946578727,20.9407140174378625,8.7217685759611161,69.9852380304789392,0.0020546277740076343,113.702199186720563,268.372858445735289,15.2880000000000003,0,2.5444014048160235,0.0615431101641859685,8.01121881894152447e-09,-0.0019514852065499735,0.000647852658559657413,0.00010838257563603849
0.57,31.2221767897002849,131.010408954174068,8.67886382050471994,4.80335636438903713,6.84082272876748565,29.5321350933473816,-0.472306519149718551,2.98906915869017054,343.182829683302316,21.2485089167635799,8.85573023869482334,69.9840917258422905,0.00318920545122924805,113.703407132593995,276.315095572092162,15.2880000000000003,0,2.55380543127080095,0.0624478290655309173,8.89743959561975907e-09,-0.00206460338447287187,0.000812053279527701088,0.000116348257994669727
0.58,31.2221764744641952,131.01040981417492,8.87172779241359954,4.80908822549350035,6.74833206565770016,38.9247177817663683,-0.484170150695341917,2.97551744801750173,426.12500585731533,21.5774175253577525,8.99690039708756117,69.9828794808872345,0.00458456402477014011,113.704892639907754,284.930264121051778,15.2880000000000003,0,2.5631727293595703,0.06341460562151853,9.88765123291192533e-09,-0.00218211992883790562,0.000980074484758670971,0.000124871931389023799
0.59,31.2221761545043961,131.01041068818634,9.0676478553746751,4.82049163774280931,6.66673761059407965,31.5300617947698818,-0.495576258650215706,2.9621614596935526,360.68438819711065,21.8785835509224178,9.12837315528566329,69.9815986658588116,0.00624697567866120372,113.70666238950804,292.934068389923539,15.2880000000000003,0,2.57251718893033088,0.0642998548040778495,1.09812510020305975e-08,-0.00230438775121687405,0.0011523104549339947,0.000133706751555632219
0.6,31.2221758300262806,131.010411575669963,9.26647240611412037,4.82271956165399374,6.57550857599046257,28.0076628889885093,-0.508061257281372969,2.94778181493696412,329.48595949860578,22.2182652861828061,9.27306852209592591,69.9802465827910538,0.00818279051528413535,113.708723144918991,302.094963083263849,15.2880000000000003,0,2.58182923504153061,0.0652983056681578633,1.21782460546680728e-08,-0.00243139461282151611,0.00132863385681473317,0.000143263607992507631
0.61,31.2221755009935471,131.010412476744676,9.46823731603563701,4.82321542900588707,6.48491266503449992,32.841672197773967,-0.520887869216015598,2.93295037367643996,372.09845118432969,22.5639690433618831,9.41974527733067823,69.9788204473688893,0.010398504459592086,113.711081825808719,311.562919449241008,15.2880000000000003,0,2.59110988693600319,0.0663144616546761101,1.3478309397644639e-08,-0.00256328932408814983,0.00150914391661922985,0.000153382211821876774
0.62,31.2221751675207813,131.010413391119329,9.67286158914403593,4.83684588172481522,6.41439864898285528,40.8670787652402012,-0.532410593079787997,2.91901049662088319,442.86563930529212,22.8466488935825289,9.5445302722306522,69.977317387588684,0.0129007546396911373,113.713745502562261,319.412020410401112,15.2880000000000003,0,2.60035859504621536,0.0671453996634422401,1.48812438516919402e-08,-0.00270014866501080454,0.00169384016517273102,0.000163592550207118664
0.63,31.2221748294462778,131.010414319252135,9.88047783527282952,4.84588437702453856,6.34019666174027918,23.1167155755173326,-0.544547559871732312,2.9044083961401479,286.112512747078938,23.147594729067599,9.67553124745513138,69.9757345136179509,0.0156959348979846848,113.71672099051159,327.875769448992514,15.2880000000000003,0,2.60957677362520135,0.0680300269390691908,1.63863014997550822e-08,-0.00284218257630804464,0.00188289504493257273,0.000174462673504121137
0.64,31.2221744873173108,131.010415259674375,10.0906694308009364,4.84779419315581617,6.25911988914040851,22.6917992647544686,-0.55762199515319133,2.88885451466102872,282.307824417967538,23.4797334087724288,9.81722469186520463,69.9740689802090827,0.0187904708944686867,113.720015130169926,337.345670011001118,15.2880000000000003,0,2.61873817146364996,0.0690063353317574013,1.79939506733979159e-08,-0.00298912476345114964,0.00207585483172701172,0.000186111461271954885
0.65,31.2221741411237801,131.010416212431494,10.3034513829343464,4.8594066397568314,6.19269888683326197,40.211769066260409,-0.569698743001082031,2.87396943542643468,436.778144778747503,23.7630258308429454,9.94193672878434853,69.9723178287280234,0.0221906478440691383,113.723634622537318,345.528140911366165,15.2880000000000003,0,2.62786686802813696,0.069839092154932364,1.97034541397918099e-08,-0.00314112264704005228,0.00227281749146045903,0.000197930934617963124
0.66,31.2221737904065222,131.010417178788174,10.5191862191004422,4.8681627648840804,6.12469509118226529,34.1819095305127547,-0.582222531959039613,2.85854374727839478,383.512515171600171,24.0570361931799432,10.0702542654296305,69.9704780725187732,0.0259028008838585906,113.727586220400056,354.12386008472123,15.2880000000000003,0,2.63695411624427978,0.0707033552351751804,2.15130711568851214e-08,-0.00329862502297457831,0.00247425834930864496,0.000210422954968958443
0.67,31.2221734353437554,131.010418158278554,10.7377432900875043,4.87058975226428625,6.05087794826553438,23.4868368926134998,-0.595643947240337202,2.84217889657100775,289.156244010342505,24.3793565727328065,10.2082606230663195,69.968546548700985,0.0299337000893648425,113.731877139452095,363.669023618313361,15.2880000000000003,0,2.64600139216945474,0.0716508278245697183,2.34225883894012142e-08,-0.00346162740349712254,0.00268006680076507279,0.000223774960616521213
0.68,31.2221730760979419,131.01041915047918,10.9590040974483536,4.87429731267615907,5.98070317518542893,29.3652370344810016,-0.609058601206129424,2.82564459150121516,340.899992485846269,24.6931003653267673,10.3432055122220863,69.9665200119224977,0.034290094821151508,113.736514577148441,373.081614523817564,15.2880000000000003,0,2.65501589428925211,0.0725731006847398913,2.54316809622611285e-08,-0.00363014872532668774,0.00289016681085418285,0.000237683887524742671
0.69,31.222172712749213,131.010420155189621,11.1829136902951429,4.88330389661090347,5.91880039563862681,36.1970128939047129,-0.621926905094968174,2.8094140788733295,401.014072685363431,24.9777082452675394,10.4679840533430326,69.9643953069776074,0.0389786021518283982,113.741505582699915,381.723101062499836,15.2880000000000003,0,2.66397848145317484,0.0734097495894722313,2.753977683433214e-08,-0.00380424995476546504,0.00310453643934760493,0.000251948627544445656
0.7,31.2221723451780093,131.01042117275054,11.4095713091688769,4.89151554372981412,5.85764703708218715,30.3310923292336163,-0.635011549873941483,2.79282639969048452,349.270324209852845,25.2633741629125304,10.5930312968135567,69.9621691395678909,0.0440057763492893439,113.746857148338194,390.495939428380154,15.2880000000000003,0,2.67289740995544234,0.0742495146153794999,2.97456145287937584e-08,-0.00398415301418585371,0.00332334737819307228,0.000266875235388692447
0.71,31.2221719734398242,131.010422203027417,11.6389408323502455,4.89548576138703773,5.79317791187262987,24.8940846391609441,-0.6487871501321123,2.77545415015109498,301.331264063405797,25.5679629568899323,10.7245230936146942,69.9598381145396218,0.0493783275645934827,113.75257643305774,399.959949484973151,15.2880000000000003,0,2.68178111775654671,0.0751449010543385337,3.20485136723908256e-08,-0.00416993706040834182,0.00354659535034307621,0.00028268123130004353
0.72,31.2221715975424949,131.010423246015165,11.8710230769093918,4.89446790401632281,5.72461344919245718,30.5205148171805014,-0.663393356473010232,2.75715499745040793,350.79220534145287,25.8960815439440992,10.8640519853565145,69.9573988515130196,0.0551030753903978751,113.758670705097543,410.282201279643743,15.2880000000000003,0,2.69062395354502604,0.0761094493033702552,3.4447589538173166e-08,-0.00436173964090789349,0.0037743462284385936,0.000299471473375617181
0.73,31.2221712174891479,131.010424301721798,12.1058226137876161,4.90364955159424643,5.66945524772995846,38.6577729052842471,-0.676736159595114684,2.73981949713993478,422.320318528233997,26.1683970298974948,10.9841941791749331,69.9548477270569578,0.0611871038616918703,113.765147523928334,418.946934951500225,15.2880000000000003,0,2.69941465671377578,0.0769099973527740399,3.69419154851916129e-08,-0.00455971816696501726,0.0040066878012927137,0.000316349385457995061
0.74,31.2221708332264782,131.010425370306791,12.3433871203169669,4.90888605755025154,5.61125010641252331,24.1345380388565367,-0.690753007001031039,2.72169906540079554,294.482813471059444,26.458571180809205,11.1104113211741673,69.9521811425091187,0.0676372299279652672,113.772014166133616,428.279852484763467,15.2880000000000003,0,2.70817110323224108,0.0777630395611405151,3.95304095718995848e-08,-0.00476402841991794418,0.00424369988635782316,0.000334181726453816608
0.75,31.2221704450941999,131.010426450863918,12.5834607929094311,4.91143047471447414,5.55146869719776159,28.2077302977319917,-0.705298328003268749,2.70291272617008849,330.246885564414924,26.7605357042520637,11.2406121537298649,69.9493955372813758,0.0744602932894850439,113.779277924788701,438.101220319568995,15.2880000000000003,0,2.7168840309310367,0.0786507411457386119,4.22135986005385056e-08,-0.00497449168770704771,0.00448507969379682327,0.000352919347249062445
0.76,31.2221700529942723,131.010427543673217,12.8261257037358956,4.91728735162237474,5.49679548892413372,30.3787988756552991,-0.719495426258878412,2.68426915386001674,349.270324209861712,27.0420233410043096,11.3636397463491523,69.9464871654580094,0.0816630969980912114,113.786946067371389,447.355831403622972,15.2880000000000003,0,2.72554937223294891,0.0794782669619418791,4.49899146660923501e-08,-0.00519134986776802632,0.00473100934246197848,0.000372169960531016373
0.77,31.2221696568778206,131.010428648880861,13.071425794094063,4.9236181833367878,5.44393200330853233,28.3949888754271882,-0.733746289678165353,2.66539747850370601,331.76876669607077,27.3180368405459504,11.4846792881154407,69.9434523077631383,0.0892524869990619085,113.795025900212693,456.523857771767553,15.2880000000000003,0,2.73416303757063339,0.0802897108072938848,4.78580536808164802e-08,-0.00541478865364504285,0.00498160097684084095,0.00039214131453567001
0.78,31.2221692568094795,131.010429766325075,13.3193173220808418,4.92621124550608958,5.38826253845850456,23.2922094015480496,-0.748700403516366908,2.64568213486549419,286.873437812889904,27.6118092727336801,11.6117644437164689,69.9402871855429282,0.0972353225511760622,113.80352474474374,466.384272807191621,15.2880000000000003,0,2.742736067403305,0.0811533564653340589,5.08173749356200248e-08,-0.00564486806140891782,0.00523682411452273087,0.000413190117372332685
0.79,31.2221688528758463,131.01043089578468,13.5697396930174303,4.92650721573175865,5.33140625299478099,33.1743425067963429,-0.764167769413425346,2.62529030263327989,373.620332315953419,27.915884355444966,11.7423196734113464,69.9369878166469618,0.105618561102338734,113.812450037507872,476.701484209164676,15.2880000000000003,0,2.75126669002967095,0.0820472897113410232,5.38673434652525815e-08,-0.00588164375094313904,0.00549664555493370802,0.000435252152383546712
0.8,31.2221684448748213,131.010432037819669,13.8228547164114328,4.93278635818302469,5.28219725519320704,33.6159043515823086,-0.778832738968051053,2.60548451111544077,377.42502064505743,28.1837147050772749,11.8602448203668533,69.9335502013644259,0.11440932783269421,113.821809387342057,485.880684223255969,15.2880000000000003,0,2.7597615151545436,0.0828347037011700482,5.70055242500599763e-08,-0.00612549846280082463,0.00576138656694188869,0.000457635739359970293
0.81,31.22216803290614,131.010433192172371,14.0785914264352296,4.93456915598905876,5.2293382881563133,21.8352610772949483,-0.794353555134020062,2.58466492655377778,273.937492693991885,28.4741294350099245,11.9858851715017867,69.9299702611521496,0.123614690495743182,113.831610346035944,495.933459645283165,15.2880000000000003,0,2.76820357831010133,0.0836885025642634117,6.02317149861703125e-08,-0.00637644306464324028,0.00603095898611811718,0.000481280803442508433
0.82,31.2221676171499567,131.010434358367746,14.3368170243476811,4.93427250761843172,5.17545406630079707,28.0835162836050856,-0.810376547095748356,2.56316182467244102,328.725004432770049,28.773950159335822,12.1146880701531838,69.9262438543543112,0.133241705210379785,113.841860454843086,506.419831849699221,15.2880000000000003,0,2.776597569427945,0.0845699540300689223,6.35460832204071732e-08,-0.00663442806411061563,0.00630521430552083862,0.000506013152265408651
0.83,31.2221671975944695,131.010435536449592,14.5975464101710397,4.94134215610846272,5.13030978156380879,35.7228111081022703,-0.825302443603783797,2.54254735212733429,395.68750322465047,29.0284908687140124,12.2277375806124802,69.9223667579002353,0.14329746628940962,113.852567298012232,515.406359667351921,15.2880000000000003,0,2.78495053174371732,0.085318329475321017,6.69473024867779838e-08,-0.00689963731587483076,0.00658425358978464211,0.000530882824606021802
0.84,31.222166774143453,131.010436726687971,14.8608588141049349,4.94648643059772652,5.08415989399246904,22.0238271734210116,-0.840672490564464914,2.52131177868975609,275.459374825645227,29.2910810740849499,12.3434762479906777,69.9183347453921442,0.153788880505898673,113.863738262393383,524.759942824304176,15.2880000000000003,0,2.79326304634793487,0.0860903703683892491,7.04337108621947187e-08,-0.00717229951689029015,0.00686821874032408648,0.00055684046909421905
0.85,31.2221663470772555,131.010437928336131,15.1265441486623171,4.94492355689360785,5.03218251985300657,24.0249108545898729,-0.857357804922195155,2.49857108930519578,292.960932339393764,29.5903265618032201,12.4718086109168134,69.9141435361223103,0.164722810702620265,113.875380689775682,535.523223686769825,15.2880000000000003,0,2.80152834468306233,0.0869701532321540544,7.4006551821639106e-08,-0.00745221494683340896,0.00715680795589924198,0.000584468382044675506
0.86,31.2221659162355145,131.010439141837224,15.394730955714655,4.94772646351573542,4.98562376578193778,30.10694549339145,-0.873422176658843363,2.47625464692032526,346.226561946558718,29.8610853343362734,12.5901944071297383,69.9097886869136858,0.176106362062867478,113.887502183340089,545.354353969793578,15.2880000000000003,0,2.80975219674647603,0.0877662171139702713,7.76631741562518977e-08,-0.00773975884516017992,0.00745031439749109948,0.000612558715428527753
0.87,31.2221654816439305,131.010440367131196,15.6654045900636092,4.95241083450160602,4.9418443408536481,28.0300902924986879,-0.889273495954200466,2.45395959880469583,327.964078366998024,30.1175904775074983,12.703556528582542,69.9052656771308563,0.187946561880638879,113.900110268183127,554.749303542425309,15.2880000000000003,0,2.81792741957319226,0.0885203946125331931,8.14027471934052429e-08,-0.00803504574863140621,0.0077487580359766892,0.000641374949949320814
0.88,31.222165043338844,131.010441604128772,15.9385420507197093,4.95357548772108469,4.8954580833693857,24.215075045361548,-0.905905863081811535,2.43067293478542368,294.482813471041823,30.3923305523497724,12.8231396969333513,69.9005700532894991,0.200250350527357124,113.913212370265384,564.901768289171855,15.2880000000000003,0,2.82605413245259163,0.0893281747333787013,8.52247961695567244e-08,-0.00833814607249316886,0.00805211365173457219,0.000671622948820005394
0.89,31.2221646013998324,131.010442852624038,16.2140872297263989,4.95129187872030929,4.8466091846281083,26.5663407429159868,-0.923342733358472723,2.40635571797113412,315.028134248086985,30.6854119131759013,12.9489852638699681,69.8956971195425751,0.213024733519910026,113.926815999368543,575.834058848283462,15.2880000000000003,0,2.83413713514415022,0.0901898705765899755,8.91289455927612691e-08,-0.00864912469375107851,0.00836035163069835142,0.000703371305990757199
0.9,31.2221641557586302,131.010444112809267,16.4920972760111759,4.95656132387025927,4.80595549989103876,29.3533000158094524,-0.939477964991596637,2.38317869567776652,339.378142354214447,30.9292551218037524,13.0576959636275181,69.8906421730288514,0.226276877352944078,113.94092882877689,585.006591840382612,15.2880000000000003,0,2.84217954609634083,0.0909068541905745375,9.31132570039413772e-08,-0.00896824491597734107,0.00867363773957147491,0.000735099042091536979
0.91,31.2221637064839292,131.010445384506426,16.7725239621747875,4.95835664836688039,4.76274022298743827,22.3190729690009491,-0.956411449699949512,2.35897428227503569,277.742181023078899,31.1914296971885712,13.1726649802854983,69.8854004075228801,0.24001364554490931,113.955558223330243,594.950323244233687,15.2880000000000003,0,2.850178951474867,0.0916777242810219994,9.71776328953712781e-08,-0.00929554327161632304,0.00899191052754969369,0.000768364511837677715
0.92,31.2221632537682332,131.010446667205002,17.0552246293260268,4.95677448783936292,4.71711115402491998,26.5845208373847193,-0.974158899828387104,2.3337085965892479,315.028134248062145,31.4718708432965428,13.2938785071892056,69.8799670624532041,0.254241893821855969,113.970711532154084,605.680331425972668,15.2880000000000003,0,2.8581315249697723,0.0925022908247981612,1.0132332590413398e-07,-0.00963088744508563618,0.00931494941958075327,0.00080321963396218232
0.93,31.2221627975281919,131.010447961135526,17.3402672396986262,4.96210207800540459,4.6787676011903967,31.6349265609440273,-0.990641464919751469,2.3095669590547061,359.162507065472823,31.7058245400881269,13.3989049087681558,69.874337225412205,0.268968496550865965,113.986396132982506,614.70191344730631,15.2880000000000003,0,2.86604141244831467,0.093190228497294636,1.05547843840909851e-07,-0.00997458690618432259,0.00964295970678283321,0.000838045367301263017
0.94,31.2221623376614339,131.010449266577439,17.6277335361014273,4.96061680972647778,4.63477199044864552,22.9425779049230378,-1.00865109152746402,2.28360066483275803,283.068750483778672,31.9798028268358401,13.5177106319501856,69.8685059849436811,0.284200142943493606,114.002619208622278,625.354147366796042,15.2880000000000003,0,2.87390852122827356,0.0939958144115887739,1.09849527957117557e-07,-0.0103268803808955392,0.00997607159556506036,0.00087511775896331051
0.95,31.2221618744431737,131.010450582798484,17.9174179714707513,4.95977591299684306,4.59212172273837549,29.7351528068639759,-1.02667381161500004,2.25740100385005693,342.421873617487279,32.246883179895903,13.6340485933719737,69.8624682313074743,0.299943761939188147,114.019388201614746,635.825405197956798,15.2880000000000003,0,2.88172965546546944,0.0947811332847579152,1.1423048323955896e-07,-0.0106875561283326197,0.0103139932107661272,0.000913220472552090951
0.96,31.2221614075974827,131.010451910542741,18.2095342696546574,4.96227159410553043,4.55323941171161195,29.1326106785272927,-1.04412032086319839,2.2316052200202896,337.095335156783449,32.4893312892804147,13.741763259514812,69.8562188883650492,0.316206157341198224,114.036710419514804,645.40414301839121,15.2880000000000003,0,2.88951102470559329,0.0954940597499831095,1.18686019675244949e-07,-0.0110571848246326359,0.0106571626460558819,0.00095188096750612643
0.97,31.2221609371440891,131.010453249761014,18.5040708422628803,4.96273575041380965,4.51316846559608731,18.6041664456611073,-1.06213317308414101,2.20498423091153661,245.021887192993233,32.7417119205383784,13.8528351354347112,69.8497526042002619,0.332994273389906392,114.054593333587547,655.451685253488108,15.2880000000000003,0,2.89725186100373033,0.0962361877418920902,1.23215668621703148e-07,-0.0114358865267358834,0.0110055917182338876,0.000992101798152835715
0.98,31.2221604633565271,131.010454599725335,18.8008234209862799,4.95671747348827285,4.46793935226794581,27.1427899230359557,-1.08173458606695605,2.17640844811047085,319.593746642958081,33.0337528512756791,13.9775851989058051,69.8430641452194436,0.350314912554323232,114.073044254639484,667.177468094978167,15.2880000000000003,0,2.90494687000225227,0.097094895152558966,1.27822752019336299e-07,-0.0118233641429043145,0.011358913543030081,0.00103483621569462939
0.99,31.2221599860956047,131.010455960811868,19.0999012432998079,4.96103010857287963,4.43261628244827399,29.6750082035705844,-1.09914525321232559,2.15000058298167929,341.660948551705417,33.2545159889855455,14.0775338934564029,69.8361479382097912,0.368175042892974425,114.092070689328224,676.105280512019363,15.2880000000000003,0,2.91260196944540484,0.0977441059817338448,1.32503470383816982e-07,-0.0122200657156686723,0.0117174423915273138,0.00107667427381429297
1,31.2221595053599792,131.010457333025329,19.4013079212892876,4.95903198024891179,4.3922880851738535,26.5447834850032045,-1.11812027310881557,2.12165194719313588,314.26720818227642,33.513902087591994,14.1908003175290105,69.8289987221227193,0.386581119926500683,114.111679585634434,686.673814462062182,15.2880000000000003,0,2.92021482268089816,0.0985068475974551772,1.37257789882667226e-07,-0.0126260722988939256,0.0120811523935562531,0.00112109098338399353
1.01,31.2221590213206923,131.010458715911739,19.7049170578223389,4.95784779595464009,4.35329251873570833,27.7707898808240934,-1.13703849410276758,2.09313364431127136,324.920316103697928,33.7647632589282125,14.3010349584105043,69.8216108681943837,0.405539897874402921,114.131878226034232,696.971865268596844,15.2880000000000003,0,2.92778434587457159,0.0992445396086434756,1.42087090753967164e-07,-0.013041294767107468,0.0124498698024186807,0.00116659294959914274
1.02,31.2221585339053895,131.010460109665217,20.0107860300011211,4.958046000883372,4.3160852765434452,23.1561893868152566,-1.1557498264652919,2.06461467818941902,284.590631615404163,34.003018890641961,14.4068176337941498,69.8139787501234537,0.425057887969633952,114.152673638814832,706.821944037767253,15.2880000000000003,0,2.93531241936501308,0.0999451877200129984,1.46989339367741901e-07,-0.0134660032683569398,0.0128237387492819866,0.00121304904697834494
1.03,31.222158043178144,131.010461514115178,20.318868742188311,4.95386764238787602,4.27567397780952962,18.888025868719744,-1.1756421818454974,2.03453672892197268,247.30469339049705,34.2679049474850359,14.5217747713673084,69.8060968373945627,0.445141427518180699,114.174072660860261,717.855987279638384,15.2880000000000003,0,2.94279766875158755,0.100724118353321387,1.51965010596760448e-07,-0.0139002184116307943,0.0132026811062436657,0.00126188127424050711
1.04,31.2221575491968828,131.010462929108343,20.6291241251816686,4.95347224603387293,4.23907630198226837,30.1442834069154699,-1.19473928240115201,2.00511236845500385,345.465636880722968,34.5036794655525867,14.6265511862346713,69.7979592755254004,0.465797078863577574,114.196082383944628,727.746456396080134,15.2880000000000003,0,2.9502411792974268,0.101417488651284984,1.57013786506579248e-07,-0.0143440318369854585,0.0135866831140302735,0.00131109157683450173
1.05,31.2221570516920508,131.010464355359716,20.9417570157718522,4.94950459226344552,4.19999486498507579,18.1104208991103768,-1.21485535769471764,1.97429294148515067,240.456258798199826,34.7608063475348388,14.7386691779673757,69.789560183112215,0.487031192259264778,114.218709680185171,738.611255987293589,15.2880000000000003,0,2.95764709859274566,0.102173628279168274,1.62130457838138625e-07,-0.0147980601126545871,0.0139761767802288016,0.00136263005781618726
1.06,31.2221565508863002,131.010465792277245,21.2566019753958599,4.94247640174622571,4.15890986871206181,25.8813775695047035,-1.23591161665697191,1.94214679947424118,308.179683655939243,35.036319106037098,14.8571123276783332,69.7808935850171252,0.50885037560517532,114.241961689625697,750.343371554195869,15.2880000000000003,0,2.96501225174887884,0.102983818240978353,1.67318536661061333e-07,-0.0152620607176658998,0.0143708557170870287,0.00141645196808725749
1.07,31.2221560466696388,131.01046724015211,21.5737438208141477,4.94186269626392782,4.12373290240168267,30.5137358129762397,-1.25544152337098502,1.91149505145236365,348.509368144030759,35.2634793616498499,14.9586750410275631,69.7719532257996775,0.531261353490590227,114.265845692038098,760.081560231583353,15.2880000000000003,0,2.97234092018145279,0.103651891470294161,1.72574538317154136e-07,-0.0157364659482402483,0.0147709886600964607,0.00146990524647936977
1.08,31.2221555389451773,131.010468699237606,21.8932564340638152,4.93965020187672543,4.08772220936125841,20.4788748767793862,-1.27550651050227781,1.87998034005119319,261.001578574662346,35.498339625189125,15.0628391119637239,69.7627329072483349,0.554270525492679966,114.29036862369999,770.216161091567187,15.2880000000000003,0,2.97963357490831404,0.10434260541341199,1.77896649963748627e-07,-0.0162215752507291998,0.0151767228556826499,0.00152526291272330589
1.09,31.2221550279710129,131.010470168847746,22.2149477957659514,4.9301394578620279,4.04623666501067714,18.82331080881265,-1.29767591660719805,1.84576391104170545,246.543753324744074,35.78218633835926,15.1839856059020679,69.7532263228187617,0.57788426245518254,114.315537395520437,782.558609106859876,15.2880000000000003,0,2.98688587029291597,0.105177316538321741,1.83290057180620714e-07,-0.0167170252159858888,0.0155876542697615007,0.00158436812356747294
1.1,31.2221545138176282,131.010471648794095,22.5387668497349658,4.92409824463659707,4.00812262639535,37.960476283250614,-1.31906115604443341,1.81218439681863419,413.189061738584087,36.0381368244383253,15.2953692776258077,69.7434270577316795,0.602108898538145865,114.34135888551522,793.769265631351345,15.2880000000000003,0,2.99409923906941966,0.105930038457032985,1.88754660373995602e-07,-0.0172229017244045074,0.016003757930464893,0.00164393775946903068
1.11,31.2221539961029642,131.010473140080933,22.8649999036865488,4.92521507308537032,3.97626566578944551,27.744401871165266,-1.33855863144167153,1.78055600172777373,324.159391037639693,36.2383608764491782,15.3872755542662372,69.7333285516057231,0.62695080592039798,114.367840019007076,802.588812937061334,15.2880000000000003,0,3.00128062877415447,0.106518966613840665,1.9428147911084806e-07,-0.0177401618620187974,0.0164257151116951258,0.00170266509261512902
1.12,31.2221534748827096,131.010474642553902,23.1936052377941415,4.91239621168305618,3.93370879089106484,10.355308463805958,-1.36214767907033885,1.74383921638882722,172.73281794065943,36.537069678221954,15.5134189680195149,69.7229242607977966,0.65241603808257953,114.394987387354234,815.848895271080437,15.2880000000000003,0,3.00842687772179884,0.107397388928618734,1.99872878800600785e-07,-0.0182687823746460164,0.0168533952278420475,0.00176779831939609649
1.13,31.2221529507152873,131.010476154740985,23.5241689924314166,4.90685137684999351,3.89745260307720853,32.7402272116005122,-1.38379773100250314,1.70912560174222428,367.532807790070478,36.7792316836587219,15.6198177185635387,69.7122072108975743,0.678511276965240939,114.422808257790862,826.673124095308367,15.2880000000000003,0,3.01553320519123602,0.108109605374344137,2.05539593805898412e-07,-0.0188078562726708802,0.0172859703856126749,0.00183196664122968499
1.14,31.2221524229694651,131.01047767829462,23.8571602313433928,4.90636445465285487,3.86561955012818181,18.0548310907560285,-1.40405911298966402,1.67579472814921493,239.695317731955441,36.9798193482706949,15.711650314218522,69.7011707440789223,0.705242237705408281,114.451308875307177,835.688051587977498,15.2880000000000003,0,3.02260911112483033,0.108699625212436285,2.11266474404257624e-07,-0.0193588779835853035,0.0177245310304170144,0.00189586185274541507
1.15,31.2221518921026693,131.010479212005009,24.1922389619049376,4.89174104179016034,3.82316742710175728,17.7954163400149987,-1.42868232547222362,1.63695762819909785,237.412511535467729,37.2830374114423009,15.8392283858730671,69.6898081244595602,0.732614509375176803,114.480495355885509,849.421437569649925,15.2880000000000003,0,3.02964594107030027,0.109591328170746377,2.17065741642864264e-07,-0.0199209231457850994,0.0181682352135764634,0.00196683753957655524
1.16,31.2221513582439059,131.010480755530438,24.5293109960270677,4.8921325017134949,3.79283047569281262,46.8497669116235187,-1.44885912657526617,1.60317288082698073,490.043774384589426,37.4693701790596947,15.9259798773704144,69.6781121895539428,0.760634265248282593,114.510374446046526,857.905335741926933,15.2880000000000003,0,3.03664671362278904,0.110139461499072749,2.22937299336295697e-07,-0.0204940254940732328,0.0186170150861960267,0.0020334680162101583
1.17,31.2221508205595164,131.010482311041869,24.8689909341699931,4.88497479207113017,3.75706731090743551,8.17510209319035042,-1.47145443878228721,1.56618731371626807,153.709379294867944,37.7089007516798773,16.0312220737428994,69.6660760701297335,0.789306770629113363,114.540951932848841,868.880713618210962,15.2880000000000003,0,3.04362073307694914,0.110843975316222185,2.2886177588384032e-07,-0.0210801425911841707,0.0190722836723780514,0.00210492645810875798
1.18,31.2221502801399033,131.010483875679569,25.2104735834902094,4.86781517139806841,3.7141168175142325,22.7081153994141616,-1.4973716631987064,1.52484553770467279,280.025018221967457,38.0224216149539416,16.1622857554035555,69.6536925600549068,0.818637671464909289,114.572234014210949,883.359966210007428,15.2880000000000003,0,3.05055024421933707,0.111765989476901736,2.34867609134372242e-07,-0.0216768737321816757,0.019532074942846929,0.00218243684874956439
1.19,31.2221497364891043,131.010485450733171,25.5541250030635396,4.87195512015476329,3.68772320476713711,39.7887787141443781,-1.51654946342802655,1.49142947559817451,428.407813052929214,38.1671818972561141,16.2343303192321642,69.6409542321979416,0.848632738626510563,114.604227031348756,890.069705890154069,15.2880000000000003,0,3.05744057358761001,0.112191943930334687,2.4093746739525454e-07,-0.0222857627097924928,0.0199974794642606112,0.00225220814685774158
1.2,31.2221491891752869,131.010487037312458,25.9002594749287525,4.85851287857335201,3.64845763377738663,3.97317206749635687,-1.54154038292527096,1.4505845071929766,117.184374136023607,38.4446878045045324,16.3527138030495038,69.6278540650232429,0.87929661777893775,114.636936133306037,903.029769311564451,15.2880000000000003,0,3.06430143673797373,0.113008110439203446,2.47063655806936645e-07,-0.0229077887457329495,0.0204691215288179892,0.00233182522688792039
1.21,31.2221486392965524,131.010488632551414,26.2480712217200782,4.84573730481252873,3.61013168357917502,31.9215798214978612,-1.56646756135059251,1.40948271922008117,359.923432132008998,38.7141195017770627,16.4682667752910952,69.6143843847358283,0.910634924523288758,114.670367509879853,915.700925382433979,15.2880000000000003,0,3.07112123293045647,0.113800551257644655,2.53274692297028055e-07,-0.023540503898143196,0.0209450488461290045,0.00241294331572586502
1.22,31.2221480860086231,131.010490238634162,26.598177441772954,4.84761701675013157,3.5830268250200632,23.0774239226311053,-1.58649910104153946,1.37414678229534504,283.068750482576149,38.8630639301386083,16.5415937058388991,69.6005377569814669,0.942652471133264558,114.704526505118025,922.729379457886921,15.2880000000000003,0,3.07791397465441818,0.114238826304304431,2.5954379058084484e-07,-0.0241862908323631151,0.0214269458348489011,0.00248859188401832649
1.23,31.2221475296405409,131.010491854690116,26.9503342501613936,4.83297945409706475,3.54411990152054868,8.88152905257041603,-1.6122724720349213,1.33134229472896548,159.796873822227951,39.1396588669913186,16.6595788914740659,69.5863069890693566,0.975353280676474532,114.739417628072658,935.878898733285951,15.2880000000000003,0,3.08467172091592001,0.115052340422517149,2.65883846566625573e-07,-0.0248442740989656546,0.0219140429918533684,0.00257440001471703024
1.24,31.2221469706562047,131.010493479508568,27.304202833196868,4.82379127598934865,3.50958541942015412,38.6932483311020405,-1.63625331730878121,1.2904423213181091,418.515630199805003,39.3691027393452728,16.7610365621991662,69.571684371207354,1.00874204165165882,114.77504610636116,946.851461514898233,15.2880000000000003,0,3.09139207987403752,0.115727260557635214,2.72305900463119219e-07,-0.0255134911598377118,0.0224055333828182372,0.00265915299119093718
1.25,31.2221464082666138,131.010495115115788,27.660354782419855,4.82292383360714361,3.48139505851584818,18.6189520777764095,-1.65730301378647416,1.25291968608608872,244.260946125734876,39.5264739381940231,16.8371682931276609,69.5566623927633714,1.04282272636166273,114.811416414146024,954.403688389745298,15.2880000000000003,0,3.09808624983703762,0.116190327345480057,2.78784164573993071e-07,-0.0261962347933993346,0.0229029870104530617,0.00274113236604498281
1.26,31.2221458429850145,131.010496760168451,28.0184135075825829,4.80478929601968474,3.4411238035613847,10.9024576554323804,-1.68466518425603029,1.20706568920832114,177.298446336408631,39.8207768082230871,16.9613154616775645,69.5412336179583974,1.0775988373711296,114.848532531669235,968.63571748129641,15.2880000000000003,0,3.10472836601496427,0.117055920461746732,2.85337874658476217e-07,-0.02689109162964309,0.0234052601150794848,0.00283469463578695999
1.27,31.2221452749800648,131.010498414222297,28.3782561253106564,4.80034671315314654,3.41097305198149536,37.226625509092699,-1.70706798526296155,1.16716846382063122,405.579686079964688,39.9986824342683178,17.0445945114861495,69.5253899094057886,1.11307483992459888,114.886399476520978,977.276335377401665,15.2880000000000003,0,3.11133761823314048,0.117579363831876185,2.91967447760484064e-07,-0.027597977245199308,0.0239121949109546116,0.00292210654439215229
1.28,31.2221447036157365,131.010500078894438,28.7403379735548477,4.79252453948693802,3.37873132263368303,11.9597563331722867,-1.73074885639869325,1.12530944361248419,186.429688124688823,40.1998027777382561,17.1359774421791364,69.5091237593929065,1.14925368876222045,114.925020664824928,987.09453976771465,15.2880000000000003,0,3.11791996648683067,0.118171056259582213,2.98654083656191109e-07,-0.0283186582036822239,0.0244249378230212283,0.00301338482478166097
1.29,31.2221441296636151,131.010501752186229,29.1040991927640782,4.77595763010305063,3.34069821790218979,19.7736523683302892,-1.75782785643820039,1.0787252087177428,254.153128984572163,40.4701548744799524,17.2516982512055179,69.4924273261032823,1.18613860967401052,114.964399809838596,1000.3810609287209,15.2880000000000003,0,3.12446607935091514,0.118966269784477621,3.05423769391188407e-07,-0.0290510545710956428,0.0249419016243295349,0.00311200004711953112
