Time,Latitude,Longitude,Altitude,Angle of Attack,Angle of Sideslip,X-Acceleration,Y-Acceleration,Z-Acceleration,Thrust,True Velocity,Ground Velocity,Pitch,Roll,Yaw,Dynamic Pressure,cp,parachute_deploy_gain,Wind Speed,Mach,omega_x,omega_y,omega_z,Cmq,Angle of Attack(total),Angle of Attack(gust),True Velocity(gust),Acceleration
0.0,31.222216000000007,131.010392,3.000000004412624,0.0,0.0,0.0,0.0,0.0,2.2828121974499247,0.0,0.0,71.99999999612658,-1.0292491154817412e-14,119.99999999354436,0.0,15.288,0,0.0,0.0,0.0,0.0,0.0,-0.0,0.0,90.0,0.0,0.0
0.01,31.22221599999862,131.01039200000284,3.0000009727369523,0.0,0.0,0.0,0.0,0.0,34.24218696174923,5.916279387578309e-11,5.734623670548936e-11,71.99999999613168,-5.86671995824671e-13,119.9999999935449,2.1432944861733093e-21,15.288,0,0.0,1.7386402909615473e-13,-3.4220131069073734e-19,7.115076756936125e-19,5.488773498207866e-19,-1.1574302492039043e-31,0.0,89.99999999962336,5.916279387578309e-11,0.0
0.02,31.22221599999738,131.01039200000537,3.0000018317022668,0.0,0.0,0.0,0.0,0.0,25.871876237766408,1.2265415415436536e-10,1.1895038237325684e-10,71.9999999961369,-1.1836364828043265e-12,119.99999999354544,9.211895886571454e-21,15.288,0,0.0,3.6044858651615574e-13,-6.979551485375437e-19,1.4162390878091906e-18,1.0909784360635388e-18,-4.776231873571785e-31,0.0,89.99999999921916,1.2265415415436536e-10,0.0
0.03,31.22221599921969,131.01039200159065,3.0001883335529382,18.80143492628821,-0.0001350810307892,10.931161642028636,-1.75114298675875e-05,3.026590975169265,180.34219359854663,0.0798232026864394,0.0478175828508887,71.99999999765336,-5.341802909786072e-12,119.99999999436793,0.0039016003969354,15.288,0,0.0,0.0002345795854893,3.788270153300133e-17,-7.771883375645477e-10,1.1422790048099072e-11,1.7057759223764537e-13,18.80143492675591,89.51882325913425,0.079801984207741,11.342422482672777
0.04,31.222215995131297,131.01039200995308,3.001692634342189,9.19442604083399,-4.49173898918486e-05,52.29595764159784,6.445392950801871e-06,3.026413589912948,548.6359724538078,0.3504174083926908,0.1601447499964056,72.00000000319055,-3.111420077280171e-11,119.99999999870242,0.0751892535633216,15.288,0,0.0,0.0010297854387864,2.0082066977226968e-15,-1.520937588847922e-08,2.5623342884322286e-11,1.4654248781413086e-11,9.19442604094277,87.798916624545,0.3504103527855857,52.383455068075136
0.05,31.222215983575865,131.01039203366796,3.0074067499493786,5.158590039700252,1.707592688632746e-06,76.26884281015512,5.843947534199429e-05,3.0258124765658088,761.6984298824644,0.9592973585397016,0.3772700771701255,72.0000000004862,-1.3608731808076822e-10,120.0000000109612,0.5634958029902841,15.288,0,0.0,0.0028191251099456,2.086299069701397e-14,-1.0551247853743037e-07,3.973493515691201e-11,2.783064866637575e-10,5.158590039700515,83.94063169874748,0.959297626767734,76.32884071402438
0.06,31.222215961742712,131.0103920785344,3.019291017943491,4.109521257467909,3.140103977270004e-05,57.06876634333886,0.0001151069734147,3.024834864051463,590.4875390737208,1.6257536642597354,0.6118982818704327,71.99999992547217,-3.5903296759057166e-10,120.00000003412836,1.6184272268450337,15.288,0,0.0,0.0047776672697797,1.0694899894620088e-13,-3.741090980393931e-07,5.521401959501359e-11,1.6723176417636091e-09,4.109521257587776,79.78719176344794,1.6257585967235286,57.148873286519276
0.07,31.222215929936205,131.01039214392435,3.0371334573469446,3.649087515174788,5.707077112564807e-05,86.89643797254193,0.0001728541558773,3.0234947746384675,855.2937749779139,2.3057260079826607,0.8506307413593818,71.99999965378231,-6.907496536790437e-10,120.00000006788592,3.255354923652711,15.288,0,0.0,0.0067759305364855,3.495199904512709e-13,-9.036515915819006e-07,7.594816279105379e-11,5.728932851326001e-09,3.6490875156204896,75.6601668283889,2.305734972638426,86.94902215090157
0.08,31.222215886364623,131.01039223353447,3.0621840248716574,3.4254446680114707,8.413075603463509e-05,17.831756866644035,0.0002285946601282,3.021841001032126,241.2171988638848,2.961944911520492,1.0819695676346892,71.99999900671328,-1.141745983122182e-09,120.00000011415082,5.371998197385977,15.288,0,0.0,0.0087043901031071,8.800530155962314e-13,-1.829098470920821e-06,1.0943386634701918e-10,1.4896287129277132e-08,3.4254446690434226,71.81713637501419,2.9619581267487467,18.085991154451033
0.09,31.22221583454733,131.01039234010327,3.0919888289029,3.389560809024919,0.0001118726864415,54.09031716446879,0.0002748660999733,3.020060228038602,563.0937377043176,3.504225426410036,1.2780161667917422,71.99999774508822,-1.634190085504106e-09,120.00000016921716,7.519080503822694,15.288,0,0.0,0.0102980157586766,1.865782139518716e-12,-3.1503298654458527e-06,1.6284478329871028e-10,3.03536411425607e-08,3.389560810868955,68.76526501308032,3.504242999330529,54.17456206384468
0.1,31.22221577423132,131.0103924641528,3.1267248829165366,3.4447939461814814,0.0001419149103147,51.372195336549765,0.0003131602029306,3.0182021883815127,538.7437595981919,3.950569597142709,1.4443465951180965,71.99999562056465,-2.1287748602259068e-09,120.00000023339832,9.55649523509932,15.288,0,0.0,0.0116097108366932,3.485956000178229e-12,-4.949356763187612e-06,2.4573266549165286e-10,5.3761299442583966e-08,3.444793949101151,66.34639928474206,3.9505918890846927,51.460781166288626
0.11,31.222215706113143,131.01039260424562,3.165907002780892,3.4691423802630394,0.0001702373452339,40.591037561894986,0.0003534470100582,3.016051659024047,442.8656393052949,4.421478635995476,1.6182620895289603,71.99999235067894,-2.5564479031457968e-09,120.00000030601664,11.970509656144712,15.288,0,0.0,0.0129935974697161,5.942887149865172e-12,-7.273722517324353e-06,3.67769289312894e-10,8.842679949465076e-08,3.4691423844348632,63.88798785789768,4.421505376815134,40.70293476011277
0.12,31.222215630588888,131.0103927595646,3.2092596514826863,3.4852659299808075,0.0001974376474727,44.30042894095728,0.000394069215595,3.013641598889868,475.58594813540446,4.896982486381051,1.793579340340896,71.99998761802138,-2.8337988279882726e-09,120.00000038673312,14.683611096353944,15.288,0,0.0,0.0143909889875706,9.464337642181618e-12,-1.017558359402848e-05,5.395790443954697e-10,1.3700793350599625e-07,3.4852659355662303,61.5068242157714,4.897013499814194,44.40281567867803
0.13,31.222215548046687,131.0103929293088,3.256512891171917,3.5606043721293616,0.0002276507019012,48.86766833507025,0.0004268800875964,3.0112558910133567,515.9156326236895,5.278566579338586,1.939796541405244,71.99998107389406,-2.8573058577484587e-09,120.00000047523812,17.061052093156064,15.288,0,0.0,0.0155123760833565,1.4300406003001044e-11,-1.3705268062305584e-05,7.724776992181392e-10,1.989112774124932e-07,3.560604379397528,59.67313531776262,5.27860233862722,48.960358155653
0.14,31.222215458587108,131.01039311327068,3.30759734332425,3.6000732663755977,0.0002555702913645,45.540290862247225,0.0004629468001456,3.0085404980032777,486.2390860568404,5.70011779273801,2.098362647205908,71.99997235012626,-2.508533681468686e-09,120.00000057154703,19.894788765881632,15.288,0,0.0,0.0167512184495524,2.071534240530911e-11,-1.7917736259613292e-05,1.0787346240473087e-09,2.8081526258393346e-07,3.6000732754351943,57.72385750323359,5.700157937625502,45.639559681930805
0.15,31.222215362317904,131.01039331122794,3.3624387479639086,3.651605404442164,0.0002842753491325,44.01308509501,0.0004965057129938,3.005703619811542,472.54218587214,6.091938849578711,2.2476968067377374,71.99996103728932,-1.6446954747148112e-09,120.00000067569304,22.723773683610247,15.288,0,0.0,0.0179026934683374,2.9002783512213203e-11,-2.287326399669318e-05,1.47199345427166e-09,3.831202693354572e-07,3.651605415492516,55.98561718911576,6.091983503446133,44.115597174664394
0.16,31.22221525912812,131.01039352340948,3.421115382839859,3.67540086436193,0.0003108411545024,34.83804992586084,0.0005330990866742,3.002517946501868,391.1218908297564,6.521183188362317,2.4085903880902046,71.99994669525161,-1.0153513453738144e-10,120.00000078796704,26.03872642002185,15.288,0,0.0,0.019164148528834,3.9478358970291335e-11,-2.864207894220033e-05,1.9677461746207517e-09,5.135466997084602e-07,3.6754008774883777,54.15946979122355,6.521232015176687,34.96719658394182
0.17,31.2222151493826,131.01039374906244,3.4833737923187487,3.7139589864597298,0.0003384978477213,43.96471427482637,0.0005668629535037,2.999235483723449,471.78125980632376,6.916861975403744,2.559060925010733,71.99992884100092,2.3206494032971838e-09,120.0000009081849,29.29426197817256,15.288,0,0.0,0.0203269651395979,5.248754693205839e-11,-3.5267097947693114e-05,2.580363454062817e-09,6.706952682968329e-07,3.713959001863866,52.549031795895466,6.916915146521327,44.06689817851128
0.18,31.22221503253009,131.01039398932429,3.549599475912623,3.7380363034619775,0.0003650282082698,36.67395661481795,0.0006021794701355,2.9956556354306425,407.10156721191447,7.332140201215607,2.71556808256092,71.99990696207136,5.837017536380516e-09,120.00000103716444,32.917216366714264,15.288,0,0.0,0.0215473823438242,6.839750892601699e-11,-4.285557247677198e-05,3.331016495775474e-09,8.639362741436378e-07,3.738036321259578,50.93050624815799,7.332197539712479,36.796100973258795
0.19,31.22221490871209,131.01039424390297,3.619694897703461,3.747799769666444,0.0003901520189829,41.42208371271829,0.0006393759928961,2.991742733214697,448.9531328318269,7.771071983754382,2.879366399937307,71.99988049019642,1.0709144790974043e-08,120.00000117502664,36.97605053227239,15.288,0,0.0,0.0228373144884866,8.761416506509219e-11,-5.146771415177372e-05,4.238406957677133e-09,1.0996552116864756e-06,3.747799789945131,49.29705748437159,7.771133268690212,41.529983675580546
0.2,31.22221477769685,131.01039451327668,3.693822889232993,3.7700519460961166,0.0004166800650969,37.99697972290605,0.0006740224661302,2.987733789228414,418.51563019916136,8.179966026035371,3.0338260708461373,71.99984881140107,1.723179577184912e-08,120.0000013223286,40.969302182777255,15.288,0,0.0,0.024038975990988,1.1057590044953188e-10,-6.120032215177249e-05,5.3263847350253015e-09,1.376394225587184e-06,3.7700519690893857,47.8457752505109,8.180031477986942,38.11426270718793
0.21,31.222214639876928,131.01039479663547,3.771710975053407,3.7926098867321474,0.0004432924407074,36.46301043881366,0.0007080907240332,2.983530483977461,404.8187610144644,8.582757448615462,3.1863584283669346,71.99981127559042,2.5745201416596626e-08,120.00000147900325,45.103059028532826,15.288,0,0.0,0.0252227064089584,1.3774582723633048e-10,-7.20875523136271e-05,6.61341033873124e-09,1.7010673350603349e-06,3.792609912601061,46.47936953648762,8.582827080829217,36.584868250565684
0.22,31.22221449507626,131.01039509434258,3.8534832466471007,3.782921298925821,0.0004660920499522,44.14577847155813,0.0007479176313898,2.978724032883548,472.5421858721365,9.056569122268344,3.360845972992861,71.99976720416048,3.661811567390422e-08,120.00000164562512,50.21995530074818,15.288,0,0.0,0.0266151520780326,1.6960703048385348e-10,-8.421592474264931e-05,8.124635526119773e-09,2.0969540034515424e-06,3.7829213275976334,44.9464484092354,9.056642335836344,44.24615863872642
0.23,31.22221434283448,131.01039540734791,3.9394622486964206,3.813874679301352,0.0004940771488601,36.66675459308932,0.000779455230549,2.974212905336642,406.3406421461021,9.430647902846331,3.5044030163419806,71.99971583979395,5.0272885112871524e-08,120.00000182313076,54.45382429059888,15.288,0,0.0,0.0277145095638672,2.0669790509245914e-10,-9.77285871729516e-05,9.894576563683824e-09,2.5339062472561444e-06,3.813874711257219,43.79476959007253,9.430725512303388,36.78718303164376
0.24,31.222214184153326,131.01039573358457,4.028950821673608,3.829256049377765,0.0005200487408944,37.802126339316736,0.0008136255607606,2.9692962675112065,416.2328240017114,9.837806876534357,3.658163422426286,71.9996564062533,6.718950080713476e-08,120.0000020109434,59.25679777340223,15.288,0,0.0,0.0289110855155543,2.4956955046738006e-10,-0.0001125744417092,1.1934277804843484e-08,3.0448209172448607e-06,3.829256084638984,42.59361542722471,9.83788856559955,37.91856374864305
0.25,31.22221401888584,131.01039607335582,4.122052964664892,3.851417709838087,0.0005469594058717,38.85163035360012,0.0008459008130282,2.964283881833675,425.36408079150686,10.22297576958679,3.8050691648373967,71.99958811418384,8.786880969336211e-08,120.00000220974424,63.98709205399403,15.288,0,0.0,0.0300430411774988,2.987811646313829e-10,-0.0001288461362054,1.4273117985167728e-08,3.621333387698252e-06,3.8514177486178034,41.50703126619192,10.223061685769354,38.96455005232871
0.26,31.222213847358866,131.0103964259872,4.218542267117083,3.8780574625554745,0.0005745172425185,42.3164797140743,0.0008766626387865,2.959162938653076,455.8015834241788,10.590779679138215,3.946551912391076,71.99951013710364,1.1286401474734325e-07,120.00000241975916,68.67355887153568,15.288,0,0.0,0.0311239685467471,3.5491769188178554e-10,-0.0001465721578858,1.6932703957058654e-08,4.267712643344226e-06,3.8780575050466,40.51245375834074,10.590869924095635,42.41981967733593
0.27,31.22221366913008,131.0103967923915,4.318728802515264,3.886188503202341,0.0005994342651313,38.70936050721014,0.0009111181036949,2.953518013741325,423.84219965987256,11.004860953238978,4.102320296019413,71.99942161756776,1.4276417094868828e-07,120.0000026420792,74.14786134434608,15.288,0,0.0,0.0323408987462391,4.1858405402174807e-10,-0.0001658847815307,1.995072923688136e-08,5.018832267232506e-06,3.886188549362022,39.43841359495857,11.00495511215316,38.8218734782956
0.28,31.22221348431185,131.01039717233687,4.422535913956003,3.90556090261878,0.0006261175699806,44.68030766832924,0.0009425767186621,2.947879457547137,476.3468732012221,11.38358114165448,4.247086834352694,71.999321619057,1.7823531611327881e-07,120.000002877279,79.33831935330025,15.288,0,0.0,0.033453914386159,4.904408325040897e-10,-0.0001868529238516,2.3357766479368094e-08,5.847713054408178e-06,3.9055609527288775,38.49894431917428,11.383679491972384,44.77744842575601
0.29,31.222213292835256,131.0103975659655,4.530013412817602,3.9242599519377537,0.0006528240665589,35.802573724660256,0.0009737210635801,2.942037024315898,397.97031042211177,11.759725774384751,4.391004157029451,71.99920917567837,2.1999186079018322e-07,120.00000312617878,84.66717879828003,15.288,0,0.0,0.0345593650464213,5.711677680739745e-10,-0.0002095620322847,2.7188189988316943e-08,6.77505090435382e-06,3.9242600061534456,37.60352534239979,11.759828319749328,35.92324968749781
0.3,31.222213095024976,131.0103979726075,4.64093665799555,3.936939025755682,0.0006785438093183,33.570228713727204,0.0010059102294455,2.93586442972183,378.1859457108711,12.149968255527943,4.539237002744259,71.99908328532703,2.6880857935396905e-07,120.00000338923812,90.3787563598417,15.288,0,0.0,0.0357062504417728,6.614698865958865e-10,-0.0002340353597042,3.1467140861055e-08,7.817263716758327e-06,3.9369390841381695,36.71173884615234,12.150074840940263,33.698361337808635
0.31,31.22221289105846,131.01039839189684,4.755183729044857,3.9598342215431432,0.0007060286581592,35.396825578217346,0.0010350810412898,2.9297385597941448,394.1656220930212,12.504537499407316,4.6763673222047455,71.99894291513503,3.255120771695107e-07,120.00000366712923,95.72967338626896,15.288,0,0.0,0.0367483036680869,7.620720834468404e-10,-0.0002603234137215,3.622454560346964e-08,8.948994505138873e-06,3.9598342843844345,35.934338386209795,12.504648402129598,35.5178635353378
0.32,31.222212681031937,131.01039882363492,4.872689374180126,3.985461429033668,0.0007340760463279,38.52097867048992,0.0010630242168685,2.9235095146848846,421.55939346242695,12.84534566718622,4.809181081594425,71.99878701464397,3.909756427278764e-07,120.0000039606604,101.01782231644016,15.288,0,0.0,0.0377499198995686,8.737098716736534e-10,-0.0002884807530145,4.1491545539590986e-08,1.0187112828155184e-05,3.98546149652875,35.21473736963424,12.845460975581933,38.631757748577954
0.33,31.22221246496604,131.01039926777932,4.9934410812554,4.010606629086,0.0007621365968788,38.18822026147908,0.0010905599149574,2.917102431053817,418.5156301991682,13.18247167592885,4.940798912752974,71.99861449732019,4.661299779655886e-07,120.000004270781,106.38859400029033,15.288,0,0.0,0.0387407190563976,9.971421990244511e-10,-0.0003185760672934,4.7302669734505256e-08,1.154498667827874e-05,4.010606701382261,34.52805863348922,13.182591392065536,38.299473293007864
0.34,31.222212242662028,131.01039972474007,5.117579377337869,4.019339771238816,0.0007871574969313,29.898022638335373,0.0011220389395318,2.910051232417875,345.46563688075645,13.569536737955724,5.0878303926024735,71.99842423285973,5.519675040347761e-07,120.0000045987411,112.72655675097128,15.288,0,0.0,0.0398782837956187,1.1331556132162459e-09,-0.0003507224668667,5.37022358302301e-08,1.308298593306914e-05,4.019339848191799,33.76700548046532,13.5696603843662,30.039310197084795
0.35,31.22221201433324,131.01040019407705,5.2449575244483055,4.033762873683395,0.000813261106463,32.76415525156106,0.0011515840876071,2.902959820469776,370.5765700527033,13.934300103976534,5.227895396154902,71.99821502296155,6.495674834876441e-07,120.000004945438,118.8669740701126,15.288,0,0.0,0.040950312688979,1.2825853697215452e-09,-0.0003849609961885,6.072234695821837e-08,1.4746020857580124e-05,4.033762955530055,33.07785186209504,13.934427850732408,32.89250745069162
0.36,31.22221177990305,131.01040067594835,5.375631006350063,4.051723629010647,0.0008401329464575,37.01692984301412,0.0011797030485285,2.8957873473716007,407.8625232777193,14.282998147928636,5.362923567977223,71.9979856440668,7.600645476620651e-07,120.00000531213882,124.88900300695136,15.288,0,0.0,0.0419751331662584,1.4462801652534363e-09,-0.0004213876232777,6.84067806399068e-08,1.654507199147348e-05,4.051723715967022,32.44322602189087,14.283130115703262,37.13002398000203
0.37,31.222211539445663,131.01040117020102,5.509550188388412,4.071639898917391,0.0008674922629137,35.12417761390579,0.0012067983861697,2.88849906286036,391.1218908297666,14.620581431527652,5.494447309446232,71.99773482653193,8.846681943540367e-07,120.00000570002652,130.86067091914967,15.288,0,0.0,0.0429672939311924,1.6251202388969355e-09,-0.0004600660652957,7.679415042686734e-08,1.849041957573993e-05,4.071639991174516,31.85023865502424,14.620717696893658,35.24274792557624
0.38,31.222211292895075,131.01040167697127,5.646763233102716,4.08264881385344,0.0008930259828975,36.695642158537446,0.0012360471443664,2.880711738179021,404.8187610144602,14.986392916850402,5.634654729559426,71.99746126698146,1.0246533537040716e-06,120.0000061105033,137.4891296153862,15.288,0,0.0,0.0440424171304414,1.8200057922063743e-09,-0.0005010869196581,8.592980519823866e-08,2.0642694281337543e-05,4.082648911356968,31.228847973200924,14.986533193043764,36.808540518115166
0.39,31.22221104018777,131.0104021963902,5.787316652586672,4.096641430700089,0.0009192713382325,31.335681548387896,0.0012640110027448,2.872831219844713,357.64062493382744,15.337978856701952,5.770390286512262,71.99716358743511,1.1813915463769678e-06,120.00000654506955,144.01394309468844,15.288,0,0.0,0.0450757388736732,2.031886352449547e-09,-0.00054455673306,9.586443829735616e-08,2.295945663566148e-05,4.096641533664766,30.65298398882095,15.338123255506089,31.4670954954126
0.4,31.222210781536543,131.01040272801887,5.931064331106764,4.109028969993624,0.0009451871856381,29.95928076777898,0.0012920492774571,2.8646905607053603,345.465636880754,15.692185018814769,5.906873567965718,71.99684037970908,1.3563276523471372e-06,120.00000700500496,150.74021066990193,15.288,0,0.0,0.0461167659598875,2.2617341782092324e-09,-0.0005905037520737,1.0663253249436129e-07,2.5471259834659164e-05,4.1090290785164525,30.09246700352443,15.692333488470696,30.095929256306363
0.41,31.222210517064383,131.01040327160345,6.077922766619747,4.122888296344507,0.0009714525997821,33.78425365340317,0.0013192264430821,2.85640971467756,378.94687077668647,16.03742529732769,6.0405139809190125,71.99649020751959,1.5509747261474075e-06,120.0000074917568,157.44375780268788,15.288,0,0.0,0.0471314487675864,2.5105374204052982e-09,-0.0006389770219162,1.1827345344180344e-07,2.816813594418537e-05,4.122888410595805,29.56469007160549,16.037577892745222,33.904791300285986
0.42,31.22221024682894,131.0104038270252,6.227854084363214,4.14444025865494,0.0009995884754813,38.04468161607466,0.0013435485656724,2.8482703202464488,416.2328240017114,16.348862540904037,6.163613566771559,71.99611159893284,1.766920641656551e-06,120.00000800692096,163.6157044470786,15.288,0,0.0,0.0480467946810589,2.779304965995011e-09,-0.0006900467934588,1.308321832549104e-07,3.100973487310896e-05,4.144440378988911,29.104646754454564,16.34901955589459,38.15115260238947
0.43,31.222209970843565,131.0104043942566,6.380851271439565,4.1618082623168045,0.0010268052928652,33.45815353250911,0.0013687230309017,2.8397750580998298,375.9031395134336,16.67263197205097,6.290467308135904,71.99570306121484,2.005818691215035e-06,120.00000855220898,170.15779512382937,15.288,0,0.0,0.0489983878509763,3.0690566816849196e-09,-0.0007437862329608,1.443552931671376e-07,3.4086145072160934e-05,4.161808388761201,28.640125213458976,16.672793262249197,33.57845085853367
0.44,31.22220968892116,131.01040497368373,6.537047157143216,4.164954087655709,0.0010505545842624,30.86574023822051,0.0013980747538988,2.830419582421933,353.0750125389216,17.050421620730056,6.433992917638883,71.99526304125902,2.269416145406482e-06,120.00000912964636,177.9537948947602,15.288,0,0.0,0.050108743779844,3.380847125286677e-09,-0.0008003278134917,1.589055036683518e-07,3.750784460406397e-05,4.164954219916419,28.113519280259386,17.050586641458253,30.99524475496968
0.45,31.22220940081287,131.01040556582012,6.696617751072218,4.165241899529329,0.0010735835484822,35.912216710755274,0.0014280646808282,2.820677244966047,397.2093853562869,17.438293672974723,6.580571293039616,71.99478987454265,2.5595995397253085e-06,120.00000974147088,186.13940823302417,15.288,0,0.0,0.0512487363629523,3.7158016249566814e-09,-0.000859850913876,1.745604864109677e-07,4.121350642664912e-05,4.1652420376426775,27.591357195572936,17.43846231108416,36.02281959036367
0.46,31.222209106468902,131.0104061707686,6.859600379555308,4.174585124444534,0.0010989881252456,41.916816790010685,0.0014546917035209,2.811153314474766,449.7140588976434,17.786187321601275,6.714685486378061,71.99428180697711,2.8783880229668832e-06,120.0000103898448,193.6374175079873,15.288,0,0.0,0.0522712438446989,4.0751091178509895e-09,-0.0009224765531151,1.9138630415982226e-07,4.50966024037632e-05,4.1745852688465686,27.13985967570823,17.786359950252297,42.01097612387663
0.47,31.22220880579083,131.01040678873238,7.026066274755745,4.1823089530633855,0.0011240727220223,28.37640408484148,0.0014814747534716,2.801325368441072,331.0078106302534,18.138167428286582,6.849989708801916,71.99373704967608,3.2278903746588286e-06,120.00001107707628,201.37401505997488,15.288,0,0.0,0.0533057667609836,4.459978104761035e-09,-0.0009883252835099,2.094509673354327e-07,4.927107017839778e-05,4.182309103852639,26.69716826759888,18.13834399721685,28.514342615617974
0.48,31.222208499300592,131.0104074186346,7.195654207463586,4.189479568102716,0.0011490100608361,27.95074823096412,0.0015080719422187,2.7912412472910484,327.2031223011574,18.48995085190441,6.98515976370584,71.99315377257649,3.6103201777021456e-06,120.00001180491516,209.25751230436188,15.288,0,0.0,0.0543397174489847,4.8716620260348906e-09,-0.0010573190976925,2.2877013380347535e-07,5.373205427420879e-05,4.189479725385959,26.268461765425428,18.4901313379827,28.089773168283216
0.49,31.222208187201936,131.01040806005494,7.368224738812109,4.202723284133339,0.001175611380853,35.08821363242469,0.0015321405723077,2.781292092003844,389.60000969812296,18.812014261754847,7.111044804193205,71.99253015042137,4.027946338669921e-06,120.0000125755114,216.60722913930897,15.288,0,0.0,0.0552863302793499,5.311396446020465e-09,-0.0011294854492155,2.4938633613154685e-07,5.8398320167141767e-05,4.202723448262914,25.88860807032205,18.81219892635871,35.1982716047702
0.5,31.22220786953184,131.01040871291724,7.5437546994244835,4.220815778795054,0.0012036252596423,36.05491615971072,0.0015540388599792,2.7714444106710974,397.97031042210494,19.10875420627192,7.229005658018125,71.99186435180009,4.483102820610566e-06,120.00001339126192,223.4908652241728,15.288,0,0.0,0.0561585257949344,5.7804122391526605e-09,-0.0012048912160576,2.713531252030471e-07,6.327866493526626e-05,4.220815950099865,25.54902500917784,19.108943271285572,36.161276053538906
0.51,31.222207546379583,131.0104093770373,7.722184419225251,4.232567510615346,0.0012298790840397,27.54004661432325,0.0015777580800203,2.761017323676155,323.3984349720841,19.430597746636646,7.354673636736509,71.99115452520388,4.978202222778502e-06,120.00001425458936,231.07869697977367,15.288,0,0.0,0.0571045034845869,6.2799518101633574e-09,-0.0012835871653678,2.947201005874635e-07,6.854585242460463e-05,4.232567688976395,25.189423168613605,19.430790935591396,27.678103017910345
0.52,31.22220721771853,131.01041005220193,7.9035466285851745,16.99172613289135,-13.41644602846176,33.66805588313291,1.0425285582777448,1.7730312173676115,372.0984511843415,22.96143787516389,7.477527788274411,71.99036323043568,-4.297452052861533e-05,119.9999641795734,322.6845604452027,15.288,0,7.542874444256603,0.0674814130202965,6.8204275297252645e-09,-0.0015832452749953,-0.0001674099858996,9.991009521996128e-05,21.52655496048878,17.84774223011038,20.8731938226202,33.73082407001562
0.53,31.222206883007328,131.01041073780232,8.088007141223839,16.832002854213872,-13.249843950766495,35.3357422359387,1.067210420114395,1.7378237234220717,386.5562464348624,23.288431910339856,7.596925816526512,71.98934961820807,-0.0006175469716477,119.99936035688508,331.9348308521052,15.288,0,7.5719056336004815,0.0684425588269135,7.357813234047367e-09,-0.0020009647756672,-0.0005214069022212,0.0001280660722061,21.302046517225453,17.689288050990232,21.225652251670283,35.39454264062741
0.54,31.22220654207564,131.01041143395233,8.275643840940601,16.67729494665159,-13.088114077138687,31.083032812502843,1.0921900615564588,1.7020990465053123,349.2703242098436,23.61384649864328,7.715495237095823,71.98809359511786,-0.0018225308120662,119.99809363955973,341.2698954582908,15.288,0,7.600881380164488,0.0693990692617948,7.875553300381708e-09,-0.002430684103624,-0.0008838826605475,0.0001577399980838,21.08433113814933,17.53510485719009,21.575803224171963,31.148755177660075
0.55,31.222206195215968,131.01041214001216,8.46625195549624,16.531362157531,-12.933963832544595,32.92488679335617,1.1171957831279582,1.6662112806463405,365.2500005919907,23.93223765864167,7.831457625647933,71.98658835244692,-0.0036724421025353,119.9961487518454,350.5283697855874,15.288,0,7.629765472221154,0.070334944806986,8.374092376559755e-09,-0.0028720513671221,-0.0012545062010088,0.0001888922483697,20.877971716506003,17.38869682073085,21.91778659121528,32.98594483723198
0.56,31.222205842426032,131.01041285595156,8.659832310286994,16.39673167352781,-12.78919136001824,30.75949825880385,1.142008100778929,1.63044940561936,346.2265619465787,24.23940056876653,7.9434357253695875,71.98482712985522,-0.0061815104097189,119.9935107162676,359.57727586749814,15.288,0,7.658555578965112,0.0712378277607213,8.853890866760615e-09,-0.0033252798175992,-0.0016333957494177,0.0002215035165939,20.686030572726636,17.252478687778908,22.24711975100552,30.82384273415445
0.57,31.22220548377968,131.010413581584,8.856332756832371,16.25936829845821,-12.64344682293676,30.42308806125344,1.1675518421735387,1.5935921085204487,343.1828296833023,24.55396384394036,8.057602272195973,71.98280312289407,-0.0093638971647069,119.99016462338795,368.9635940603257,15.288,0,7.6872374303067135,0.0721624662152192,9.315446600467138e-09,-0.0037903976294375,-0.0020205227839847,0.0002557577146883,20.491356314239557,17.113759040987894,22.584014984202287,30.487161237072943
0.58,31.222205119250688,131.01041431692988,9.055770950606703,16.110436310181985,-12.49026119644886,39.93891439546119,1.194510484262651,1.5547300870816023,426.1250058573153,24.88891457198855,8.178234230005609,71.98050938801508,-0.0132338162146949,119.98609550751716,379.0913624303727,15.288,0,7.715809570171003,0.0731470286941168,9.759285541246329e-09,-0.0042676333984594,-0.0024160163980153,0.0002918818593882,20.28316180273319,16.964407304671052,22.942451580760107,39.987009440925526
0.59,31.22220474840933,131.01041506284088,9.258445710116565,15.982776328625034,-12.353642495979992,32.45328689220347,1.220519892095608,1.5169915737218844,360.68438819711065,25.197376647080286,8.289846401962176,71.97793867966256,-0.0178063357626004,119.98128749334418,388.538606890826,15.288,0,7.744314626676082,0.0740537495684841,1.01859072501366e-08,-0.0047581058467465,-0.0028207013220223,0.0003294541758475,20.101500519299115,16.83454494128426,23.271871285814143,32.5116404130799
0.6,31.22220437147677,131.01041581882603,9.464202356844767,15.83256567205923,-12.201555474650815,28.8891673685734,1.2488425800413692,1.4760468450285609,329.4859594986058,25.54298923335303,8.413425511356078,71.97508349965483,-0.0230966180776333,119.97572460919436,399.26237252161263,15.288,0,7.772724317048797,0.0750696608252654,1.0595912104528044e-08,-0.0052615477467787,-0.0032343137610845,0.0003693024981577,19.89291232495689,16.683891658615014,23.640827250619687,28.953796181638936
0.61,31.22220398839848,131.0104165849632,9.673078376318552,15.68171359396728,-12.050000413246591,33.78811725217378,1.2779166015165009,1.433960074682049,372.0984511843297,25.89457488228597,8.538684235224041,71.9719361475786,-0.0291201030049673,119.96939058717324,410.321055075455,15.288,0,7.801042242016842,0.0761031340717397,1.098990775237564e-08,-0.0057782944369419,-0.0036570604291879,0.0004111466461626,19.684108103657955,16.532551901997618,24.01568796162949,33.84266803582213
0.62,31.222203599291912,131.01041736097514,9.884991452949306,15.57262995615662,-11.92974433288666,41.91937227728076,1.3042329571144275,1.395405302656852,442.86563930529206,26.18557961786856,8.64377208703806,71.9684888430396,-0.035892513928684,119.96226884841708,419.5867616159272,15.288,0,7.8292671892318895,0.0769585694919133,1.1368528279355472e-08,-0.006308411998343,-0.0040889364965604,0.000453901587585,19.526744496907565,16.42002624271758,24.325170381637346,41.96286395953404
0.63,31.222203203960653,131.01041814723553,10.100078181697228,15.453921733506633,-11.80335952486842,23.9453050620289,1.331868559473234,1.354952854919326,286.11251274707894,26.494248761492983,8.754413696578341,71.96473382861289,-0.0434288768056812,119.95434355291076,429.528162412876,15.288,0,7.857377602063303,0.0778659270371403,1.1732448811939736e-08,-0.0068524423165577,-0.0045303063875723,0.0004988471432667,19.35816483555989,16.298710683671203,24.653267737100894,24.020562141889897
0.64,31.22220280301625,131.010418942449,10.317912189050254,15.318631231060715,-11.665844464008115,23.51796570788341,1.3615348676978098,1.3116436841072447,282.30782441796754,26.83313426983856,8.874733935792785,71.96066335400893,-0.0517442834377412,119.945598777105,440.57733119293374,15.288,0,7.885388145777493,0.0788620967775973,1.2082432711856728e-08,-0.0074092227786144,-0.0049802147690303,0.0005462676270489,19.169905237296792,16.16196453844663,25.013302602143813,23.593831765679674
0.65,31.222202396435584,131.01041974663275,10.538509488910456,15.213912534990431,-11.551241362328872,41.26510842618656,1.389070721306742,1.2710373936065753,436.7781447787475,27.124896739621185,8.979391961374661,71.95626972336102,-0.0608533508114308,119.93601909438097,450.20086765957006,15.288,0,7.913213524028666,0.0797197798006613,1.2419220658756084e-08,-0.0079790831119237,-0.0054388623645516,0.0005946662482252,19.01933445125432,16.05403031553013,25.322698659652573,41.30804070577145
0.66,31.222201983684585,131.01042056086155,10.762242288221042,15.104351593000985,-11.433947483606662,35.161118563626395,1.417582677312382,1.2289831717959732,383.51251517160017,27.427084647030348,9.087221684091672,71.9515451234636,-0.0707707427383347,119.92558902298632,460.2778796598629,15.288,0,7.940964678451578,0.0806081102699135,1.274354401186554e-08,-0.0085633942882276,-0.0059072482860876,0.0006453101032073,18.86335040582067,15.941719804557335,25.642941641051383,35.21113742736759
0.67,31.22220156495447,131.01042138470913,10.988977301912232,14.980429191934087,-11.307121258672248,24.332011317029178,1.4480352708537148,1.1841746691814627,289.1562440103425,27.756746852537194,9.203806745623105,71.94648119235652,-0.0815120361697869,119.914292116432,471.39881171322247,15.288,0,7.968620584549333,0.081577195061352,1.3056243145918064e-08,-0.0091619283246683,-0.0063851394419051,0.0006986969952631,18.690374238442484,15.816008851116711,25.992134647816165,24.403808115226674
0.68,31.22220114041877,131.01042221778633,11.218593678019392,14.863045212688908,-11.185765995240576,30.28845436922612,1.4784756561457904,1.1392261397637635,340.8999924858462,28.078166849776988,9.31747663148354,71.94106964746378,-0.093092662587385,119.90211206652948,482.368877400057,15.288,0,7.996103054076574,0.0825220635470563,1.3358173956366637e-08,-0.0097745447862385,-0.0068723703764173,0.0007540308877463,18.52579655982284,15.696639120874266,26.332251033118933,30.345909024776795
0.69,31.22220071015772,131.0104230598982,11.45103568485862,14.762948590752409,-11.077557619168768,37.21052192572019,1.5077629232198413,1.0956834199788592,401.0140726853634,28.371421549399567,9.421723810429102,71.9353020844234,-0.1055276575242403,119.88903298451308,492.48644065516623,15.288,0,8.02348341309043,0.0833841612304055,1.3650243997296168e-08,-0.0104012508037945,-0.0073688890847191,0.0008107385363369,18.38266907999954,15.5938162388317,26.64218327656713,37.257171298609826
0.7,31.22220027402504,131.01042391132063,11.686405596647862,14.663321589295954,-10.970394155460005,31.27216001226208,1.5375273991555305,1.0513482702522363,349.27032420985284,28.665742188847684,9.526104867622305,71.92917023946248,-0.1188317657385566,119.87503927202398,502.7460299552584,15.288,0,8.050756927889276,0.0842493990448707,1.3933357396343413e-08,-0.011042595836131,-0.007875055844627,0.0008696383894209,18.240535671098577,15.491657652805042,26.95302649236983,31.32758074797733
0.71,31.222199832073567,131.01042477191712,11.924666945288628,14.554827859486712,-10.857582198133723,25.76803009390327,1.5687750333442707,1.004848679248643,301.33126406340574,28.9784455188228,9.636286429696405,71.92266555489861,-0.1330199668172917,119.86011507935508,513.762618799959,15.288,0,8.07785521844699,0.0851686716061985,1.4208486079732356e-08,-0.0116986409050096,-0.0083908578687613,0.0009313327907503,18.08804356833405,15.381301251704294,27.283129761831944,25.835288868014164
0.72,31.22219938430198,131.0104256416634,12.165821104135333,14.43571022643248,-10.73792604764122,31.469017751962166,1.601826599650064,0.9557449897699472,350.79220534145287,29.31408733996185,9.753734906643189,71.91577925082328,-0.1481074254795059,119.84424435427636,525.7206418852694,15.288,0,8.104851361118481,0.0861553691363627,1.4476633854956805e-08,-0.0123696415750857,-0.0089164293372102,0.000996134162326,17.92308446949175,15.260947946488573,27.63723434106021,31.524250589254724
0.73,31.2221989307034,131.01042652054625,12.409873297830124,14.346066292712347,-10.639914644211164,39.71311414861961,1.6321731313374197,0.9101575835841658,422.320318528234,29.595550200222743,9.853302910798378,71.90850231061154,-0.1641097602730476,119.82741055245036,535.8520945905634,15.288,0,8.13175041132647,0.086982840140203,1.4738829077358856e-08,-0.0130559131097063,-0.0094519470810734,0.0010614702640286,17.79427655975398,15.168985106913397,27.93382566085248,39.75705989304172
0.74,31.22219847120796,131.0104274086862,12.65687288532042,14.248229724628247,-10.536708612907685,25.005892445112263,1.6639663283570034,0.862441771213201,294.48281347105944,29.894382824616685,9.958338071255309,71.90082577157783,-0.1810417964950064,119.80959796350432,546.7149860646647,15.288,0,8.158488079899502,0.0878613693913762,1.4996158809832638e-08,-0.0137577582633582,-0.0099975777570495,0.0011297988486809,17.65590830042753,15.069444016397858,28.24859381190127,25.07602932537689
0.75,31.222198006191928,131.01042830527717,12.906558192269385,14.145594661637356,-10.430737805360792,29.13354041881933,1.6969057723765066,0.8130006711024746,330.24688556441487,30.20472642993264,10.066942446997148,71.8927405991299,-0.1989183331831672,119.79079089071269,558.111787340386,15.288,0,8.185082712674465,0.0887737377814073,1.524978931129769e-08,-0.0144743958593943,-0.0105526748421987,0.0012009607144612,17.512101074993208,14.965511042296152,28.57530539511656,29.1942397850418
0.76,31.22219753553514,131.0104292105453,13.1590138005686,14.05370070793752,-10.332977549736698,31.334619396450965,1.729101754545891,0.7644112374579116,349.27032420986166,30.495164244080343,10.168874909296852,71.88423782739262,-0.2177538802490541,119.7709739264882,568.8828041642852,15.288,0,8.211560904997786,0.089627609479756,1.5500851910678066e-08,-0.0152064094427424,-0.0111176147759844,0.0012737980403218,17.38166981524053,14.872144073417068,28.880847950601737,31.39159903760824
0.77,31.22219705917364,131.01043012460133,13.414285182008518,13.965029059018892,-10.238079403811888,29.32738367628937,1.7614236114142536,0.715488048121923,331.7687666960708,30.780288332962144,10.268891191968375,71.87530821447947,-0.2375629218026879,119.75013168741698,579.5562236826746,15.288,0,8.237925290159916,0.0904658714292616,1.5750545805683747e-08,-0.0159541917771921,-0.0116926290261018,0.001348900032702,17.255492124428574,14.782134764029315,29.18063905769589,29.388942981708905
0.78,31.222196577172447,131.0104310472882,13.6723279390988,13.868695233736275,-10.13835187523212,24.1609390623622,1.7952569062470156,0.6643220034072816,286.8734378128899,31.082724617576098,10.374374141919906,71.86594239196572,-0.2583598095973821,119.72824891949335,590.986561994181,15.288,0,8.264104213676267,0.0913550232188326,1.6000132676196133e-08,-0.0167177316729739,-0.0122776470811529,0.0014273087963299,17.120380279920017,14.684996788525758,29.49849349576626,24.236650912591415
0.79,31.22219608962148,131.01043197839732,13.9330803941018,13.768510798835644,-10.03651080140521,34.17181175723531,1.830206103435524,0.6114519609321757,373.6203323159534,31.395255563170863,10.482968924849708,71.85613098027754,-0.2801589313205739,119.70531030917113,602.9157298541611,15.288,0,8.290156811197374,0.092273852242759,1.6250896217275728e-08,-0.0174970063607307,-0.0128725901187536,0.0015088233918461,16.980960546814458,14.584340838450132,29.82677430769,34.226250841328
0.8,31.222195596284006,131.0104329184011,14.19670875203607,13.685291868727498,-9.94711744295136,34.620788472559994,1.863416145142648,0.5608017883740399,377.42502064505743,31.67242206318996,10.579873466630785,71.84586416612308,-0.3029749221012487,119.68130027953852,613.5926185731278,15.288,0,8.31610379771967,0.0930887496826348,1.6504139424350432e-08,-0.018293007374066,-0.0134781270429309,0.0015913511656961,16.86237751328247,14.500399349826024,30.11776970279604,34.67543529413243
0.81,31.22219509726545,131.01043386706047,14.463140675699629,13.592553363554892,-9.851612261767691,22.69022346851663,1.898487626284744,0.5074155809880277,273.9374926939919,31.97167138242436,10.683789935312504,71.8351321423052,-0.3268220877442017,119.65620358488204,625.2261629277745,15.288,0,8.341931744357735,0.0939685589831733,1.6761257909870043e-08,-0.0191055623386841,-0.0140940660009172,0.0016776976425455,16.732620652325775,14.407448538699084,30.43179757901058,22.77516118252972
0.82,31.222194592762087,131.01043482394604,14.732240450129538,13.49638672408407,-9.754254220595945,29.020236236692,1.934647928372064,0.452345419158644,328.72500443277005,32.28013743079896,10.790549334243767,71.82392501087313,-0.3517145170428669,119.630005194756,637.332387497954,15.288,0,8.367606484452402,0.0948754655784644,1.7023696856912306e-08,-0.0199343187680126,-0.014720083737056,0.0017673154708587,16.59904334346034,14.311398368272773,30.75533330113505,29.08816924831124
0.83,31.22219408275346,131.01043578908192,15.004023690624653,13.420055245498023,-9.671197129079946,36.759200842131655,1.9684155294393928,0.4004006171190573,395.68750322465047,32.544307452848614,10.88275122066933,71.81223272708073,-0.377666193886865,119.60269017583197,647.7896002253666,15.288,0,8.39312753987677,0.0956521884776392,1.7292913859674752e-08,-0.0207796387241295,-0.0153563810673803,0.0018572869052613,16.489693933304615,14.234999163898864,31.03236289013763,36.81404388141705
0.84,31.22219356712496,131.01043676269236,15.278571872583148,13.340474490991513,-9.586364329292936,22.88513730800305,2.003141429402473,0.3469540309356031,275.4593748256452,32.81634804761808,10.97735397174958,71.80004533775386,-0.4046904611442134,119.57424425558368,658.6473527739886,15.288,0,8.418528249326204,0.0964520519151006,1.757040311718187e-08,-0.0216420123303193,-0.0160032507119935,0.0019504840734813,16.376717030311944,14.155706252037795,31.31754126090954,22.975257611002412
0.85,31.222193046186696,131.01043774411193,15.555670050802352,13.246040519238688,-9.491737244532247,24.91297167304977,2.0407248549562875,0.2893602743574529,292.96093233939376,33.12429656098983,11.083497639092224,71.78735282720908,-0.4328003482655617,119.544653476494,671.0489846069306,15.288,0,8.44378815016435,0.0973574620673291,1.7857759770479012e-08,-0.022520640029234,-0.0166600450562642,0.0020486622032903,16.24613559454839,14.062106350946143,31.640148234216404,24.99808882463203
0.86,31.222192519751903,131.01043873371648,15.8354502012972,13.163742466901402,-9.405988801415615,31.07425318440704,2.0769514626694825,0.2334620546608797,346.2265619465587,33.404352962590195,11.1804256483446,71.77414480656856,-0.46200923693716,119.51390349578622,682.4256684738256,15.288,0,8.46892434551855,0.0981809013398216,1.8156554882443e-08,-0.0234164460811726,-0.0173273705679405,0.0021481041764196,16.130461045708365,13.980672172373009,31.93349122353952,31.144460869918465
0.87,31.222191987844138,131.0104397314427,16.117897569004274,13.087365807268988,-9.324778579563398,28.971461257993617,2.1127092690027225,0.1780303805579216,327.964078366998,33.67043332510782,11.27266744658134,71.76041086107209,-0.49233008628144,119.48198039969247,693.3218013025265,15.288,0,8.493935413617178,0.0989632707772131,1.8468441393746748e-08,-0.0243295665806045,-0.0180052584967756,0.0022495859458913,16.02218721074249,13.9053425907304,32.21215802144579,29.04893806484424
0.88,31.222191450499388,131.0104407372023,16.402988825355912,13.00387018407464,-9.239113736733982,25.107904556290016,2.150158582094768,0.1200502033152071,294.4828134710418,33.95438874113856,11.370591380807518,71.74614052310906,-0.5237754812918292,119.44887065221832,705.0458939478685,15.288,0,8.518799106794694,0.0997981862437697,1.8795124622565223e-08,-0.0252600068934952,-0.0186936454647699,0.0023552499469906,15.9056154253254,13.823286247971437,32.50939345069571,25.2000885948292
0.89,31.22219090780228,131.01044175080477,16.690666702751518,12.9135181741022,-9.149197100483544,27.489981489554864,2.189333650543179,0.059460101734205,315.028134248087,34.25634955770832,11.474250391568452,71.73132316615592,-0.5563578479866563,119.41456086805536,717.6219580742107,15.288,0,8.543509117520092,0.1006860313713806,1.9138360101005904e-08,-0.026207753751839,-0.0193924545612797,0.0024652814259928,15.781069571884387,13.734727194702812,32.825296879985295,27.577088309558135
0.9,31.22219035967141,131.01044277240948,16.980989963018434,12.842364161279388,-9.07286237088578,30.313345619175763,2.225657368706552,0.00266084156917,339.37814235421445,34.50997015400427,11.562056120394953,71.71594783171946,-0.5900898065009554,119.37903744037366,728.2669710513026,15.288,0,8.568097299944728,0.1014318035810171,1.949993422915752e-08,-0.0271733607303093,-0.0201020143167935,0.0025749657168071,15.67985029453603,13.66542657004418,33.09075682499984,30.394941691514365
0.91,31.22218980618021,131.01044380185235,17.27390936324677,12.764199488582944,-8.992147043400635,23.18866761866261,2.2637072860915124,-0.0567514172738247,277.7421810230789,34.78158587333083,11.655595630764076,71.70000379788115,-0.6249829454343488,119.34228783064684,739.7551353188595,15.288,0,8.592556263917649,0.1022304751629545,1.9881702118299503e-08,-0.0281567283844741,-0.0208221843699112,0.0026890747022149,15.570459350077009,13.5894763052255,33.37489405380846,23.298967730980664
0.92,31.222189247540463,131.01044483867608,17.569278956537428,12.679337851906125,-8.907286010918,27.50921680843124,2.303519855114189,-0.1188417092546224,315.02813424806214,35.07115810142614,11.7548783946087,71.68348018856632,-0.6610486442123461,119.304299702237,752.1026578253329,15.288,0,8.61687439477627,0.1030819330462869,2.0285590643784925e-08,-0.0291572789980175,-0.0215524841236588,0.0028077347402696,15.453280894754442,13.507151944950332,33.67763393181342,27.60574825082703
0.93,31.22218868365549,131.01044588307667,17.867168494959262,12.611703604848964,-8.834536682196713,32.6247998436232,2.340557265469596,-0.1772351067773357,359.1625070654728,35.3150153411208,11.839173196767412,71.66636598570162,-0.69829803395917,119.26506096152976,762.5762627032907,15.288,0,8.64106395556779,0.1037990325923458,2.0713518326935012e-08,-0.0301756931666327,-0.0222933292534522,0.0029259251042728,15.35700216757547,13.442237799990668,33.93278191681445,32.70913000115554
0.94,31.22218811440881,131.0104469352963,18.16766176860383,12.529380599784504,-8.752211566481751,23.819995191834323,2.380910090033945,-0.2405013499453746,283.0687504837787,35.59823414074677,11.936175495945967,71.64865023375846,-0.7367415566089157,119.22456022155744,774.8343412467922,15.288,0,8.665124518165198,0.1046318331900817,2.1167462117451096e-08,-0.0312124428431011,-0.0230449848985201,0.0030506348860591,15.243351122229727,13.362999899798725,34.22878031712566,23.939898594086845
0.95,31.22218754010445,131.01044799468144,18.470548410507742,12.44966104217606,-8.672044460979357,30.699864869647115,2.421275354783304,-0.3040003201556547,342.4218736174873,35.87467014883049,12.03088523651893,71.63032157312742,-0.7763899226106208,119.18278579204384,786.8920359419728,15.288,0,8.689046369686109,0.1054447059490466,2.1649520779336368e-08,-0.0322667299519952,-0.0238068153557566,0.0031780758229918,15.133053710978768,13.286631731144322,34.51766364810546,30.79669939381376
0.96,31.222186960433,131.01044906188622,18.776047327146845,12.378620548123171,-8.59811535647255,30.08899466975827,2.4603620366659182,-0.3659058774663371,337.09533515678345,36.12684628491191,12.11758682545026,71.61136861646625,-0.8172533142749762,119.13972651919732,797.9702061437241,15.288,0,8.71284795954288,0.1061862812676282,2.2161740490278012e-08,-0.0333399430075812,-0.0245797294989868,0.0033067666204284,15.033372697329012,13.219231455779916,34.78132090520858,30.191635740704296
0.97,31.222186375415014,131.01045013686385,19.0841466869985,12.30393818668898,-8.522096105893294,19.423747514758816,2.5006643482544484,-0.4297451614319955,245.02188719299323,36.388792915584986,12.207373407557691,71.591779700775,-0.8593418801853517,119.0953712631426,809.5599624902906,15.288,0,8.736526850467623,0.1069565829849259,2.2706293615021804e-08,-0.0344322019836866,-0.0253637373417678,0.0034397607472442,14.92955283179157,13.148498453997629,35.05507559050087,19.588771544012257
0.98,31.22218578535285,131.0104512189649,19.394637388938943,12.215624385835392,-8.43729498425496,28.071691582842185,2.544419374030879,-0.4987043000532058,319.5937466429581,36.689831744859205,12.309840482621455,71.5715431271362,-0.9026652264330284,119.0497094334908,822.9855536702897,15.288,0,8.76006705956694,0.1078417959981139,2.328545790033877e-08,-0.0355424822990273,-0.0261580473003127,0.003579944669238,14.80965790001413,13.064384759491096,35.36928933000984,28.191180256456946
0.99,31.22218519009049,131.01045230851983,19.707631288292625,12.151531685725027,-8.369092446299094,30.63555024741564,2.583359213962044,-0.5610534727534008,341.6609485517054,36.9205942147028,12.389299540936708,71.55064689321361,-0.9472329502163084,119.00273042720993,833.345472409529,15.288,0,8.783486171874156,0.1085204554534858,2.390147387150589e-08,-0.0366718027365269,-0.0269632986429383,0.0037168131137306,14.718920888457353,13.004884851522798,35.61065001362543,30.74939779555983
1.0,31.222184589626703,131.01045340553307,20.023132034337383,12.07418777299422,-8.292361698784095,27.46348251447283,2.625694491452799,-0.6284537668670352,314.2672081822764,37.18943244160425,12.481107973033383,71.52907936282375,-0.99305326913598,118.95442507229782,845.5000873015067,15.288,0,8.80677443128939,0.109311039009155,2.4556666682976088e-08,-0.0378201738271617,-0.0277794240800524,0.0038609990402657,14.612560790767754,12.932387727834016,35.891413898502336,27.5958710230768
1.01,31.222183984150234,131.01045450959845,20.341010206367294,11.999559848872376,-8.21778603413173,28.703783977216613,2.6678780219762888,-0.6958712940016092,324.9203161036979,37.44985349936769,12.570109927868309,71.50682843147949,-1.0401346986299862,118.90478385908096,857.3566928231669,15.288,0,8.829927043935895,0.1100768904432402,2.5253457743085525e-08,-0.0389871434936049,-0.0286060339287593,0.0040078817795074,14.509646562671469,12.862933731195431,36.16342789761181,28.835898193201416
1.02,31.222183373581487,131.0104556208894,20.661324466244515,11.9288455022981,-8.146145979938062,24.027708648206858,2.709580205273673,-0.7628347266901807,284.59063161540416,37.697820978377486,12.65497904139486,71.48388209911445,-1.0884848853570743,118.85379817002092,868.7212207498337,15.288,0,8.852955926907775,0.1108061453052071,2.5994265324217213e-08,-0.0401732289869685,-0.029443412077531,0.0041570283830551,14.411598407443076,12.79774826811448,36.42253402387891,24.192034321077053
1.03,31.222182757992226,131.01045673925495,20.98402752485173,11.84935142854846,-8.069007698362686,19.70216378936873,2.753854176978457,-0.8337122729007364,247.30469339049705,37.97208276831649,12.748395417878472,71.4602283582945,-1.1381108245974048,118.8014600497292,881.3802441539082,15.288,0,8.87585690598867,0.1116126962520965,2.678159439946438e-08,-0.0413782789333256,-0.0302913779136422,0.0043127410500287,14.303282553927865,12.724006468759018,36.70879155809818,19.91115383309464
1.04,31.222182137446776,131.01045786455853,21.30907724575833,11.778971914162696,-7.998232931670355,31.101854675312808,2.7963564422983143,-0.9022970879060856,345.46563688072297,38.21757986036351,12.832357619486396,71.43585479111644,-1.1890196442120695,118.74776137780432,892.7858093190781,15.288,0,8.898633078388224,0.1123347066395113,2.7618017023446704e-08,-0.0426023315352063,-0.0311498816215783,0.0044688886276564,14.206018616623671,12.6598082045633,36.96529682146623,31.240344326391543
1.05,31.22218151165108,131.01045899744457,21.63668306669457,11.701619911666011,-7.923172183760637,18.90956549368566,2.841057451060141,-0.974279479903646,240.45625879819983,38.48417330672733,12.923166764723492,71.41074904113604,-1.2412176591123567,118.69269486586045,905.2563354434932,15.288,0,8.921296586653149,0.1131187353088164,2.8506086327596853e-08,-0.0438468006840517,-0.0320198171000886,0.0046313690407857,14.100645574408505,12.588874334773513,37.24356715993946,19.146605315438375
1.06,31.22218088085121,131.01046013738448,21.96667553642192,11.618485861484828,-7.844632754962171,26.77832418886632,2.887787228447724,-1.0494329039983203,308.17968365593924,38.7689560324985,13.019907324258828,71.38489823005531,-1.2947114946168965,118.63625287090017,918.6745749940976,15.288,0,8.943837950861477,0.1139562378341713,2.9448566041637045e-08,-0.0451108258719274,-0.0329005134849578,0.0047999911372226,13.988588991790852,12.51237747212916,37.5405702210716,26.95402142280078
1.07,31.222180244928325,131.0104612846426,22.299141253441054,11.54995745047376,-7.776015671304885,31.46771497791247,2.9311322284826367,-1.1199742870689997,348.5093681440308,39.00591014943018,13.10092522426954,71.35828917455892,-1.349507638882238,118.5784278675547,929.9089925820384,15.288,0,8.96626971607917,0.1146531633813012,3.0448200400060536e-08,-0.0463953143201674,-0.0337925103344785,0.0049666804583693,13.894087351644188,12.451077127498252,37.788202696926575,31.623772141787292
1.08,31.22217960378002,131.0104624394533,22.63415554550943,11.4786970631755,-7.705896705956013,21.299509070155423,2.9756083843885,-1.1923996484344472,261.00157857466235,39.2504634969923,13.18438582869908,71.33090886156957,-1.405611511302951,118.51921343017744,941.5756518815716,15.288,0,8.988584255235645,0.1153724345821297,3.1507800311396366e-08,-0.0477008135829744,-0.0346960967445273,0.0051382861132851,13.796513942479464,12.387362458401524,38.04366993404292,21.53938598958807
1.09,31.222178957691263,131.0104636012036,22.97152173941472,11.392646458638716,-7.626410465912566,19.618819228415845,3.024660864544614,-1.2716987732091227,246.54375332474407,39.54351538845956,13.283764408317175,71.30274410765286,-1.463028110753653,118.45860354803636,955.6571589929068,15.288,0,9.010774832243715,0.116234270999941,3.263034329366375e-08,-0.0490261568414249,-0.0356103961494584,0.0053203078103619,13.68155994957304,12.308877267105908,38.3490958991995,19.891301089485037
1.1,31.222178306741583,131.0104647697278,23.311187370762312,11.314736191024137,-7.552556407411837,39.0003540767756,3.0719515829883304,-1.3487300955810324,413.1890617385841,39.80895758920783,13.374074101429503,71.27378156114187,-1.521761998179029,118.3965926438124,968.498626511638,15.288,0,9.032846039813778,0.1170149607408609,3.3818804608572444e-08,-0.0503713407218822,-0.036535324490515,0.0055028006627006,13.576452995642272,12.239044328137789,38.62603744071847,39.14439394744563
1.11,31.222177650519807,131.01046594594274,23.65344493560348,11.252573437513696,-7.489238301205088,28.64775856372584,3.1150510509510942,-1.4199594857491566,324.1593910376397,40.01917562246826,13.446171639920411,71.24400760764888,-1.5818174605985575,118.33317540017408,978.7221038790962,15.288,0,9.054818561355145,0.1176333326603029,3.5076113034161635e-08,-0.051738576407649,-0.0374722901454491,0.0056818243062396,13.490192486906375,12.18574253888864,38.84611589491328,28.85158398973491
1.12,31.22217698909268,131.01046712972027,23.998251372452064,11.161865453329678,-7.407672417638536,11.028490462665248,3.1670826100323155,-1.504423397720543,172.73281794065943,40.32699920573416,13.550391385525195,71.21340879320847,-1.643197703245891,118.26834761126648,993.8035641110972,15.288,0,9.076682853321977,0.1185386179901285,3.64054016251228e-08,-0.05312756088338,-0.0384209983267865,0.0058790423373253,13.370270813604238,12.103496085394042,39.1666437041411,11.57243724992607
1.13,31.22217632306732,131.01046831972695,24.345183245357777,11.087073389112197,-7.3367242124166365,33.6993080148695,3.214811343993714,-1.5829313703294068,367.5328077900705,40.57877988668304,13.636183508717004,71.18197068394426,-1.705906956787562,118.20210395647572,1006.2183499994944,15.288,0,9.098424544460388,0.119279178083412,3.781006873394767e-08,-0.0545357644806488,-0.0393796630856783,0.0060723489532533,13.269380394583946,12.03796083497841,39.42947677670085,33.889290998510006
1.14,31.22217565176805,131.01046951747915,24.694719696045656,11.023371494925774,-7.273209222384962,18.818358051810343,3.25943633801663,-1.657202247790797,239.69531773195544,40.789308238383605,13.708330725193168,71.1496797703742,-1.76994693518549,118.13444174341612,1016.6521008083675,15.288,0,9.120071949074756,0.1198984879858687,3.9293122990219664e-08,-0.0559667060712258,-0.0403505538423435,0.0062637993357719,13.181778200044311,11.98427835473822,39.64990106084164,19.170311533665835
1.15,31.222174975695108,131.01047072188655,25.04651270231232,10.9311199760021,-7.19156927191169,18.550157954568807,3.3135845936384527,-1.7456509911957387,237.41251153546767,41.10167208157699,13.814148394798767,71.11652246692668,-1.8353186971707176,118.0653589392632,1032.2478493822252,15.288,0,9.141599119902798,0.1208171482574058,4.085803553399437e-08,-0.0574178311805774,-0.0413318732812658,0.0064752023932472,13.06056562109659,11.901477344040016,39.97498684490928,18.92446829852065
1.16,31.222174294990914,131.01047193264338,25.40046565990687,10.870344209183864,-7.130444901939474,47.97655749768683,3.357916002272095,-1.8200677390207127,490.0437743845894,41.29802561333721,13.881649209970426,71.08248423611612,-1.9020242220450927,117.99485250648152,1042.0986164602637,15.288,0,9.163015009142574,0.1213948085543792,4.250824957291168e-08,-0.0588889852507316,-0.0423234319978578,0.0066726088576859,12.976729148528992,11.851645104769885,40.18086687670019,48.12835251472659
1.17,31.2221736087704,131.0104731517565,25.757206109966035,10.794666795976855,-7.060013021611101,8.793426451913199,3.407492003412577,-1.9024454080940687,153.70937929486794,41.54717747236143,13.9665845144377,71.04755139759794,-1.9700631166054112,117.92292188345212,1054.6744098543604,15.288,0,9.184347341763244,0.1221276776697729,4.424689963176664e-08,-0.0603847592833082,-0.0433281837460311,0.0068831350343545,12.875436996906492,11.786817800968617,40.44099742780947,9.620532680122531
1.18,31.22217291820795,131.01047437661407,26.115910769497862,10.699323211031986,-6.9772885063957295,23.508961781331816,3.464307360218724,-1.9957527537664737,280.02501822196746,41.8698525303384,14.07599483621243,71.01170956211473,-2.0394354369168712,117.84956599829496,1071.0833210315811,15.288,0,9.205550797414368,0.1230766772864426,4.6077972623653844e-08,-0.0618989911588879,-0.0443419540726962,0.0071102924347712,12.75109101514562,11.701900921351395,40.77656944714025,23.84650369711149
1.19,31.22217222277893,131.01047560841187,26.47695322075421,10.647622151969962,-6.922670887633145,40.805411956447365,3.506266884073592,-2.0675724433230056,428.4078130529292,42.0248395032493,14.1297904501392,70.9749439200642,-2.11014114356737,117.77478384801644,1078.990097468267,15.288,0,9.226661857301126,0.1235327657418867,4.8004869632414274e-08,-0.0634352145898305,-0.045366987046897,0.0073134765900331,12.678396693813708,11.662887190681731,40.94007269584972,41.00793104030143
1.2,31.222171522035428,131.0104768481966,26.84065383346224,10.561023540570854,-6.846080114772689,4.517011590024,3.560919154284686,-2.158355278767308,117.1843741360236,42.31175101384842,14.227406059290487,70.93724079338301,-2.182177361848232,117.69857739427452,1093.7351149978408,15.288,0,9.247682941043031,0.1243766577603484,5.0031083714196744e-08,-0.0649955509184762,-0.0464045778516376,0.007544263580871,12.564693556594277,11.587927623634272,41.23892831439174,6.143454763986255
1.21,31.222170817150868,131.01047809333227,27.206189036501502,10.476369871347556,-6.770994024695779,32.82172962315832,3.6153614360578974,-2.2491740053938143,359.92343213200894,42.590657577584246,14.322505564543455,70.89858503881963,-2.255542945960687,117.62094673378888,1108.162883484289,15.288,0,9.268555174956251,0.1251970284233744,5.216090052990481e-08,-0.0665738137606603,-0.047450572993832,0.0077781221306567,12.453438952250837,11.515391429981005,41.5295461962448,33.096760528420035
1.22,31.22217010723869,131.01047934585768,27.57418860191388,10.421363907255644,-6.7149078743249415,23.85510723912992,3.658975555737244,-2.3243443959915675,283.0687504825761,42.74969948931282,14.377693238190927,70.85896223257967,-2.3302346413635946,117.54189416183456,1116.4150664087967,15.288,0,9.289330127281891,0.1256650607150026,5.4397719104018784e-08,-0.0681754882771497,-0.0485084672115775,0.0079947142659336,12.377238146422837,11.474455676242172,41.69733716001554,24.245758812193298
1.23,31.222169392659342,131.0104806049891,27.944402732602875,10.334086516202015,-6.638670650600946,9.466382084656974,3.7151208972589904,-2.4183522821374304,159.79687382222795,43.0357398062791,14.475307868907068,70.81835867596794,-2.4062471156036023,117.4614241373066,1131.3647869870963,15.288,0,9.309996470798731,0.126506420310234,5.6745567412899374e-08,-0.0697982126311548,-0.0495766188159844,0.0082394790283233,12.263193862061806,11.400089891166331,41.99527157260224,10.452891504960926
