Time,Latitude,Longitude,Altitude,Angle of Attack,Angle of Sideslip,X-Acceleration,Y-Acceleration,Z-Acceleration,Thrust,True Velocity,Ground Velocity,Pitch,Roll,Yaw,Dynamic Pressure,cp,cg,parachute_deploy_gain,Wind Speed,Wind Direction,Mach,omega_x,omega_y,omega_z,Cmq,Angle of Attack(total),Angle of Attack(gust),True Velocity(gust),Acceleration
0.0,31.222216000000007,131.010392,3.000000004412624,0.0,0.0,0.0,0.0,0.0,2.2828121974499247,0.0,0.0,69.99999999623412,0.0,119.9999999935444,0.0,1.274,1.0271675151847728,0,0.0,0.0,0.0,0.0,0.0,0.0,-0.0,0.0,90.0,0.0,0.0
0.01,31.22221599999084,131.01039200000497,3.000002745347096,0.0,0.0,0.0,0.0,0.0,34.242186961749226,3.465174813755316e-14,2.8705476994166025e-14,69.9999999962611,-2.1713911667908447e-11,119.99999999352175,7.352495975525499e-28,1.274,1.0271659134330349,0,0.0,0.0,1.0183245502395064e-16,-3.3305335486039093e-18,7.169286865560398e-18,5.624298769768554e-18,-7.715917190115602e-34,0.0,89.99999999999979,3.465174813755316e-14,0.0
0.02,31.222215999994315,131.0103920000094,3.0000030495639742,0.0,0.0,0.0,0.0,0.0,25.871876237766216,3.8197434737535036e-11,2.4171837235633357e-11,69.99999999628672,-1.1921727947863515e-11,119.99999999353136,8.93414285188691e-22,1.274,1.027164492361118,0,0.0,0.0,1.1225230367947217e-13,-6.657678965418802e-18,1.4338573731120796e-17,1.1241821275959074e-17,-1.7010872994127372e-30,0.0,89.99999999975682,3.8197434737535036e-11,0.0
0.03,31.222215999994315,131.0103920000094,3.0000030495639742,0.0,0.0,9.81877837424427,-2.5122800045972096e-05,3.3498614629347925,180.34219359854663,1.2659015405517447e-10,1.1364406173918436e-10,69.99999999631459,-1.6431898037347223e-11,119.99999999352724,9.812605835254651e-21,1.274,1.0271551940870716,0,0.0,0.0,3.720154642239108e-13,-9.991600645811728e-18,2.150108433310316e-17,1.6859343782149594e-17,-8.453698244545225e-30,0.0,89.99999999919412,1.2659015405517447e-10,10.374487003414373
0.04,31.222215999994315,131.0103920000094,3.0000030495639742,18.83801224594347,-0.0001111777826462,48.68248476615645,-1.016330065874988e-05,3.3497854396877287,548.635972453808,0.1556173050466994,0.0975908358443652,69.99999999633813,-2.0932768807056278e-11,119.99999999352085,0.0148286043323172,1.274,1.027133720825283,0,0.0,0.0,0.0004573186944143,-1.3322134194415637e-17,-1.04744143520903e-11,1.336824254131964e-11,5.0626055458604615e-15,18.83801224625964,89.06236267790787,0.1555998412814392,48.79759610369246
0.05,31.22221599164764,131.01039201704114,3.002326315126219,5.772385609593056,-4.395076213712875e-06,71.20344550265034,4.905512691849684e-05,3.349217396035405,761.6984298824663,0.8326471944351852,0.3620326097059287,70.00000001316391,-1.0866255162484559e-10,120.00000000231074,0.4245281043148827,1.274,1.027093426565204,0,0.0,0.0,0.0024469331205246,-5.0245994431125096e-18,-7.32924164976824e-07,2.217344936947165e-11,1.895424184525467e-09,5.772385609594774,84.74112356985832,0.8326465040582279,71.28217104309611
0.06,31.22221596664444,131.01039206837547,3.015081730143309,4.056581213689704,3.169093567502233e-05,53.16249142470188,0.0001203825427859,3.3481235983850643,590.4875390737236,1.657216205300742,0.6755452977614796,69.99999964391398,-3.9285905645317736e-10,120.0000000287861,1.6816755551786196,1.274,1.027050317124926,0,0.0,0.0,0.0048701272653724,3.095757869075056e-13,-7.483541766772344e-06,3.074135420506017e-11,3.8518749565858254e-08,4.056581213813337,79.59316473687034,1.657221183301277,53.26781792157489
0.07,31.22221592883117,131.0103921460222,3.034593611434361,4.115662018628709,6.450869598349036e-05,81.18203554989698,0.0001593212642178,3.347059402768047,855.2937749779172,2.099899704220947,0.8579771146174259,69.99999543281565,-8.233801910783518e-10,120.00000006883089,2.700101932075157,1.274,1.027003201295312,0,0.0,0.0,0.006171060252819,3.4704292086287e-12,-2.6327204536316785e-05,1.9541142932033486e-10,1.7170712165327165e-07,4.115662019133419,76.90111966094352,2.099909837223217,81.2510043180746
0.08,31.22221588914193,131.01039222747755,3.0542761843835606,3.459696193892355,8.037433511260004e-05,16.298214211652088,0.0002413456836072,3.344878926597744,241.2171988638792,3.051964775152957,1.2149999716613011,69.99998042886442,-1.0128995578004475e-09,120.00000011111383,5.703497661025892,1.274,1.0269597189470347,0,0.0,0.0,0.0089689344021769,1.458982438104473e-11,-5.702803872814215e-05,7.043261397829576e-10,5.405702492731987e-07,3.459696194824858,71.30331929508368,3.051977400323993,16.63790856991177
0.09,31.2222158241468,131.01039236098703,3.0886872184095737,4.313676956300389,0.0001337561018991,50.35975918308536,0.0002293282821279,3.344215841840564,563.0937377043203,2.893161298572128,1.191209213966114,69.99994788602814,-7.098432023887522e-10,120.00000018106356,5.125380275808925,1.274,1.026918932011013,0,0.0,0.0,0.0085022553945842,3.8672912027154325e-11,-0.0001115933708951,2.016054215232918e-09,1.0027525988343615e-06,4.313676958370176,72.2316578138625,2.893182308931483,50.47067588835877
0.1,31.2222157788302,131.01039245392113,3.109877853389092,4.035124630954496,0.0001457499816535,47.804664812504015,0.0002878217657545,3.341734392237128,538.7437595981891,3.5677148583138303,1.4531247507621967,69.99988403958329,1.9248461973355822e-09,120.0000002323013,7.7939962029572305,1.274,1.0268846934974103,0,0.0,0.0,0.0104845969583028,8.579678749070606e-11,-0.0001726817043215,3.984565639703107e-09,1.913455350430327e-06,4.0351246335824245,68.43243098813296,3.567737752667411,47.92132267234452
0.11,31.222215703308,131.01039260899836,3.148841432727305,4.043401107254707,0.0001752764476999,37.67622367577205,0.0003286462930162,3.3392563999062723,442.86563930529127,4.034183355956686,1.6436552022667772,69.99978525353545,7.302513231814865e-09,120.00000031883242,9.96528118825134,1.274,1.026848594915519,0,0.0,0.0,0.0118554331868328,1.5870341853361987e-10,-0.0002596204409236,7.232030302688121e-09,3.252930323390323e-06,4.04340111104746,65.92012987243639,4.034210888316708,37.82391391539392
0.12,31.222215627491828,131.01039276462643,3.186995101203875,4.17874459224363,0.0002066711490009,41.15991989399172,0.0003576945202315,3.336766085769504,475.58594813540793,4.361857560629481,1.7865750500940407,69.99963665601238,1.781774420198147e-08,120.00000041104812,11.649831899889556,1.274,1.0268114448194128,0,0.0,0.0,0.0128183893919737,2.682972478760441e-10,-0.0003710216542429,1.2215991071490164e-08,5.026311388647148e-06,4.178744597345269,64.21681651392016,4.361890024457652,41.29495143136631
0.13,31.22221554594398,131.01039293200228,3.2277173449026786,4.202734874672792,0.0002327160860324,45.44886120763352,0.0003953741266062,3.333578629398489,515.9156326236897,4.792165672014363,1.9646716520715424,69.99942424225341,3.613383418913551e-08,120.00000051758742,14.061726603124043,1.274,1.026779572895131,0,0.0,0.0,0.0140829618979635,4.248908088871395e-10,-0.0005056103199642,1.908859219307828e-08,7.5253154423526356e-06,4.202734881104192,62.048594618540655,4.792202226971676,45.570952718869485
0.14,31.222215454191247,131.01039312033683,3.2737880595608355,4.184830647080848,0.000257138757548,42.32232525579263,0.0004369426767266,3.329727443445437,486.2390860568421,5.269261304374574,2.158791628597544,69.99913473613935,6.515851355725497e-08,120.00000064630268,17.000925061330125,1.274,1.0267449573927567,0,0.0,0.0,0.0154850332441425,6.382432869666793e-10,-0.0006690086306358,2.8426433029675884e-08,1.0948547100483978e-05,4.184830654966803,59.74181173116622,5.269301695636157,42.45310707234106
0.15,31.222215353826755,131.0103933263496,3.3242182719560263,4.21963947489699,0.0002846467688673,40.886944113003565,0.0004726792395108,3.325585650885676,472.5421858721398,5.6781946837482895,2.329510773545807,69.99875162806286,1.0876776246115984e-07,120.00000079954532,19.742017654108928,1.274,1.0267115958081523,0,0.0,0.0,0.0166867950518804,9.204756288136623e-10,-0.000865746478554,4.08948221429571e-08,1.526771148078443e-05,4.219639484480408,57.84996018384879,5.678239395958187,41.02196629910223
0.16,31.222215247130432,131.01039354534575,3.3775922280208457,4.253495568077899,0.0003118339050386,32.26872905470846,0.0005078415214353,3.32090791922544,391.1218908297597,6.081244877834229,2.4981889727471702,69.99825581174558,1.7187028096464329e-07,120.0000009800088,22.644030778355887,1.274,1.026675762255412,0,0.0,0.0,0.0178712695992133,1.2856146928958252e-09,-0.0010961187242953,5.6923362293832417e-08,2.0702404729358337e-05,4.253495579487569,56.06022383757386,6.081293860589489,32.43916312841722
0.17,31.22221513260033,131.01039378041813,3.4348437275053194,4.364838523348639,0.0003448792023946,40.840448242802736,0.0005326487904353,3.3162727284953744,471.78125980632416,6.362544479165355,2.6250789114832647,69.99762801982864,2.5997588617291615e-07,120.00000119506798,24.78723182122683,1.274,1.0266409836796937,0,0.0,0.0,0.0186979513961862,1.747791994374917e-09,-0.0013624931601664,7.706724512977917e-08,2.6923621797558364e-05,4.364838536947241,54.85936171416122,6.362598652663785,40.97486885600156
0.18,31.222215014088988,131.01039402363364,3.4935801365785646,4.353948305387995,0.0003681615230806,33.992183768165326,0.0005718025428208,3.310131992647221,407.1015672119096,6.81502088160835,2.810667639293692,69.99684761766231,3.794979223522764e-07,120.00000144728236,28.437950785509614,1.274,1.0266048342046536,0,0.0,0.0,0.020027681385988,2.3221419748804155e-09,-0.0016616990447559,1.0147209890543081e-07,3.517105786247627e-05,4.353948320923495,52.99157233768714,6.815078712285162,34.152972512863755
0.19,31.22221488419521,131.01039429023237,3.558399965607869,4.432620772533925,0.0003996774584738,38.45149959021069,0.0005986099513107,3.304145139297767,448.95313283182486,7.1223367465208405,2.946425726785696,69.99589577323147,5.440084577183829e-07,120.00000176148238,31.060341085698347,1.274,1.026566130444714,0,0.0,0.0,0.0209308229359413,3.022391489754689e-09,-0.0020041563310821,1.3135864879722746e-07,4.433199397898183e-05,4.432620790516937,51.77883352025967,7.122399527709208,38.59320142454953
0.2,31.222214751373183,131.01039456280608,3.624052454705669,4.443889400961181,0.0004246617145652,35.23432408779927,0.0006337972852267,3.2968110145188256,418.5156301991588,7.530482904611057,3.1167566004785483,69.99474776398331,7.478025600151903e-07,120.00000211715036,34.72195181863731,1.274,1.026529240027363,0,0.0,0.0,0.0221302820454282,3.866698391504749e-09,-0.0023849544920781,1.668144671071589e-07,5.57780533277244e-05,4.443889421210987,50.22448880200342,7.530549610317194,35.38822625098952
0.21,31.222214608673173,131.01039485566503,3.6948551453492566,4.493351735844891,0.0004538195602194,33.79371564104691,0.0006629296043866,3.2891790438445727,404.8187610144608,7.868284042829251,3.2629204975089228,69.99338155599101,1.0150082652278477e-06,120.00000255293388,37.906665490338085,1.274,1.0264923657015164,0,0.0,0.0,0.0231230169900677,4.871073773182836e-09,-0.0028117605859743,2.089322918608601e-07,6.870935089180403e-05,4.493351758715364,48.992529909481824,7.868355328639073,33.95340801819282
0.22,31.22221446109996,131.01039515850383,3.767700382407304,4.5412639153933885,0.000482649303782,41.008966751568416,0.0006914639179131,3.2808061382386606,472.5421858721387,8.20057841132235,3.4071691679735228,69.9917708347139,1.3454961520984431e-06,120.00000305929996,41.175744234065135,1.274,1.0264494137127138,0,0.0,0.0,0.0240995709751246,6.054779813287368e-09,-0.0032829112061357,2.580881224843564e-07,8.3609968899004e-05,4.54126394098788,47.82515604752711,8.2006542256977,41.13999323561041
0.23,31.22221430675399,131.0103954752338,3.843768625625224,4.52371495179584,0.0005047555656171,33.98493478127787,0.0007294889663961,3.2705214710765107,406.340642146096,8.647938096586296,3.5908865300848416,69.98989017772566,1.7539876018835507e-06,120.00000365514876,45.79040229326471,1.274,1.0264133390858623,0,0.0,0.0,0.0254142776666487,7.436335125872812e-09,-0.0038001790077148,3.1489825108822685e-07,0.0001020628978177,4.523714979897577,46.31461705147579,8.648017383405135,34.14194053232237
0.24,31.222214142622448,131.0103958120587,3.92493179063287,4.57837522350066,0.0005351929930195,35.051650311058864,0.0007555049947555,3.26053011385611,416.2328240017099,8.954297884844461,3.72617527247482,69.98771316795013,2.25257161141768e-06,120.0000043564586,49.09180568115741,1.274,1.0263750048312463,0,0.0,0.0,0.0263146218848643,9.034877387788232e-09,-0.0043732521010013,3.809642748985157e-07,0.00012161410144,4.578375254714954,45.32798984252032,8.954381952763216,35.20297212911011
0.25,31.22221397517227,131.0103961556623,4.0071748888306855,4.6034117733065,0.0005618935542827,36.03738579534623,0.000785606492708,3.249069743648399,425.3640807915084,9.311611941121669,3.8789349536029696,69.98520781816889,2.8559738498748624e-06,120.00000517181904,53.08749562138344,1.274,1.0263373768840591,0,0.0,0.0,0.0273647110956883,1.0873791100894836e-08,-0.0049950711786164,4.5609738277273444e-07,0.0001444478241125,4.603411807525074,44.2165428352526,9.311700203154778,36.183554686886296
0.26,31.22221379934012,131.01039651647062,4.09364247475714,4.621386912291471,0.0005881033207375,39.29107511182762,0.0008162761165496,3.236407051295005,455.80158342417656,9.67833954512075,4.034902068846398,69.98234620927953,3.5784678110229355e-06,120.00000612171208,57.350948423913096,1.274,1.0263006300381676,0,0.0,0.0,0.0284424679130479,1.2973286442992724e-08,-0.0056712051373577,5.414206381221602e-07,0.0001704578711045,4.621386949630312,43.12063533194282,9.678431924174348,39.42414126789902
0.27,31.222213616776543,131.01039689108487,4.183310605341074,4.617158109135719,0.0006115457810536,35.90419462403674,0.0008503454714941,3.221982799915672,423.8421996598744,10.088790784535757,4.205862468567124,69.97909721779352,4.436165972465058e-06,120.000007221354,62.31798301949865,1.274,1.026260090595354,0,0.0,0.0,0.0296487219805601,1.5355910600537293e-08,-0.0064045199323113,6.379142666348734e-07,0.0002006609239367,4.617158149547818,41.94410287616451,10.08888684592241,36.048472443180565
0.28,31.22221342607797,131.0103972823952,4.277051150896916,4.642105655370123,0.0006389739579882,41.51133203546672,0.0008785747638736,3.2071101123224945,476.3468732012228,10.432377224420517,4.35383399240675,69.97542808435722,5.446665372087172e-06,120.00000849080963,66.63429581008447,1.274,1.0262212716723291,0,0.0,0.0,0.0306584788590473,1.8045308789081613e-08,-0.0072006835403936,7.469524967369969e-07,0.0002332868227611,4.642105699250441,41.0023231023774,10.432477594215127,41.63503624837164
0.29,31.22221323001776,131.01039768469093,4.373143569786686,4.62134615173668,0.0006600657405645,33.17552944492765,0.0009148746278066,3.1894209319791806,397.9703104221098,10.876662296046485,4.536381530986506,69.9713027936179,6.629751536885327e-06,120.00000994797426,72.43000748232016,1.274,1.026183007522519,0,0.0,0.0,0.0319641703260467,2.1067646517035105e-08,-0.0080566154554079,8.688043379161898e-07,0.000272130659453,4.621346198772975,39.83162628795024,10.876765978930557,33.32848872465723
0.3,31.22221302403368,131.01039810736614,4.4744193758467325,4.664362353358112,0.0006905183788532,31.08096762732793,0.0009381960428197,3.172549142946348,378.1859457108735,11.168362145070317,4.66647911311536,69.96668711012893,8.005507138509574e-06,120.00001161892672,76.36634300732833,1.274,1.0261430389738484,0,0.0,0.0,0.0328214509167604,2.4447409007156216e-08,-0.0089829108229115,1.0056222251461646e-06,0.0003115527202986,4.664362404357781,39.09908960432563,11.168470611443622,31.242464973103964
0.31,31.22221281503337,131.01039853619727,4.576593712520673,4.700143580504286,0.0007196683316923,32.79732593144512,0.0009620705970519,3.154230688182399,394.1656220930229,11.470279728974068,4.800072153432283,69.96154070456518,9.597499105113692e-06,120.00001352112182,80.55022837857167,1.274,1.0261054058068628,0,0.0,0.0,0.0337087616009043,2.8214060606649844e-08,-0.0099686353219717,1.1565909895184251e-06,0.0003550834484269,4.700143635477137,38.36463422765983,11.47039277421126,32.94865339301887
0.32,31.222212598991007,131.01039897947376,4.68216432480395,4.718667719113184,0.0007464384342556,35.7316568886908,0.0009885845337584,3.133859770838664,421.5593934624264,11.808280530415894,4.946054328851105,69.95582953472353,1.14278227255889e-05,120.00001568218067,85.36654007972253,1.274,1.026068246703101,0,0.0,0.0,0.0347021168382987,3.2392058795580455e-08,-0.0110163301561155,1.3226102501723267e-06,0.0004039614423012,4.718667778018562,37.5686120062341,11.808397780690962,35.8688218659563
0.33,31.222212376029034,131.0103994369436,4.791055524254013,4.72141404831576,0.0007708346814671,35.42013590291081,0.0010176135371143,3.1111955852784385,418.5156301991632,12.181577273013426,5.104163223586657,69.94951809396906,1.351997394754887e-05,120.00001812674968,90.84831229869296,1.274,1.0260310883392356,0,0.0,0.0,0.0357992034445943,3.700677535501642e-08,-0.0121310534481307,1.5051409581878843e-06,0.0004588955105349,4.721414111097893,36.7208578211118,12.181698355442045,35.55651229220977
0.34,31.222212145785647,131.0103999093516,4.903491659547144,4.73024573449122,0.0007962944975467,27.63851074646407,0.0010446307681611,3.0871492806781062,345.4656368807584,12.53557620048282,5.2556261014174765,69.94256797855994,1.5899658158227497e-05,120.000020882338,96.20413272674828,1.274,1.0259901535019136,0,0.0,0.0,0.0368395817555172,4.208561016221623e-08,-0.0133180771902383,1.7057647550599631e-06,0.0005184333231541,4.730245801363397,35.94841996438923,12.535701282129995,27.810389570354005
0.35,31.222211909310875,131.01040039453565,5.018822212845608,4.780248518778662,0.0008286678570753,30.332092807652543,0.0010618579815451,3.063967690608957,370.5765700527057,12.774786382148209,5.367579971644358,69.93493776125636,1.8594985713558667e-05,120.00002397748868,99.9096898192772,1.274,1.025950003202184,0,0.0,0.0,0.0375426220587071,4.7658312175989686e-08,-0.0145774693288123,1.9252724355785177e-06,0.0005782798420984,4.780248590437683,35.44790728185619,12.774916548990808,30.486451961956565
0.36,31.22221166933814,131.0104008868675,5.135354490370708,4.798132156899578,0.0008554457330409,34.32674769697476,0.0010851169437774,3.0374319611165923,407.8625232777224,13.09301701329486,5.506730645516068,69.92658597246795,2.163521613217148e-05,120.0000274401514,104.94818266210537,1.274,1.0259105142325406,0,0.0,0.0,0.0384778908056978,5.3755109608570216e-08,-0.0158991451700967,2.162609490834569e-06,0.0006464142451675,4.798132232978766,34.796094028187134,13.09315138639638,34.46087058603792
0.37,31.222211421355144,131.01040139563804,5.255882891363927,4.797392186816851,0.0008791822061288,32.551601855236584,0.00111162791192,3.0078619428913056,391.1218908297639,13.457513730739372,5.661815946371007,69.91747693543164,2.5047738471809164e-05,120.0000313040604,110.87154396328836,1.274,1.025872170958032,0,0.0,0.0,0.0395491312153729,6.040098808671168e-08,-0.0172926678053148,2.420031948898497e-06,0.0007226353721561,4.797392267189059,34.07332166419882,13.457651832357364,32.69027405888565
0.38,31.22221116634284,131.01040191882743,5.379799334000849,4.811698494594017,0.0009057112478668,34.02947987649063,0.0011338447913587,2.9774881690446744,404.81876101445977,13.77554886562956,5.800899861213392,69.90756948297444,2.886339581486796e-05,120.00003560072224,116.17243393848278,1.274,1.02583050512925,0,0.0,0.0,0.0404838339452728,6.762496638941508e-08,-0.0187646375218858,2.69955777313946e-06,0.0008026686661094,4.8116985796350695,33.46655348088405,13.775691134419684,34.15949264475229
0.39,31.222210906095896,131.01040245274032,5.505993307722699,4.813508003664984,0.000929862892873,29.00025983045028,0.0011579891265804,2.9442136901860865,357.6406249338268,14.124492165837273,5.950648592462506,69.8968186645841,3.311602501056718e-05,120.00004036395212,122.13093644173792,1.274,1.02579027384009,0,0.0,0.0,0.0415093739609825,7.545934774906889e-08,-0.020311592409804,3.0013532510753577e-06,0.0008908380763632,4.813508093268025,32.821616487639595,14.124638228358922,29.149330452482886
0.4,31.222210638473225,131.0104030017851,5.635788650457906,4.841647069358873,0.0009592124397379,27.71178845184976,0.0011749448424961,2.91135549588368,345.4656368807565,14.390874239274588,6.07193451174791,69.8851815212744,3.783947407715338e-05,120.00004563180136,126.77947425345651,1.274,1.0257493418632293,0,0.0,0.0,0.0422922854866381,8.39343718693383e-08,-0.021938519432511,3.3271332720311508e-06,0.0009803271643914,4.841647164150728,32.348088166612904,14.391024912012275,27.864299944624147
0.41,31.22221036681104,131.01040355909262,5.767123077463226,4.86553909860892,0.0009876699832274,31.306062598221665,0.0011918093836199,2.876450850006428,378.9468707766882,14.663028799871563,6.195223154320929,69.87261222561014,4.307011032901644e-05,120.0000514391194,131.6183642808765,1.274,1.025708445186429,0,0.0,0.0,0.0430921644173401,9.308325447883581e-08,-0.0236371933433427,3.6760977501392174e-06,0.0010761942383903,4.865539198612839,31.87689439156756,14.663183942709727,31.437931330109585
0.42,31.22221008906472,131.01040412887247,5.901259531771367,4.867510642114694,0.0010118258958528,35.308283402190774,0.0012128114559048,2.8374461227958245,416.23282400171047,14.9952917972178,6.33928625560071,69.85906967380902,4.884273094936628e-05,120.00005782486392,137.64909586091787,1.274,1.0256701057426505,0,0.0,0.0,0.0440686959134695,1.0293499639582845e-07,-0.0254093547296826,4.049238334851429e-06,0.0011830797791891,4.867510747027452,31.315270489291198,14.995450734457847,35.422111438762386
0.43,31.222209804115888,131.01040471342728,6.038886819939341,4.854590670645608,0.0010330089741511,31.00586934514032,0.0012363751872706,2.794478603999558,375.90313951343126,15.369430568701889,6.497852263156962,69.8445117629242,5.519340856908871e-05,120.00006482835984,144.60167924299955,1.274,1.0256308158337524,0,0.0,0.0,0.0451682983415116,1.135186446762958e-07,-0.0272634397889413,4.449073329427772e-06,0.0013010625065656,4.854590780289497,30.70250814963406,15.369592833372094,31.13154422839874
0.44,31.22220951192321,131.01040531284193,6.180028459770617,4.866912332640401,0.0010595850174406,28.57707721036899,0.0012525768202179,2.752165534925872,353.07501253892326,15.659290812546615,6.627318538707029,69.82889155423543,6.216182865383864e-05,120.00007249162944,150.1053167542629,1.274,1.025586171750536,0,0.0,0.0,0.0460202245100907,1.2486676023179565e-07,-0.0292060158163984,4.8779154055816594e-06,0.001420032405556,4.866912447705031,30.24619499837236,15.659457251771938,28.709297424144207
0.45,31.222209215425703,131.01040592106523,6.322872201489905,4.881836476567178,0.0010866574689855,33.31904824532484,0.0012669045761511,2.7082028218433374,397.2093853562887,15.934249290371609,6.751662050993672,69.81215834018458,6.97909417564726e-05,120.00008085697964,155.42080512416243,1.274,1.0255397023523487,0,0.0,0.0,0.0468283602442113,1.3701614206272197e-07,-0.0312276295846745,5.334643585560923e-06,0.0015449645531859,4.8818365972149325,29.82567893138932,15.934419982127675,33.428929688274074
0.46,31.22220891307435,131.0104065412864,6.468371919199588,4.869610441729251,0.0011078049156487,38.95909776354321,0.0012868374716666,2.6582856015412624,449.7140588976424,16.292139278621757,6.904766425053949,69.79426683863348,7.812149592850748e-05,120.00008996920153,162.4785746623087,1.274,1.02549635315424,0,0.0,0.0,0.0478802236363867,1.499987870203256e-07,-0.0333272350234362,5.819761874615242e-06,0.0016858511402973,4.869610567434908,29.29014635640275,16.292313292210977,39.04968351401366
0.47,31.22220860266524,131.01040717804253,6.6178810515614845,4.838450928223533,0.0011247917292402,26.253747818137555,0.0013104398935566,2.6026193242279367,331.0078106302504,16.710658191447514,7.078951441335346,69.77517236812905,8.719457259907165e-05,120.0000998741591,170.9309671061642,1.274,1.025453319323251,0,0.0,0.0,0.0491102725711187,1.6384464803343264e-07,-0.0355167087264168,6.3368207228363735e-06,0.0018427306558807,4.838451058652396,28.68386015667837,16.710834873319172,26.382435512333956
0.48,31.222208284201663,131.0104078313267,6.771393590864176,4.869339340099417,0.0011561785713505,25.860860976019296,0.0013165328518772,2.5543454292827983,327.20312230115803,16.911139899671,7.177575416403102,69.75482343794755,9.70562828082882e-05,120.00011062072316,175.0543877818846,1.274,1.0254092882449153,0,0.0,0.0,0.0496995461609974,1.7858865391586845e-07,-0.0378054080201581,6.88909442277235e-06,0.0019849793891693,4.869339477030596,28.40887970825325,16.911321511776286,25.986704537635287
0.49,31.22220796480208,131.01040848648364,6.924537656029012,4.881367714530694,0.0011829003785372,32.565703383222065,0.0013261973190012,2.5011623511055703,389.6000096981238,17.169005224738054,7.296160258358563,69.73316318155707,0.0001077573203115,120.000122255028,180.4309832312717,1.274,1.025367445590036,0,0.0,0.0,0.05045746454003,1.942747077649401e-07,-0.0401641298712614,7.47069711110948e-06,0.002140948887153,4.881367857509675,28.058569663954906,17.169191034294997,32.66161128464712
0.5,31.222207637929923,131.01040915697027,7.081324512896956,4.862566137860805,0.001202418260511,33.47759680712428,0.0013425340759632,2.4399894027711366,397.970310422106,17.52898693231981,7.450304424940405,69.71015149227495,0.0001193385310595,120.0001348274002,188.0736471953394,1.274,1.0253278572281015,0,0.0,0.0,0.0515154948878309,2.109295159784217e-07,-0.0426011733481599,8.084173008518589e-06,0.0023184335011768,4.862566286171007,27.57768313050809,17.529175807738486,33.56639745442473
0.51,31.22220730314019,131.01040984370235,7.24202048914867,4.8479762258125,0.001223054804074,25.49162310288008,0.0013562860883156,2.3767006597692686,323.39843497208153,17.86914397471067,7.597652147346554,69.68574349602717,0.0001318441288964,120.00014838524436,195.4407439266201,1.274,1.025286455263166,0,0.0,0.0,0.0525152689856776,2.2858192086249162e-07,-0.0451315948093539,8.734206149830708e-06,0.002503767471626,4.847976379721193,27.13799345359824,17.86933609171003,25.602178740977283
0.52,31.222206962738102,131.01041054193402,7.405210501673173,4.865306299521403,0.0012516517170965,30.733671928447727,0.0013599291289974,2.317711624364424,372.098451184342,18.08534843773428,7.701914987606457,69.65988568649581,0.0001453248538387,120.00016298000436,200.19561780583155,1.274,1.0252426840672306,0,0.0,0.0,0.0531507657929359,2.4726951523704535e-07,-0.0477531686556663,9.421346966092632e-06,0.0026812161964639,4.865306460134566,26.8699055233151,18.085545046726228,30.820940596104087
0.53,31.222206619320115,131.01041124632013,7.569307468221277,4.848802699234936,0.0012715119568563,32.301199055744725,0.0013711327835325,2.2490252325653923,386.55624643486095,18.41963113311156,7.8474319110539055,69.6325258319474,0.0001598315062727,120.0001786629144,207.6614205945027,1.274,1.0251993415311351,0,0.0,0.0,0.0541332845214831,2.67031759303889e-07,-0.0504479325599339,1.0141887756417996e-05,0.0028848299490111,4.848802865552398,26.45837260670532,18.419830861742675,32.37940050117613
0.54,31.22220626697288,131.01041196903336,7.737918664599091,4.831496690588052,0.0012913635058467,28.31291960103712,0.0013809098107221,2.177242866245296,349.2703242098436,18.75116898748492,7.992112829440902,69.60362200959217,0.0001754082864028,120.00019548734956,215.20067397992847,1.274,1.0251561018460285,0,0.0,0.0,0.0551077428911958,2.878941684235108e-07,-0.0532336286085667,1.090122304443916e-05,0.003098869611663,4.831496862756785,26.061835558272342,18.751371834390056,28.396510432451375
0.55,31.222205908994248,131.01041270328463,7.909026079894722,14.193861641631903,17.30827178555825,30.54741720668075,-1.1206419029467845,1.502983954635326,365.2500005919912,21.8890205352718,8.113323699629928,69.57312211246325,0.0001921068626005,120.00021350480982,293.246240929438,1.274,1.025112921033824,0,7.519210697837553,0.0,0.0643296876565522,3.0989272306468813e-07,-0.0561100530405476,1.1700476995263424e-05,0.0038128415497007,22.245252871972426,41.161555875709446,24.566634922506456,30.604893351252613
0.56,31.222205546564343,131.01041344664463,8.081909946161325,17.37781808688562,-13.59119391198308,28.54969407271141,0.7111065453022571,0.9916152837748604,346.22656194657776,22.77796392855579,8.24480645417527,69.54097415464405,0.0002099796112633,120.00023276987916,317.5428867158394,1.274,1.0250709539098009,0,7.546643356335294,255.00010927308023,0.0669423357875539,3.3296850471894137e-07,-0.0663687823322451,0.0135876122741358,0.0046930295721682,21.931458820251542,18.15564640786945,20.66302940754962,28.575759045652674
0.57,31.222205179969823,131.01041420541662,8.258425056245468,17.221751818219737,-13.43275648208038,28.257295507935112,0.9509905425522396,0.6879002240487626,343.1828296833045,23.050038898267847,8.360648965450121,69.50294694945941,0.0210379424507234,120.02246589255763,325.1685625357559,1.274,1.0250279191823897,0,7.573861694433826,255.00010927308023,0.0677420739292161,3.6763834802369693e-07,-0.0802632711251635,0.0018317500474512,0.0057432232354365,21.71499536340885,18.012656057118626,20.959302810128825,28.281660827346048
0.58,31.222204804293483,131.01041496983228,8.436863244565123,17.059822100223425,-13.293069481086228,37.21149946698293,1.201009325959857,0.372480077528086,426.12500585731766,23.330138725910462,8.479749883419142,69.45695983402524,0.0237941621263405,120.02540900744005,333.1136484719728,1.274,1.024981594484354,0,7.601138657571381,255.00010927308023,0.0685654011550654,4.017857877248041e-07,-0.094391453927068,-0.0100705647331557,0.0068361209033954,21.505153780249323,17.854421529740797,21.26075055108478,37.23273905302253
0.59,31.22220442406172,131.01041574673047,8.618042857078017,16.794358076070846,-13.078303278552244,30.208783382928768,1.4681216543371212,0.0241340640666166,360.68438819710633,23.736646382468628,8.646530621282068,69.40287990711894,0.0083787189452984,120.00894394501412,344.81722232697405,1.274,1.0249386802161349,0,7.628232839354713,255.00010927308023,0.0697602370426545,4.35438101533575e-07,-0.1087550010104214,-0.0221405958149967,0.0080134730252661,21.16952714713777,17.60598224604531,21.70010418190381,30.244446715416952
0.6,31.22220403342913,131.0104165419039,8.804176015139737,16.633112923793377,-12.939809945709598,26.88886267234769,1.7370792275458495,-0.314394766518211,329.4859594986072,24.003612955235628,8.760758619636016,69.34056679761895,-0.0252956335610319,119.97296282618176,352.61087135225483,1.274,1.024891335813742,0,7.655265442931264,255.00010927308023,0.0705449800592599,4.686088380506502e-07,-0.1234352282370563,-0.0344398739503121,0.0091972959278592,20.96074940478592,17.45432449088866,21.98826689160201,26.94674793225257
0.61,31.22220363993192,131.01041734073544,8.99089582828201,16.476559476525168,-12.805170422124116,31.50994867490357,2.012773178719948,-0.6605171483448746,372.0984511843332,24.256915090591303,8.869917576984959,69.26982676176905,-0.0773627346037926,119.9173045596229,360.08565176106845,1.274,1.0248423929069768,0,7.682550810628083,255.00010927308023,0.0712895679103876,5.013279796453829e-07,-0.1383291021395285,-0.0468874097680335,0.0104156351843758,20.75787607691612,17.309757994779332,22.26218663502726,31.58107667998812
0.62,31.22220324003032,131.0104181505347,9.18033366898422,16.25524195587857,-12.62341705044692,39.16017912377313,2.304446687955512,-1.0340578343643192,442.86563930529206,24.590414419477003,9.009657852846706,69.19051819054386,-0.1477853661721996,119.84198737469752,370.0483536400519,1.274,1.0247996097896497,0,7.709445691179722,255.00010927308023,0.0722698561853369,5.336229817276027e-07,-0.1534207050866053,-0.0594698073468606,0.011710584069771,20.476117184300307,17.109568836743556,22.623535655677227,39.24155169139513
0.63,31.222202831806232,131.01041897526324,9.37362651560765,15.970144315467056,-12.395310338065208,22.312826372566267,2.61690761953225,-1.441407564285704,286.11251274707456,25.010068870659826,9.182272146914393,69.10250164524312,-0.2364587648505191,119.74709826465048,382.7793450901027,1.274,1.024756158874558,0,7.73624839826665,255.00010927308023,0.0735033574864763,5.655195144642125e-07,-0.1687570181035969,-0.0722217962443456,0.0131007875441715,20.116591609935394,16.85370823420656,23.078170398628387,22.51195420188649
0.64,31.222202414386185,131.01041981676428,9.571283214304318,15.868737942145229,-12.30170852438291,21.93395232487009,2.906203729843437,-1.7969832471304592,282.3078244179702,25.156832443344552,9.25160604563602,69.00560369482413,-0.3432825300700402,119.6327160262564,387.27761158385607,1.274,1.024708534665538,0,7.76312823536081,255.00010927308023,0.0739348532410736,5.970464377010165e-07,-0.184388866024739,-0.0851812732559363,0.0143980302273912,19.98118438554093,16.769819105280597,23.23929675371951,22.19850070386506
0.65,31.222201997847804,131.01042065414072,9.7672817624337,15.709332052396572,-12.165927373390168,38.60325900481222,3.209413099442301,-2.176857905590509,436.7781447787504,25.377452187162472,9.349265823914504,68.89961450028416,-0.4681634049177677,119.498908102513,394.0926540851824,1.274,1.0246641738210605,0,7.79014419037818,255.00010927308023,0.0745834101333502,6.282597008751387e-07,-0.2001189179473882,-0.0981946834757918,0.0157630560879153,19.775092894334097,16.63587705512069,23.480760597983394,38.79755982760539
0.66,31.22220157317268,131.01042150617957,9.96700756161971,15.387598219306108,-11.91130807168656,32.88675466547894,3.5566117862507136,-2.632327865297752,383.5125151715984,25.83509350272321,9.537956858315916,68.78443097446319,-0.6107341136286353,119.34603196066124,408.4266285902561,1.274,1.0246195561629028,0,7.816478284609117,255.00010927308023,0.0759285724164996,6.591961212663539e-07,-0.2159891950868885,-0.1112932557097123,0.0173196053257863,19.37059876957713,16.35515881798887,23.97751777635907,33.183087104968415
0.67,31.22220113631599,131.01042238148105,10.172850804324232,15.165481922057,-11.72976783486709,22.73802636240092,3.890598607443179,-3.0586318370958905,289.15624401033847,26.13383129111556,9.666335892886863,68.65991939757724,-0.7706307692599883,119.1744382151232,417.918461109104,1.274,1.024572383541697,0,7.842865726601155,255.00010927308023,0.0768067322638995,6.898843146236472e-07,-0.2321512206367574,-0.1245920210295435,0.018830480315605,19.08774982285066,16.17027604031024,24.30416711135507,23.270363750839277
0.68,31.222200697113266,131.0104232594506,10.378955252112895,15.009582575151176,-11.597029389780252,28.33708928931819,4.210872400036062,-3.458869716591378,340.89999248584934,26.31614146101573,9.750347745276745,68.52585190700884,-0.9476117486649964,118.98434282349804,423.7612285624532,1.274,1.0245245285832842,0,7.86959528432781,255.00010927308023,0.0773427175164837,7.203867561831843e-07,-0.2484842430117933,-0.1379966665823625,0.0202955027769357,18.885963498108325,16.05101534467725,24.506897264851048,28.85629663481664
0.69,31.222200254109808,131.01042414313324,10.586192479427243,14.76840878053148,-11.401705958269988,34.8351439046359,4.560495667039995,-3.9071262703465006,401.0140726853658,26.62587846560592,9.884077702106586,68.38206411189267,-1.141254972988908,118.77615199546482,433.78651054704017,1.274,1.024479631064582,0,7.895906754699206,255.00010927308023,0.078253212555438,7.507668515158794e-07,-0.2648979236863397,-0.1514365922760133,0.0218903449356848,18.57970507233973,15.85579503656237,24.846699718442885,35.34898877306413
0.7,31.22219980177117,131.0104250444373,10.797841953151853,14.483477314570836,-11.174231161666851,29.2621779244468,4.93269920138564,-4.389862651399684,349.270324209851,27.00181850474715,10.044210227298253,68.22843845242107,-1.3510000580217156,118.5504175764468,446.1134868501168,1.274,1.0244351749185203,0,7.921949941264119,255.00010927308023,0.079358286368578,7.810718071516298e-07,-0.2814658826591542,-0.1649669253851803,0.0235873989617041,18.2196840034614,15.623095721706342,25.257680191139865,29.997957803682006
0.71,31.222199341636365,131.0104259602699,11.012984317031616,14.256832369304531,-10.989675664527256,24.094910244405902,5.290236563272478,-4.846219950876941,301.3312640634036,27.26814915312835,10.162392854329235,68.06480939263439,-1.576329353975816,118.30764261825964,454.9479106239106,1.274,1.0243880468141104,0,7.948122721036755,255.00010927308023,0.0801412260851406,8.113581822234402e-07,-0.2982182725872514,-0.1786094159837137,0.0252372609143063,17.931013597005006,15.449969783648402,25.552460169450995,25.140349050751844
0.72,31.22219887777461,131.01042688189753,11.22920968506802,14.049261562235916,-10.819166865663048,29.43634967586995,5.642294376641,-5.292881449322216,350.7922053414578,27.487622923640046,10.2628737226428,67.89098875158807,-1.8167202263419493,118.0483326254708,462.2912832536255,1.274,1.024337302174265,0,7.974251778687256,255.00010927308023,0.0807864576583414,8.417023734914004e-07,-0.3150672407105217,-0.1922953858004826,0.0268771814387227,17.665648401634456,15.299935449267716,25.79823379077061,30.43597808695069
0.73,31.22219840880117,131.01042781237868,11.447340144830925,13.779931229567124,-10.603147851905293,37.15480907230983,6.0241694604509854,-5.78596543839828,422.3203185282354,27.808353975899685,10.403962049331811,67.70683530474038,-2.071524932241764,117.77312536645212,473.13252545259945,1.274,1.024292465384646,0,8.000107339731132,255.00010927308023,0.0817292912435217,8.721786406024237e-07,-0.3319675158737664,-0.2059888675493144,0.0286487095012185,17.324325212434726,15.095401403270378,26.152305797308685,38.082119832571905
0.74,31.22219793126092,131.010428759543,11.669419387653068,13.461617491337613,-10.350998986349952,23.33482636757708,6.43664865891674,-6.325206478242136,294.4828134710563,28.214789669147606,10.580001790532627,67.51223091547041,-2.3400232469178848,117.48273477661652,487.0534355971188,1.274,1.0242470321640116,0,8.025790876991257,255.00010927308023,0.0829240213844901,9.028507949867276e-07,-0.3489695096945122,-0.2197272212520152,0.0305554884588728,16.92262670205994,14.848073944296672,26.597688564955952,25.01904883395253
0.75,31.22219744502887,131.01042972397204,11.895520741478537,13.256812919979772,-10.182481032998831,27.183142403585887,6.792672332895419,-6.776249241167888,330.24688556441737,28.386884917661536,10.663737101264733,67.30702481478352,-2.6215239476363577,117.17784158872088,493.00238653449946,1.274,1.0241984712898409,0,8.05151912301267,255.00010927308023,0.0834300267388536,9.3378821728728e-07,-0.3661109615007946,-0.2335381737185247,0.0322512067953227,16.6602912218206,14.717568190030502,26.79583071046796,28.826744216684276
0.76,31.222196958646062,131.01043068642412,12.120594426545752,12.984515716042212,-9.96419647605459,29.214407019944986,7.185761758231632,-7.284411883882391,349.2703242098581,28.68102423702142,10.79707552760861,67.0910411480616,-2.9153517997841765,116.85910734135727,503.2612288364357,1.274,1.0241522053390697,0,8.077269752447103,255.00010927308023,0.084294726315889,9.650971554185963e-07,-0.3832228341899679,-0.2472910197078603,0.0341076775925292,16.314837408336263,14.526507842067224,27.12372950591769,30.954473118874468
0.77,31.22219646262027,131.01043166866313,12.35025880919388,12.70063872653025,-9.737119130591728,27.29043727152908,7.587341017339512,-7.805278298300669,331.76876669606884,28.986515844187856,10.936174305603204,66.86420252911319,-3.2206509303893407,116.52738816501312,514.0278099039159,1.274,1.0241065975906936,0,8.10251675939953,255.00010927308023,0.0851927996292069,9.968484111184134e-07,-0.4003658533600322,-0.261031343690564,0.0360121941303034,15.95483390717376,14.330607759875049,27.46436444553424,29.381253878937663
0.78,31.222195960868508,131.0104326620109,12.582198787056456,12.42816025486762,-9.518441709424865,22.39675914550665,7.981934935735911,-8.315684606443758,286.8734378128874,29.255497111732044,11.06152323928717,66.6263947285938,-3.536618069061693,116.183482475215,523.6002840922249,1.274,1.0240588105546735,0,8.12789208786147,255.00010927308023,0.0859835738377216,1.0291285952305877e-06,-0.4175268954506065,-0.2747477675455553,0.0379034552000722,15.608711510540154,14.152804111508493,27.76721164713938,25.188821250983597
0.79,31.22219545397208,131.01043366524263,12.816074265421232,12.175953271696596,-9.314599969221554,31.73365129503681,8.358983278319622,-8.800557175430372,373.6203323159581,29.463893735574626,11.163109095640648,66.37751100991338,-3.8624327496285615,115.82820694550212,531.0744823843739,1.274,1.0240083170932772,0,8.15313467253371,255.00010927308023,0.0865962918886591,1.0620328962028289e-06,-0.4346635864574553,-0.2884070331890001,0.0397393269633049,15.287357535628512,14.003290082810528,28.0071961796314,33.97568295943788
0.8,31.222194942953102,131.01043467604467,13.051283489739722,11.84848259957773,-9.05498910055981,32.0884453340538,8.79205422378127,-9.36930032081821,377.42502064505805,29.83183160816337,11.33165401424302,66.1174704327452,-4.1972366135074415,115.462419586506,544.4088588830433,1.274,1.0239625010683884,0,8.17816502031632,255.00010927308023,0.0876779177928305,1.095661680082425e-06,-0.4517191287792892,-0.301964779018242,0.0418134208907832,14.87297218487062,13.78436785396582,28.415390748831427,34.565189568873386
0.81,31.222194421880666,131.0104357091055,13.29134725928165,11.533000411146046,-8.804066932112745,20.82386777439924,9.216476123384409,-9.925491432516752,273.9374926939922,30.1610196028272,11.48570621414128,65.84622761091596,-4.540128217739607,115.0870261888284,556.4771954364679,1.274,1.0239149950770308,0,8.202958697514385,255.00010927308023,0.0886456652880433,1.1300908625160426e-06,-0.4687678020592328,-0.3154768356798761,0.0438693379175126,14.473091066285416,13.5860525188784,28.78351576762657,24.8413421818456
0.82,31.2221938958024,131.01043675245728,13.533279567825227,11.277496802853795,-8.597458543756582,26.68266856861577,9.582507407484153,-10.396968036663283,328.725004432774,30.326259071385625,11.572272372383988,65.56369410957726,-4.890283721473924,114.70284867117353,562.5782336241466,1.274,1.0238644186635044,0,8.227892105360374,255.00010927308023,0.0891315606800747,1.1654243556026928e-06,-0.4857619980604824,-0.3289059325174798,0.0457077216612051,14.147076621581313,13.46011971578596,28.980835704152742,30.197453444164502
0.83,31.222193367844195,131.0104377982607,13.775227238599005,10.960267354372496,-8.345010060375722,33.84932851335861,9.999838828543982,-10.944941658440836,395.6875032246518,30.63233404055764,11.719432132060346,65.26981246296835,-5.246851318791421,114.31074083157203,573.9781120025852,1.274,1.0238188483711983,0,8.25265138634187,255.00010927308023,0.0900313878774807,1.2017836730960049e-06,-0.5025840794375752,-0.3421617859578109,0.0477667752268417,13.744596937305088,13.278396756924089,29.326132523791102,36.95355957561871
0.84,31.22219283054444,131.01043886572396,14.021631840882709,10.609765863335392,-8.067711625120078,20.732576145693866,10.449153240422646,-11.540392479220309,275.45937482564227,31.015705838321328,11.901333377235598,64.96460007009205,-5.6089024580674485,113.91164300640736,588.4210683584457,1.274,1.0237739661568126,0,8.277052367998678,255.00010927308023,0.0911584080358976,1.2392499452425489e-06,-0.5192916702134235,-0.3552876455503604,0.049971208771342,13.300694119430066,13.070674701973454,29.752616199571463,25.926919902936294
0.85,31.222192285681768,131.0104399509236,14.271448523645985,10.334885395748024,-7.846302814586512,22.527400889969552,10.808762347738812,-12.007154671237837,292.9609323393965,31.17450533663548,11.988237214467986,64.64804309033264,-5.975584663513413,113.50641457336692,594.4476288084105,1.274,1.0237227741398531,0,8.301545000321859,255.00010927308023,0.0916253946439406,1.2779151667651656e-06,-0.5359008455075618,-0.368294946144344,0.0518322932106453,12.950071432245943,12.957473443310526,29.945859648331723,27.721560158950755
0.86,31.222191740715463,131.0104410342769,14.520235258573456,10.021420571810063,-7.596180977904192,28.1863216532167,11.20145958828142,-12.523735279913476,346.2265619465616,31.42478544245488,12.115908292533252,64.32012174778386,-6.346085982443023,113.09587298329312,604.0163896610993,1.274,1.023674789281455,0,8.325981045940189,255.00010927308023,0.092361255414646,1.3179150953276736e-06,-0.5522637645130815,-0.3810708780030194,0.0538424612741312,12.551515128258297,12.81346426245309,30.23507255365778,32.81440797283784
0.87,31.222191187747327,131.0104421370283,14.772711328301028,9.677503940179568,-7.3232445657643455,26.08191356778556,11.623776206403036,-13.08468954782262,327.9640783669946,31.750604803154246,12.278436222993498,63.98091205633182,-6.719513074999093,112.68092946176472,616.5915312169507,1.274,1.0236288969245204,0,8.349969915082745,255.00010927308023,0.0933191438557672,1.3593375007868611e-06,-0.5684057772135339,-0.393634352439283,0.0559894227459288,12.114968882824176,12.647419226567314,30.60340176749824,31.409990277248994
0.88,31.22219062795252,131.010443256686,15.02819074171298,9.34734749512948,-7.060392578893787,22.31769876248981,12.019172137395204,-13.608730822025032,294.4828134710421,32.01982183442502,12.417772296787218,63.630479939760406,-7.095033763356358,112.26243190136906,627.0767768131736,1.274,1.0235805388426191,0,8.37397119087367,255.00010927308023,0.0941106788855545,1.4022729096119364e-06,-0.5843386686249734,-0.40599366637722,0.0580454772699655,11.695236880358127,12.510481677058369,30.91358262122556,28.77043154886472
0.89,31.222190064011063,131.0104443860982,15.285077192552327,9.025005420631857,-6.803183977885411,24.40233580018925,12.390452144321523,-14.100336434162484,315.02813424808807,32.24590346290311,12.539417377540683,63.26888958528644,-7.471865761622346,111.84117731217836,635.947522835137,1.274,1.0235293752791452,0,8.397916574247661,255.00010927308023,0.0947754387118555,1.446832121067485e-06,-0.6000059740633403,-0.4181058022685414,0.0600211425748784,11.284957185840597,12.39744527266482,31.17977112993081,30.786633209925533
0.9,31.22218949556972,131.0104455264261,15.543588973882164,8.68250490084276,-6.530893777111974,26.88816116689205,12.778908743115636,-14.618708257713608,339.3781423542166,32.52290719179286,12.685685411268954,62.89624616284308,-7.8492298913872895,111.4179643322948,646.904420256291,1.274,1.0234837388140003,0,8.42165757017147,255.00010927308023,0.0955898720993035,1.4931216121389456e-06,-0.6153598942852948,-0.4299344327797159,0.0620843159251696,10.849478921759411,12.275010509519683,31.49925682744945,33.16595167827667
0.91,31.22218892067784,131.01044668376164,15.804912238907988,8.327907173861286,-6.249529332853439,20.03377800301165,13.174995305825057,-15.150138437325042,277.7421810230785,32.82831611224978,12.846892157996487,62.51269104776653,-8.226361862717777,110.99358074840404,659.0945386607332,1.274,1.023436404813438,0,8.445217859770093,255.00010927308023,0.0964878008095628,1.5412299968984264e-06,-0.6303968332815956,-0.4414765968078562,0.0641970516149709,10.39879832368642,12.152848229642345,31.848587731409527,28.36299450080297
0.92,31.2221883398757,131.01044785706645,16.06873671632417,7.998238195039814,-5.986434606773592,23.90642407175205,13.510821954344452,-15.598226355788183,315.0281342480675,33.02259331356218,12.958748737785935,62.11837442468767,-8.602545347553859,110.56876672098385,666.9017361056585,1.274,1.0233859136578225,0,8.468706746830422,255.00010927308023,0.0970591022573942,1.5912473910213537e-06,-0.6451005166906373,-0.4527198174614193,0.0660815186444442,9.978775206980986,12.08011475852878,32.08395634448328,31.581071660519168
0.93,31.222187756633605,131.01044903605006,16.332971660927633,7.64031018446058,-5.702403469246181,28.5112877804686,13.882645304578755,-16.1000057065455,359.16250706547066,33.30992162149396,13.115595881864456,61.71346326644855,-8.977103960102301,110.1442238853111,678.5403782042138,1.274,1.0233407575091376,0,8.49209581580937,255.00010927308023,0.0979039016400684,1.6432853453281095e-06,-0.6593934999841182,-0.4636058360450586,0.0681316177102956,9.523583854370402,11.986905083554822,32.41566820522211,35.56447040663249
0.94,31.222187165959586,131.0104502365195,16.60065532148784,7.266912565224724,-5.406881969718961,20.05151204662309,14.271867925885497,-16.6289300126285,283.06875048378083,33.64854361082396,13.298934362981184,61.29818025826204,-9.349365078989072,109.72065673393708,692.3885118357092,1.274,1.0232914783978162,0,8.515202750700894,255.00010927308023,0.0988994717924166,1.697413556275282e-06,-0.6732873833253886,-0.4741433395845986,0.070272598273175,9.04905368394918,11.889413683251483,32.800492577387,29.703041305810537
0.95,31.22218656900833,131.01045145564035,16.871108228314007,6.922953355558461,-5.132939485099822,26.295045967102386,14.577973555711926,-17.042749098844144,342.421873617488,33.84168791053516,13.415183807336463,60.87274764537615,-9.718718033020426,109.29870692316626,700.3418221708514,1.274,1.0232418269359267,0,8.538296520455,255.00010927308023,0.0994674631669689,1.7537056463944471e-06,-0.6867717132754289,-0.4843242884665294,0.0720895639037084,8.610803656607148,11.853543758035489,33.03648573302555,34.56012228348182
0.96,31.22218597032349,131.01045267889523,17.141566718580513,6.546044493536753,-4.834832755489039,25.500824674826266,14.942492575917743,-17.54201023357093,337.09533515678265,34.17161028490396,13.599119193964537,60.43740099753667,-10.084598701992256,108.87897058260104,714.0450921004796,1.274,1.0231951201821403,0,8.561316383767243,255.00010927308023,0.100437477254253,1.81226872459986e-06,-0.6997595224099384,-0.4940839077717461,0.0741670429940901,8.13169488273018,11.786627412754331,33.4130575073623,34.369932593944554
0.97,31.22218536301867,131.01045392951448,17.41625717837078,6.174703848964134,-4.540740597142731,15.271193209843709,15.275037272718537,-17.998852552408295,245.0218871929888,34.461396058158115,13.766124203227577,59.99243810619611,-10.446446993090008,108.46204732552312,726.1879293058723,1.274,1.0231476260761452,0,8.584021538996575,255.00010927308023,0.1012895319121199,1.8731463600137047e-06,-0.712272137531413,-0.503438092558046,0.0761314441752148,7.659332620494358,11.747720637508332,33.748884585200294,28.115739345403167
0.98,31.222184751792152,131.010455192418,17.692319993997824,5.827280794774929,-4.264071515285033,23.14965666692223,15.51676279991593,-18.33035864794292,319.593746642963,34.60579402439085,13.863474966893056,59.53814986638079,-10.80376943668288,108.04846854126656,732.2669176727795,1.274,1.0230935628253934,0,8.606777993012576,255.00010927308023,0.1017142657437828,1.936413176827563e-06,-0.7242625854133262,-0.5123518281567704,0.0777353573914403,7.216422149507387,11.770198945943417,33.93661336236617,33.35683707648924
0.99,31.2221841390458,131.01045645921806,17.968277271277024,5.4463445870487215,-3.963057537932656,25.309543888626795,15.83435330074112,-18.77205734277589,341.66094855170127,34.9206396623484,14.047476734540842,59.07486380089828,-11.156099759532744,107.63874266194192,745.6321875260292,1.274,1.0230490803133316,0,8.629350464657854,255.00010927308023,0.1026399879688836,2.002158476475546e-06,-0.7356551722208566,-0.5207695439855615,0.0796743819519569,6.732098194618783,11.753582786602408,34.298620301526725,35.26598776701829
1.0,31.22218351771845,131.01045775562105,18.248511559136105,5.064683664744184,-3.6615729946509465,22.085412493614065,16.135354160421212,-19.19341184874001,314.2672081822764,35.23127562180053,14.232199404045346,58.60296264261444,-11.502986479464816,107.23336998292032,758.936279593192,1.274,1.022999484445133,0,8.65162495568211,255.00010927308023,0.1035533476817847,2.0703936465106505e-06,-0.7464752588338973,-0.5287098009685604,0.0815632114936203,6.246854390433072,11.754404796943549,34.656508496043585,33.41410117436439
1.01,31.22218289207011,131.0104590671645,18.530410257635523,4.690032012685723,-3.3653118698892963,22.994498102966784,16.389766657659376,-19.55218143144817,324.92031610370094,35.48604117191351,14.390952349007112,58.12281916762476,-11.844043540330734,106.83278363163588,769.9312088266923,1.274,1.0229507481225095,0,8.673954993058713,255.00010927308023,0.1043024977949306,2.141162029455288e-06,-0.7566896223222369,-0.5361479907685252,0.0832748967920863,5.7703043318437,11.788695365573766,34.95772311513094,34.34616707622748
1.02,31.222182262554487,131.01046039238298,18.813699433851195,4.309136562206314,-3.0647287825645915,18.35011928905256,16.644772376618324,-19.91504808477009,284.59063161543185,35.77319740439264,14.56877268399478,57.63483362905329,-12.17891822382436,106.437386647041,782.4210419229892,1.274,1.0229039803623294,0,8.696132448648735,255.00010927308023,0.1051468590787114,2.214510316758099e-06,-0.7662526236127399,-0.5430509721521487,0.0850073916285768,5.28616129157058,11.82888911496819,35.2920204618644,31.786545355080662
1.03,31.22218162737672,131.01046173869105,19.09951827647063,3.9358944684385326,-2.76970573441022,14.03381895062046,16.841605079333604,-20.19917330537673,247.3046933904342,35.98931808333009,14.7119732345593,57.13944162390108,-12.507285408067252,106.04755874910448,791.8817189838528,1.274,1.022853416101322,0,8.718139260269913,255.00010927308023,0.1057824358926593,2.2904537495228927e-06,-0.7751426144280945,-0.549402856918835,0.086510787662641,4.811492779804093,11.907098123793189,35.554423147384014,29.80929952561236
1.04,31.222180989353,131.01046309558825,19.38611581613447,3.5653331493000966,-2.4766947164050617,24.460352500628183,16.996560130635952,-20.42757733687431,345.4656368807608,36.16690896409783,14.836782499482808,56.63709840749194,-12.82885745527142,105.66364455630044,799.6941389428915,1.274,1.0228049544826707,0,8.740065509671563,255.00010927308023,0.1063047677753283,2.36902322285588e-06,-0.7833153369924483,-0.5551717541244487,0.0878518888447066,4.340241562966327,12.012801800171816,35.77799181131449,36.11755551782667
1.05,31.222180348048887,131.01046446505515,19.67377464359008,3.1750785491006885,-2.1702703032452897,12.76045308898854,17.2334398201607,-20.77510120763027,240.4562587980608,36.52470907404338,15.060235178981133,56.1282933485026,-13.143373347699852,105.28596635777444,815.5726604926377,1.274,1.022755494436122,0,8.761780605040013,255.00010927308023,0.1073567918954857,2.450230669937675e-06,-0.7907388285518323,-0.5603349327993822,0.0895593456926601,3.8453054713492074,12.077482210207524,36.18388532627304,29.856748671927733
1.06,31.222179698680463,131.01046586786327,19.96555397899772,2.806061127979244,-1.8786635709077424,19.877376606508623,17.32123973849398,-20.91565305998969,308.1796836557233,36.65833510660816,15.16540532759966,55.61354174539468,-13.45060316896382,104.9148186627856,821.5281159998169,1.274,1.0227013895379469,0,8.783302058020192,255.00010927308023,0.107749912603947,2.5340179005632167e-06,-0.7974194495918897,-0.5648958696096305,0.090643876837228,3.376467594415796,12.227052560541994,36.363288197557175,33.654122923665916
1.07,31.22217905034057,131.01046726602573,20.25568613076448,2.4224766725687847,-1.5776425758410833,24.00822071851844,17.482803626989337,-21.1639624967787,348.5093681440431,36.95973863566277,15.364169483462303,55.09335963395708,-13.750359970176824,104.55045343359268,835.0695313102062,1.274,1.0226540159946436,0,8.80486222265898,255.00010927308023,0.1086361842143242,2.620427370907068e-06,-0.8032955081806189,-0.568811713868205,0.0920600144383791,2.890651479557922,12.337951797648309,36.711954432932295,36.46856719551818
1.08,31.22217839399383,131.01046869900594,20.54995302501681,2.038161525561368,-1.2766553834480132,14.210662974277907,17.638594532465184,-21.40790830694472,261.0015785751465,37.2901967349318,15.58229144215746,54.56830770313341,-14.042473062934576,104.19311212473336,850.0450248294635,1.274,1.0226061614050743,0,8.826040391051208,255.00010927308023,0.1096078674543062,2.709378196766449e-06,-0.8083678904230404,-0.5720820210567185,0.0934669913122388,2.404841744236319,12.453391796531545,37.08967676957429,31.166672862655332
1.09,31.22217773315485,131.01047015263498,20.846140545700365,1.6652561222252744,-0.9835655861590504,12.381195124466048,17.67557857239757,-21.487502634490884,246.54375332456465,37.45609024488612,15.711000434782775,54.03895038340236,-14.32680832854544,103.84300066035516,857.600669113185,1.274,1.0225512795791307,0,8.847264983636958,255.00010927308023,0.1100958497349999,2.800817215885539e-06,-0.8126119196274842,-0.5746884695542169,0.0943730107252447,1.93396142600203,12.633506281110895,37.30159971188935,30.45378203189802
1.1,31.222177071455988,131.0104716103402,21.141908795792755,1.2913653090438273,-0.6903597047759847,30.302394231994143,17.701923820294763,-21.555688490381403,413.1890617384087,37.64616824789631,15.855218480744211,53.505872228007455,-14.603256400558578,103.5003033941092,866.3022571892662,1.274,1.0224981043155532,0,8.868374638089763,255.00010927308023,0.1106549212246429,2.8947376384333293e-06,-0.8159899623743933,-0.5766062904737045,0.0952435198647818,1.4642882838380369,12.81788783959572,37.53772942294874,41.1854453590716
1.11,31.222176405420605,131.0104730886436,21.43951952010059,0.908410595545394,-0.393071681776525,20.34310091813561,17.86544963621641,-21.82243104216104,324.1593910379213,38.116627841499934,16.163201032649926,52.96968581551605,-14.871728564843377,103.16518788716358,888.0643116698656,1.274,1.0224548851875197,0,8.889207347404572,255.00010927308023,0.1120381385979008,2.9910621818040807e-06,-0.8184865375683574,-0.5778245221853011,0.0967260470702175,0.989799075915991,12.923210008836646,38.05488477043558,34.774049839780076
1.12,31.222175729794955,131.01047461466283,21.742446502092506,0.5367687103237077,-0.1030560078135192,3.589668638639073,17.866043659379766,-21.862220015637103,172.7328179403806,38.35075573097069,16.33820354011973,52.43101720426307,-15.132160974482016,102.8377992982577,898.9813675281075,1.274,1.0223979224661404,0,8.909928236150776,255.00010927308023,0.1127267079210558,3.089616795515365e-06,-0.8200886033892218,-0.5783295322024486,0.0975078305978099,0.5465719334339677,13.114670600456494,38.3345677398465,28.461164786182177
1.13,31.22217505469805,131.01047613919545,22.04408665895083,0.1706695203171694,0.1838120577549914,24.62315301831076,17.725463989911347,-21.705073471361768,367.5328077894322,38.38594444354474,16.398080788915657,51.89050461221207,-15.384509911974789,102.5182657838984,900.6057506733047,1.274,1.0223460397860296,0,8.930777159876017,255.00010927308023,0.1128305242982039,3.1903837358668992e-06,-0.8207657031806878,-0.5781034196834345,0.0976750493543783,0.2508283433176046,13.38008769875932,38.4148175245316,37.304181436107164
1.14,31.22217437942572,131.01047766480085,22.34487906491553,-0.1977354440090857,0.468442568848998,10.449857016901872,17.789304461508173,-21.842916386005736,239.6953177322812,38.82256091899693,16.698075582403316,51.34880854925385,-15.628750145774848,102.20670022696864,921.1833247443248,1.274,1.0223022138470996,0,8.951301507746534,255.00010927308023,0.1141142893533159,3.293324488501502e-06,-0.8205081479957502,-0.5771438882044913,0.0987521908198467,0.5084652150621715,13.521422729508496,38.89614288587514,30.04616216996716
1.15,31.222173692913984,131.0104792507936,22.652193276199505,-0.5607793427066903,0.7511372210878917,10.002087764756004,17.644256516280908,-21.68736827606813,237.4125115347709,38.943532583643375,16.812437912143256,50.80659768800735,-15.86487977193382,101.9031935660542,926.9057494491536,1.274,1.0222426194541194,0,8.971541021899279,255.00010927308023,0.1144702681101415,3.3981751957294112e-06,-0.8192890316238624,-0.5754240182524258,0.0989098005626148,0.937370033596638,13.77410853700821,39.06151756272899,29.693492391566362
1.16,31.22217300974976,131.0104808203798,22.95635605735461,-0.9203194242435924,1.0298516459970883,37.40048870630718,17.51009466462263,-21.55121782856897,490.043774385954,39.130843908140704,16.968497025721042,50.264561743757255,-16.092904544441332,101.60783427669132,935.8163489215642,1.274,1.02219674531104,0,8.991989787855239,255.00010927308023,0.1150212441203597,3.5049160398639875e-06,-0.8171094700119355,-0.5729516292721164,0.0991182467197472,1.3811194872951462,14.010243332909964,39.29260391596318,46.58170199261815
