Time,Latitude,Longitude,Altitude,Angle of Attack,Angle of Sideslip,X-Acceleration,Y-Acceleration,Z-Acceleration,Thrust,True Velocity,Ground Velocity,Pitch,Roll,Yaw,Dynamic Pressure,cp,parachute_deploy_gain,Wind Speed,Mach,omega_x,omega_y,omega_z,Cmq,Angle of Attack(total),Angle of Attack(gust),True Velocity(gust),Acceleration
0.0,31.222186000000004,131.010384,3.000000003643237,0.0,0.0,0.0,0.0,0.0,2.2828121974499247,0.0,0.0,69.99999999623421,0.0,113.69999999388332,0.0,15.288,0.0,0.0,0.0,0.0,0.0,0.0,-0.0,0.0,90.0,0.0,0.0
0.01,31.22218600000153,131.01038399999584,2.99999882256592,0.0,0.0,0.0,0.0,0.0,34.24218696174923,7.502283530665459e-11,7.190531319924593e-11,69.99999999623329,-4.83564628150269e-13,113.69999999388072,3.446445726795683e-21,15.288,0.0,0.0,2.204725565824978e-13,-3.659182332138578e-19,7.589415207398531e-19,4.811147140404426e-19,-1.5108918610345807e-31,0.0,89.9999999995224,7.502283530665459e-11,0.0
0.02,31.22218600000288,131.01038399999217,2.999997775701936,0.0,0.0,0.0,0.0,0.0,25.871876237766408,1.5320717031631675e-10,1.4674636035870463e-10,69.99999999623222,-9.67129256300373e-13,113.69999999387804,1.4372842949972735e-20,15.288,0.0,0.0,4.5023593667086093e-13,-7.284483346386986e-19,1.5178830414797062e-18,9.757819552369542e-19,-6.170906918166791e-31,0.0,89.99999999902465,1.5320717031631675e-10,0.0
0.03,31.22218599928065,131.01038400193067,3.000201659671132,18.81500467334555,-0.00012974450181,11.96616230539064,-1.8916256735984712e-05,3.349833086198469,180.34219359854663,0.0882870268161719,0.0553390044312322,69.99999999799445,-4.212591857125379e-12,113.69999999488518,0.0047728553458352,15.288,0.0,0.0,0.0002594525584132,3.2187251995663407e-17,-7.20264389268894e-10,1.2365134327422308e-11,1.6874092354518158e-13,18.815004673776716,89.46786891739345,0.0882666465974854,12.426199017587786
0.04,31.22218599548236,131.0103840121632,3.001799604587872,9.46752327608497,-4.6177622759613696e-05,55.21900012092241,3.931876292165237e-06,3.349616504302861,548.6359724538078,0.3767519978512604,0.1853356633749705,70.00000000507204,-2.4624598767003407e-11,113.70000000019972,0.086915163246288,15.288,0.0,0.0,0.0011071759353184,1.6174128009138757e-15,-1.3693172015529268e-08,2.7753303060112748e-11,1.3689612277852356e-11,9.467523276196548,87.63554493451223,0.3767447442872393,55.32050167054111
0.05,31.222185984749512,131.01038404118162,3.00777936418888,5.376730308971262,-2.257790939128127e-06,80.28807156553681,5.266841443842784e-05,3.348887800834877,761.6984298824644,1.018787885905993,0.4366201147110198,70.00000000894464,-1.1355399380652658e-10,113.70000001523856,0.635552918586145,15.288,0.0,0.0,0.0029939522895272,1.6418815498809788e-14,-9.32122351075408e-08,4.303264669380585e-11,2.5199270302492604e-10,5.3767303089717045,83.57022052969386,1.0187875312530217,80.35788377762394
0.06,31.22218596447235,131.01038409608267,3.0201664202003013,4.296730121134882,2.4863835723705905e-05,60.21296515808257,0.0001057204249726,3.347700952379021,590.4875390737208,1.721098934225416,0.7081674028809783,69.99999995523842,-3.0560354507026086e-10,113.70000004366592,1.8138247671743823,15.288,0.0,0.0,0.0050578622752421,8.328976953118383e-14,-3.2824985336199985e-07,5.923438275930214e-11,1.4991363363716091e-09,4.296730121206683,79.20467073327266,1.7211028398275985,60.305955550063224
0.07,31.22218593493329,131.01038417609837,3.038741944736831,3.8204913578752526,4.8016684030909405e-05,91.4060317508128,0.0001597686613101,3.346072557365335,855.2937749779139,2.4375792548422868,0.9844712334613328,69.99999973536046,-5.939103491363046e-10,113.7000000850886,3.6383156301599167,15.288,0.0,0.0,0.007163413150771,2.709313825263564e-13,-7.906546256197275e-07,7.920022733617308e-11,5.114174483651565e-09,3.820491358176508,74.87999294483174,2.437586797285377,91.46725557277466
0.08,31.222185894468456,131.01038428575305,3.0647976109320942,3.588632851766762,7.220043782492885e-05,19.18449428359557,0.0002119618497595,3.3440615022685813,241.2171988638848,3.1292508166901074,1.2522236515868983,69.99999919480445,-9.914748373602156e-10,113.7000001418522,5.996012698481753,15.288,0.0,0.0,0.0091960591623389,6.80386533246681e-13,-1.5973238302190878e-06,1.0839624626357699e-10,1.3263625118823921e-08,3.58863285249208,70.86684630658345,3.1292621579083604,19.473766155861934
0.09,31.22218584634549,131.01038441616095,3.0957981580345013,3.551302481506045,9.685468678862004e-05,57.102946699906326,0.0002554087225869,3.341892818148368,563.0937377043176,3.701810007254615,1.479132491047967,69.99999812344194,-1.4359264356978275e-09,113.7000002093888,8.390904013834115,15.288,0.0,0.0,0.010878666406854,1.440096519545733e-12,-2.748643691533636e-06,1.5214952332699618e-10,2.6999776649034504e-08,3.5513024828250237,67.68737872952666,3.701825221153239,57.20065357568538
0.1,31.222185790329306,131.01038456796124,3.1319266121977414,3.608446747536112,0.0001234669721807,54.26147302645416,0.0002914860332524,3.3396271157106168,538.7437595981919,4.174070299823608,1.6716491241860567,69.9999963052332,-1.902380107712657e-09,113.70000028805804,10.668380938744466,15.288,0.0,0.0,0.0122665227999911,2.687800116751415e-12,-4.315796035622946e-06,2.1749089204950437e-10,4.7802076800548326e-08,3.608446749645647,65.17160335282355,4.174089693970246,54.36414778470795
0.11,31.222185727066616,131.0103847393952,3.172681775073216,3.633547373470009,0.0001485939126744,42.987553988990406,0.0003293995000288,3.337005588796181,442.8656393052949,4.672024955140527,1.8729475711242067,69.99999349387662,-2.3433348587116544e-09,113.70000037699285,13.365573690709628,15.288,0.0,0.0,0.0137298902182575,4.5789425819531184e-12,-6.340230783164189e-06,3.1157625832417107e-10,7.860218435507205e-08,3.6335473765043056,62.62546922225161,4.672048296217748,43.116880735560244
0.12,31.22218565692512,131.0103849294629,3.2177790417108385,3.650108937861461,0.0001727442530266,46.86777100765684,0.000367618259785,3.334068179146888,475.58594813540446,5.17479364099247,2.0758708919414386,69.99998941286465,-2.702771525550512e-09,113.70000047573096,16.396890189902592,15.288,0.0,0.0,0.0152074069417046,7.288473386564583e-12,-8.86736416607888e-06,4.42271554299792e-10,1.217615295152289e-07,3.6501089419435786,60.16906436414164,5.174820775596283,46.986210423745625
0.13,31.222185580265183,131.0103851371844,3.2669395832841857,3.7280113734654137,0.0001995014041665,51.64515456841877,0.0003986198234033,3.3311573548369657,515.9156326236895,5.579364582999854,2.2451120211463422,69.99998375846928,-2.9114380666036422e-09,113.70000058383452,19.060875702782603,15.288,0.0,0.0,0.0163963474924215,1.100846422415094e-11,-1.1941028436408576e-05,6.179653149059831e-10,1.7678562106638216e-07,3.728011378795934,58.279338776943774,5.579395920607139,51.75247433579817
0.14,31.22218549718016,131.01038536230575,3.320091807147376,3.768719651034081,0.0002242721760019,48.1660778383537,0.0004326225136175,3.32784677779744,486.2390860568404,6.025734265159953,2.428648685938864,69.99997621008868,-2.890941335368725e-09,113.70000070125378,22.232643351545065,15.288,0.0,0.0,0.0177081261985351,1.5941871344608664e-11,-1.560901486259027e-05,8.477542742712431e-10,2.495765160917323e-07,3.7687196576976176,56.27980129251342,6.025769493750979,48.280903250602165
0.15,31.22218540777004,131.01038560455507,3.377159065217065,3.821894709649632,0.000249725644238,46.56959330999435,0.0004643042952466,3.324387732286376,472.54218587214,6.441023336496372,2.6014999612196745,69.99996641132823,-2.546763407193136e-09,113.70000082794672,25.402620271850456,15.288,0.0,0.0,0.0189285691155931,2.2314099732464315e-11,-1.992367942778425e-05,1.1417519574710292e-09,3.4051816697623295e-07,3.821894717796148,54.501255563441134,6.441062563308839,46.68809885900716
0.16,31.22218531193176,131.01038586421257,3.4382223512025254,3.8463320955387794,0.0002733212404609,36.974247749122085,0.0004987816203583,3.3205066466509234,391.1218908297564,6.895451966878468,2.7877331692857847,69.99995397923414,-1.77088415515292e-09,113.70000096417354,29.113317717489338,15.288,0.0,0.0,0.0202640360420561,3.0367358387834494e-11,-2.4945905791363795e-05,1.5114297685186711e-09,4.5643121540033697e-07,3.846332105235269,52.641145594326446,6.895494900078523,37.12304892183151
0.17,31.222185210004127,131.010386140357,3.503019838429153,3.8860314262554336,0.000297865039677,46.520531453299206,0.0005306403365217,3.31650761597812,471.78125980632376,7.314788342774694,2.9619016331667103,69.99993849340957,-4.3039914767238207e-10,113.70000110959404,32.761746921137856,15.288,0.0,0.0,0.0214963781445172,4.0366633128431416e-11,-3.0713078585132897e-05,1.96747427715988e-09,5.961228045584824e-07,3.886031437653654,51.00464968745696,7.314835131305714,46.63860064094784
0.18,31.22218510147516,131.01038643438045,3.571950002194137,3.9107265153396016,0.0003214293682635,38.895647526122765,0.0005639254295027,3.312149448254175,407.10156721191447,7.754626295791602,3.1430587898572058,69.9999195084231,1.6149322372810674e-09,113.70000126508234,36.81988229018681,15.288,0.0,0.0,0.0227889722876034,5.2593391349219385e-11,-3.731786027786564e-05,2.525509173087448e-09,7.6786585232224e-07,3.9107265285284982,49.36615848311875,7.754676785798701,39.036415444581515
0.19,31.222184986476247,131.0103867459258,3.644912152926752,3.920599115663931,0.0003437679584038,43.86258669386953,0.0005989384366483,3.307389681300437,448.9531328318269,8.219206165926856,3.332657190859447,69.99989653019398,4.538529095696477e-09,113.70000143063515,41.36350714675367,15.288,0.0,0.0,0.02415428010977,6.735860419174937e-11,-4.481243905342629e-05,3.199401151670645e-09,9.773118416308382e-07,3.92059913071168,47.71893898797248,8.21926016487149,43.987104227715655
0.2,31.222184864792144,131.01038707557822,3.722074668489528,3.943376465171875,0.000367328732016,40.28070981710589,0.0006315894240138,3.30251450988504,418.51563019916136,8.65238089736321,3.511445117640573,69.99986902534273,8.534090245934178e-09,113.7000016067622,45.83799876721736,15.288,0.0,0.0,0.025427299120469,8.499785987217288e-11,-5.328041996372527e-05,4.006766070954748e-09,1.2232205148646746e-06,3.9433764822533854,46.2587826635041,8.652438597225508,40.41586552155969
0.21,31.22218473678744,131.01038742234647,3.803156063113743,3.9664546506877016,0.000390962054969,38.67679184347145,0.0006636984664108,3.297405915846789,404.8187610144644,9.079179692250786,3.688002035198235,69.99983642883521,1.3827831253856693e-08,113.70000179318536,50.47126980736161,15.288,0.0,0.0,0.0266815841422463,1.0586558589671407e-10,-6.275155280099118e-05,4.961340042512481e-09,1.5117124669161171e-06,3.9664546699249135,44.88773728276958,9.079241104426773,38.817098210937615
0.22,31.2221846022986,131.01038778667507,3.8882846911135607,3.956175711337521,0.0004112685792646,46.713636108302936,0.0007011135033803,3.291572407481395,472.5421858721365,9.580256326712124,3.889976788904857,69.99979815126248,2.0662823443484168e-08,113.70000199039316,56.195522894218605,15.288,0.0,0.0,0.0281541581291438,1.3033127211465288e-10,-7.330053770532661e-05,6.0817207473359025e-09,1.8632831045819008e-06,3.956175732680424,43.35679625546934,9.580320928629488,46.8294591882524
0.23,31.222184460898035,131.01038816972698,3.977794004014759,3.9879066397329104,0.0004360962274406,38.89105719050748,0.0007308686121188,3.286096544282012,406.3406421461021,9.977039034039262,4.056142701351626,69.99975353557706,2.9316661139418326e-08,113.70000219928508,60.9462612310605,15.288,0.0,0.0,0.0293202403623685,1.5880617816859538e-10,-8.505067486192354e-05,7.393319440773217e-09,2.2514912291167663e-06,3.987906663538912,42.20670487756048,9.97710753587448,39.0296395118868
0.24,31.222184313516166,131.01038856897196,4.070963590490852,4.003523997322975,0.000459165577055,40.0792299321398,0.0007630441688766,3.280134925833028,416.2328240017114,10.408422364424831,4.234121060914368,69.99970190737699,4.010976417051318e-08,113.70000241888,66.32994780718496,15.288,0.0,0.0,0.030588009649109,1.91711512587616e-10,-9.795845222523724e-05,8.904557280909524e-09,2.7052895870113487e-06,4.003524023611085,41.011349410369874,10.408494489985014,40.21323112692186
0.25,31.22218416001652,131.01038898478134,4.167901030441617,4.0261356185860135,0.0004830526730531,41.17760020658354,0.0007934613160587,3.2740610008587527,425.36408079150686,10.816813039390448,4.4041629376391525,69.99964258149416,5.3372865854010094e-08,113.70000264972064,71.63651430352668,15.288,0.0,0.0,0.0317882126436337,2.2947426169209347e-10,-0.0001121037688082,1.0637152702866709e-08,3.217380562698304e-06,4.026135647516394,39.93186687113378,10.816888917126896,41.30755663120434
0.26,31.222184000702686,131.0103894163294,4.26837241014618,4.053359329950934,0.000507503069958,44.80261175215926,0.0008224724146494,3.2678597736729302,455.8015834241788,11.207047269494833,4.567925492611352,69.99957484039399,6.947299261165984e-08,113.70000289176392,76.89781807056055,15.288,0.0,0.0,0.0329350617559806,2.7254099134167665e-10,-0.0001275114371842,1.260720913253598e-08,3.7915697709142366e-06,4.053359361668992,38.945390435244384,11.207126987890645,44.921630958721536
0.27,31.22218383516388,131.01038986473338,4.372698316214008,4.0614460923241,0.0005296455772492,41.029837477288126,0.0008548809954683,3.2610328932384265,423.84219965987256,11.645685385842508,4.748226940060522,69.99949794024376,8.879821051920497e-08,113.70000314600205,83.0342688744587,15.288,0.0,0.0,0.0342241635563461,3.2137296827284217e-10,-0.0001442952656441,1.4842505534226832e-08,4.458527942364847e-06,4.061446126801262,37.8838346421185,11.645768582375233,41.15922617924542
0.28,31.222183663504484,131.01039032970942,4.48079961904222,4.081133040992532,0.0005533279247169,47.27661484082626,0.0008845140695959,3.254218495915602,476.3468732012221,12.047344998676092,4.915789434712848,69.99941106884992,1.1178948978424788e-07,113.70000341275257,88.85982357848233,15.288,0.0,0.0,0.0354045979054623,3.764736350660473e-10,-0.0001625146963723,1.7365685655384934e-08,5.194620655212288e-06,4.081133078439725,36.956255322213885,12.047431915223257,47.38848224631549
0.29,31.22218348566054,131.0103908114315,4.592727908358551,4.1001100265020245,0.0005770279952742,37.989969791857405,0.0009138463939581,3.247164755122801,397.97031042211177,12.446314684600782,5.082367374004485,69.99931338876085,1.3891902435864665e-07,113.70000369260468,94.8417675268915,15.288,0.0,0.0,0.0365771315767517,4.3836067907166327e-10,-0.0001822432988888,2.0202163500922312e-08,6.018074062137429e-06,4.100110067036654,36.07377590258778,12.446405323946324,38.12849176886316
0.3,31.222183301933686,131.01039130907952,4.708251093558373,4.112858061667493,0.0005998635114143,35.655053282557844,0.000944131403186,3.2397207148238625,378.1859457108711,12.860033399289696,5.253940723820665,69.99920403105713,1.707002607527005e-07,113.7000039856728,101.2505662360602,15.288,0.0,0.0,0.03779301412572,5.075709863465428e-10,-0.0002035013069687,2.3370674033523645e-08,6.94335970778e-06,4.112858105337573,35.19685285507256,12.860127625629724,35.80193592228613
0.31,31.222183112488807,131.0103918222051,4.827243246502713,4.136140889545823,0.0006242383343011,37.56633644061071,0.0009716215464757,3.232339252743767,394.1656220930212,13.2364445751808,5.4126574282679245,69.99908210036875,2.0768081583188525e-07,113.7000042923011,107.26326115439352,15.288,0.0,0.0,0.0388992619788015,5.846561731689753e-10,-0.0002263323252403,2.6893437641668458e-08,7.948283231812338e-06,4.1361409365698805,34.43286455705216,13.236542630309057,37.70514091683033
0.32,31.22218291741533,131.01039235056504,4.949637017503345,4.1622282001352975,0.0006491019906456,40.83513712643371,0.0009979686925508,3.224840963348891,421.55939346242695,13.59846554462374,5.566374262777002,69.99894668612772,2.504388718903276e-07,113.70000461297312,113.2095365840355,15.288,0.0,0.0,0.0399632243410653,6.701756367872645e-10,-0.00025078340164,3.0793566854276295e-08,9.047716714467492e-06,4.16222825066026,33.72644865222576,13.598567505326,40.96227562489027
0.33,31.222182716732533,131.01039289410716,5.075419569102976,4.187801887681037,0.0006739743721461,40.48743503284469,0.0010239291638211,3.217136801802925,418.5156301991682,13.956637761217308,5.718704299733134,69.99879684673242,2.995902922462564e-07,113.70000494831164,119.25032483364384,15.288,0.0,0.0,0.0410158804634189,7.647061680070125e-10,-0.0002769136723495,3.509664608790402e-08,1.0253455741189656e-05,4.187801941818244,33.053267359159875,13.956743628864118,40.61505097607
0.34,31.222182510255863,131.01039345333336,5.204736257784645,4.19642921746386,0.0006961879027693,31.814592723444047,0.0010535137542081,3.208669900766693,345.46563688075645,14.367047160772364,5.88887983533068,69.99863160305904,3.557915789971256e-07,113.70000529927128,126.36523219087664,15.288,0.0,0.0,0.042222056531773,8.688448410811866e-10,-0.0003048202762282,3.9835373705550826e-08,1.1618525957862828e-05,4.196429275109305,32.30947868183619,14.367156517712404,31.97598901989736
0.35,31.222182298183583,131.0103940277045,5.337435501771672,4.210915783240843,0.0007193441544952,34.813487415034444,0.0010813034848195,3.200164272309822,370.5765700527033,14.754132934586384,6.050986755458457,69.99844991734221,4.1975736284587617e-07,113.70000566632532,133.26448209504355,15.288,0.0,0.0,0.0433596939127697,9.832256819293898e-10,-0.0003345386312107,4.503361101379695e-08,1.309465610343774e-05,4.210915844572415,31.63649055965014,14.75424592890194,34.96026256388454
0.36,31.222182080444604,131.0103946174141,5.4735747500461605,4.22903876037745,0.0007431682866607,39.2632255716727,0.0011077666085529,3.1915717453569297,407.8625232777193,15.124417129017054,6.2072589919251575,69.99825073022951,4.922382611919288e-07,113.70000605036684,140.03566173682628,15.288,0.0,0.0,0.0444479595865755,1.1084921261805627e-09,-0.0003661511460057,5.0723697896912267e-08,1.4691545926915382e-05,4.229038825557203,31.017264542603208,15.124533865618538,39.39272792946638
0.37,31.22218185710795,131.01039522227452,5.613102797925907,4.249164960780052,0.0007674149135003,37.28328237034959,0.001133274451316,3.1828514669894137,391.1218908297666,15.483077353331511,6.359470679857624,69.99803294268581,5.740349991123437e-07,113.70000645214331,146.75405277514704,15.288,0.0,0.0,0.0455020695186381,1.245311285088233e-09,-0.0003997125883071,5.6934243389647934e-08,1.641828325195534e-05,4.2491650299519,30.439178816713017,15.483197898584232,37.418894813348615
0.38,31.2221816281124,131.0103958424523,5.756069531572451,4.260095806433531,0.0007900626414612,38.9278000801764,0.0011607546399008,3.1735466295306622,404.8187610144602,15.87126705947922,6.521735074464384,69.99779542676283,6.659911329739736e-07,113.70000687263192,154.20298254405043,15.288,0.0,0.0,0.0466429667223463,1.3943646956867835e-09,-0.0004353006984059,6.369875435270817e-08,1.8328108041903096e-05,4.260095879559656,29.83470194713067,15.87139116222873,39.05694584372078
0.39,31.22218139339905,131.0103964781077,5.9025231349944285,4.274091258047817,0.0008133283308351,33.320076729592266,0.0011870382950339,3.164143363712209,357.64062493382744,16.24457853509073,6.678818328235205,69.9975369905506,7.690136753559805e-07,113.70000731287368,161.54010621938565,15.288,0.0,0.0,0.0477401448128051,1.5563705124515804e-09,-0.0004730068442167,7.105463478762673e-08,2.0383860516746246e-05,4.274091335289374,29.274934656826048,16.244706292406182,33.46997636540994
0.4,31.22218115316572,131.01039712870306,6.0523126585892895,4.286421841403391,0.0008363022448449,31.88018820767003,0.0012133780841982,3.1544430614236454,345.465636880754,16.62063299903514,6.836764518435374,69.99725641601981,8.840594270905819e-07,113.70000777359816,169.10340080049767,15.288,0.0,0.0,0.0488453895716005,1.7320643186450851e-09,-0.0005128553637434,7.9027539265021e-08,2.2612406375611563e-05,4.286421922834417,28.730746964325096,16.620764365084565,32.03586915718869
0.41,31.22218090752676,131.01039779392735,6.205351877049411,4.30025870409831,0.0008595777771371,35.882550741685804,0.0012389121673015,3.1445895889870297,378.94687077668647,16.987310563534386,6.99141560549392,69.9969524610574,1.0121301778427253e-06,113.70000825570062,176.64448930727934,15.288,0.0,0.0,0.0499230826371405,1.922193031274436e-09,-0.0005548883906878,8.764667734700782e-08,2.5005077415911235e-05,4.300258789847355,28.21875643368965,16.987445585695873,36.020076248499606
0.42,31.222180656535848,131.0103984736348,6.36160173428776,4.322008670726048,0.0008844838439129,40.34064925656127,0.001261804338223,3.134918999355981,416.2328240017114,17.318628721060172,7.133856886815013,69.99662385300175,1.154276942054023e-06,113.70000876021427,183.59942989625057,15.288,0.0,0.0,0.0508968652507098,2.1275184665783874e-09,-0.0005991661829955,9.694534598491077e-08,2.752657757470936e-05,4.322008761057615,27.772396468009568,17.318767655457478,40.462275036947325
0.43,31.222180400205527,131.0103991677914,6.521055075967404,4.339436441324956,0.0009085827200945,35.541853595187746,0.0012854696362701,3.124839917627212,375.9031395134336,17.662848429084132,7.280642039343927,69.99626930133451,1.3115939750280808e-06,113.70000928827632,190.96736675963504,15.288,0.0,0.0,0.0519085689713619,2.3488101247838237e-09,-0.0006457514522491,1.0695800287133593e-07,3.0255957891170616e-05,4.339436536261635,27.322335771349252,17.662991148924057,35.67895714766603
0.44,31.22218013836212,131.0103998768696,6.683849332059896,4.342209064313268,0.0009296474314902,32.82948243168077,0.0013129688908547,3.113754688841357,353.0750125389216,18.063580761318697,7.446730341918701,69.99588746395321,1.4852372182848018e-06,113.7000098413532,199.7278270846888,15.288,0.0,0.0,0.0530863610987301,2.586862292117705e-09,-0.0006947575786514,1.1773083546077225e-07,3.329010177793299e-05,4.342209163639375,26.81344244367223,18.06372678999575,32.9768158972058
0.45,31.22217987077456,131.0104006014978,6.850166573233225,4.3420317510315165,0.0009500780330031,38.11022602597878,0.001341042003417,3.1022288449712887,397.2093853562869,18.47486275310604,7.616350301328129,69.99547690348253,1.6764536248320808e-06,113.70001042108892,208.92306716049887,15.288,0.0,0.0,0.0542951637545535,2.842521175226318e-09,-0.0007463379956615,1.2932090054593452e-07,3.657529369088674e-05,4.342031854775571,26.30944884471334,18.47501199101448,38.23628058998621
0.46,31.22217959739673,131.01040134180155,7.020045503401754,4.351169003849846,0.0009725797783515,44.3937050866137,0.0013660055515545,3.09098240974522,449.7140588976434,18.844323061800488,7.771531995684422,69.99503610583268,1.8865779683531e-06,113.70001102895836,217.3591612614144,15.288,0.0,0.0,0.0553810645782081,3.1166808800591503e-09,-0.000800596194505,1.417768495237597e-07,4.001824400409673e-05,4.351169112337076,25.873596578896564,18.844475834274814,44.50118229261506
0.47,31.22217931813738,131.01040209802923,7.193559875579052,4.358630093683735,0.0009947969928181,30.22514089990685,0.0013910994973101,3.079396422776949,331.0078106302534,19.2180591098146,7.9280875671397615,69.99456352718363,2.1170044481277104e-06,113.70001166656292,226.0625808853568,15.288,0.0,0.0,0.0564795377574197,3.4102493884459798e-09,-0.0008576351980594,1.551487523304888e-07,4.3718862242359527e-05,4.35863020698899,25.44665981168229,19.218215372160817,30.381603425148434
0.48,31.22217903348153,131.01040286886197,7.370336324605091,4.365514409145237,0.001016880998596,29.779838936311712,0.001416009414045,3.067527859335786,327.2031223011574,19.5915905767454,8.084483592791102,69.99405758812365,2.369198154608765e-06,113.70001233476164,234.93171707892955,15.288,0.0,0.0,0.057577416115756,3.7241711041759195e-09,-0.0009173883913609,1.6944871263079066e-07,4.767297940601472e-05,4.365514527349481,25.03354780044292,19.59175030803913,29.937410312943754
0.49,31.22217874361868,131.01040365378466,7.5502307795521535,4.3786401372577615,0.0010404145545081,37.2489281064929,0.0014385799934191,3.0558405437943126,389.60000969812296,19.93403005898306,8.23012235628909,69.99351671352461,2.644660619562788e-06,113.700013034871,243.21198709852868,15.288,0.0,0.0,0.0585839249886784,4.059374595909599e-09,-0.0009798792959512,1.8470833984680338e-07,5.180951737438081e-05,4.378640260624215,24.667474291142685,19.934193486919103,37.37406598941686
0.5,31.22217844858332,131.0104044527036,7.733219389747018,4.395537293591596,10.510908662066992,38.38123632015427,-0.6899064929041071,3.044103834919873,397.97031042210494,20.595758861544883,8.366269437912349,69.99293932307316,2.9449363413826395e-06,113.70001376847225,259.6227372293378,15.288,0.0,3.7577354668479273,0.0605287982088479,4.41672905964163e-09,-0.0010516197388721,1.555754818850547e-05,5.744744965454572e-05,11.38343696725894,34.03468561544533,22.237563396672765,38.507945161878666
0.51,31.22217814883081,131.0104052655835,7.919249311742094,4.407248108556955,10.360741115711429,29.471342933464328,-0.7065580988225861,3.0318493431205407,323.3984349720841,20.934924860593046,8.512187036578071,69.99232011581883,0.0001436617953975,113.70016394425652,268.2391615378369,15.288,0.0,3.772647861005469,0.0615257010034119,4.850236675984864e-09,-0.0011197650206506,0.0001804762979881,6.217628523329618e-05,11.249734756423525,33.56262322476556,22.55353132679118,29.63530646185813
0.52,31.22217784453926,131.0104060926008,8.108334265215042,4.41600719831491,10.21064599258458,35.308834247385555,-0.7237251311952908,3.0192027233888603,372.0984511843415,21.28283374958912,8.660903129819268,69.9916611297199,0.0005467623889917,113.7005933646337,277.2237219776896,15.288,0.0,3.7875082322282414,0.0625483046922611,5.402602940715529e-09,-0.00119083595857,0.0003495318644206,6.722022713370323e-05,11.115369934234934,33.09084854247414,22.878242224360072,35.44507214070511
0.53,31.222177535583903,131.01040693414163,8.30058608154451,4.424905064623599,10.06651983098604,37.05055930665238,-0.7409705517421594,3.00633556659002,386.5562464348624,21.62719383205388,8.808254914043436,69.99096064412376,0.0012189150945463,113.70130912890394,286.26207362417176,15.288,0.0,3.8023189352040574,0.0635604853741164,6.0769614513478574e-09,-0.0012649660099892,0.0005229134242519,7.255871691715321e-05,10.986930673140774,32.63687456349416,23.200316543660936,37.17971269164487
0.54,31.222177221880305,131.01040779047148,8.496081962251859,4.433584591155545,9.927272733545925,32.59651266645478,-0.7583575331354062,2.9932197046410103,349.2703242098436,21.969646291420823,8.954814615032253,69.99021687786693,0.0021669604015967,113.70231851979764,295.39384713520406,15.288,0.0,3.817090733674172,0.0645670664552218,6.876522775300323e-09,-0.0013422732891582,0.0007007645282827,7.821074558071481e-05,10.86325198960737,32.197588029719405,23.521228217934656,32.742435895373774
0.55,31.22217690371732,131.01040866084014,8.69460942523367,4.443284897295889,9.79525513184652,34.52052019472302,-0.7756693410508113,2.9799582426474154,365.2500005919907,22.30422713663848,9.098510269423334,69.98942800917827,0.0033977748442931,113.70362885822622,304.4537968191551,15.288,0.0,3.8318063541979246,0.0655505201109521,7.804536520271875e-09,-0.0014227325777727,0.0008829018977408,8.415977959801636e-05,10.746953502930436,31.780113818839144,23.83537817755048,34.65758399786183
0.56,31.22217658110932,131.0104095452427,8.896168607692994,4.454892125073048,9.671977252665975,32.25078570338742,-0.7927320159343069,2.966640293994216,346.2265619465787,22.62634362097795,9.237745888425422,69.98859220182206,0.0049181157838956,113.70524733903724,313.305044568644,15.288,0.0,3.846465555667243,0.066497348503795,8.864176586427693e-09,-0.0015064264899181,0.001069388697493,9.039575806942457e-05,10.63974912216946,31.38910011204613,24.138408983520456,32.396644226969805
0.57,31.222176254141093,131.01041044348204,9.100704876536946,4.464222706106517,9.548229106627195,31.895166829762392,-0.8102871534997699,2.952903027430328,343.1828296833023,22.956503067892783,9.379665173705448,69.98770758697928,0.0067347314229228,113.70718114763343,322.50879887548047,15.288,0.0,3.861061931110125,0.0674678212650174,1.005861745591912e-08,-0.00159340183542,0.0012602073819226,9.700815517369784e-05,10.531526836018276,30.997328240444418,24.449402906174733,32.04181437838546
0.58,31.22217592280427,131.010411355614,9.308235792553209,4.468547453492857,9.41834582460686,41.850768545089686,-0.8288728795272655,2.9384678097496724,426.1250058573153,23.308941456628617,9.529219053994368,69.98677225260433,0.0088544250550862,113.709437528612,332.4807831634244,15.288,0.0,3.8755954764798046,0.0685037774788734,1.13910480937074e-08,-0.0016837451554346,0.0014554268595616,0.0001040800410673,10.415992747001267,30.587852838593125,24.78171810104704,41.96198816946141
0.59,31.22217558671621,131.0104122827136,9.519069653145808,4.478076832861037,9.303380064723664,34.012959330782884,-0.8466017461296673,2.924282835292229,360.68438819711065,23.632191892297367,9.668491417916975,69.98578417869713,0.0112844319703379,113.71202418732436,341.7595532086959,15.288,0.0,3.8900837672988415,0.0694539590414347,1.286480452531642e-08,-0.0017777243576449,0.0016554969475008,0.0001114110275511,10.316464188085344,30.223495664925707,25.08715024020461,34.14893215101792
0.6,31.222175246098967,131.01041322421153,9.733045819643788,4.479186317041608,9.17527198473291,30.279312952424192,-0.866060750222395,2.90902795192102,329.4859594986058,23.996062355834898,9.821771080903863,69.98474129208518,0.0140320762113536,113.71494892322508,352.3576416940132,15.288,0.0,3.9045148118541424,0.0705235283604054,1.448333336307223e-08,-0.0018753299271005,0.0018602705075379,0.0001193351806994,10.201806721689662,29.82040134050365,25.431158609801784,30.431058110407154
0.61,31.222174900918425,131.010414180235,9.950202356893069,4.478709215321216,9.048064239362803,35.40327078141088,-0.8860033171425867,2.8933257340102614,372.0984511843297,24.36632461947428,9.977145181390444,69.98364145320737,0.0171048485373083,113.71821971410508,363.3078037441403,15.288,0.0,3.9188927392711377,0.0716118907193125,1.6250122052590872e-08,-0.0019766746501341,0.0020698595985911,0.000127722376679,10.087577165158876,29.420475376489637,25.78169126968161,35.53235029804495
0.62,31.222174551300423,131.01041515047675,10.17045346258938,4.490279077327938,8.94836846746147,43.91035875090614,-0.9036760461480092,2.878627612809729,442.86563930529206,24.670189791202983,10.109314602227723,69.98248245474932,0.0205104010330651,113.7218447098064,372.41783487711297,15.288,0.0,3.9332227212625854,0.0725051214205182,1.8168747747653448e-08,-0.0020818165690993,0.0022842618627622,0.0001361907272701,10.003581199698871,29.103940180268715,26.070088994619525,44.01389249956077
0.63,31.222174197077777,131.01041613542333,10.39393975868321,4.497635592459129,8.843619376367538,25.09444407370576,-0.9222847517176576,2.8632576151803875,286.11251274707894,24.993331174653985,10.248065452363663,69.98126210279037,0.0242560982020984,113.7258317551341,382.22972442543113,15.288,0.0,3.9474800416531695,0.0734550117265128,2.024260859397403e-08,-0.0021909148518549,0.0025036734476956,0.0001452021044755,9.913494088142718,28.773058751259963,26.376974361387003,25.274096951275737
0.64,31.22217383883475,131.01041713351947,10.62021964319293,4.498459394449164,8.729581871576377,24.64372580664505,-0.9423792373155316,2.8469043369796774,282.30782441796754,25.34939702965328,10.39814161700156,69.9799781154292,0.0283493754931666,113.73018877279628,393.1895799458356,15.288,0.0,3.96167784209744,0.0745016739247561,2.247528598850801e-08,-0.0023037671068382,0.0027275736903775,0.0001548531476459,9.812484160553584,28.41473254630904,26.715337474184665,24.82551438669379
0.65,31.22217347656468,131.01041814481422,10.849309057214068,4.50817632171431,8.63556467477988,43.2159536004903,-0.9607212688491072,2.831313285329311,436.7781447787475,25.653974369234625,10.53021648112257,69.9786283173634,0.0327974590182593,113.73492345581325,402.6859639087335,15.288,0.0,3.9757925026064336,0.075397019138225,2.4870130424979543e-08,-0.0024204850307178,0.0029560736981003,0.0001646498481944,9.733572926284127,28.117823560186125,27.00531587433574,43.31925629412204
0.66,31.22217310978476,131.01041917064873,11.081592362740636,4.515274301609486,8.53944154441076,36.82375787375314,-0.9797186475876412,2.8151876533936786,383.51251517160017,25.96987534913861,10.666105671606427,69.97721037313995,0.0376076643175223,113.74004360221262,412.6551048969607,15.288,0.0,3.9898480876476223,0.0763256519902678,2.743041978488811e-08,-0.0025414090436328,0.0031897151104757,0.0001750003938052,9.65186603833332,27.815354134837666,27.30628714512059,36.94420487839801
0.67,31.222172738688144,131.0104202105302,11.316931103933552,4.516576147070294,8.435450979477762,25.48561092879809,-1.0001164410155223,2.7981023545266104,289.1562440103425,26.3156670040668,10.812255407151335,69.97572184831867,0.0427877974482717,113.74555752911388,423.70778319306737,15.288,0.0,4.003857102917669,0.0773421415167995,3.0159823741888835e-08,-0.0026665354664505,0.0034283703368427,0.0001860572175585,9.560785992747608,27.489623301591237,27.635922897571582,25.658253527784574
0.68,31.222172363451225,131.01042126401092,11.555199686548718,4.519053344215152,8.336400081782894,31.717121867164728,-1.0204012415192771,2.780884082155254,340.8999924858462,26.652431431645432,10.955154073713608,69.97416027265832,0.0483456328930741,113.75147352089616,434.61169623428566,15.288,0.0,4.017772528032207,0.0783321078031462,3.3061990878411414e-08,-0.0027958783960078,0.0036719508298865,0.0001975740722827,9.474863532478768,27.17975722533082,27.95729480104879,31.85514643677937
0.69,31.22217198416296,131.0104223308792,11.796339888348657,4.526383172831441,8.248748695895614,38.95957458864196,-1.039698804066853,2.7640397016046783,401.0140726853634,26.95847331188516,11.087272738083684,69.97252312166391,0.0542888292467832,113.7577997423972,444.6397361201752,15.288,0.0,4.031625857349942,0.0792317874645917,3.6140500102333775e-08,-0.0029294838384838,0.0039204295402425,0.0002093877075414,9.401499573123235,26.905428596548067,28.249712389174064,39.07133656791358
0.7,31.22217160070048,131.01042341149687,12.04045696171932,4.532985515278692,8.16220173319927,32.74051166391084,-1.0592661921554718,2.7468641371458093,349.27032420985284,27.265648656625856,11.219668940736875,69.97080795793795,0.060624924959084,113.76454422344018,454.8195991415973,15.288,0.0,4.045426552748558,0.0801348060094244,3.939878838038073e-08,-0.003067519926079,0.0041740018916727,0.0002217470380155,9.329000372096774,26.63523769722004,28.543432145177416,32.87260883271151
0.71,31.22217121312657,131.010424505722,12.287512645886212,4.535708603298864,8.07108489223978,26.975908975174143,-1.0798668309100647,2.728903397000068,301.33126406340574,27.592808768262863,11.358886559253184,69.96901215607795,0.0673616616642788,113.77171521920876,465.7887784507146,15.288,0.0,4.0591308291801855,0.0810965683895035,4.284046080888645e-08,-0.0032100464627189,0.0044326615331579,0.0002348288908917,9.250878279558384,26.35194810016204,28.856423032193625,27.13508229505743
0.72,31.22217082145348,131.01042561355007,12.537507837758977,4.533872664520147,7.974429849510042,32.94060369253265,-1.1017332506130773,2.7100100222113,350.79220534145287,27.94483052113384,11.506612471847946,69.96713301539133,0.0745069347809631,113.77932114973925,477.73794088290725,15.288,0.0,4.072776466139757,0.0821314085970446,4.646916749620712e-08,-0.0033571675346732,0.0046964819149285,0.0002487186580943,9.165946492113552,26.05230563451028,29.19341084411172,33.07024859453717
0.73,31.222170425688628,131.0104267349901,12.79044741278242,4.541367555560121,7.896207819551445,41.56758730975174,-1.1214434621446896,2.692197271659618,422.320318528234,28.23795699112877,11.633787846898567,69.96516784409309,0.0820688945781582,113.78737069894696,487.80109298491993,15.288,0.0,4.086369047234495,0.0829931604047519,5.0288655304982055e-08,-0.0035090022136219,0.0049655621349459,0.0002626880017117,9.101830964163284,25.810056378849108,29.474367881711164,41.66977173374186
0.74,31.222170025779256,131.01042787021163,13.04638196037328,4.545256766437064,7.8138147098276605,26.169081550725096,-1.14215183788376,2.6736074980122577,294.48281347105944,28.54994831602335,11.767391963627334,69.96311381869278,0.0900554195364346,113.79587227410777,498.6274727350327,15.288,0.0,4.099880993789375,0.0839103651393,5.430254685387885e-08,-0.0036656684199617,0.005239992336008,0.0002774413267789,9.03253940695286,25.555823717133837,29.77353836467781,26.330087677079796
0.75,31.22216962208949,131.0104290182551,13.305040274255388,4.546689420264901,7.729291056899889,30.48715235551632,-1.1636240812239862,2.654367181670212,330.24688556441487,28.87440404288533,11.905208518597712,69.96096820746133,0.0984744123235422,113.80483429740886,510.0125009802721,15.288,0.0,4.113311476775479,0.0848642116648846,5.8514682940477684e-08,-0.0038270304297142,0.0055194246261403,0.0002929387373984,8.960397220033963,25.295780509722917,30.084839095776623,30.624600322061287
0.76,31.222169214519063,131.01043017941768,13.56650940548874,4.551153150910165,7.6518221706330705,32.788570327516126,-1.1844371699553964,2.6353364874691967,349.27032420986166,29.17724769695086,12.035415821500704,69.95872809731414,0.1073337330899431,113.81426515931736,520.7538654639569,15.288,0.0,4.126679503705911,0.0857545466603829,6.292862223425089e-08,-0.0039932714367673,0.0058040657700907,0.0003088617371426,8.896068639427828,25.058268479956865,30.37562342149485,32.915622946166906
0.77,31.22216880301984,131.0104313538546,13.83083596786498,4.55605306263033,7.576912042674163,30.684607595167943,-1.2052468491428738,2.61612393344122,331.7687666960708,29.47432028396072,12.163507785219895,69.95639066378035,0.1166412885881443,113.8241732895117,531.3986301772616,15.288,0.0,4.139986501945777,0.0866279279688389,6.754797108797733e-08,-0.0041645320354112,0.0060940429775921,0.0003253793125604,8.834365886048852,24.829429947774656,30.6610329100186,30.81950466298787
0.78,31.222168387664016,131.01043254139483,14.097973609197917,4.55754321177207,7.498155582452699,25.273401773139984,-1.2270888069080683,2.596081448263733,286.8734378128899,29.79015937666587,12.297995668220116,69.95395287665946,0.1264050384610108,113.83456718696203,542.8343799231137,15.288,0.0,4.153198114345301,0.087556474035832,7.23764585981631e-08,-0.004340857562636,0.0063893202836523,0.0003427813242882,8.767826059860393,24.58950432004118,30.964607864205323,25.436002496709534
0.79,31.2221679685471,131.01043374180443,14.367858098600182,4.556941848619207,7.417822747235178,35.751070166557064,-1.249659428182934,2.575388100878013,373.6203323159534,30.116896286897187,12.436150045681304,69.95141175152231,0.1366330072095469,113.8454554123994,554.7928594875041,15.288,0.0,4.166340377074151,0.0885170583953505,7.741785062821262e-08,-0.0045222900595392,0.0066898582037522,0.0003610157605575,8.699058255897329,24.34535508844293,31.27883287322288,35.865488852247324
0.8,31.22216754545843,131.01043495567683,14.640661035937136,4.561808050521172,7.347988129133432,36.21871152711938,-1.270836199803669,2.555377037888417,377.42502064505743,30.40534679454957,12.560913605155136,69.94876416794557,0.1473334499832687,113.85684677689524,565.456213419092,15.288,0.0,4.179426077916012,0.0893651230186742,8.267575662910048e-08,-0.0047091194100866,0.0069960225383538,0.0003795210076631,8.642265888626344,24.13460423855845,31.556404728329667,36.33097908310742
0.81,31.222167118507368,131.01043618273937,14.916307198813708,4.562575471898286,7.273250593249637,23.726148942266928,-1.29329248681337,2.534366429015961,273.9374926939919,30.71767132350025,12.693840454575987,69.94600700244986,0.1585145461784996,113.8687500095357,577.1173622204285,15.288,0.0,4.192448538660374,0.0902833647147927,8.81540583133237e-08,-0.0049013537667285,0.0073077115984841,0.0003990607355071,8.57935218577833,23.909265268250397,31.85708494727341,23.896145343624042
0.82,31.222166687888624,131.010437422489,15.19465577417992,4.56145281006749,7.197151569278377,30.350875034802623,-1.3164517632026933,2.512704551582108,328.72500443277005,31.039946208591804,12.830106699404531,69.94313697156959,0.1701844903480217,113.88117386554654,589.2748042536506,15.288,0.0,4.20538997695419,0.0912308604300117,9.38567089223843e-08,-0.0050989555334761,0.0076247549552998,0.0004194934990661,8.51447266665751,23.680376667399425,32.16750140694807,30.48314853794775
0.83,31.22216625359321,131.0104386749722,15.475722575921152,4.567057452417759,7.1330118084522285,38.450933228395286,-1.3377528849620557,2.492040490183677,395.68750322465047,31.31436904304456,12.949674111942311,69.94015083842356,0.1823515037388898,113.89412712217872,599.7241816951096,15.288,0.0,4.218251169458254,0.0920377204282067,9.978746196602289e-08,-0.0053020639117301,0.0079472667580451,0.0004400478987002,8.463448203658276,23.489703530751356,32.43192786892468,38.55481960430436
0.84,31.222165815522377,131.01043994047507,15.75959165296212,4.570911431823697,7.067547255313884,23.92342223688772,-1.3596637339594215,2.470795305052549,275.4593748256452,31.597303008841177,13.072079460483268,69.93704528081678,0.1950236163512213,113.90761836125608,610.5938416752217,15.288,0.0,4.231048775702452,0.0928696040772939,1.0594994719297288e-07,-0.0055108522121608,0.008275408183902,0.0004614963465327,8.410549005778645,23.29561136682738,32.70465754533422,24.089077326318005
0.85,31.222165373976924,131.01044121820658,16.046040213309542,4.56865751564356,6.994175561647288,26.04445691806477,-1.3835705546867838,2.448046048129963,292.96093233939376,31.91899294960368,13.20781301646388,69.93381705808163,0.2082087886483432,113.92165608234036,623.0728164168689,15.288,0.0,4.243772561620541,0.0938154062547126,1.1234817826310521e-07,-0.0057251692019528,0.008608833829951,0.0004843117968181,8.347891888164552,23.07733025692673,33.01490895347796,26.195819000185754
0.86,31.222164928790075,131.01044250863603,16.335204594923155,4.570392878847136,6.928253643723038,32.49328859956572,-1.40638744734156,2.425811347581079,346.2265619465587,32.210573970438766,13.33299902825526,69.93046267862049,0.2219152915849275,113.93624912814953,634.4907707099005,15.288,0.0,4.256431243057807,0.0946727218711924,1.1898575264372813e-07,-0.0059452991495619,0.0089478776637433,0.0005075135657906,8.293807189167973,22.883155325012165,33.29621131685245,32.61405050527703
0.87,31.222164479992365,131.0104438116998,16.627069283000008,4.573851242467755,6.866193640179726,30.289930639841568,-1.4287693818726743,2.4036706958772305,327.964078366998,32.487088312808204,13.452852359977204,69.92697862560009,0.2361513047115605,113.9514062451764,645.4131153799207,15.288,0.0,4.269024189478827,0.0954857621456169,1.2586649117176182e-07,-0.0061713289267679,0.0092925618444815,0.0005313158721968,8.244055236394201,22.701858984817115,33.56304784445312,30.41872635281117
0.88,31.222164027625567,131.01044512730303,16.921609893984005,4.57411089176221,6.800617727905925,26.24310780786608,-1.4522847506699097,2.380572165035315,294.4828134710418,32.78288635393257,13.579282170191773,69.92336144214858,0.250924923844398,113.9671360851526,657.2011271450205,15.288,0.0,4.281537516391414,0.0963554893483959,1.3299423313202277e-07,-0.0064033120751347,0.0096428572009356,0.00055629208112,8.18978054494349,22.51017295448522,33.84861841852756,26.3908499720121
0.89,31.222163571777344,131.01044645522737,17.21876692826535,4.571239563534081,6.731716275207339,28.73554491964164,-1.4769626308056447,2.356479710313505,315.028134248087,33.09808535882068,13.71233089697761,69.91960746222802,0.2662443207428487,113.98344739361524,669.8804019695493,15.288,0.0,4.293973463879122,0.097282248724795,1.40372876630809e-07,-0.0066412979599887,0.009998729433513,0.0005824980337922,8.131171810006954,22.308602721917097,34.153069788751395,28.86981047853723
0.9,31.222163112378464,131.01044779567624,17.518601016366944,4.575258824519014,6.674050874186218,31.6901820902942,-1.499489563221976,2.333644271925964,339.37814235421445,33.36121478665211,13.827220653327206,69.91571303925593,0.2821178667937453,114.0003491208877,680.5542264521433,15.288,0.0,4.3063456227097845,0.0980559733043427,1.4800616908722654e-07,-0.0068854861533334,0.0103603671567514,0.0006086989973655,8.0858608449315,22.143333896044982,34.407203070816536,31.811350261409967
0.91,31.22216264950485,131.01044914846065,17.82106100944183,4.576124076252484,6.612939840689742,24.22892231948089,-1.5231702244469727,2.309822136021788,277.7421810230789,33.64373292915367,13.948724667290051,69.91167440886082,0.2985535927369275,114.01784986840968,692.1094208262857,15.288,0.0,4.318650345012236,0.0988866939545553,1.5589800140511332e-07,-0.0071359047525259,0.0107277001557724,0.0006361605393322,8.036092123017122,21.9677880696638,34.6801863721941,24.386389699915348
0.92,31.222162183363903,131.0104505130396,18.12599559914999,4.573926218234855,6.548586895906221,28.75147752383113,-1.548025814310726,2.284980518032917,315.02813424806214,33.9455761849071,14.076826745452385,69.90748786836717,0.3155595357821898,114.035958236842,704.5633651145473,15.288,0.0,4.330881847977749,0.0997742242226452,1.640524814051339e-07,-0.0073924539790079,0.0111004765948875,0.0006649249058058,7.982078407897677,21.78253113566541,34.97198769367525,28.88364554021755
0.93,31.22216171387009,131.01045188965682,18.433476883438097,4.578030517117063,6.494225121773408,34.10681342423307,-1.5707967735106108,2.2613804739065992,359.1625070654728,34.19824531384773,14.187775705207828,69.90314957963881,0.3331437641545487,114.05468286829236,715.0699201059545,15.288,0.0,4.3430463997420174,0.1005172283881807,1.72473165469277e-07,-0.0076553680816769,0.0114789299344054,0.0006936779045074,7.939990929816804,21.62980722231336,35.21617294790576,34.21777266431704
0.94,31.222161240917483,131.01045327860734,18.743591581803926,4.57594589300346,6.4322034858388495,24.88657921427649,-1.5958413841822725,2.2359872472846134,283.0687504837787,34.493257510327005,14.313299846337031,69.89865570469985,0.3513141440417585,114.0740321916776,727.4386113435917,15.288,0.0,4.35514386283333,0.1013846980606206,1.811636529717628e-07,-0.0079248262762121,0.0118632059548379,0.0007242674823091,7.888247281445649,21.453234162706465,35.50150472812919,25.037734995041923
0.95,31.222160764801224,131.01045467911564,19.05612167346121,4.574461844414844,6.372069330771025,32.089721672484124,-1.6208058364433615,2.210433808197944,342.4218736174873,34.78097618619199,14.436196365218848,69.89400224616129,0.3700788254320026,114.09401494213223,739.6025940584407,15.288,0.0,4.367169409578153,0.1022307389533136,1.9012826511881546e-07,-0.0082006687068507,0.0122529717303649,0.000755706267614,7.83853225965686,21.28329352459239,35.77983646000952,32.20657178585406
0.96,31.222160285231045,131.0104560919685,19.371293894225825,4.576026816635837,6.317125518494698,31.44951838148451,-1.6447738339996425,2.1853769549678104,337.09533515678345,35.042633379560804,14.549949549544802,69.88918524535589,0.3894458319255083,114.11463971827726,750.7497830142452,15.288,0.0,4.379132430477124,0.1030001868370736,1.993702000380873e-07,-0.0084833277769258,0.0126487270525732,0.0007876110957647,7.794943349175092,21.130646435884536,36.0329159599254,31.568233397319627
0.97,31.22215980223068,131.0104575171131,19.689095971959343,4.575757483213643,6.2606118759309775,20.28123732171964,-1.669516051271726,2.159559657871249,245.02188719299323,35.31480016048025,14.66724188518526,69.8842004970718,0.4094233575536866,114.13591531378512,762.4335438182623,15.288,0.0,4.391031769519016,0.1038005340281751,2.0889340317022882e-07,-0.0087728951459502,0.0130504859909511,0.0008207960897484,7.749153981758618,20.97358369364625,36.29625901935968,20.464104404084548
0.98,31.222159316093368,131.01045895377837,20.00931121735365,4.569608709832849,6.197117450984765,29.336492494005658,-1.6966086737702195,2.131829570647956,319.5937466429581,35.62893989526302,14.798995557942217,69.87904391822738,0.430019455213236,114.15785036240024,776.034328947126,15.288,0.0,4.402859428699938,0.1047242610513323,2.187023866216165e-07,-0.0090691470065034,0.0134578310652626,0.0008560350999785,7.694417647774975,20.794559409045767,36.60048395403032,29.462738673807156
0.99,31.222158826674004,131.01046040236145,20.332055531509592,4.572869899557463,6.147181634898056,32.02114539574935,-1.7202232422107215,2.106395736979549,341.6609485517054,35.867648418736565,14.90448374974083,69.87371111955129,0.4512423771047143,114.18045372893064,786.4434105060643,15.288,0.0,4.414624081471631,0.1054262817494982,2.288006107490988e-07,-0.0093724229943609,0.0138711209700287,0.0008905607546297,7.656281775333225,20.65994724731659,36.83139404649737,32.13642518170818
1.0,31.222158333973592,131.01046186286635,20.657332774240103,4.570409200015927,6.090467285423973,28.699572361583385,-1.7461414570276084,2.0790716044720736,314.2672081822764,36.14723190695782,15.024050517555608,69.86819799085067,0.4730998136229838,114.20373366709669,798.726681422642,15.288,0.0,4.426318264785173,0.1062484553934838,2.3919191433453425e-07,-0.009682785780526,0.0142903276365797,0.0009271939060927,7.60944563582306,20.50401861406447,37.10211961878569,28.82771240425146
1.01,31.222157838176447,131.01046333481185,20.98500884641152,4.568705800660803,6.035624602645729,29.998639241675207,-1.7718724235837175,2.0516611984792545,324.9203161036979,36.41779359275453,15.140391913775632,69.86250010148309,0.4955998090695299,114.227698823142,810.7028379444605,15.288,0.0,4.437945800233401,0.1070441198669544,2.498805436614304e-07,-0.0100001690289648,0.0147152540004877,0.0009647227096153,7.564690266267702,20.35472913894244,37.3641148245346,30.120876512993068
1.02,31.22215733920812,131.01046481840214,21.315144643418023,4.568276243619898,5.983274158548181,25.102329575737983,-1.7971870842235382,2.024337525471972,284.59063161540416,36.67501173364519,15.252005696120088,69.85661301742839,0.518750148586241,114.2523575715258,822.1691652666593,15.288,0.0,4.449509502620546,0.1078005719154397,2.6087008286079216e-07,-0.0103247784083318,0.0151460657286265,0.0010030411743881,7.522816602196099,20.21413475832562,37.61315496653927,25.247866721006424
1.03,31.222156837139,131.01046631345562,21.64769127246653,4.563888270791371,5.926611928022141,20.573167288573885,-1.8242151656444647,1.995515518687761,247.30469339049705,36.9604198824536,15.37330827265421,69.8505323999571,0.5425584432195762,114.27771809501732,834.9886705069888,15.288,0.0,4.461007329665832,0.1086398930702664,2.721644746708452e-07,-0.0106566323624936,0.0155826772002178,0.0010433037491569,7.475254714564428,20.060034116624028,37.88971066223833,20.75006157676496
1.04,31.22215633203311,131.01046781980904,21.982605157482705,4.562956718330924,5.8752024679929855,32.511852372518774,-1.849934090770936,1.967441762936784,345.46563688072297,37.21500888987711,15.483821517511544,69.84425362756389,0.5670325813716774,114.30378888620156,846.5041152094877,15.288,0.0,4.472440910279848,0.1093886346288728,2.8376766660849064e-07,-0.0109958034119718,0.016025076579149,0.0010838895055283,7.434078383635266,19.92365220943085,38.13626708073789,32.623819946830245
1.05,31.2221558236062,131.0104693382171,22.32010365989945,4.558799462044604,5.820463348579915,19.74476428188097,-1.8770970774311788,1.9380544087207208,240.45625879819983,37.4922013734373,15.602082178270615,69.83777204912697,0.592180231128494,114.33057820881288,859.1334392931097,15.288,0.0,4.483816445420141,0.1102038252654698,2.9568267964814616e-07,-0.011342760234694,0.0164737588881096,0.0011263815599495,7.388428524316038,19.776922771501525,38.40490590996369,19.928252930859365
1.06,31.222155312097296,131.01047086805244,22.660011239459845,4.551883663966263,5.763050231406743,27.986391246960096,-1.9055843551304528,1.907422306798568,308.17968365593924,37.78886123725479,15.727012228751544,69.83108296443747,0.6180093833365666,114.3580946636448,872.7546498245794,15.288,0.0,4.495129205926547,0.1110762473778882,3.0791418734763413e-07,-0.0116973211634942,0.0169283769429081,0.0011707438328321,7.339103591047262,19.621899235601987,38.69259337974915,28.115967111570527
1.07,31.222154797391863,131.0104724096215,23.00241789225764,4.5508147409212105,5.713743033753117,32.898817436242254,-1.9316562044578047,1.8783903651490148,348.5093681440308,38.03432221195182,15.834068763568991,69.82418142705525,0.6445281818640931,114.38634702910036,884.1005099878579,15.288,0.0,4.506385593400377,0.1117981851944895,3.204657307465407e-07,-0.0120598153300144,0.0173892395048235,0.0012148249848148,7.299866290996857,19.49410129594137,38.930348010812125,33.00896597531195
1.08,31.22215427938908,131.01047396319052,23.347402038444947,4.548315258631307,5.663351761580188,22.251670789047004,-1.9584344236642208,1.8485873168962983,261.00157857466235,38.28793183186543,15.943857103485517,69.81706253370899,0.6717444240528399,114.41534371686052,895.900344036838,15.288,0.0,4.517583877600219,0.1125440841066941,3.333410082445693e-07,-0.0124304718502735,0.0178565175483699,0.0012604699827499,7.259013729789659,19.36331661178692,39.17608116882352,22.4140490176164
1.09,31.222153758365497,131.01047552803254,23.694759913775364,4.53921283212908,5.605552905766731,20.493306443316897,-1.9882811048946805,1.81617111175344,246.54375332474407,38.593415530607146,16.07158043172742,69.80972129048561,0.6996658996574197,114.44509313523264,910.2230475284138,15.288,0.0,4.528716363276971,0.1134424718559003,3.4654499466160255e-07,-0.0128090181893753,0.0183297534137203,0.0013091745460315,7.2083886397988755,19.20850631275212,39.47252970981896,20.6694786639369
1.1,31.22215323439824,131.01047710394687,24.04443733190547,4.533284685159193,5.5524026632572845,40.79354115332518,-2.016845117622481,1.7844899057160777,413.1890617385841,38.86935746565977,16.1889577616313,69.80215261291931,0.7283003831957912,114.47560368198148,923.2547122244648,15.288,0.0,4.539787704609846,0.1142540334851661,3.600817517779173e-07,-0.0131955217306796,0.018808921611396,0.0013582754013824,7.163480095947064,19.06957267402106,39.740162371819984,40.882331981922405
1.11,31.22215270708319,131.01047869199311,24.39673814908415,4.533877716691141,5.507831413954316,29.953665815831105,-2.0424706218316704,1.7548614295252178,324.1593910376397,39.0862746049466,16.285723798062406,69.79435129733848,0.7576557209174763,114.50688383757868,933.556637181722,15.288,0.0,4.550808419390702,0.1148921045602375,3.739537592885382e-07,-0.013590709848171,0.0192948027415219,0.0014067134203187,7.129436832181907,18.959772811102173,39.95011086180176,30.074462932600635
1.12,31.222152176481423,131.01048029200604,24.751618112689066,4.521847252593785,5.448739734830326,11.503230595468407,-2.074118199255213,1.7202586904298742,172.73281794065943,39.40749853515881,16.41865695528255,69.78631214385027,0.7877394219605854,114.5389417284577,948.9318967057288,15.288,0.0,4.56177373876223,0.1158367897768331,3.881654394138439e-07,-0.0139945685903402,0.0197872524820948,0.0014603696203678,7.076310144228013,18.802020216699265,40.262095089612686,11.814633739519886
1.13,31.222151643189093,131.01048190242864,25.108637965746382,4.516445540754291,5.3982874515164925,35.24981632381584,-2.1027691286267487,1.6877485339048854,367.5328077900705,39.66882905765948,16.53069539944454,69.77802961460955,0.8185597468297721,114.57178628702324,961.5263213386628,15.288,0.0,4.572676444093648,0.1166054303598543,4.027231335854729e-07,-0.0144064138592661,0.0202853298711483,0.0015132642802821,7.034157264438633,18.6735921183377,40.515536064521385,35.35278891381496
1.14,31.2221511065366,131.0104835250046,25.4682955693366,4.515659614980988,5.353916343545589,19.667498892228537,-2.1292451935885937,1.6567190861113184,239.69531773195544,39.8861144204449,16.627319118134576,69.76949840456992,0.8501238781494062,114.60542530501311,972.0550762589264,15.288,0.0,4.583530915786407,0.1172446105732008,4.176279488222872e-07,-0.0148273808704373,0.0207902835638733,0.0015659600674483,6.999728071510335,18.56615909154605,40.725882289366574,19.85167287410601
1.15,31.2221505670122,131.01048515845355,25.83023007145095,4.502074296305652,5.295136446914211,19.389843172221617,-2.1621139552353275,1.6203231245875596,237.41251153546767,40.21211690998764,16.76168720916341,69.76071313900204,0.882438884951134,114.6398664578561,987.9755228016176,15.288,0.0,4.594324077571657,0.1182033726081626,4.328861055485915e-07,-0.0152567739666103,0.021301158562224,0.0016244227328853,6.946177466389063,18.4106762269696,41.04269149506182,19.577185753494955
1.16,31.22215002475512,131.01048680241294,26.194341488785494,4.502141186611759,5.252916892825192,50.213799550883216,-2.1882868276605727,1.5890317375603653,490.0437743845894,40.41429099449739,16.852895942329816,69.75166810773399,0.915512541280634,114.67511817943884,997.9000637237984,15.288,0.0,4.605060507753603,0.1187981507592107,4.485018475039961e-07,-0.0156946217740725,0.0218178815000173,0.0016793841044201,6.914156913886332,18.31157404066725,41.23826182373722,50.286571631394466
1.17,31.22214947887996,131.01048845917262,26.5612822181948,4.495387236238605,5.203362800426562,9.178195131518327,-2.217932499064928,1.5546894853600572,153.70937929486794,40.67281593831592,16.963615647194928,69.74235781477816,0.9493516128235786,114.71118783712004,1010.6721454963032,15.288,0.0,4.615754293141958,0.1195585821268664,4.644753016921908e-07,-0.0161424121196843,0.0223420714444149,0.001738287406959,6.872254423110372,18.188238015611567,41.48903521217285,9.569511473347228
1.18,31.222148930548595,131.0104901257107,26.930197560676618,4.479590516800389,5.14408014367184,24.595159160794072,-2.2523993881467703,1.5161413162848645,280.02501822196746,41.009735355067946,17.101576785785472,69.73277649527728,0.9839633372684364,114.7480833055656,1027.4491958683989,15.288,0.0,4.626382537894234,0.1205494656069688,4.808160648187941e-07,-0.0165983311295841,0.0228714906729505,0.0018021250030085,6.817207917839949,18.03218688018572,41.816680470161366,24.74457196314906
1.19,31.222148379235083,131.01049180338669,27.301476081021768,4.483146700772012,5.107430084317151,42.7161179159966,-2.2768301272194864,1.4855127025120691,428.4078130529292,41.16784026465872,17.177184670277818,69.7229182053067,1.0193551347386178,114.78581266348952,1035.3497938079097,15.288,0.0,4.636963758075363,0.1210147272553839,4.975249802865329e-07,-0.0170635520891204,0.0234073886529365,0.0018597114205951,6.791992389539814,17.953779890576357,41.96905142411004,42.80254003246612
1.2,31.22214782448109,131.01049349336878,27.675451455426312,4.4707851552990565,5.053303493808289,4.711843342962867,-2.309716134904303,1.4476862388682687,117.1843741360236,41.46659378804178,17.301697790426605,69.71277729973242,1.055533168373622,114.82438265697428,1050.3935747465111,15.288,0.0,4.647499229909003,0.1218934412049018,5.146042381628976e-07,-0.0175388236450258,0.0239504865831886,0.0019253126014965,6.74328715803481,17.816204165399473,42.25933616395984,5.443533021730401
1.21,31.22214726745697,131.01049519263017,28.051268258500325,4.459061602335189,5.000495736247378,34.36403153288658,-2.3424168140128194,1.4097028259614235,359.92343213200894,41.75679207669241,17.423188618674534,69.70234762236544,1.0925047564398926,114.863801269013,1065.1086382773428,15.288,0.0,4.657957065868785,0.1227470164134912,5.320637605325469e-07,-0.018022295672057,0.0244985620427212,0.0019921589563958,6.696092801000495,17.683511816555168,42.5412713351405,34.47261002276034
1.22,31.222146707265548,131.01049690347267,28.42958172925253,4.460664139333004,4.963029573220604,24.977513331206204,-2.367838125366155,1.377487330287092,283.0687504825761,41.91930068238798,17.500081912389344,69.69162318907115,1.1302763344281843,114.90407555215704,1073.3761160042332,15.288,0.0,4.6683674136536295,0.1232252479742823,5.499021311439819e-07,-0.0185157791211775,0.0250535454907607,0.0020545985999669,6.669286082346953,17.60420652161527,42.69791700169891,25.127282004698053
1.23,31.22214614425807,131.0104986249748,28.81013297663496,4.447319550332724,4.909541232833714,9.91164102563785,-2.401574867258358,1.3380597261861826,159.79687382222795,42.21708086918042,17.62407971929082,69.68059818799848,1.1688534683396212,114.94521163817537,1088.6402658221652,15.288,0.0,4.678722708074585,0.1241011304426985,5.681255763455718e-07,-0.0190186179909441,0.0256145677139648,0.0021253098082035,6.620709609735203,17.470087477556188,42.987326422673085,10.285844325819625
