Time,Latitude,Longitude,Altitude,Angle of Attack,Angle of Sideslip,X-Acceleration,Y-Acceleration,Z-Acceleration,Thrust,True Velocity,Ground Velocity,Pitch,Roll,Yaw,Dynamic Pressure,cp,cg,parachute_deploy_gain,Wind Speed,Wind Direction,Mach,omega_x,omega_y,omega_z,Cmq,Angle of Attack(total),Angle of Attack(gust),True Velocity(gust),Acceleration
0.0,31.222216000000007,131.010392,3.000000004412624,0.0,0.0,0.0,0.0,0.0,2.2828121974499247,0.0,0.0,69.99999999623412,0.0,119.9999999935444,0.0,1.274,1.0271675151847728,0.0,0.0,0.0,0.0,0.0,0.0,0.0,-0.0,0.0,90.0,0.0,0.0
0.01,31.22221599999084,131.01039200000497,3.000002745347096,0.0,0.0,0.0,0.0,0.0,34.242186961749226,3.465174813755316e-14,2.8705476994166025e-14,69.9999999962611,-2.1713911667908447e-11,119.99999999352175,7.352495975525499e-28,1.274,1.0271659134330349,0.0,0.0,0.0,1.0183245502395064e-16,-3.3305335486039093e-18,7.169286865560398e-18,5.624298769768554e-18,-7.715917190115602e-34,0.0,89.99999999999979,3.465174813755316e-14,0.0
0.02,31.222215999994315,131.0103920000094,3.0000030495639742,0.0,0.0,0.0,0.0,0.0,25.871876237766216,3.8197434737535036e-11,2.4171837235633357e-11,69.99999999628672,-1.1921727947863515e-11,119.99999999353136,8.93414285188691e-22,1.274,1.027164492361118,0.0,0.0,0.0,1.1225230367947217e-13,-6.657678965418802e-18,1.4338573731120796e-17,1.1241821275959074e-17,-1.7010872994127372e-30,0.0,89.99999999975682,3.8197434737535036e-11,0.0
0.03,31.222215999994315,131.0103920000094,3.0000030495639742,0.0,0.0,9.81877837424427,-2.5122800045972096e-05,3.3498614629347925,180.34219359854663,1.2659015405517447e-10,1.1364406173918436e-10,69.99999999631459,-1.6431898037347223e-11,119.99999999352724,9.812605835254651e-21,1.274,1.0271551940870716,0.0,0.0,0.0,3.720154642239108e-13,-9.991600645811728e-18,2.150108433310316e-17,1.6859343782149594e-17,-8.453698244545225e-30,0.0,89.99999999919412,1.2659015405517447e-10,10.374487003414373
0.04,31.222215999994315,131.0103920000094,3.0000030495639742,18.83801224594347,-0.0001111777826462,48.68248476615645,-1.016330065874988e-05,3.3497854396877287,548.635972453808,0.1556173050466994,0.0975908358443652,69.99999999633813,-2.0932768807056278e-11,119.99999999352085,0.0148286043323172,1.274,1.027133720825283,0.0,0.0,0.0,0.0004573186944143,-1.3322134194415637e-17,-1.04744143520903e-11,1.336824254131964e-11,5.0626055458604615e-15,18.83801224625964,89.06236267790787,0.1555998412814392,48.79759610369246
0.05,31.22221599164764,131.01039201704114,3.002326315126219,5.772385609593056,-4.395076213712875e-06,71.20344550265034,4.905512691849684e-05,3.349217396035405,761.6984298824663,0.8326471944351852,0.3620326097059287,70.00000001316391,-1.0866255162484559e-10,120.00000000231074,0.4245281043148827,1.274,1.027093426565204,0.0,0.0,0.0,0.0024469331205246,-5.0245994431125096e-18,-7.32924164976824e-07,2.217344936947165e-11,1.895424184525467e-09,5.772385609594774,84.74112356985832,0.8326465040582279,71.28217104309611
0.06,31.22221596664444,131.01039206837547,3.015081730143309,4.056581213689704,3.169093567502233e-05,53.16249142470188,0.0001203825427859,3.3481235983850643,590.4875390737236,1.657216205300742,0.6755452977614796,69.99999964391398,-3.9285905645317736e-10,120.0000000287861,1.6816755551786196,1.274,1.027050317124926,0.0,0.0,0.0,0.0048701272653724,3.095757869075056e-13,-7.483541766772344e-06,3.074135420506017e-11,3.8518749565858254e-08,4.056581213813337,79.59316473687034,1.657221183301277,53.26781792157489
0.07,31.22221592883117,131.0103921460222,3.034593611434361,4.115662018628709,6.450869598349036e-05,81.18203554989698,0.0001593212642178,3.347059402768047,855.2937749779172,2.099899704220947,0.8579771146174259,69.99999543281565,-8.233801910783518e-10,120.00000006883089,2.700101932075157,1.274,1.027003201295312,0.0,0.0,0.0,0.006171060252819,3.4704292086287e-12,-2.6327204536316785e-05,1.9541142932033486e-10,1.7170712165327165e-07,4.115662019133419,76.90111966094352,2.099909837223217,81.2510043180746
0.08,31.22221588914193,131.01039222747755,3.0542761843835606,3.459696193892355,8.037433511260004e-05,16.298214211652088,0.0002413456836072,3.344878926597744,241.2171988638792,3.051964775152957,1.2149999716613011,69.99998042886442,-1.0128995578004475e-09,120.00000011111383,5.703497661025892,1.274,1.0269597189470347,0.0,0.0,0.0,0.0089689344021769,1.458982438104473e-11,-5.702803872814215e-05,7.043261397829576e-10,5.405702492731987e-07,3.459696194824858,71.30331929508368,3.051977400323993,16.63790856991177
0.09,31.2222158241468,131.01039236098703,3.0886872184095737,4.313676956300389,0.0001337561018991,50.35975918308536,0.0002293282821279,3.344215841840564,563.0937377043203,2.893161298572128,1.191209213966114,69.99994788602814,-7.098432023887522e-10,120.00000018106356,5.125380275808925,1.274,1.026918932011013,0.0,0.0,0.0,0.0085022553945842,3.8672912027154325e-11,-0.0001115933708951,2.016054215232918e-09,1.0027525988343615e-06,4.313676958370176,72.2316578138625,2.893182308931483,50.47067588835877
0.1,31.2222157788302,131.01039245392113,3.109877853389092,4.035124630954496,0.0001457499816535,47.804664812504015,0.0002878217657545,3.341734392237128,538.7437595981891,3.5677148583138303,1.4531247507621967,69.99988403958329,1.9248461973355822e-09,120.0000002323013,7.7939962029572305,1.274,1.0268846934974103,0.0,0.0,0.0,0.0104845969583028,8.579678749070606e-11,-0.0001726817043215,3.984565639703107e-09,1.913455350430327e-06,4.0351246335824245,68.43243098813296,3.567737752667411,47.92132267234452
0.11,31.222215703308,131.01039260899836,3.148841432727305,4.043401107254707,0.0001752764476999,37.67622367577205,0.0003286462930162,3.3392563999062723,442.86563930529127,4.034183355956686,1.6436552022667772,69.99978525353545,7.302513231814865e-09,120.00000031883242,9.96528118825134,1.274,1.026848594915519,0.0,0.0,0.0,0.0118554331868328,1.5870341853361987e-10,-0.0002596204409236,7.232030302688121e-09,3.252930323390323e-06,4.04340111104746,65.92012987243639,4.034210888316708,37.82391391539392
0.12,31.222215627491828,131.01039276462643,3.186995101203875,4.17874459224363,0.0002066711490009,41.15991989399172,0.0003576945202315,3.336766085769504,475.58594813540793,4.361857560629481,1.7865750500940407,69.99963665601238,1.781774420198147e-08,120.00000041104812,11.649831899889556,1.274,1.0268114448194128,0.0,0.0,0.0,0.0128183893919737,2.682972478760441e-10,-0.0003710216542429,1.2215991071490164e-08,5.026311388647148e-06,4.178744597345269,64.21681651392016,4.361890024457652,41.29495143136631
0.13,31.22221554594398,131.01039293200228,3.2277173449026786,4.202734874672792,0.0002327160860324,45.44886120763352,0.0003953741266062,3.333578629398489,515.9156326236897,4.792165672014363,1.9646716520715424,69.99942424225341,3.613383418913551e-08,120.00000051758742,14.061726603124043,1.274,1.026779572895131,0.0,0.0,0.0,0.0140829618979635,4.248908088871395e-10,-0.0005056103199642,1.908859219307828e-08,7.5253154423526356e-06,4.202734881104192,62.048594618540655,4.792202226971676,45.570952718869485
0.14,31.222215454191247,131.01039312033683,3.2737880595608355,4.184830647080848,0.000257138757548,42.32232525579263,0.0004369426767266,3.329727443445437,486.2390860568421,5.269261304374574,2.158791628597544,69.99913473613935,6.515851355725497e-08,120.00000064630268,17.000925061330125,1.274,1.0267449573927567,0.0,0.0,0.0,0.0154850332441425,6.382432869666793e-10,-0.0006690086306358,2.8426433029675884e-08,1.0948547100483978e-05,4.184830654966803,59.74181173116622,5.269301695636157,42.45310707234106
0.15,31.222215353826755,131.0103933263496,3.3242182719560263,4.21963947489699,0.0002846467688673,40.886944113003565,0.0004726792395108,3.325585650885676,472.5421858721398,5.6781946837482895,2.329510773545807,69.99875162806286,1.0876776246115984e-07,120.00000079954532,19.742017654108928,1.274,1.0267115958081523,0.0,0.0,0.0,0.0166867950518804,9.204756288136623e-10,-0.000865746478554,4.08948221429571e-08,1.526771148078443e-05,4.219639484480408,57.84996018384879,5.678239395958187,41.02196629910223
0.16,31.222215247130432,131.01039354534575,3.3775922280208457,4.253495568077899,0.0003118339050386,32.26872905470846,0.0005078415214353,3.32090791922544,391.1218908297597,6.081244877834229,2.4981889727471702,69.99825581174558,1.7187028096464329e-07,120.0000009800088,22.644030778355887,1.274,1.026675762255412,0.0,0.0,0.0,0.0178712695992133,1.2856146928958252e-09,-0.0010961187242953,5.6923362293832417e-08,2.0702404729358337e-05,4.253495579487569,56.06022383757386,6.081293860589489,32.43916312841722
0.17,31.22221513260033,131.01039378041813,3.4348437275053194,4.364838523348639,0.0003448792023946,40.840448242802736,0.0005326487904353,3.3162727284953744,471.78125980632416,6.362544479165355,2.6250789114832647,69.99762801982864,2.5997588617291615e-07,120.00000119506798,24.78723182122683,1.274,1.0266409836796937,0.0,0.0,0.0,0.0186979513961862,1.747791994374917e-09,-0.0013624931601664,7.706724512977917e-08,2.6923621797558364e-05,4.364838536947241,54.85936171416122,6.362598652663785,40.97486885600156
0.18,31.222215014088988,131.01039402363364,3.4935801365785646,4.353948305387995,0.0003681615230806,33.992183768165326,0.0005718025428208,3.310131992647221,407.1015672119096,6.81502088160835,2.810667639293692,69.99684761766231,3.794979223522764e-07,120.00000144728236,28.437950785509614,1.274,1.0266048342046536,0.0,0.0,0.0,0.020027681385988,2.3221419748804155e-09,-0.0016616990447559,1.0147209890543081e-07,3.517105786247627e-05,4.353948320923495,52.99157233768714,6.815078712285162,34.152972512863755
0.19,31.22221488419521,131.01039429023237,3.558399965607869,4.432620772533925,0.0003996774584738,38.45149959021069,0.0005986099513107,3.304145139297767,448.95313283182486,7.1223367465208405,2.946425726785696,69.99589577323147,5.440084577183829e-07,120.00000176148238,31.060341085698347,1.274,1.026566130444714,0.0,0.0,0.0,0.0209308229359413,3.022391489754689e-09,-0.0020041563310821,1.3135864879722746e-07,4.433199397898183e-05,4.432620790516937,51.77883352025967,7.122399527709208,38.59320142454953
0.2,31.222214751373183,131.01039456280608,3.624052454705669,4.443889400961181,0.0004246617145652,35.23432408779927,0.0006337972852267,3.2968110145188256,418.5156301991588,7.530482904611057,3.1167566004785483,69.99474776398331,7.478025600151903e-07,120.00000211715036,34.72195181863731,1.274,1.026529240027363,0.0,0.0,0.0,0.0221302820454282,3.866698391504749e-09,-0.0023849544920781,1.668144671071589e-07,5.57780533277244e-05,4.443889421210987,50.22448880200342,7.530549610317194,35.38822625098952
0.21,31.222214608673173,131.01039485566503,3.6948551453492566,4.493351735844891,0.0004538195602194,33.79371564104691,0.0006629296043866,3.2891790438445727,404.8187610144608,7.868284042829251,3.2629204975089228,69.99338155599101,1.0150082652278477e-06,120.00000255293388,37.906665490338085,1.274,1.0264923657015164,0.0,0.0,0.0,0.0231230169900677,4.871073773182836e-09,-0.0028117605859743,2.089322918608601e-07,6.870935089180403e-05,4.493351758715364,48.992529909481824,7.868355328639073,33.95340801819282
0.22,31.22221446109996,131.01039515850383,3.767700382407304,4.5412639153933885,0.000482649303782,41.008966751568416,0.0006914639179131,3.2808061382386606,472.5421858721387,8.20057841132235,3.4071691679735228,69.9917708347139,1.3454961520984431e-06,120.00000305929996,41.175744234065135,1.274,1.0264494137127138,0.0,0.0,0.0,0.0240995709751246,6.054779813287368e-09,-0.0032829112061357,2.580881224843564e-07,8.3609968899004e-05,4.54126394098788,47.82515604752711,8.2006542256977,41.13999323561041
0.23,31.22221430675399,131.0103954752338,3.843768625625224,4.52371495179584,0.0005047555656171,33.98493478127787,0.0007294889663961,3.2705214710765107,406.340642146096,8.647938096586296,3.5908865300848416,69.98989017772566,1.7539876018835507e-06,120.00000365514876,45.79040229326471,1.274,1.0264133390858623,0.0,0.0,0.0,0.0254142776666487,7.436335125872812e-09,-0.0038001790077148,3.1489825108822685e-07,0.0001020628978177,4.523714979897577,46.31461705147579,8.648017383405135,34.14194053232237
0.24,31.222214142622448,131.0103958120587,3.92493179063287,4.57837522350066,0.0005351929930195,35.051650311058864,0.0007555049947555,3.26053011385611,416.2328240017099,8.954297884844461,3.72617527247482,69.98771316795013,2.25257161141768e-06,120.0000043564586,49.09180568115741,1.274,1.0263750048312463,0.0,0.0,0.0,0.0263146218848643,9.034877387788232e-09,-0.0043732521010013,3.809642748985157e-07,0.00012161410144,4.578375254714954,45.32798984252032,8.954381952763216,35.20297212911011
0.25,31.22221397517227,131.0103961556623,4.0071748888306855,4.6034117733065,0.0005618935542827,36.03738579534623,0.000785606492708,3.249069743648399,425.3640807915084,9.311611941121669,3.8789349536029696,69.98520781816889,2.8559738498748624e-06,120.00000517181904,53.08749562138344,1.274,1.0263373768840591,0.0,0.0,0.0,0.0273647110956883,1.0873791100894836e-08,-0.0049950711786164,4.5609738277273444e-07,0.0001444478241125,4.603411807525074,44.2165428352526,9.311700203154778,36.183554686886296
0.26,31.22221379934012,131.01039651647062,4.09364247475714,4.621386912291471,0.0005881033207375,39.29107511182762,0.0008162761165496,3.236407051295005,455.80158342417656,9.67833954512075,4.034902068846398,69.98234620927953,3.5784678110229355e-06,120.00000612171208,57.350948423913096,1.274,1.0263006300381676,0.0,0.0,0.0,0.0284424679130479,1.2973286442992724e-08,-0.0056712051373577,5.414206381221602e-07,0.0001704578711045,4.621386949630312,43.12063533194282,9.678431924174348,39.42414126789902
0.27,31.222213616776543,131.01039689108487,4.183310605341074,4.617158109135719,0.0006115457810536,35.90419462403674,0.0008503454714941,3.221982799915672,423.8421996598744,10.088790784535757,4.205862468567124,69.97909721779352,4.436165972465058e-06,120.000007221354,62.31798301949865,1.274,1.026260090595354,0.0,0.0,0.0,0.0296487219805601,1.5355910600537293e-08,-0.0064045199323113,6.379142666348734e-07,0.0002006609239367,4.617158149547818,41.94410287616451,10.08888684592241,36.048472443180565
0.28,31.22221342607797,131.0103972823952,4.277051150896916,4.642105655370123,0.0006389739579882,41.51133203546672,0.0008785747638736,3.2071101123224945,476.3468732012228,10.432377224420517,4.35383399240675,69.97542808435722,5.446665372087172e-06,120.00000849080963,66.63429581008447,1.274,1.0262212716723291,0.0,0.0,0.0,0.0306584788590473,1.8045308789081613e-08,-0.0072006835403936,7.469524967369969e-07,0.0002332868227611,4.642105699250441,41.0023231023774,10.432477594215127,41.63503624837164
0.29,31.22221323001776,131.01039768469093,4.373143569786686,4.62134615173668,0.0006600657405645,33.17552944492765,0.0009148746278066,3.1894209319791806,397.9703104221098,10.876662296046485,4.536381530986506,69.9713027936179,6.629751536885327e-06,120.00000994797426,72.43000748232016,1.274,1.026183007522519,0.0,0.0,0.0,0.0319641703260467,2.1067646517035105e-08,-0.0080566154554079,8.688043379161898e-07,0.000272130659453,4.621346198772975,39.83162628795024,10.876765978930557,33.32848872465723
0.3,31.22221302403368,131.01039810736614,4.4744193758467325,4.664362353358112,0.0006905183788532,31.08096762732793,0.0009381960428197,3.172549142946348,378.1859457108735,11.168362145070317,4.66647911311536,69.96668711012893,8.005507138509574e-06,120.00001161892672,76.36634300732833,1.274,1.0261430389738484,0.0,0.0,0.0,0.0328214509167604,2.4447409007156216e-08,-0.0089829108229115,1.0056222251461646e-06,0.0003115527202986,4.664362404357781,39.09908960432563,11.168470611443622,31.242464973103964
0.31,31.22221281503337,131.01039853619727,4.576593712520673,4.700143580504286,0.0007196683316923,32.79732593144512,0.0009620705970519,3.154230688182399,394.1656220930229,11.470279728974068,4.800072153432283,69.96154070456518,9.597499105113692e-06,120.00001352112182,80.55022837857167,1.274,1.0261054058068628,0.0,0.0,0.0,0.0337087616009043,2.8214060606649844e-08,-0.0099686353219717,1.1565909895184251e-06,0.0003550834484269,4.700143635477137,38.36463422765983,11.47039277421126,32.94865339301887
0.32,31.222212598991007,131.01039897947376,4.68216432480395,4.718667719113184,0.0007464384342556,35.7316568886908,0.0009885845337584,3.133859770838664,421.5593934624264,11.808280530415894,4.946054328851105,69.95582953472353,1.14278227255889e-05,120.00001568218067,85.36654007972253,1.274,1.026068246703101,0.0,0.0,0.0,0.0347021168382987,3.2392058795580455e-08,-0.0110163301561155,1.3226102501723267e-06,0.0004039614423012,4.718667778018562,37.5686120062341,11.808397780690962,35.8688218659563
0.33,31.222212376029034,131.0103994369436,4.791055524254013,4.72141404831576,0.0007708346814671,35.42013590291081,0.0010176135371143,3.1111955852784385,418.5156301991632,12.181577273013426,5.104163223586657,69.94951809396906,1.351997394754887e-05,120.00001812674968,90.84831229869296,1.274,1.0260310883392356,0.0,0.0,0.0,0.0357992034445943,3.700677535501642e-08,-0.0121310534481307,1.5051409581878843e-06,0.0004588955105349,4.721414111097893,36.7208578211118,12.181698355442045,35.55651229220977
0.34,31.222212145785647,131.0103999093516,4.903491659547144,4.73024573449122,0.0007962944975467,27.63851074646407,0.0010446307681611,3.0871492806781062,345.4656368807584,12.53557620048282,5.2556261014174765,69.94256797855994,1.5899658158227497e-05,120.000020882338,96.20413272674828,1.274,1.0259901535019136,0.0,0.0,0.0,0.0368395817555172,4.208561016221623e-08,-0.0133180771902383,1.7057647550599631e-06,0.0005184333231541,4.730245801363397,35.94841996438923,12.535701282129995,27.810389570354005
0.35,31.222211909310875,131.01040039453565,5.018822212845608,4.780248518778662,0.0008286678570753,30.332092807652543,0.0010618579815451,3.063967690608957,370.5765700527057,12.774786382148209,5.367579971644358,69.93493776125636,1.8594985713558667e-05,120.00002397748868,99.9096898192772,1.274,1.025950003202184,0.0,0.0,0.0,0.0375426220587071,4.7658312175989686e-08,-0.0145774693288123,1.9252724355785177e-06,0.0005782798420984,4.780248590437683,35.44790728185619,12.774916548990808,30.486451961956565
0.36,31.22221166933814,131.0104008868675,5.135354490370708,4.798132156899578,0.0008554457330409,34.32674769697476,0.0010851169437774,3.0374319611165923,407.8625232777224,13.09301701329486,5.506730645516068,69.92658597246795,2.163521613217148e-05,120.0000274401514,104.94818266210537,1.274,1.0259105142325406,0.0,0.0,0.0,0.0384778908056978,5.3755109608570216e-08,-0.0158991451700967,2.162609490834569e-06,0.0006464142451675,4.798132232978766,34.796094028187134,13.09315138639638,34.46087058603792
0.37,31.222211421355144,131.01040139563804,5.255882891363927,4.797392186816851,0.0008791822061288,32.551601855236584,0.00111162791192,3.0078619428913056,391.1218908297639,13.457513730739372,5.661815946371007,69.91747693543164,2.5047738471809164e-05,120.0000313040604,110.87154396328836,1.274,1.025872170958032,0.0,0.0,0.0,0.0395491312153729,6.040098808671168e-08,-0.0172926678053148,2.420031948898497e-06,0.0007226353721561,4.797392267189059,34.07332166419882,13.457651832357364,32.69027405888565
0.38,31.22221116634284,131.01040191882743,5.379799334000849,4.811698494594017,0.0009057112478668,34.02947987649063,0.0011338447913587,2.9774881690446744,404.81876101445977,13.77554886562956,5.800899861213392,69.90756948297444,2.886339581486796e-05,120.00003560072224,116.17243393848278,1.274,1.02583050512925,0.0,0.0,0.0,0.0404838339452728,6.762496638941508e-08,-0.0187646375218858,2.69955777313946e-06,0.0008026686661094,4.8116985796350695,33.46655348088405,13.775691134419684,34.15949264475229
0.39,31.222210906095896,131.01040245274032,5.505993307722699,4.813508003664984,0.000929862892873,29.00025983045028,0.0011579891265804,2.9442136901860865,357.6406249338268,14.124492165837273,5.950648592462506,69.8968186645841,3.311602501056718e-05,120.00004036395212,122.13093644173792,1.274,1.02579027384009,0.0,0.0,0.0,0.0415093739609825,7.545934774906889e-08,-0.020311592409804,3.0013532510753577e-06,0.0008908380763632,4.813508093268025,32.821616487639595,14.124638228358922,29.149330452482886
0.4,31.222210638473225,131.0104030017851,5.635788650457906,4.841647069358873,0.0009592124397379,27.71178845184976,0.0011749448424961,2.91135549588368,345.4656368807565,14.390874239274588,6.07193451174791,69.8851815212744,3.783947407715338e-05,120.00004563180136,126.77947425345651,1.274,1.0257493418632293,0.0,0.0,0.0,0.0422922854866381,8.39343718693383e-08,-0.021938519432511,3.3271332720311508e-06,0.0009803271643914,4.841647164150728,32.348088166612904,14.391024912012275,27.864299944624147
0.41,31.22221036681104,131.01040355909262,5.767123077463226,4.86553909860892,0.0009876699832274,31.306062598221665,0.0011918093836199,2.876450850006428,378.9468707766882,14.663028799871563,6.195223154320929,69.87261222561014,4.307011032901644e-05,120.0000514391194,131.6183642808765,1.274,1.025708445186429,0.0,0.0,0.0,0.0430921644173401,9.308325447883581e-08,-0.0236371933433427,3.6760977501392174e-06,0.0010761942383903,4.865539198612839,31.87689439156756,14.663183942709727,31.437931330109585
0.42,31.22221008906472,131.01040412887247,5.901259531771367,4.867510642114694,0.0010118258958528,35.308283402190774,0.0012128114559048,2.8374461227958245,416.23282400171047,14.9952917972178,6.33928625560071,69.85906967380902,4.884273094936628e-05,120.00005782486392,137.64909586091787,1.274,1.0256701057426505,0.0,0.0,0.0,0.0440686959134695,1.0293499639582845e-07,-0.0254093547296826,4.049238334851429e-06,0.0011830797791891,4.867510747027452,31.315270489291198,14.995450734457847,35.422111438762386
0.43,31.222209804115888,131.01040471342728,6.038886819939341,4.854590670645608,0.0010330089741511,31.00586934514032,0.0012363751872706,2.794478603999558,375.90313951343126,15.369430568701889,6.497852263156962,69.8445117629242,5.519340856908871e-05,120.00006482835984,144.60167924299955,1.274,1.0256308158337524,0.0,0.0,0.0,0.0451682983415116,1.135186446762958e-07,-0.0272634397889413,4.449073329427772e-06,0.0013010625065656,4.854590780289497,30.70250814963406,15.369592833372094,31.13154422839874
0.44,31.22220951192321,131.01040531284193,6.180028459770617,4.866912332640401,0.0010595850174406,28.57707721036899,0.0012525768202179,2.752165534925872,353.07501253892326,15.659290812546615,6.627318538707029,69.82889155423543,6.216182865383864e-05,120.00007249162944,150.1053167542629,1.274,1.025586171750536,0.0,0.0,0.0,0.0460202245100907,1.2486676023179565e-07,-0.0292060158163984,4.8779154055816594e-06,0.001420032405556,4.866912447705031,30.24619499837236,15.659457251771938,28.709297424144207
0.45,31.222209215425703,131.01040592106523,6.322872201489905,4.881836476567178,0.0010866574689855,33.31904824532484,0.0012669045761511,2.7082028218433374,397.2093853562887,15.934249290371609,6.751662050993672,69.81215834018458,6.97909417564726e-05,120.00008085697964,155.42080512416243,1.274,1.0255397023523487,0.0,0.0,0.0,0.0468283602442113,1.3701614206272197e-07,-0.0312276295846745,5.334643585560923e-06,0.0015449645531859,4.8818365972149325,29.82567893138932,15.934419982127675,33.428929688274074
0.46,31.22220891307435,131.0104065412864,6.468371919199588,4.869610441729251,0.0011078049156487,38.95909776354321,0.0012868374716666,2.6582856015412624,449.7140588976424,16.292139278621757,6.904766425053949,69.79426683863348,7.812149592850748e-05,120.00008996920153,162.4785746623087,1.274,1.02549635315424,0.0,0.0,0.0,0.0478802236363867,1.499987870203256e-07,-0.0333272350234362,5.819761874615242e-06,0.0016858511402973,4.869610567434908,29.29014635640275,16.292313292210977,39.04968351401366
0.47,31.22220860266524,131.01040717804253,6.6178810515614845,4.838450928223533,0.0011247917292402,26.253747818137555,0.0013104398935566,2.6026193242279367,331.0078106302504,16.710658191447514,7.078951441335346,69.77517236812905,8.719457259907165e-05,120.0000998741591,170.9309671061642,1.274,1.025453319323251,0.0,0.0,0.0,0.0491102725711187,1.6384464803343264e-07,-0.0355167087264168,6.3368207228363735e-06,0.0018427306558807,4.838451058652396,28.68386015667837,16.710834873319172,26.382435512333956
0.48,31.222208284201663,131.0104078313267,6.771393590864176,4.869339340099417,0.0011561785713505,25.860860976019296,0.0013165328518772,2.5543454292827983,327.20312230115803,16.911139899671,7.177575416403102,69.75482343794755,9.70562828082882e-05,120.00011062072316,175.0543877818846,1.274,1.0254092882449153,0.0,0.0,0.0,0.0496995461609974,1.7858865391586845e-07,-0.0378054080201581,6.88909442277235e-06,0.0019849793891693,4.869339477030596,28.40887970825325,16.911321511776286,25.986704537635287
0.49,31.22220796480208,131.01040848648364,6.924537656029012,4.881367714530694,0.0011829003785372,32.565703383222065,0.0013261973190012,2.5011623511055703,389.6000096981238,17.169005224738054,7.296160258358563,69.73316318155707,0.0001077573203115,120.000122255028,180.4309832312717,1.274,1.025367445590036,0.0,0.0,0.0,0.05045746454003,1.942747077649401e-07,-0.0401641298712614,7.47069711110948e-06,0.002140948887153,4.881367857509675,28.058569663954906,17.169191034294997,32.66161128464712
0.5,31.222207637929923,131.01040915697027,7.081324512896956,4.862566137860805,0.001202418260511,33.47759680712428,0.0013425340759632,2.4399894027711366,397.970310422106,17.52898693231981,7.450304424940405,69.71015149227495,0.0001193385310595,120.0001348274002,188.0736471953394,1.274,1.0253278572281015,0.0,0.0,0.0,0.0515154948878309,2.109295159784217e-07,-0.0426011733481599,8.084173008518589e-06,0.0023184335011768,4.862566286171007,27.57768313050809,17.529175807738486,33.56639745442473
0.51,31.22220730314019,131.01040984370235,7.24202048914867,4.8479762258125,0.001223054804074,25.49162310288008,0.0013562860883156,2.3767006597692686,323.39843497208153,17.86914397471067,7.597652147346554,69.68574349602717,0.0001318441288964,120.00014838524436,195.4407439266201,1.274,1.025286455263166,0.0,0.0,0.0,0.0525152689856776,2.2858192086249162e-07,-0.0451315948093539,8.734206149830708e-06,0.002503767471626,4.847976379721193,27.13799345359824,17.86933609171003,25.602178740977283
0.52,31.222206962738102,131.01041054193402,7.405210501673173,4.865306299521403,0.0012516517170965,30.733671928447727,0.0013599291289974,2.317711624364424,372.098451184342,18.08534843773428,7.701914987606457,69.65988568649581,0.0001453248538387,120.00016298000436,200.19561780583155,1.274,1.0252426840672306,0.0,0.0,0.0,0.0531507657929359,2.4726951523704535e-07,-0.0477531686556663,9.421346966092632e-06,0.0026812161964639,4.865306460134566,26.8699055233151,18.085545046726228,30.820940596104087
0.53,31.222206619320115,131.01041124632013,7.569307468221277,4.848802699234936,0.0012715119568563,32.301199055744725,0.0013711327835325,2.2490252325653923,386.55624643486095,18.41963113311156,7.8474319110539055,69.6325258319474,0.0001598315062727,120.0001786629144,207.6614205945027,1.274,1.0251993415311351,0.0,0.0,0.0,0.0541332845214831,2.67031759303889e-07,-0.0504479325599339,1.0141887756417996e-05,0.0028848299490111,4.848802865552398,26.45837260670532,18.419830861742675,32.37940050117613
0.54,31.22220626697288,131.01041196903336,7.737918664599091,4.831496690588052,0.0012913635058467,28.31291960103712,0.0013809098107221,2.177242866245296,349.2703242098436,18.75116898748492,7.992112829440902,69.60362200959217,0.0001754082864028,120.00019548734956,215.20067397992847,1.274,1.0251561018460285,0.0,0.0,0.0,0.0551077428911958,2.878941684235108e-07,-0.0532336286085667,1.090122304443916e-05,0.003098869611663,4.831496862756785,26.061835558272342,18.751371834390056,28.396510432451375
0.55,31.222205908994248,131.01041270328463,7.909026079894722,8.147849966218669,6.326266384276886,30.11508519815417,-0.3440850018762378,1.915160648435697,365.2500005919912,19.702746418726875,8.113323699629928,69.57312211246325,0.0001921068626005,120.00021350480982,237.59283081976648,1.274,1.025112921033824,0.0,2.506403565945852,0.0,0.0579044421403214,3.0989272306468813e-07,-0.0561100530405476,1.1700476995263424e-05,0.0034320151542407,10.302365719164625,31.75367225909729,20.69445611203908,30.177882485189663
0.56,31.222205546564343,131.01041344664463,8.081909946161325,-0.1458714164441153,-5.466597990739199,28.032462758655285,0.1910241016454206,2.246444603940569,346.22656194657776,18.72130604454735,8.24832211386639,69.54097415464405,0.0002099796112633,120.00023276987916,214.50868110533625,1.274,1.0250709539098009,0.0,2.5155477854450985,165.0000707061107,0.0550201923028119,3.330422384609979e-07,-0.0613846721018575,0.0041922756448518,0.0035675545585242,5.468537963350747,20.107298294030453,17.86391703838562,28.12297942753183
0.57,31.22220517792294,131.01041420485907,8.258267219218348,-0.0862018995071376,-5.394229015722456,27.716129535000736,0.2582763915287576,2.2348580157778617,343.1828296833045,18.986735379204013,8.376609267725113,69.50580393392642,0.0066369969333632,120.00709344978245,220.63064148258024,1.274,1.0250279191823897,0.0,2.5246205648112747,165.0000707061107,0.0558003756574571,3.606781070098138e-07,-0.0612726216369345,0.0009234464334578,0.0036114694560038,5.394915705915512,19.86931403537869,18.14066304462544,27.80728561809023
0.58,31.22220480269616,131.0104149727254,8.436456255954614,-0.0352342610805167,-5.329360675936472,36.645290686165815,0.3284410341217827,2.222587557665303,426.12500585731766,19.258168063793857,8.504970323428203,69.47069799965674,0.0080394447467508,120.00859100305132,226.98008094609983,1.274,1.024981594484354,0.0,2.5337048099779813,165.0000707061107,0.056598206648326,3.8644660688773213e-07,-0.0611942730737603,-0.0023939555235562,0.0036583521479483,5.329476811568759,19.623886427608326,18.42224063947568,36.71409945018364
0.59,31.22220442199285,131.01041575277688,8.617320986171611,0.0137412968060113,-5.227896911999923,29.61821295382572,0.403876684565985,2.201388402471017,360.68438819710633,19.664593421151924,8.681031891523375,69.4356371835651,0.0043700648930449,120.00467250310352,236.65746181883785,1.274,1.0249386802161349,0.0,2.542723867372943,165.0000707061107,0.0577927759942055,4.103378016038256e-07,-0.0611461655255744,-0.0057655724999199,0.0037325566848756,5.227914921020686,19.274254402092364,18.84453629425681,29.702655872043486
0.6,31.222204031217103,131.01041655261974,8.803042464802397,0.0609616798051405,-5.166948323169144,26.273799439139,0.4796888329362559,2.188705506440773,329.4859594986072,19.9216374635104,8.804663624999263,69.40060380011298,-0.0044267216529914,119.99527610103964,242.8804614676784,1.274,1.024891335813742,0.0,2.5517196413583942,165.0000707061107,0.0585483319640493,4.323317513671328e-07,-0.0611287682575542,-0.0092139023219647,0.0037802031979749,5.167306960199113,19.057758212815383,19.111114755264044,26.369168931509176
0.61,31.2222036377226,131.0104173573795,8.989259573586596,0.10650994605154,-5.109447282002404,30.87106907883944,0.5574984299323508,2.176255646768636,372.0984511843332,20.16372157815836,8.923151848775742,69.36557933802109,-0.0184403347133859,119.98030373290167,248.81475608402008,1.274,1.0248423929069768,0.0,2.560795567127001,165.0000707061107,0.0592599251335102,4.524092848253865e-07,-0.0611431468354344,-0.0127113660228774,0.0038269710850613,5.110554354299907,18.85945036523779,19.36219481661825,30.952702615602824
0.62,31.222203237976263,131.01041817433534,9.178104364138523,0.150067474803597,-5.02977977730682,38.498921221838685,0.6401616081909465,2.157784755766021,442.86563930529206,20.491201384707782,9.071980741527495,69.33054413708125,-0.037717622688282,119.95970276679196,256.9577474822092,1.274,1.0247996097896497,0.0,2.5697374159082287,165.0000707061107,0.0602224962390715,4.70561329170656e-07,-0.0611897260412684,-0.0162541118425866,0.0038920172569605,5.032012219308291,18.60119936539823,19.70213981008717,38.56465709924255
0.63,31.222202830068312,131.01041900741777,9.370714812091132,0.190847314467354,-4.928649351412722,21.63087485361237,0.7291242292309223,2.132860572836395,286.11251274707456,20.90981480274104,9.253299585668737,69.29547771368081,-0.062299166813787,119.93342722191498,267.55878417035336,1.274,1.024756158874558,0.0,2.5786448313052843,165.0000707061107,0.0614529112208884,4.867763581234816e-07,-0.0612694235117717,-0.0198554242981721,0.0039766262496423,4.932333853656297,18.28330582341427,20.13657880820525,21.747999064223162
0.64,31.222202413131285,131.01041985842042,9.56760139315719,0.233045887475361,-4.896090842429929,21.231933423901943,0.8111546666250345,2.125130038380972,282.3078244179702,21.038377285957985,9.331956946504562,69.26035844846089,-0.0922452138104191,119.9014100456586,270.85390962503885,1.274,1.024708534665538,0.0,2.58757518854018,165.0000707061107,0.061830887333017,5.010355736307864e-07,-0.0613833715784412,-0.0235296739449635,0.0040084416137399,4.901620514010426,18.190394988174337,20.270236784378326,21.35343406785478
0.65,31.22220199721233,131.0104207066222,9.762735938009667,0.2731672225752396,-4.843914131791416,37.88355558942971,0.8973969925860807,2.1117583889571407,436.7781447787504,21.245015356727684,9.438404446997495,69.22516339923324,-0.1276370773324935,119.86356158094226,276.1954956098794,1.274,1.0246641738210605,0.0,2.596547973258017,165.0000707061107,0.062438325198871,5.133336767048106e-07,-0.0615307144459786,-0.0272240281255744,0.004057452585063,4.851592169830905,18.043390654042085,20.48504116523113,37.95297918415687
0.66,31.22220157332264,131.01042157058515,9.961511210186096,0.3085144897235158,-4.7343481624920605,32.15281367241432,0.9968511708356188,2.0817529325529023,383.5125151715984,21.702605065937448,9.63428564322805,69.1898695585301,-0.1684755678611025,119.81987821932908,288.2159014764187,1.274,1.0246195561629028,0.0,2.605290398064756,165.0000707061107,0.0637833076944219,5.236744994812838e-07,-0.0617121073328423,-0.0309505332312571,0.0041569844600432,4.744366869431679,17.72258474940061,20.95978136698809,32.23555233871419
0.67,31.22220113743516,131.01042245866628,10.166325627975723,0.344636006096292,-4.6625072839978525,21.99200528603515,1.092561314408094,2.0613435775074045,289.15624401033847,21.99160196572352,9.770372899958048,69.1544528876872,-0.2147792869779948,119.77033728496193,295.9370871246253,1.274,1.024572383541697,0.0,2.6140480034898603,165.0000707061107,0.0646328102863746,5.320456927861917e-07,-0.0619304498352705,-0.0347509760425589,0.0042271602912627,4.675199017907653,17.53086462803127,21.260025084000787,22.115404677990185
0.68,31.222200699347933,131.01042335060157,10.3713119874446,0.3813820035586922,-4.616069950234574,27.58169057037305,1.1843726666971723,2.0478223154099826,340.89999248584934,22.157253552112167,9.862587777572712,69.11888689692007,-0.2666290540251545,119.71484945854796,300.40625293765424,1.274,1.0245245285832842,0.0,2.622919443240389,165.0000707061107,0.0651198070656554,5.384375870159767e-07,-0.0621848496529988,-0.0385935184163874,0.0042764124263484,4.631764154135537,17.429393663932665,21.43294713064969,27.682954494939953
0.69,31.222200257610822,131.01042424939027,10.577343302712094,0.4146812401827531,-4.54025135935644,34.07455020832893,1.2850241632275248,2.024819363149986,401.0140726853658,22.45716452395072,10.002877466452464,69.08314497588788,-0.324056897722892,119.65337756219132,308.5875230017179,1.274,1.024479631064582,0.0,2.631646297028667,165.0000707061107,0.0660013939339162,5.428554668344719e-07,-0.062474091186575,-0.0424545772773628,0.0043543701315073,4.5591098749377865,17.241409956237565,21.74472965910321,34.158837106280345
0.7,31.22219980671193,131.01042516651566,10.787713254309654,0.4452464612411409,-4.4501427616248845,28.500733036604792,1.392589432707626,1.9962942705269724,349.270324209851,22.826355841706977,10.168162774654837,69.04720059768253,-0.3870587862110533,119.58592296653502,318.8107186519133,1.274,1.0244351749185203,0.0,2.6402812213570748,165.0000707061107,0.0670866029384946,5.453020579280396e-07,-0.0628002997559513,-0.0463550311369657,0.0044489753671841,4.472316648756542,17.014756378545936,22.12803166112768,28.604480064606026
0.71,31.22219934818243,131.01042609884317,11.001504172185752,0.4766819990697684,-4.382436462118777,23.33660912453548,1.4961402754047248,1.9741117604087504,301.3312640634036,23.0798576499978,10.292191077501442,69.01102524310322,-0.4556612605381084,119.5124542503438,325.92455681773066,1.274,1.0243880468141104,0.0,2.648961409137113,165.0000707061107,0.067831807725452,5.457737357393336e-07,-0.0631650449814057,-0.0503041213606348,0.0045244179941519,4.408234541953247,16.87050764509952,22.392137172247807,23.467698617410804
0.72,31.222198886072576,131.01042703793607,11.216296514179776,0.5080415375929577,-4.322917560723895,28.685847491629385,1.5983666863668196,1.9540997111529108,350.7922053414578,23.28394175964784,10.398605922136005,68.97458870878977,-0.5299037151892027,119.43292614891062,331.70718808608643,1.274,1.024337302174265,0.0,2.6576236010957737,165.0000707061107,0.068431777686901,5.442739258214248e-07,-0.0635668843453845,-0.0542791756349101,0.004593368178714,4.352612145523967,16.762650854876387,22.605543523454543,28.796720786545038
0.73,31.222198419001973,131.01042798669187,11.43291792831895,0.5358946197304508,-4.242535103923922,36.41787100501708,1.7096796938653225,1.9260805532058027,422.3203185282354,23.593824865154595,10.543191234583944,68.93786099193845,-0.6097907413007397,119.34733060561406,340.5881572449813,1.274,1.024292465384646,0.0,2.666191263993665,165.0000707061107,0.0693426972295038,5.408140313123635e-07,-0.0640051831626304,-0.0582690629583225,0.0046864964202864,4.276185460998517,16.59298668945945,22.928017817800605,36.508822488422126
0.74,31.222197943526744,131.01042895239493,11.653430753480327,0.560254087651703,-4.145948928379688,22.6176623307756,1.830414165994356,1.890923335171813,294.4828134710563,23.992748243090027,10.72005539287922,68.90081181723583,-0.6953095043868625,119.25567817516097,352.1953661536114,1.274,1.0242470321640116,0.0,2.674699986736283,165.0000707061107,0.070515316003817,5.354023104729274e-07,-0.0644821580577988,-0.0622887637621331,0.0048011487096741,4.183566555887539,16.375546599932875,23.34207228250803,22.770258153731056
0.75,31.222197459517616,131.01042993539795,11.877916668623827,0.589339881936445,-4.091335772995666,26.490910925252063,1.935030845570368,1.8708357314680468,330.24688556441737,24.146701422950795,10.8087722951766,68.86340883065053,-0.7864684734044936,119.15795651284516,356.722009355192,1.274,1.0241984712898409,0.0,2.683229875909457,165.0000707061107,0.0709679681694355,5.280412888287969e-07,-0.0649999540584224,-0.066350007912651,0.0048706519515972,4.133492393627478,16.312474122645458,23.50458192187717,26.627292997169004
0.76,31.22219697548056,131.01043091772885,12.10128357478728,0.6140748228576952,-4.013791340647875,28.55420753116369,2.050953583219632,1.8411494999335547,349.2703242098581,24.427447450279463,10.943384854108208,68.82561758540943,-0.8832922969714923,119.05413583261038,365.0573874530991,1.274,1.0241522053390697,0.0,2.6917612484096898,165.0000707061107,0.0717932711117978,5.18747950160131e-07,-0.0655535952639362,-0.0704082299510024,0.0049691433171809,4.0604176816016855,16.177383121982214,23.79747814315948,28.686913563755724
0.77,31.2221964819546,131.01043191948042,12.329206820528595,0.637533794016071,-3.933238489467304,26.66940792448401,2.169907503747928,1.8093989790610427,331.76876669606884,24.719820165605025,11.082378367266385,68.7874061633764,-0.9857386036049328,118.94425814776686,373.8402637750436,1.274,1.0241065975906936,0.0,2.7001219948738124,165.0000707061107,0.0726527533484037,5.075396950540928e-07,-0.066145814382962,-0.074481525575186,0.0050739372125413,3.9844918970485135,16.040977080039895,24.102473653786117,26.81864542222032
0.78,31.222195982836343,131.01043293245633,12.559356007447931,0.660753111711326,-3.858000846936496,21.82213742508677,2.2873885887965644,1.7790142611193358,286.8734378128874,24.97372721965084,11.207615474900413,68.74874023476181,-1.0937907246863097,118.82833782946548,381.5509941944255,1.274,1.0240588105546735,0.0,2.7085257645314025,165.0000707061107,0.0733991891095536,4.944324200995909e-07,-0.0667772201853384,-0.0785679811626431,0.0051748708488581,3.914090592640111,15.931696170419482,24.3681717017658,22.01369392212028
0.79,31.22219547870112,131.01043395546236,12.791390731735635,0.6846930044867984,-3.791203847554684,31.212869286379487,2.4003013086913376,1.7517953023364807,373.6203323159581,25.16454126734575,11.310092313392715,68.70958445951159,-1.2074279665333114,118.70639349059064,387.39518696930025,1.274,1.0240083170932772,0.0,2.7168850004855147,165.0000707061107,0.0739601959446257,4.794463499549149e-07,-0.0674467844876583,-0.0826577544084994,0.0052665766078361,3.852446848870865,15.862492323408286,24.56945482946113,31.354002013178565
0.8,31.222194970564228,131.01043498634715,13.02470440435212,0.7028815675123204,-3.6984256517892695,31.630490091050167,2.5303800219010224,1.7117710978114886,377.42502064505805,25.520128292074645,11.47261972087738,68.66990353531564,-1.3266139737689633,118.57846047037052,398.4117708607223,1.274,1.0239625010683884,0.0,2.7251844786061663,165.0000707061107,0.0750054863834956,4.626079516241221e-07,-0.0681528078950361,-0.0867370249994841,0.005396783729963,3.76453296338914,15.704989659690671,24.939584300592383,31.77767906481783
0.81,31.22219445249788,131.01043603800753,13.26288137197634,0.7210837153037074,-3.611036598182293,20.437281495142663,2.658728504650463,1.6731187337501938,273.9374926939922,25.83518552082012,11.620622841721492,68.62966271971035,-1.4512910170144468,118.44459698844366,408.30029151857536,1.274,1.0239149950770308,0.0,2.7333941405041258,165.0000707061107,0.0759316662029595,4.439387884873563e-07,-0.0688997088354895,-0.0908282979832518,0.0055231577245259,3.682235517212938,15.575955450853147,25.26834065167512,20.67729765879399
0.82,31.22219392953228,131.0104370996413,13.502896510424918,0.7430389565010009,-3.546460409138141,26.37542535400255,2.7706411756042737,1.6453190193583085,328.725004432774,25.98064382497442,11.70693774125497,68.58882381265603,-1.5814329759156855,118.30482724024652,412.9013748866452,1.274,1.0238644186635044,0.0,2.741652221997233,165.0000707061107,0.0763593865086953,4.234613957887589e-07,-0.0696864041398447,-0.0949206063801511,0.0056175432992009,3.62336625841608,15.543250989457125,25.42392277880649,26.571537211911107
0.83,31.222193404789085,131.0104381644234,13.742861437055428,0.7597079061953361,-3.460544281923783,33.631243257137044,2.8985194896078483,1.6058317606295207,395.6875032246518,26.27089782422671,11.846257067794625,68.54734877430974,-1.7169962993746677,118.1591940490447,422.1689937689909,1.274,1.0238188483711983,0.0,2.7498527342555814,165.0000707061107,0.077212677463203,4.01209760793057e-07,-0.0705075144186332,-0.0989834516105961,0.0057471002964242,3.542854900688524,15.435961034273012,25.727647227961377,33.79409170100313
0.84,31.222192870798576,131.01043924881637,13.987316858107333,0.7729518288223464,-3.363470542333831,20.613734699370607,3.0368773264984927,1.5590176690557287,275.45937482564227,26.64022654085468,12.014734081377938,68.50520264934832,-1.8578919180811524,118.00778907531942,434.1123433455671,1.274,1.0237739661568126,0.0,2.7579331168190926,165.0000707061107,0.0782983857803774,3.772171571761522e-07,-0.0713671561603994,-0.1030351508881964,0.0058988121441107,3.451043632500146,15.292074200730935,26.11219722062965,20.894478175935966
0.85,31.22219232932405,131.0104403491135,14.235212896056684,0.7920059400992723,-3.295017732705249,22.51624362356339,3.1496900382757542,1.5279572320003976,292.9609323393965,26.77848672725589,12.098723101002523,68.46234734268688,-2.004056114400518,117.85067666715524,438.6195958636071,1.274,1.0237227741398531,0.0,2.7660466862811006,165.0000707061107,0.0787049669196819,3.51512760862657e-07,-0.0722677461025964,-0.1070827932313528,0.0060041075477253,3.388764315333994,15.273071653211396,26.261191801578686,22.786759917892997
0.86,31.222191787833538,131.01044144873768,14.481999510049288,0.8071744669046244,-3.213438858139596,28.29300006142729,3.2733209945121966,1.4887268163291172,346.2265619465616,27.01024925484465,12.21713902278914,68.41874273255694,-2.1554339350296647,117.68791165999596,446.23420746763645,1.274,1.023674789281455,0.0,2.7741564883522067,165.0000707061107,0.0793863639452295,3.241358073237733e-07,-0.07320124521317,-0.1110873198462231,0.0061341542096686,3.3131611226698525,15.20851068268001,26.50574804434628,28.520602909873702
0.87,31.222191238402928,131.01044256541695,14.732525790047486,0.8190613599476227,-3.121458606826037,26.31689012150891,3.40694605295756,1.442209854293714,327.9640783669946,27.31910994200811,12.364093343904257,68.37435373309464,-2.311912930618128,117.51961065302696,456.48689960268143,1.274,1.0236288969245204,0.0,2.78210641407393,165.0000707061107,0.0802943695279508,2.951296795905926e-07,-0.0741702038315116,-0.1150584461290972,0.006286272435235,3.2270267259911787,15.108529696606343,26.829034881740657,26.575664739365568
0.88,31.22219068219216,131.0104436967407,14.986106162377927,0.8316173708157523,-3.035446626718062,22.69080303325729,3.53384631205899,1.398736837786114,294.4828134710421,27.569599582236208,12.48976225040144,68.32914330265608,-2.473393531097464,117.3458763382748,464.88503646395753,1.274,1.0235805388426191,0.0,2.790061095769297,165.0000707061107,0.0810308225549417,2.645351355151102e-07,-0.0751770381646937,-0.1190023183469736,0.0064298712047816,3.1472013778707177,15.04202077265172,27.09301575411225,23.006891941170824
0.89,31.222190121883685,131.01044483671734,15.24110313211621,0.8444947360330735,-2.953221293407041,24.92335455806811,3.6548572222560174,1.3574330114670428,315.02813424808807,27.775707393733143,12.599217278214162,68.28307258656612,-2.63978367804139,117.1668032638552,471.8503395509828,1.274,1.0235293752791452,0.0,2.798000085425002,165.0000707061107,0.0816368364656332,2.323954993151356e-07,-0.0762190640812313,-0.1229057329641475,0.0065675699727262,3.0714907909833866,15.000902285914863,27.312021855613292,25.226458493472123
0.9,31.222189557114817,131.0104459862143,15.49774767565736,0.854754080027535,-2.8642425898222883,27.5674438662076,3.782407597235777,1.3107373174472987,339.3781423542166,28.03343177065436,12.727917660756528,68.23610436892504,-2.810971255060569,116.98250750661344,480.6354980383962,1.274,1.0234837388140003,0.0,2.805872535846707,165.0000707061107,0.0823945644115922,1.987591880714213e-07,-0.0772939740412202,-0.1267578571367152,0.0067218244712359,2.988959925347612,14.937444774002842,27.58370496606421,27.85657195104026
0.91,31.222188985906104,131.01044714989993,15.757283113624815,0.8630716325578361,-2.7714298777780253,20.88162469560612,3.913804267289456,1.2603131313636289,277.7421810230785,28.319694361688025,12.867398346760506,68.18820292633836,-2.9868277135632817,116.79312279330676,490.4893817249155,1.274,1.023436404813438,0.0,2.813686686905116,165.0000707061107,0.083236177901628,1.6367695003276773e-07,-0.0784030084835907,-0.1305607540104808,0.0068877238933439,2.902608338379738,14.86362676423952,27.884528914505918,21.282586848404687
0.92,31.222188408784817,131.0104483267084,16.019403801324458,0.8739219468478511,-2.6888578003406294,24.93189604557776,4.028665937950184,1.21782803309035,315.0281342480675,28.492670063455183,12.96503220194904,68.13933171141574,-3.16722641769118,116.59878075536736,496.48696603668014,1.274,1.0233859136578225,0.0,2.821480628148741,165.0000707061107,0.0837448292355367,1.2719999002140748e-07,-0.0795465557007171,-0.1343129907866965,0.0070306914015035,2.827213304546881,14.8476197315669,28.07046028474884,25.284633570318487
0.93,31.2221878292484,131.0104495085298,16.281935845002632,0.880752387045674,-2.596151869619101,29.724558335558616,4.156044159279053,1.1663273554891922,359.16250706547066,28.759783149226287,13.097821144304916,68.0894539762815,-3.35203767555036,116.39961627872832,505.82677921631546,1.274,1.0233407575091376,0.0,2.8292449087434206,165.0000707061107,0.0845301706574518,8.938282853588251e-08,-0.0807193377969468,-0.1379949208772635,0.0072010488078264,2.7413862059746794,14.789223173826096,28.352120097637712,30.036351156524773
0.94,31.222187242230888,131.01045070738783,16.54806992178761,0.8849451386367984,-2.498017235277568,21.462567874869965,4.290579813246198,1.1089973367255637,283.06875048378083,29.07857105169849,13.250098158760943,68.03853673450793,-3.541103425439692,116.19579481424232,517.0893885905384,1.274,1.0232914783978162,0.0,2.8369162197096465,165.0000707061107,0.085467402228131,5.028480576498172e-08,-0.0819241346170568,-0.1416134610317622,0.0073893524299129,2.6500418364705034,14.709936722308166,28.68630772116651,21.91530903295914
0.95,31.222186648876896,131.01045192079417,16.81711814625706,0.8927095428387573,-2.412035138096716,27.911944373917784,4.401810241354252,1.0629299145184683,342.421873617488,29.24970558088557,13.34749691726566,67.98654535341655,-3.734274575630805,115.98747213696964,523.1801758168464,1.274,1.0232418269359267,0.0,2.8445885729329325,165.0000707061107,0.085970659852056,9.964151449494111e-09,-0.0831622050343614,-0.1451692737574085,0.0075449736958511,2.5718423335595464,14.702776550709707,28.87093588884742,28.27688794999814
0.96,31.222186053793106,131.01045313776385,17.086175879711217,0.8950423322313307,-2.313577668429709,27.333209156621777,4.532823078350776,1.0036889562637656,337.09533515678265,29.558825484195605,13.496670014598612,67.93344465305643,-3.931402161414388,115.77480387576294,534.283061852344,1.274,1.0231951201821403,0.0,2.852241292795465,165.0000707061107,0.0868794880315413,-3.1519809723954615e-08,-0.0844263449305053,-0.1486394062230268,0.0077404137176381,2.4805860093029706,14.634199086227287,29.19550830456862,27.724685739971658
0.97,31.22218544995393,131.01045437539076,17.359724830126055,0.8976759763344428,-2.217780956489668,17.327144309839543,4.656281137209411,0.9465862825690552,245.0218871929888,29.827164536172187,13.630826444197892,67.8792047873517,-4.132304990674307,115.55798045634964,544.0133902255991,1.274,1.0231476260761452,0.0,2.8597926966074376,165.0000707061107,0.0876684624708335,-7.409968500654619e-08,-0.0857211046498374,-0.1520344916709897,0.0079302582778562,2.392482400033769,14.587662337050451,29.478883303645773,17.966828032601775
0.98,31.222184842123333,131.01045562229285,17.634757955906913,0.9038217776695188,-2.1322731817706826,25.43544506705884,4.754009892501289,0.9015218485233344,319.593746642963,29.948513898206368,13.70998864368268,67.82379328785025,-4.33681616206203,115.3371769064482,548.4344552937356,1.274,1.0230935628253934,0.0,2.8673694041580395,165.0000707061107,0.0880254075560681,-1.1771142513868469e-07,-0.0870436728197211,-0.1553439422781756,0.0080851599490551,2.3158379826504163,14.610214789232064,29.61365451757577,25.89160515419492
0.99,31.22218423275464,131.01045687240813,17.909700203171028,0.9036301732824332,-2.033325841082137,27.8331378563738,4.877308839675252,0.8399062929542453,341.66094855170127,30.241464865024646,13.853860770765875,67.7671802032681,-4.544753956900909,115.1125842936656,559.201539336181,1.274,1.0230490803133316,0.0,2.874887351127954,165.0000707061107,0.0888867319827817,-1.622885886419051e-07,-0.0883864271209539,-0.158547146819594,0.0082899720472593,2.22499857101592,14.557240723832084,29.92213782615763,28.26972138225679
1.0,31.22218361458963,131.01045814395016,18.18925861354121,0.9026272229787043,-1.9342764976694056,24.853159877905032,4.998009194443944,0.7773274187134405,314.2672081822764,30.52995778824624,13.996340513214856,67.70934149048973,-4.755908795189419,114.88442386773724,569.9062990075097,1.274,1.022999484445133,0.0,2.8823053007491435,165.0000707061107,0.089734963155923,-2.0775371489478733e-07,-0.0897554310673825,-0.1616566737482421,0.0084984543082917,2.1344441724638576,14.509216445013635,30.226180056917524,25.362647530183796
1.01,31.22218299196841,131.01045942631765,18.47066209651027,0.9022379713596592,-1.8385055976933533,26.011508484208136,5.106813721484625,0.7188163669224426,324.92031610370094,30.761887782608987,14.11771717527264,67.65024976081722,-4.970088372237317,114.65289829956969,578.5824804131848,1.274,1.0229507481225095,0.0,2.8897512200398934,165.0000707061107,0.0904169488493955,-2.540350636401912e-07,-0.0911492344247721,-0.1646660538557871,0.0086957545803416,2.0478908123484114,14.488691296445012,30.473145554601764,26.517820743404446
1.02,31.2221823653473,131.01046071841205,18.753623484817822,0.8998341763689279,-1.7401898119028083,21.621281382229487,5.218426305869652,0.6561385708679768,284.59063161543185,31.02617185087616,14.251574734679112,67.58987950522598,-5.187091924106307,114.41821950799468,588.5507217397112,1.274,1.0229039803623294,0.0,2.8971503203251534,165.0000707061107,0.091194037565262,-3.010598098547068e-07,-0.0925636863302755,-0.1675642597788785,0.008906320067249,1.9590082016999848,14.456201179545348,30.75286549802426,22.251793175910937
1.03,31.22218173285092,131.01046202519225,19.03939603933257,0.8985938124973363,-1.6454633795167593,17.562017184909035,5.314492264352892,0.5993233270541167,247.3046933904342,31.21895967412633,14.358546032925585,67.52820898686437,-5.406704573253785,114.1806148048399,595.871265074707,1.274,1.022853416101322,0.0,2.904495972499616,165.0000707061107,0.0917609873117461,-3.4874923567160964e-07,-0.0939986123731984,-0.1703485426153782,0.009100335674545,1.8747796045469671,14.456932327858084,30.96052641883161,18.358307767364025
1.04,31.22218109737525,131.0104633393049,19.32609237642317,0.8975223093708197,-1.552146828188831,28.247276998633662,5.3999679876483775,0.5455781221200761,345.4656368807608,31.372926728711303,14.450936933517326,67.46521764770915,-5.628708634564445,113.94031468899452,601.7466776443749,1.274,1.0228049544826707,0.0,2.911821340742887,165.0000707061107,0.0922138365436523,-3.970269752607802e-07,-0.0954492650771278,-0.1730073901831457,0.0092860968360949,1.7929051852353868,14.476006298507349,31.129145894950632,28.7639699553539
1.05,31.222180458457554,131.01046466202192,19.61403011599397,0.8901397384033145,-1.4492145211191771,16.808902534606233,5.514206673222865,0.4730309314496247,240.4562587980608,31.70748499091532,14.612384896848612,67.40088931562663,-5.85287244575675,113.6975649751115,614.632062142531,1.274,1.022755494436122,0.0,2.919078609067575,165.0000707061107,0.0931974999716706,-4.458126662547147e-07,-0.0969122524163116,-0.1755330214394001,0.0095287088387323,1.7007064708522304,14.419009356441318,31.4798671783724,17.696593963670395
1.06,31.22217981107237,131.01046600694903,19.906609245176785,0.8884135332533675,-1.3567304837792693,24.185322640626463,5.583946369261192,0.4221881697379907,308.1796836557233,31.81726033730244,14.688269191767576,67.33521136877211,-6.078955786345404,113.45262097259544,618.8779067528593,1.274,1.0227013895379469,0.0,2.9262774058536847,165.0000707061107,0.0935204703217813,-4.950134949455458e-07,-0.0983939712016068,-0.177933870894942,0.0097076171499001,1.6216808205623223,14.459990410213145,31.604165526798383,24.825159236884083
1.07,31.22217916471004,131.01046734879657,20.19747200562073,0.8807604305463029,-1.2564011289400718,28.57579204796843,5.680098362958142,0.3536504494420125,348.5093681440431,32.094887985507626,14.828598405803868,67.26816821031855,-6.306730861980041,113.2057247455168,629.7077120639397,1.274,1.0226540159946436,0.0,2.933502820110807,165.0000707061107,0.0943368108621571,-5.445579004300574e-07,-0.0998826753509056,-0.180188680909318,0.0099402033203224,1.5343266889258944,14.430668612050328,31.897548773719976,29.136994992998268
1.08,31.222178509875256,131.01046871335816,20.49305293193932,0.871420007875163,-1.1549365620135124,19.03593332479071,5.777637126321369,0.281097163687524,261.0015785751465,32.40161081499764,14.980437089436789,67.19975355954793,-6.5359446809394255,112.95714595659342,641.782922622062,1.274,1.0226061614050743,0.0,2.9405984760621915,165.0000707061107,0.0952386818576307,-5.943487635473845e-07,-0.1013838604491734,-0.1823040628166678,0.0101857340581882,1.4467717297177949,14.391145594207654,32.22020608945791,19.89539805896725
1.09,31.222177850214848,131.01047009106097,20.790930755963466,0.8656691305590535,-1.059674353035738,17.458886218102567,5.839834299961511,0.2251639318091282,246.54375332456465,32.54343275320086,15.0691433459662,67.12995893396793,-6.7663548642368765,112.70714304364787,647.3948666289482,1.274,1.0225512795791307,0.0,2.9477229179621687,165.0000707061107,0.095655863351176,-6.442968457561831e-07,-0.1028969838303772,-0.1842757454714759,0.0103827043656746,1.3682862751317073,14.42210122511188,32.37698898434488,18.411058400424633
1.1,31.22217718956521,131.01047147126016,21.088477088117195,0.8582919537800774,-0.9632131573370528,35.627140492642496,5.901411564576958,0.1664017051423653,413.1890617384087,32.709391429880874,15.167326569187797,67.05877783012942,-6.9977158596681726,112.45597819742444,653.9959292218512,1.274,1.0224981043155532,0.0,2.954816926782951,165.0000707061107,0.0961439933502265,-6.943245978697322e-07,-0.1044125928467515,-0.1860895790178759,0.010589060146416,1.2901066869905795,14.443841667484064,32.558097387568125,36.11298225935492
1.11,31.222176524224704,131.01047286440473,21.38825710345766,0.8423790821610295,-0.8583108027471311,25.9112264805732,6.011384284022872,0.0765868654049017,324.1593910379213,33.15580108632574,15.374259268400808,66.98621158834509,-7.229767507481232,112.20392982680676,671.9495434068439,1.274,1.0224548851875197,0.0,2.961819430168237,165.0000707061107,0.0974564723844668,-7.443399468292873e-07,-0.1059298132845598,-0.1877428880496536,0.0108892331825307,1.2026000456412025,14.350943790539352,33.020982983278735,26.599516241573035
1.12,31.22217584852405,131.01047428714253,21.694289393211047,0.8318414755407442,-0.7606947094921346,9.391381374127036,6.071249780511065,0.0116905835157282,172.7328179403806,33.365798407625306,15.490057328165664,66.9122638154832,-7.462249594249395,111.95127679661547,680.4682863542334,1.274,1.0223979224661404,0.0,2.968792419692164,165.0000707061107,0.098074066495784,-7.942290289529204e-07,-0.1074587549106263,-0.1892426397292978,0.0111160406331345,1.1271983070527274,14.357108710105688,33.246312272429485,11.182944812588445
1.13,31.22217517326208,131.01047570861283,21.999045478823568,0.8254653950671517,-0.66784042232691,30.64660371791588,6.086936027848981,-0.0310064864539724,367.5328077894322,33.376697653526975,15.5286616844496,66.83693339821156,-7.694912917910433,111.69828638558371,680.8929901223344,1.274,1.0223460397860296,0.0,2.975827943847096,165.0000707061107,0.0981064406804608,-8.439182562180236e-07,-0.1089866778485572,-0.1905731255069542,0.0112774488613059,1.0617782672532612,14.445052759207025,33.27179590070901,31.245256776866206
1.14,31.222174497715983,131.010477130613,22.30299358249144,0.8078991433568025,-0.5662844629402031,16.68772093668644,6.17420155893528,-0.1189296565763781,239.6953177322812,33.78906355651006,15.723838922393682,66.76022927618905,-7.927493235487335,111.4452426712424,697.8012872273326,1.274,1.0223022138470996,0.0,2.982753517083,165.0000707061107,0.0993188770115734,-8.933325532427522e-07,-0.1105026463769282,-0.1917243802604631,0.0115752463545059,0.986589005380905,14.370136601014812,33.70011324926809,17.793676944754704
1.15,31.22217380987093,131.01047858911792,22.61474426325969,0.797528118971842,-0.4713069066271053,16.438506177755723,6.194348582707764,-0.1713458147153356,237.4125115347709,33.88594280474994,15.79625188056504,66.68216911374275,-8.15971936502387,111.19243778638166,701.7874494297273,1.274,1.0222426194541194,0.0,2.989583062272787,165.0000707061107,0.0996039922796045,-9.423410787038296e-07,-0.1120217702934369,-0.1927041327567877,0.0117676680413169,0.9263730104336544,14.423939253862992,33.81191092387542,17.567691911814347
1.16,31.22217312550652,131.01048003726288,22.92304780288202,0.7844827409069131,-0.3755059402642506,44.02175363029465,6.220938040283109,-0.2310404232274194,490.043774385954,34.0489316569308,15.894718240167808,66.60276303981144,-8.39133199699183,110.94015140767824,708.533793606236,1.274,1.02219674531104,0.0,2.996508498087135,165.0000707061107,0.1000834282361921,-9.90878946255499e-07,-0.1135285660657995,-0.1935001144580595,0.0119829620800173,0.8697178109264829,14.45111926642182,33.98994774401824,44.4597373188885
