Time,Latitude,Longitude,Altitude,Angle of Attack,Angle of Sideslip,X-Acceleration,Y-Acceleration,Z-Acceleration,Thrust,True Velocity,Ground Velocity,Pitch,Roll,Yaw,Dynamic Pressure,cp,cg,parachute_deploy_gain,Wind Speed,Wind Direction,Mach,omega_x,omega_y,omega_z,Cmq,Angle of Attack(total),Angle of Attack(gust),True Velocity(gust),Acceleration
0.0,31.222216000000007,131.010392,3.000000004412624,0.0,0.0,0.0,0.0,0.0,2.2828121974499247,0.0,0.0,69.99999999623412,0.0,119.9999999935444,0.0,1.274,1.0271675151847728,0.0,0.0,0.0,0.0,0.0,0.0,0.0,-0.0,0.0,90.0,0.0,0.0
0.01,31.22221599999084,131.01039200000497,3.000002745347096,0.0,0.0,0.0,0.0,0.0,34.242186961749226,3.465174813755316e-14,2.8705476994166025e-14,69.9999999962611,-2.1713911667908447e-11,119.99999999352175,7.352495975525499e-28,1.274,1.0271659134330349,0.0,0.0,0.0,1.0183245502395064e-16,-3.3305335486039093e-18,7.169286865560398e-18,5.624298769768554e-18,-7.715917190115602e-34,0.0,89.99999999999979,3.465174813755316e-14,0.0
0.02,31.222215999994315,131.0103920000094,3.0000030495639742,0.0,0.0,0.0,0.0,0.0,25.871876237766216,3.8197434737535036e-11,2.4171837235633357e-11,69.99999999628672,-1.1921727947863515e-11,119.99999999353136,8.93414285188691e-22,1.274,1.027164492361118,0.0,0.0,0.0,1.1225230367947217e-13,-6.657678965418802e-18,1.4338573731120796e-17,1.1241821275959074e-17,-1.7010872994127372e-30,0.0,89.99999999975682,3.8197434737535036e-11,0.0
0.03,31.222215999994315,131.0103920000094,3.0000030495639742,0.0,0.0,9.81877837424427,-2.5122800045972096e-05,3.3498614629347925,180.34219359854663,1.2659015405517447e-10,1.1364406173918436e-10,69.99999999631459,-1.6431898037347223e-11,119.99999999352724,9.812605835254651e-21,1.274,1.0271551940870716,0.0,0.0,0.0,3.720154642239108e-13,-9.991600645811728e-18,2.150108433310316e-17,1.6859343782149594e-17,-8.453698244545225e-30,0.0,89.99999999919412,1.2659015405517447e-10,10.374487003414373
0.04,31.222215999994315,131.0103920000094,3.0000030495639742,18.83801224594347,-0.0001111777826462,48.68248476615645,-1.016330065874988e-05,3.3497854396877287,548.635972453808,0.1556173050466994,0.0975908358443652,69.99999999633813,-2.0932768807056278e-11,119.99999999352085,0.0148286043323172,1.274,1.027133720825283,0.0,0.0,0.0,0.0004573186944143,-1.3322134194415637e-17,-1.04744143520903e-11,1.336824254131964e-11,5.0626055458604615e-15,18.83801224625964,89.06236267790787,0.1555998412814392,48.79759610369246
0.05,31.22221599164764,131.01039201704114,3.002326315126219,5.772385609593056,-4.395076213712875e-06,71.20344550265034,4.905512691849684e-05,3.349217396035405,761.6984298824663,0.8326471944351852,0.3620326097059287,70.00000001316391,-1.0866255162484559e-10,120.00000000231074,0.4245281043148827,1.274,1.027093426565204,0.0,0.0,0.0,0.0024469331205246,-5.0245994431125096e-18,-7.32924164976824e-07,2.217344936947165e-11,1.895424184525467e-09,5.772385609594774,84.74112356985832,0.8326465040582279,71.28217104309611
0.06,31.22221596664444,131.01039206837547,3.015081730143309,4.056581213689704,3.169093567502233e-05,53.16249142470188,0.0001203825427859,3.3481235983850643,590.4875390737236,1.657216205300742,0.6755452977614796,69.99999964391398,-3.9285905645317736e-10,120.0000000287861,1.6816755551786196,1.274,1.027050317124926,0.0,0.0,0.0,0.0048701272653724,3.095757869075056e-13,-7.483541766772344e-06,3.074135420506017e-11,3.8518749565858254e-08,4.056581213813337,79.59316473687034,1.657221183301277,53.26781792157489
0.07,31.22221592883117,131.0103921460222,3.034593611434361,4.115662018628709,6.450869598349036e-05,81.18203554989698,0.0001593212642178,3.347059402768047,855.2937749779172,2.099899704220947,0.8579771146174259,69.99999543281565,-8.233801910783518e-10,120.00000006883089,2.700101932075157,1.274,1.027003201295312,0.0,0.0,0.0,0.006171060252819,3.4704292086287e-12,-2.6327204536316785e-05,1.9541142932033486e-10,1.7170712165327165e-07,4.115662019133419,76.90111966094352,2.099909837223217,81.2510043180746
0.08,31.22221588914193,131.01039222747755,3.0542761843835606,3.459696193892355,8.037433511260004e-05,16.298214211652088,0.0002413456836072,3.344878926597744,241.2171988638792,3.051964775152957,1.2149999716613011,69.99998042886442,-1.0128995578004475e-09,120.00000011111383,5.703497661025892,1.274,1.0269597189470347,0.0,0.0,0.0,0.0089689344021769,1.458982438104473e-11,-5.702803872814215e-05,7.043261397829576e-10,5.405702492731987e-07,3.459696194824858,71.30331929508368,3.051977400323993,16.63790856991177
0.09,31.2222158241468,131.01039236098703,3.0886872184095737,4.313676956300389,0.0001337561018991,50.35975918308536,0.0002293282821279,3.344215841840564,563.0937377043203,2.893161298572128,1.191209213966114,69.99994788602814,-7.098432023887522e-10,120.00000018106356,5.125380275808925,1.274,1.026918932011013,0.0,0.0,0.0,0.0085022553945842,3.8672912027154325e-11,-0.0001115933708951,2.016054215232918e-09,1.0027525988343615e-06,4.313676958370176,72.2316578138625,2.893182308931483,50.47067588835877
0.1,31.2222157788302,131.01039245392113,3.109877853389092,4.035124630954496,0.0001457499816535,47.804664812504015,0.0002878217657545,3.341734392237128,538.7437595981891,3.5677148583138303,1.4531247507621967,69.99988403958329,1.9248461973355822e-09,120.0000002323013,7.7939962029572305,1.274,1.0268846934974103,0.0,0.0,0.0,0.0104845969583028,8.579678749070606e-11,-0.0001726817043215,3.984565639703107e-09,1.913455350430327e-06,4.0351246335824245,68.43243098813296,3.567737752667411,47.92132267234452
0.11,31.222215703308,131.01039260899836,3.148841432727305,4.043401107254707,0.0001752764476999,37.67622367577205,0.0003286462930162,3.3392563999062723,442.86563930529127,4.034183355956686,1.6436552022667772,69.99978525353545,7.302513231814865e-09,120.00000031883242,9.96528118825134,1.274,1.026848594915519,0.0,0.0,0.0,0.0118554331868328,1.5870341853361987e-10,-0.0002596204409236,7.232030302688121e-09,3.252930323390323e-06,4.04340111104746,65.92012987243639,4.034210888316708,37.82391391539392
0.12,31.222215627491828,131.01039276462643,3.186995101203875,4.17874459224363,0.0002066711490009,41.15991989399172,0.0003576945202315,3.336766085769504,475.58594813540793,4.361857560629481,1.7865750500940407,69.99963665601238,1.781774420198147e-08,120.00000041104812,11.649831899889556,1.274,1.0268114448194128,0.0,0.0,0.0,0.0128183893919737,2.682972478760441e-10,-0.0003710216542429,1.2215991071490164e-08,5.026311388647148e-06,4.178744597345269,64.21681651392016,4.361890024457652,41.29495143136631
0.13,31.22221554594398,131.01039293200228,3.2277173449026786,4.202734874672792,0.0002327160860324,45.44886120763352,0.0003953741266062,3.333578629398489,515.9156326236897,4.792165672014363,1.9646716520715424,69.99942424225341,3.613383418913551e-08,120.00000051758742,14.061726603124043,1.274,1.026779572895131,0.0,0.0,0.0,0.0140829618979635,4.248908088871395e-10,-0.0005056103199642,1.908859219307828e-08,7.5253154423526356e-06,4.202734881104192,62.048594618540655,4.792202226971676,45.570952718869485
0.14,31.222215454191247,131.01039312033683,3.2737880595608355,4.184830647080848,0.000257138757548,42.32232525579263,0.0004369426767266,3.329727443445437,486.2390860568421,5.269261304374574,2.158791628597544,69.99913473613935,6.515851355725497e-08,120.00000064630268,17.000925061330125,1.274,1.0267449573927567,0.0,0.0,0.0,0.0154850332441425,6.382432869666793e-10,-0.0006690086306358,2.8426433029675884e-08,1.0948547100483978e-05,4.184830654966803,59.74181173116622,5.269301695636157,42.45310707234106
0.15,31.222215353826755,131.0103933263496,3.3242182719560263,4.21963947489699,0.0002846467688673,40.886944113003565,0.0004726792395108,3.325585650885676,472.5421858721398,5.6781946837482895,2.329510773545807,69.99875162806286,1.0876776246115984e-07,120.00000079954532,19.742017654108928,1.274,1.0267115958081523,0.0,0.0,0.0,0.0166867950518804,9.204756288136623e-10,-0.000865746478554,4.08948221429571e-08,1.526771148078443e-05,4.219639484480408,57.84996018384879,5.678239395958187,41.02196629910223
0.16,31.222215247130432,131.01039354534575,3.3775922280208457,4.253495568077899,0.0003118339050386,32.26872905470846,0.0005078415214353,3.32090791922544,391.1218908297597,6.081244877834229,2.4981889727471702,69.99825581174558,1.7187028096464329e-07,120.0000009800088,22.644030778355887,1.274,1.026675762255412,0.0,0.0,0.0,0.0178712695992133,1.2856146928958252e-09,-0.0010961187242953,5.6923362293832417e-08,2.0702404729358337e-05,4.253495579487569,56.06022383757386,6.081293860589489,32.43916312841722
0.17,31.22221513260033,131.01039378041813,3.4348437275053194,4.364838523348639,0.0003448792023946,40.840448242802736,0.0005326487904353,3.3162727284953744,471.78125980632416,6.362544479165355,2.6250789114832647,69.99762801982864,2.5997588617291615e-07,120.00000119506798,24.78723182122683,1.274,1.0266409836796937,0.0,0.0,0.0,0.0186979513961862,1.747791994374917e-09,-0.0013624931601664,7.706724512977917e-08,2.6923621797558364e-05,4.364838536947241,54.85936171416122,6.362598652663785,40.97486885600156
0.18,31.222215014088988,131.01039402363364,3.4935801365785646,4.353948305387995,0.0003681615230806,33.992183768165326,0.0005718025428208,3.310131992647221,407.1015672119096,6.81502088160835,2.810667639293692,69.99684761766231,3.794979223522764e-07,120.00000144728236,28.437950785509614,1.274,1.0266048342046536,0.0,0.0,0.0,0.020027681385988,2.3221419748804155e-09,-0.0016616990447559,1.0147209890543081e-07,3.517105786247627e-05,4.353948320923495,52.99157233768714,6.815078712285162,34.152972512863755
0.19,31.22221488419521,131.01039429023237,3.558399965607869,4.432620772533925,0.0003996774584738,38.45149959021069,0.0005986099513107,3.304145139297767,448.95313283182486,7.1223367465208405,2.946425726785696,69.99589577323147,5.440084577183829e-07,120.00000176148238,31.060341085698347,1.274,1.026566130444714,0.0,0.0,0.0,0.0209308229359413,3.022391489754689e-09,-0.0020041563310821,1.3135864879722746e-07,4.433199397898183e-05,4.432620790516937,51.77883352025967,7.122399527709208,38.59320142454953
0.2,31.222214751373183,131.01039456280608,3.624052454705669,4.443889400961181,0.0004246617145652,35.23432408779927,0.0006337972852267,3.2968110145188256,418.5156301991588,7.530482904611057,3.1167566004785483,69.99474776398331,7.478025600151903e-07,120.00000211715036,34.72195181863731,1.274,1.026529240027363,0.0,0.0,0.0,0.0221302820454282,3.866698391504749e-09,-0.0023849544920781,1.668144671071589e-07,5.57780533277244e-05,4.443889421210987,50.22448880200342,7.530549610317194,35.38822625098952
0.21,31.222214608673173,131.01039485566503,3.6948551453492566,4.493351735844891,0.0004538195602194,33.79371564104691,0.0006629296043866,3.2891790438445727,404.8187610144608,7.868284042829251,3.2629204975089228,69.99338155599101,1.0150082652278477e-06,120.00000255293388,37.906665490338085,1.274,1.0264923657015164,0.0,0.0,0.0,0.0231230169900677,4.871073773182836e-09,-0.0028117605859743,2.089322918608601e-07,6.870935089180403e-05,4.493351758715364,48.992529909481824,7.868355328639073,33.95340801819282
0.22,31.22221446109996,131.01039515850383,3.767700382407304,4.5412639153933885,0.000482649303782,41.008966751568416,0.0006914639179131,3.2808061382386606,472.5421858721387,8.20057841132235,3.4071691679735228,69.9917708347139,1.3454961520984431e-06,120.00000305929996,41.175744234065135,1.274,1.0264494137127138,0.0,0.0,0.0,0.0240995709751246,6.054779813287368e-09,-0.0032829112061357,2.580881224843564e-07,8.3609968899004e-05,4.54126394098788,47.82515604752711,8.2006542256977,41.13999323561041
0.23,31.22221430675399,131.0103954752338,3.843768625625224,4.52371495179584,0.0005047555656171,33.98493478127787,0.0007294889663961,3.2705214710765107,406.340642146096,8.647938096586296,3.5908865300848416,69.98989017772566,1.7539876018835507e-06,120.00000365514876,45.79040229326471,1.274,1.0264133390858623,0.0,0.0,0.0,0.0254142776666487,7.436335125872812e-09,-0.0038001790077148,3.1489825108822685e-07,0.0001020628978177,4.523714979897577,46.31461705147579,8.648017383405135,34.14194053232237
0.24,31.222214142622448,131.0103958120587,3.92493179063287,4.57837522350066,0.0005351929930195,35.051650311058864,0.0007555049947555,3.26053011385611,416.2328240017099,8.954297884844461,3.72617527247482,69.98771316795013,2.25257161141768e-06,120.0000043564586,49.09180568115741,1.274,1.0263750048312463,0.0,0.0,0.0,0.0263146218848643,9.034877387788232e-09,-0.0043732521010013,3.809642748985157e-07,0.00012161410144,4.578375254714954,45.32798984252032,8.954381952763216,35.20297212911011
0.25,31.22221397517227,131.0103961556623,4.0071748888306855,4.6034117733065,0.0005618935542827,36.03738579534623,0.000785606492708,3.249069743648399,425.3640807915084,9.311611941121669,3.8789349536029696,69.98520781816889,2.8559738498748624e-06,120.00000517181904,53.08749562138344,1.274,1.0263373768840591,0.0,0.0,0.0,0.0273647110956883,1.0873791100894836e-08,-0.0049950711786164,4.5609738277273444e-07,0.0001444478241125,4.603411807525074,44.2165428352526,9.311700203154778,36.183554686886296
0.26,31.22221379934012,131.01039651647062,4.09364247475714,4.621386912291471,0.0005881033207375,39.29107511182762,0.0008162761165496,3.236407051295005,455.80158342417656,9.67833954512075,4.034902068846398,69.98234620927953,3.5784678110229355e-06,120.00000612171208,57.350948423913096,1.274,1.0263006300381676,0.0,0.0,0.0,0.0284424679130479,1.2973286442992724e-08,-0.0056712051373577,5.414206381221602e-07,0.0001704578711045,4.621386949630312,43.12063533194282,9.678431924174348,39.42414126789902
0.27,31.222213616776543,131.01039689108487,4.183310605341074,4.617158109135719,0.0006115457810536,35.90419462403674,0.0008503454714941,3.221982799915672,423.8421996598744,10.088790784535757,4.205862468567124,69.97909721779352,4.436165972465058e-06,120.000007221354,62.31798301949865,1.274,1.026260090595354,0.0,0.0,0.0,0.0296487219805601,1.5355910600537293e-08,-0.0064045199323113,6.379142666348734e-07,0.0002006609239367,4.617158149547818,41.94410287616451,10.08888684592241,36.048472443180565
0.28,31.22221342607797,131.0103972823952,4.277051150896916,4.642105655370123,0.0006389739579882,41.51133203546672,0.0008785747638736,3.2071101123224945,476.3468732012228,10.432377224420517,4.35383399240675,69.97542808435722,5.446665372087172e-06,120.00000849080963,66.63429581008447,1.274,1.0262212716723291,0.0,0.0,0.0,0.0306584788590473,1.8045308789081613e-08,-0.0072006835403936,7.469524967369969e-07,0.0002332868227611,4.642105699250441,41.0023231023774,10.432477594215127,41.63503624837164
0.29,31.22221323001776,131.01039768469093,4.373143569786686,4.62134615173668,0.0006600657405645,33.17552944492765,0.0009148746278066,3.1894209319791806,397.9703104221098,10.876662296046485,4.536381530986506,69.9713027936179,6.629751536885327e-06,120.00000994797426,72.43000748232016,1.274,1.026183007522519,0.0,0.0,0.0,0.0319641703260467,2.1067646517035105e-08,-0.0080566154554079,8.688043379161898e-07,0.000272130659453,4.621346198772975,39.83162628795024,10.876765978930557,33.32848872465723
0.3,31.22221302403368,131.01039810736614,4.4744193758467325,4.664362353358112,0.0006905183788532,31.08096762732793,0.0009381960428197,3.172549142946348,378.1859457108735,11.168362145070317,4.66647911311536,69.96668711012893,8.005507138509574e-06,120.00001161892672,76.36634300732833,1.274,1.0261430389738484,0.0,0.0,0.0,0.0328214509167604,2.4447409007156216e-08,-0.0089829108229115,1.0056222251461646e-06,0.0003115527202986,4.664362404357781,39.09908960432563,11.168470611443622,31.242464973103964
0.31,31.22221281503337,131.01039853619727,4.576593712520673,4.700143580504286,0.0007196683316923,32.79732593144512,0.0009620705970519,3.154230688182399,394.1656220930229,11.470279728974068,4.800072153432283,69.96154070456518,9.597499105113692e-06,120.00001352112182,80.55022837857167,1.274,1.0261054058068628,0.0,0.0,0.0,0.0337087616009043,2.8214060606649844e-08,-0.0099686353219717,1.1565909895184251e-06,0.0003550834484269,4.700143635477137,38.36463422765983,11.47039277421126,32.94865339301887
0.32,31.222212598991007,131.01039897947376,4.68216432480395,4.718667719113184,0.0007464384342556,35.7316568886908,0.0009885845337584,3.133859770838664,421.5593934624264,11.808280530415894,4.946054328851105,69.95582953472353,1.14278227255889e-05,120.00001568218067,85.36654007972253,1.274,1.026068246703101,0.0,0.0,0.0,0.0347021168382987,3.2392058795580455e-08,-0.0110163301561155,1.3226102501723267e-06,0.0004039614423012,4.718667778018562,37.5686120062341,11.808397780690962,35.8688218659563
0.33,31.222212376029034,131.0103994369436,4.791055524254013,4.72141404831576,0.0007708346814671,35.42013590291081,0.0010176135371143,3.1111955852784385,418.5156301991632,12.181577273013426,5.104163223586657,69.94951809396906,1.351997394754887e-05,120.00001812674968,90.84831229869296,1.274,1.0260310883392356,0.0,0.0,0.0,0.0357992034445943,3.700677535501642e-08,-0.0121310534481307,1.5051409581878843e-06,0.0004588955105349,4.721414111097893,36.7208578211118,12.181698355442045,35.55651229220977
0.34,31.222212145785647,131.0103999093516,4.903491659547144,4.73024573449122,0.0007962944975467,27.63851074646407,0.0010446307681611,3.0871492806781062,345.4656368807584,12.53557620048282,5.2556261014174765,69.94256797855994,1.5899658158227497e-05,120.000020882338,96.20413272674828,1.274,1.0259901535019136,0.0,0.0,0.0,0.0368395817555172,4.208561016221623e-08,-0.0133180771902383,1.7057647550599631e-06,0.0005184333231541,4.730245801363397,35.94841996438923,12.535701282129995,27.810389570354005
0.35,31.222211909310875,131.01040039453565,5.018822212845608,4.780248518778662,0.0008286678570753,30.332092807652543,0.0010618579815451,3.063967690608957,370.5765700527057,12.774786382148209,5.367579971644358,69.93493776125636,1.8594985713558667e-05,120.00002397748868,99.9096898192772,1.274,1.025950003202184,0.0,0.0,0.0,0.0375426220587071,4.7658312175989686e-08,-0.0145774693288123,1.9252724355785177e-06,0.0005782798420984,4.780248590437683,35.44790728185619,12.774916548990808,30.486451961956565
0.36,31.22221166933814,131.0104008868675,5.135354490370708,4.798132156899578,0.0008554457330409,34.32674769697476,0.0010851169437774,3.0374319611165923,407.8625232777224,13.09301701329486,5.506730645516068,69.92658597246795,2.163521613217148e-05,120.0000274401514,104.94818266210537,1.274,1.0259105142325406,0.0,0.0,0.0,0.0384778908056978,5.3755109608570216e-08,-0.0158991451700967,2.162609490834569e-06,0.0006464142451675,4.798132232978766,34.796094028187134,13.09315138639638,34.46087058603792
0.37,31.222211421355144,131.01040139563804,5.255882891363927,4.797392186816851,0.0008791822061288,32.551601855236584,0.00111162791192,3.0078619428913056,391.1218908297639,13.457513730739372,5.661815946371007,69.91747693543164,2.5047738471809164e-05,120.0000313040604,110.87154396328836,1.274,1.025872170958032,0.0,0.0,0.0,0.0395491312153729,6.040098808671168e-08,-0.0172926678053148,2.420031948898497e-06,0.0007226353721561,4.797392267189059,34.07332166419882,13.457651832357364,32.69027405888565
0.38,31.22221116634284,131.01040191882743,5.379799334000849,4.811698494594017,0.0009057112478668,34.02947987649063,0.0011338447913587,2.9774881690446744,404.81876101445977,13.77554886562956,5.800899861213392,69.90756948297444,2.886339581486796e-05,120.00003560072224,116.17243393848278,1.274,1.02583050512925,0.0,0.0,0.0,0.0404838339452728,6.762496638941508e-08,-0.0187646375218858,2.69955777313946e-06,0.0008026686661094,4.8116985796350695,33.46655348088405,13.775691134419684,34.15949264475229
0.39,31.222210906095896,131.01040245274032,5.505993307722699,4.813508003664984,0.000929862892873,29.00025983045028,0.0011579891265804,2.9442136901860865,357.6406249338268,14.124492165837273,5.950648592462506,69.8968186645841,3.311602501056718e-05,120.00004036395212,122.13093644173792,1.274,1.02579027384009,0.0,0.0,0.0,0.0415093739609825,7.545934774906889e-08,-0.020311592409804,3.0013532510753577e-06,0.0008908380763632,4.813508093268025,32.821616487639595,14.124638228358922,29.149330452482886
0.4,31.222210638473225,131.0104030017851,5.635788650457906,4.841647069358873,0.0009592124397379,27.71178845184976,0.0011749448424961,2.91135549588368,345.4656368807565,14.390874239274588,6.07193451174791,69.8851815212744,3.783947407715338e-05,120.00004563180136,126.77947425345651,1.274,1.0257493418632293,0.0,0.0,0.0,0.0422922854866381,8.39343718693383e-08,-0.021938519432511,3.3271332720311508e-06,0.0009803271643914,4.841647164150728,32.348088166612904,14.391024912012275,27.864299944624147
0.41,31.22221036681104,131.01040355909262,5.767123077463226,4.86553909860892,0.0009876699832274,31.306062598221665,0.0011918093836199,2.876450850006428,378.9468707766882,14.663028799871563,6.195223154320929,69.87261222561014,4.307011032901644e-05,120.0000514391194,131.6183642808765,1.274,1.025708445186429,0.0,0.0,0.0,0.0430921644173401,9.308325447883581e-08,-0.0236371933433427,3.6760977501392174e-06,0.0010761942383903,4.865539198612839,31.87689439156756,14.663183942709727,31.437931330109585
0.42,31.22221008906472,131.01040412887247,5.901259531771367,4.867510642114694,0.0010118258958528,35.308283402190774,0.0012128114559048,2.8374461227958245,416.23282400171047,14.9952917972178,6.33928625560071,69.85906967380902,4.884273094936628e-05,120.00005782486392,137.64909586091787,1.274,1.0256701057426505,0.0,0.0,0.0,0.0440686959134695,1.0293499639582845e-07,-0.0254093547296826,4.049238334851429e-06,0.0011830797791891,4.867510747027452,31.315270489291198,14.995450734457847,35.422111438762386
0.43,31.222209804115888,131.01040471342728,6.038886819939341,4.854590670645608,0.0010330089741511,31.00586934514032,0.0012363751872706,2.794478603999558,375.90313951343126,15.369430568701889,6.497852263156962,69.8445117629242,5.519340856908871e-05,120.00006482835984,144.60167924299955,1.274,1.0256308158337524,0.0,0.0,0.0,0.0451682983415116,1.135186446762958e-07,-0.0272634397889413,4.449073329427772e-06,0.0013010625065656,4.854590780289497,30.70250814963406,15.369592833372094,31.13154422839874
0.44,31.22220951192321,131.01040531284193,6.180028459770617,4.866912332640401,0.0010595850174406,28.57707721036899,0.0012525768202179,2.752165534925872,353.07501253892326,15.659290812546615,6.627318538707029,69.82889155423543,6.216182865383864e-05,120.00007249162944,150.1053167542629,1.274,1.025586171750536,0.0,0.0,0.0,0.0460202245100907,1.2486676023179565e-07,-0.0292060158163984,4.8779154055816594e-06,0.001420032405556,4.866912447705031,30.24619499837236,15.659457251771938,28.709297424144207
0.45,31.222209215425703,131.01040592106523,6.322872201489905,4.881836476567178,0.0010866574689855,33.31904824532484,0.0012669045761511,2.7082028218433374,397.2093853562887,15.934249290371609,6.751662050993672,69.81215834018458,6.97909417564726e-05,120.00008085697964,155.42080512416243,1.274,1.0255397023523487,0.0,0.0,0.0,0.0468283602442113,1.3701614206272197e-07,-0.0312276295846745,5.334643585560923e-06,0.0015449645531859,4.8818365972149325,29.82567893138932,15.934419982127675,33.428929688274074
0.46,31.22220891307435,131.0104065412864,6.468371919199588,4.869610441729251,0.0011078049156487,38.95909776354321,0.0012868374716666,2.6582856015412624,449.7140588976424,16.292139278621757,6.904766425053949,69.79426683863348,7.812149592850748e-05,120.00008996920153,162.4785746623087,1.274,1.02549635315424,0.0,0.0,0.0,0.0478802236363867,1.499987870203256e-07,-0.0333272350234362,5.819761874615242e-06,0.0016858511402973,4.869610567434908,29.29014635640275,16.292313292210977,39.04968351401366
0.47,31.22220860266524,131.01040717804253,6.6178810515614845,4.838450928223533,0.0011247917292402,26.253747818137555,0.0013104398935566,2.6026193242279367,331.0078106302504,16.710658191447514,7.078951441335346,69.77517236812905,8.719457259907165e-05,120.0000998741591,170.9309671061642,1.274,1.025453319323251,0.0,0.0,0.0,0.0491102725711187,1.6384464803343264e-07,-0.0355167087264168,6.3368207228363735e-06,0.0018427306558807,4.838451058652396,28.68386015667837,16.710834873319172,26.382435512333956
0.48,31.222208284201663,131.0104078313267,6.771393590864176,4.869339340099417,0.0011561785713505,25.860860976019296,0.0013165328518772,2.5543454292827983,327.20312230115803,16.911139899671,7.177575416403102,69.75482343794755,9.70562828082882e-05,120.00011062072316,175.0543877818846,1.274,1.0254092882449153,0.0,0.0,0.0,0.0496995461609974,1.7858865391586845e-07,-0.0378054080201581,6.88909442277235e-06,0.0019849793891693,4.869339477030596,28.40887970825325,16.911321511776286,25.986704537635287
0.49,31.22220796480208,131.01040848648364,6.924537656029012,4.881367714530694,0.0011829003785372,32.565703383222065,0.0013261973190012,2.5011623511055703,389.6000096981238,17.169005224738054,7.296160258358563,69.73316318155707,0.0001077573203115,120.000122255028,180.4309832312717,1.274,1.025367445590036,0.0,0.0,0.0,0.05045746454003,1.942747077649401e-07,-0.0401641298712614,7.47069711110948e-06,0.002140948887153,4.881367857509675,28.058569663954906,17.169191034294997,32.66161128464712
0.5,31.222207637929923,131.01040915697027,7.081324512896956,4.862566137860805,0.001202418260511,33.47759680712428,0.0013425340759632,2.4399894027711366,397.970310422106,17.52898693231981,7.450304424940405,69.71015149227495,0.0001193385310595,120.0001348274002,188.0736471953394,1.274,1.0253278572281015,0.0,0.0,0.0,0.0515154948878309,2.109295159784217e-07,-0.0426011733481599,8.084173008518589e-06,0.0023184335011768,4.862566286171007,27.57768313050809,17.529175807738486,33.56639745442473
0.51,31.22220730314019,131.01040984370235,7.24202048914867,4.8479762258125,0.001223054804074,25.49162310288008,0.0013562860883156,2.3767006597692686,323.39843497208153,17.86914397471067,7.597652147346554,69.68574349602717,0.0001318441288964,120.00014838524436,195.4407439266201,1.274,1.025286455263166,0.0,0.0,0.0,0.0525152689856776,2.2858192086249162e-07,-0.0451315948093539,8.734206149830708e-06,0.002503767471626,4.847976379721193,27.13799345359824,17.86933609171003,25.602178740977283
0.52,31.222206962738102,131.01041054193402,7.405210501673173,4.865306299521403,0.0012516517170965,30.733671928447727,0.0013599291289974,2.317711624364424,372.098451184342,18.08534843773428,7.701914987606457,69.65988568649581,0.0001453248538387,120.00016298000436,200.19561780583155,1.274,1.0252426840672306,0.0,0.0,0.0,0.0531507657929359,2.4726951523704535e-07,-0.0477531686556663,9.421346966092632e-06,0.0026812161964639,4.865306460134566,26.8699055233151,18.085545046726228,30.820940596104087
0.53,31.222206619320115,131.01041124632013,7.569307468221277,4.848802699234936,0.0012715119568563,32.301199055744725,0.0013711327835325,2.2490252325653923,386.55624643486095,18.41963113311156,7.8474319110539055,69.6325258319474,0.0001598315062727,120.0001786629144,207.6614205945027,1.274,1.0251993415311351,0.0,0.0,0.0,0.0541332845214831,2.67031759303889e-07,-0.0504479325599339,1.0141887756417996e-05,0.0028848299490111,4.848802865552398,26.45837260670532,18.419830861742675,32.37940050117613
0.54,31.22220626697288,131.01041196903336,7.737918664599091,4.831496690588052,0.0012913635058467,28.31291960103712,0.0013809098107221,2.177242866245296,349.2703242098436,18.75116898748492,7.992112829440902,69.60362200959217,0.0001754082864028,120.00019548734956,215.20067397992847,1.274,1.0251561018460285,0.0,0.0,0.0,0.0551077428911958,2.878941684235108e-07,-0.0532336286085667,1.090122304443916e-05,0.003098869611663,4.831496862756785,26.061835558272342,18.751371834390056,28.396510432451375
0.55,31.222205908994248,131.01041270328463,7.909026079894722,12.755903477510111,14.794421726616704,30.4011232242592,-0.9138835564803836,1.6094188870041668,365.2500005919912,21.25288039252061,8.113323699629928,69.57312211246325,0.0001921068626005,120.00021350480982,276.4492350024227,1.274,1.025112921033824,0.0,6.26600891486463,0.0,0.0624601340772573,3.0989272306468813e-07,-0.0561100530405476,1.1700476995263424e-05,0.0037020324998483,19.440775871503323,39.111542026911415,23.551045040360247,30.457408057896902
0.56,31.222205546564343,131.01041344664463,8.081909946161325,15.520472111150724,-11.664753673041748,28.39970508102808,0.5756840243023403,1.178960649416191,346.22656194657776,22.05988523985948,8.245531141149062,69.54097415464405,0.0002099796112633,120.00023276987916,297.83729880951233,1.274,1.0250709539098009,0.0,6.288869463612746,255.00010927308023,0.0648319687305435,3.329899590246196e-07,-0.0650818414309746,0.0110861030447479,0.0044569485578438,19.328682107197164,17.95564223550871,20.24022137423659,28.42999488213252
0.57,31.22220517944269,131.01041420523154,8.25837496244494,15.384899149291329,-11.525451474128504,28.103971404471046,0.7704869685352131,0.9162754828651746,343.1828296833045,22.332703137257408,8.362641551946774,69.50368479041882,0.0172040712215395,120.01837335924364,305.244476498504,1.274,1.0250279191823897,0.0,6.311551412028188,255.00010927308023,0.0656338860331423,3.657908604555449e-07,-0.077013161323116,0.0015533031931265,0.0053391660230046,19.13934744506012,17.80881097316925,20.534474255643016,28.129458217898698
0.58,31.22220480406145,131.01041497019298,8.436758391404988,15.244112208769732,-11.402306667428515,37.054717630769,0.9735248828783972,0.6434040663690117,426.12500585731766,22.61273306563584,8.482765588644009,69.45955997462856,0.0195445108083942,120.020872499838,312.9420342237723,1.274,1.024981594484354,0.0,6.334275806987804,255.00010927308023,0.0664570035454538,3.98440721140218e-07,-0.0891517632878028,-0.0081021319424829,0.0062581034200778,18.955347211937777,17.64664856113862,20.83346182154765,37.07308751892977
0.59,31.222204423884715,131.01041574754663,8.617862117696694,15.00875782355774,-11.212595125299552,30.04893505174701,1.1906516961829945,0.340929946865943,360.68438819710633,23.021172747020486,8.650563368233865,69.40848162960496,0.0071404348069812,120.0076242323947,324.34344424832,1.274,1.0249386802161349,0.0,6.356847552139996,255.00010927308023,0.0676575131415237,4.309662236710676e-07,-0.1014990565257958,-0.0178970784826195,0.0072534001887389,18.657141912297543,17.396654208004254,21.271122869676077,30.074447333814856
0.6,31.222204033468586,131.01041654342103,8.803899199201913,14.869529948254092,-11.091695292713956,26.7261622175298,1.409185788839869,0.0480979326635269,329.4859594986072,23.287736100032284,8.76581881033965,69.35032658403108,-0.0200931287536333,119.97852660777204,331.89218066125045,1.274,1.024891335813742,0.0,6.3793656441714734,255.00010927308023,0.0684410666317435,4.6338170791761574e-07,-0.1141264421791621,-0.0278837548475659,0.0082500766152045,18.4755868209559,17.245529457644324,21.556318516138933,26.76333060133421
0.61,31.22220364029066,131.01041734315112,8.990503073549307,14.735047501048935,-10.974776140829526,31.34480651587413,1.6332210669630536,-0.2512277833733962,372.0984511843332,23.5403204246052,8.875989177427202,69.28492627247503,-0.062287509591194,119.93342572152612,339.1247112511234,1.274,1.0248423929069768,0.0,6.402092278918847,255.00010927308023,0.0691835403570147,4.957179790460331e-07,-0.1269439560056335,-0.0379942380132658,0.0092760065933648,18.30010197875949,17.103501527527577,21.82692899109926,31.388332577094566
0.62,31.22220324081158,131.0104181540415,9.179805201725747,14.541587107757996,-10.81636645164384,38.9932123469297,1.870387403350105,-0.5750014279013239,442.86563930529206,23.87429866468001,9.01669881755438,69.21215911285563,-0.1194368523448204,119.8723118024328,348.80929357794525,1.274,1.0247996097896497,0.0,6.424491566022057,255.00010927308023,0.0701652315127004,5.280009065610192e-07,-0.1399378321192732,-0.0482175747477642,0.0103703764118151,18.053331278862903,16.908137261406434,22.18534160260984,39.04227945206901
0.63,31.222202833114025,131.01041898004803,9.372942760953151,14.290024951062524,-10.617252875825224,22.144733635078502,2.124630532845765,-0.9288074061345262,286.11251274707456,24.29558083142155,9.190218610818924,69.13190678839688,-0.1914852456649286,119.79522614550244,361.22127444283046,1.274,1.024756158874558,0.0,6.446811654825432,255.00010927308023,0.071403511867713,5.602532521052048e-07,-0.1531495522676688,-0.0585834684841146,0.011549514257742,17.736360046200364,16.659206835758106,22.637354922097813,22.265802609997422
0.64,31.222202416323924,131.01041982300487,9.5704248847251,14.207514661931178,-10.538500104794528,21.765205986826658,2.359831457671857,-1.2356335282649873,282.3078244179702,24.439928081675724,9.260546056095013,69.04402248553512,-0.2783874613046495,119.70219610776304,365.5193392014776,1.274,1.024708534665538,0.0,6.469194730042518,255.00010927308023,0.0718279013271473,5.925003899731642e-07,-0.1666240318952454,-0.0691242687287648,0.012640086003002,17.62449131132499,16.584358153985065,22.79386240797433,21.927603297528556
0.65,31.222202000518664,131.0104206620443,9.76622867865755,14.072217210329418,-10.422684027812968,38.434732713941706,2.606458229692273,-1.564154353652473,436.7781447787504,24.65911216027552,9.359118656019156,68.9483287451006,-0.3801112698678562,119.5932324775151,372.0979000829199,1.274,1.0246641738210605,0.0,6.491689636821916,255.00010927308023,0.0724722340272934,6.247943833776574e-07,-0.1801884351985576,-0.0797110380229192,0.0137914093871208,17.448830908175058,16.461370126942803,23.03093531980029,38.55475174524304
0.66,31.222201576677584,131.01042151591545,9.965740653893208,13.788277650327936,-10.201684560484397,32.71960868862776,2.889193087745704,-1.9601230382285344,383.5125151715984,25.118541467544183,9.54848439864434,68.84474287807147,-0.4963993572401674,119.46858458230072,386.084941425542,1.274,1.0246195561629028,0.0,6.513614705177245,255.00010927308023,0.0738226462139724,6.571643368843113e-07,-0.1938799031048416,-0.0903705251062855,0.01511552348658,17.09297742263348,16.193473616642486,23.524518377217124,32.905353846451746
0.67,31.222201140749828,131.010422393176,10.171352314225484,13.596241738987716,-10.046246292150318,22.573163946326407,3.1611536611274538,-2.329681944759192,289.15624401033847,25.416783402295245,9.677609458368469,68.7331564365614,-0.6270031856590766,119.32849003058332,395.2998305406878,1.274,1.024572383541697,0.0,6.535582809450283,255.00010927308023,0.0746993436607727,6.896303766123796e-07,-0.2078320282222378,-0.1012001925212439,0.0163953415937255,16.84872163759993,16.023556274871865,23.846796324380342,22.91218106118941
0.68,31.22220070257564,131.01042327328685,10.37720585046324,13.465462403305954,-9.934669692616753,28.175536811396498,3.421934416712934,-2.675851233146662,340.89999248584934,25.596977450039045,9.762437462162888,68.61337937156135,-0.7717838575586887,119.1730663194759,400.9167851161489,1.274,1.0245245285832842,0.0,6.557835899778582,255.00010927308023,0.0752291045423589,7.222474388189132e-07,-0.2219391668366651,-0.1121211159061712,0.0176319951662166,16.67899526098098,15.921316170169629,24.04425102170998,28.50843190329093
0.69,31.22220026069941,131.01042415928555,10.58417309257681,13.256744139307395,-9.768007655785745,34.67828067926689,3.7068134342462256,-3.0647328122200346,401.0140726853658,25.906161564236488,9.896745919122274,68.4852781783092,-0.9304551825281668,119.0025864547236,410.6524096649841,1.274,1.024479631064582,0.0,6.579737690528492,255.00010927308023,0.0761379694501406,7.550686286687866e-07,-0.236122253349536,-0.1230743335246606,0.0189849815065852,16.41472605251697,15.744663155186942,24.379228325613177,35.01022998948481
0.7,31.222199809573823,131.0104250630072,10.795535681714068,13.008178391190183,-9.573341035336396,29.11145892874232,4.010277117176181,-3.484156114955584,349.270324209851,26.282235448756254,10.057253643046458,68.34876115375623,-1.1026182289054975,118.81744232278454,422.6530669738696,1.274,1.0244351749185203,0.0,6.601414573423102,255.00010927308023,0.0772434313087134,7.881282162990517e-07,-0.250446602299899,-0.134106897018819,0.0204286101577,16.102128189395305,15.532031088413389,24.7854458282872,29.592206868528415
0.71,31.22219935073394,131.01042598135095,11.01037461954249,12.813605647041973,-9.417270882911216,23.951738862688625,4.301860738127948,-3.8800570240520313,301.3312640634036,26.547276293417468,10.17590862847312,68.20369501576778,-1.2879146014161564,118.61798013144458,431.2115665386201,1.274,1.0243880468141104,0.0,6.623201425214512,255.00010927308023,0.0780225748652689,8.21469564334411e-07,-0.2649394115634877,-0.1452377799476748,0.0218282516819424,15.855199978776456,15.381066694405524,25.07466622455618,24.64237494371374
0.72,31.22219888825705,131.01042690563358,11.226278667033704,12.636998747284636,-9.274140065866003,29.30228251524424,4.589083035996381,-4.2673816267478175,350.7922053414578,26.764850821670034,10.276873885865635,68.04992697921554,-1.485985597842362,118.40454422009064,438.2996381219424,1.274,1.024337302174265,0.0,6.644948209757056,255.00010927308023,0.0786622190701904,8.551553316829861e-07,-0.2795238979088707,-0.156409764135906,0.0232181269918708,15.63015633954571,15.255070934811984,25.314425255712717,29.964879269951396
0.73,31.222198420752346,131.01042783888585,11.444070820448324,12.403912087726765,-9.09114613890607,37.031669977098325,4.900842411803217,-4.695923324376953,422.3203185282354,27.0847033009686,10.41810256711479,67.88734565320277,-1.6963688859720558,118.17758853903148,448.82861749715977,1.274,1.024292465384646,0.0,6.666466047318186,255.00010927308023,0.0796024649499657,8.892436627531428e-07,-0.2941607673381828,-0.1675932007361462,0.0247253905735974,15.336511474778517,15.075478483959497,25.662653969526485,37.64856615472204
0.74,31.22219794474351,131.01042878884363,11.665797664151826,12.126023022825065,-8.87663888624081,23.224577111257247,5.237828355438144,-5.1653900350511295,294.4828134710563,27.490997413867827,10.593906882384449,67.71585987168287,-1.9185421629066088,117.93763006736069,462.3854098886608,1.274,1.0242470321640116,0.0,6.687839640508906,255.00010927308023,0.0807967732885492,9.237801584651514e-07,-0.3088952719018239,-0.1788203229492887,0.0263528044395416,14.988439559508654,14.85379781758349,26.10222942604107,24.361795543267565
0.75,31.22219746009425,131.01042975604864,11.89153391594519,11.953159593103832,-8.736709187620844,27.08753857165073,5.528847464092732,-5.556927520368918,330.24688556441737,27.66050680610012,10.677988628236024,67.53534956975331,-2.1520093414445407,117.68515597857244,468.0949760534141,1.274,1.0241984712898409,0.0,6.709254382860127,255.00010927308023,0.0812951729412478,9.58815426315859e-07,-0.3237616467193166,-0.1901153037987944,0.0277908097131776,14.768067051881069,14.75210379137691,26.29345978527441,28.198977705202438
0.76,31.222196975392407,131.0104307214755,12.116223580602968,11.718393938743535,-8.553150404939023,29.13561210781026,5.850387831214001,-5.999199960012695,349.2703242098581,27.95312345565933,10.81115755687572,67.3456722296399,-2.396289053457925,117.42063596937668,478.04087007323386,1.274,1.0241522053390697,0.0,6.730683314894985,255.00010927308023,0.0821553915126405,9.944373572677192e-07,-0.3386113506504733,-0.2013687351483066,0.0293723132418707,14.472481646008928,14.58990544556503,26.61458218783605,30.316684034251058
0.77,31.22219648107992,131.01043170660287,12.345493688586938,11.473294211369325,-8.362266743017134,27.23066640271034,6.1791315400802,-6.45294227503603,331.76876669606884,28.25712291043596,10.949895557826144,67.14677110446699,-2.6507442097355267,117.14470715493556,488.484359219771,1.274,1.0241065975906936,0.0,6.751691624957287,255.00010927308023,0.0830490733598298,1.0306940473110392e-06,-0.3534989803149237,-0.2126198670599694,0.030996513056596,14.16423271486369,14.423837160431596,26.948239479973346,28.658878612574128
0.78,31.222195981089698,131.01043270283375,12.577027033906347,11.239050877902988,-8.179274599414748,22.358257564200247,6.50244733625941,-6.897744050942382,286.8734378128874,28.524154413187087,11.074884111136235,66.93855621611067,-2.914781628154755,116.85795837729977,497.74932832791166,1.274,1.0240588105546735,0.0,6.772806778242079,255.00010927308023,0.0838341110620363,1.0676495444923793e-06,-0.368414023387017,-0.2238600261458465,0.0326088895830423,13.869223474366516,14.27705110741744,27.24371634818726,24.284817801668922
0.79,31.222195476002668,131.01043370894837,12.810483625261517,11.02392621531303,-8.00986855156526,31.71870885154709,6.811711533081288,-7.320380848398026,373.6203323159581,28.73002069338665,11.176249591408174,66.72094303378863,-3.187791328179365,116.56099610308368,504.9487090328488,1.274,1.0240083170932772,0.0,6.793811049229753,255.00010927308023,0.0844393861631587,1.1053755973500566e-06,-0.3833199952199315,-0.2350620396757244,0.0341723428445423,13.59743591668807,14.16002703273434,27.475927740816207,33.257538709061386
0.8,31.22219496684624,131.0104347226601,13.045261129524308,10.739416373482646,-7.791492945451625,32.09969934042812,7.167157257991736,-7.81746054499839,377.42502064505805,29.09657234738405,11.343624507329103,66.49386840052716,-3.46912749780081,116.25446546798344,517.9039924544244,1.274,1.0239625010683884,0.0,6.814644596208628,255.00010927308023,0.0855169316620774,1.1439479628065383e-06,-0.3981676301869057,-0.2461893772808182,0.0359480495575162,13.241183413410385,13.971988036788918,27.87645613041548,33.80638298131392
0.81,31.222194447610672,131.01043575835243,13.284890256723155,10.466279565834572,-7.5812362670586495,20.86389419828304,7.515941503077751,-8.303951237008173,273.9374926939922,29.42394704448733,11.496504311558535,66.25729888730585,-3.7581027681247288,115.93905705530663,529.6115692215649,1.274,1.0239149950770308,0.0,6.835274701125082,255.00010927308023,0.0864793433873396,1.1834152610549586e-06,-0.4130242189609773,-0.2572902561972694,0.0377080440161068,12.898708910202636,13.80535354003365,28.236561104909665,23.680098478288578
0.82,31.2221939233906,131.0104368042549,13.52637926436498,10.249123131793212,-7.41067411478881,26.753897899720968,7.817357417123197,-8.716306691606851,328.725004432774,29.58611789036292,11.582695202602991,66.01116151217282,-4.054092943394014,115.61539290331808,535.453175242086,1.274,1.0238644186635044,0.0,6.856021875605773,255.00010927308023,0.0869562134428462,1.2238553690592657e-06,-0.4278488877866411,-0.2683342683186941,0.0392758755862273,12.624379136913968,13.7136498016443,28.425294820105503,29.20370065861338
0.83,31.22219339735579,131.01043785270016,13.767869690769889,9.97492246309026,-7.1998749968526505,33.954566441419914,8.161205554333332,-9.19675070045859,395.6875032246518,29.889968847630456,11.728445191511064,65.75540864397422,-4.356444284962137,115.28412781140788,546.4952411682666,1.274,1.0238188483711983,0.0,6.876624077059003,255.00010927308023,0.0878494975936129,1.2653635608765628e-06,-0.4425382499943741,-0.279246076426947,0.0410405988910631,12.280551449216164,13.563790188323258,28.761989226171497,36.112298206722684
0.84,31.222192861920085,131.01043892243027,14.013818683627536,9.669988959724256,-6.967417410589432,20.87471741168475,8.531777146482652,-9.719766299496072,275.45937482564227,30.271469210489563,11.908178040829135,65.49005650427465,-4.664429179794221,114.94599864363931,560.5214043524135,1.274,1.0237739661568126,0.0,6.8969273971807405,255.00010927308023,0.0889710107926368,1.3079908504978007e-06,-0.4571451576115834,-0.2900634183472241,0.0429353274006555,11.899215852054375,13.38617572713813,29.179725208844594,24.556443252469556
0.85,31.22219231886749,131.0104400095585,14.263180973363022,9.435779610224598,-6.784947790347908,22.70896034981676,8.829448159293158,-10.130171106413655,292.9609323393965,30.42698818120845,11.994346675776749,65.21509161683304,-4.977379991661455,114.60167806929516,566.2819689509357,1.274,1.0237227741398531,0.0,6.917308109558435,255.00010927308023,0.0894283488952052,1.351799730116156e-06,-0.471685737559664,-0.3007972594102034,0.0445275157236968,11.60397046390551,13.30639792701899,29.363700266438094,26.387049884600838
0.86,31.222191775793576,131.01044109500992,14.51149781200812,9.165873267959729,-6.577369879360102,28.410128967227028,9.154783808921351,-10.585354867694038,346.2265619465616,30.674408269532584,12.12042550431994,64.93049290470073,-5.294657862688611,114.25180868583656,575.5152453111392,1.274,1.023674789281455,0.0,6.937651233181076,255.00010927308023,0.0901557970148148,1.39689890553416e-06,-0.4860294585271154,-0.3113531014751904,0.0462535621818883,11.26521294274253,13.19319517355198,29.64350516869337,31.67009997138586
0.87,31.222191224636063,131.01044219943452,14.763509102916586,8.867720141734026,-6.349849402575373,26.350866247300768,9.505040721835428,-11.080615918409528,327.9640783669946,30.997662303310555,12.28050943744064,64.6363213359754,-5.615543434038561,113.89712398023217,587.6947617479705,1.274,1.0236288969245204,0.0,6.957613067703584,255.00010927308023,0.0911061387736311,1.4433448573180829e-06,-0.5002007034788861,-0.3217482223474623,0.0481026639793673,10.89193844092549,13.055229034234252,30.00227084010545,30.124641080653483
0.88,31.222190666569364,131.01044332035457,15.018529339110252,8.582638284218193,-6.131633096682563,22.63453346521957,9.83394736808182,-11.54442124057052,294.4828134710421,31.263925827712423,12.417663284942924,64.3326264432362,-5.939363007015791,113.53830983412269,597.8198366991703,1.274,1.0235805388426191,0.0,6.977586488135252,255.00010927308023,0.0918889861024831,1.4911972046255675e-06,-0.5142119990332032,-0.3319910213789171,0.0498736289540124,10.534550818017353,12.94591081941378,30.302608550765,27.245225045979776
0.89,31.22219010432589,131.0104444508133,15.274955963106247,8.30511079747855,-5.918777495377133,24.769725218093967,10.143817883384951,-11.980792948494594,315.02813424808807,31.48678197472072,12.537329578668244,64.0194535557701,-6.265478764366796,113.176015289289,606.3580632175573,1.274,1.0235293752791452,0.0,6.997514584218825,255.00010927308023,0.0925442587748735,1.5405374161564124e-06,-0.528014591640875,-0.3420462459006711,0.0515761307254733,10.186310554524642,12.859528337604988,30.558715255663863,29.32534276536011
0.9,31.22218953753657,131.01044559192243,15.533009538606208,8.008833882153521,-5.692784669515223,27.30885217455928,10.46856380085461,-12.441992875350603,339.3781423542166,31.76068074696916,12.680900111406116,63.696881557977086,-6.593246541961678,112.81089963319852,616.9378916878065,1.274,1.0234837388140003,0.0,7.017273097935321,255.00010927308023,0.0933495591304867,1.591442385834012e-06,-0.5415674259719012,-0.3518842803844132,0.0533588094178261,9.815178851397198,12.760437401383571,30.86793078389816,31.783131089538205
0.91,31.222188964178823,131.0104467495349,15.793885780532175,7.701302059351824,-5.458967718702508,20.510467381018305,10.800438531100424,-12.916056851084996,277.7421810230785,32.06298822149817,12.838856201955092,63.36501867935032,-6.922026017887227,112.4436216183682,628.7224244850704,1.274,1.023436404813438,0.0,7.036881922187884,255.00010927308023,0.0942383649959765,1.6439702503442307e-06,-0.5548693885099069,-0.3615040328767573,0.0551883836143914,9.430301735861576,12.658427438053602,31.20679233209828,26.535886441427845
0.92,31.222188384787927,131.01044792260825,16.057275574743656,7.417484635250366,-5.241777541442934,24.44146551152661,11.083746423179488,-13.318086581782422,315.0281342480675,32.25372735672071,12.94847205381176,63.02397816160981,-7.251210772732403,112.0748062429047,636.2089801315801,1.274,1.0233859136578225,0.0,7.056432835692391,255.00010927308023,0.0947992602261377,1.6981815208673677e-06,-0.567908054099096,-0.3708963538529924,0.0568198215927803,9.07422472975203,12.605517443676478,31.431498959720734,29.96007512214116
0.93,31.222187802939484,131.0104491012164,16.32107493397422,7.1070538328359225,-5.0060835131461605,29.107203895277923,11.397553750430168,-13.768971093564868,359.16250706547066,32.53770792497928,13.10176972407724,62.67388530897399,-7.580221312169884,111.70505263780096,647.4450038777728,1.274,1.0233407575091376,0.0,7.0759021974505805,255.00010927308023,0.0956342126792522,1.754160544021596e-06,-0.5806154064459959,-0.3800127531016881,0.0586011901694838,8.685756025168843,12.526791492253942,31.752354284994592,34.1572556724139
0.94,31.22218721345071,131.01045030053535,16.588347405039148,6.781993342859196,-4.760277091960507,20.710734696689112,11.72670669715724,-14.245463061850556,283.06875048378083,32.87302886503752,13.280630671253254,62.314912263393104,-7.908471785184944,111.33497180082382,660.8414350138112,1.274,1.0232914783978162,0.0,7.095137064673241,255.00010927308023,0.0966200729839691,1.8119477947768087e-06,-0.593004342427564,-0.3888622391165447,0.0604668537306073,8.279474208181991,12.439096708757914,32.12614623197938,27.737761255810522
0.95,31.22218661748864,131.01045151778987,16.85841270001589,6.4850626355919285,-4.534111695501835,27.019485998460368,11.988607505173931,-14.622145610090405,342.421873617488,33.06245955381641,13.394033546852532,61.947227936447845,-8.235423869066668,110.965126277966,668.4622329999312,1.274,1.0232418269359267,0.0,7.114363383579919,255.00010927308023,0.0971771418580071,1.8715894462699003e-06,-0.6050679807547755,-0.3974396077839878,0.0620508652948291,7.907357608967979,12.412703110040184,32.350986082832456,32.978576011962595
0.96,31.22218601977369,131.01045273904913,17.128484091870767,6.156696843901632,-4.286318971921656,26.292611026664808,12.299669736477432,-15.076053205462692,337.09533515678265,33.38886311064866,13.57301579286686,61.57101021809327,-8.560573281693609,110.5960452642048,681.708262510326,1.274,1.0231951201821403,0.0,7.133530397089082,255.00010927308023,0.0981368058525594,1.9331690603445607e-06,-0.6167291832030884,-0.4056904717803686,0.0638694798182815,7.497109625193404,12.348017276503832,32.71619755011517,32.70887724272811
0.97,31.222185413103297,131.01045398652727,17.402830880912013,5.833676969310982,-4.042306865938186,16.13202437334356,12.585639035022549,-15.49448791234532,245.0218871929888,33.67500262471049,13.73532758865596,61.1864900879332,-8.883410156304853,110.22826982162852,693.4244139425922,1.274,1.0231476260761452,0.0,7.152442513261638,255.00010927308023,0.0989781357235285,1.996703899022981e-06,-0.6280103065143466,-0.413630405828566,0.065593410811792,7.093342606993148,12.308082060086337,33.040565174021424,25.66553478826906
0.98,31.222184802360832,131.0104552457576,17.67856934737206,5.533760718516692,-3.814292832614413,24.080774497680505,12.798002198096333,-15.804180168309504,319.593746642963,33.81547761900123,13.829929195741917,60.79388938853034,-9.203478371917486,109.86228566785304,699.2031921481574,1.274,1.0230935628253934,0.0,7.171399220467388,255.00010927308023,0.0993913314260589,2.0622465760694803e-06,-0.6388709707023252,-0.4212308385402736,0.0670043478872242,6.717593178535885,12.328540005349666,33.21677235703798,31.518957334642366
0.99,31.222184190068084,131.0104565087345,17.954205417357294,5.201417021602122,-3.564182648636337,26.31240750270461,13.07410230222562,-16.213291966682576,341.66094855170127,34.126563010034985,14.008295872103792,60.393460126105225,-9.520339035054166,109.49856472805214,712.1081502596913,1.274,1.0230490803133316,0.0,7.190199451670588,255.00010927308023,0.1003059936609581,2.1298675306419784e-06,-0.6492433663605345,-0.4284446812376162,0.0687167924551609,6.302635251273436,12.301418547549977,33.56706351874739,33.55809553586647
1.0,31.22218356876825,131.01045779993433,18.234177034378344,4.868247778229022,-3.3136706049999334,23.16110833765101,13.337880153628095,-16.606650726545404,314.2672081822764,34.43338247631871,14.187113988166924,59.985501932559714,-9.833558529316369,109.1375792362996,724.9508261836819,1.274,1.022999484445133,0.0,7.208751982381359,255.00010927308023,0.1012081279423455,2.1995565168952366e-06,-0.6591540129580004,-0.4352900833536961,0.0703910942320379,5.886748403054734,12.287296845746472,33.913162435576965,31.466122016772648
1.01,31.22218294291853,131.01045910553157,18.51584532620165,4.541810727452384,-3.0679909866257464,24.14363535023676,13.564589750671283,-16.946923499642327,324.92031610370094,34.68421569125949,14.340610472554028,59.57030253322918,-10.1427580688282,108.77974481370858,735.5313429186779,1.274,1.0229507481225095,0.0,7.227355037437091,255.00010927308023,0.101945712078481,2.271340171808229e-06,-0.6685748465998875,-0.4417472694077233,0.0719152993182578,5.47913188530308,12.30333106658894,34.20252705658156,32.4670823932787
1.02,31.222182312989936,131.01046042412096,18.79893443419105,4.209091445083057,-2.818301998221132,19.573134562571624,13.793183124448568,-17.293157552025228,284.59063161543185,34.96741992179037,14.512320707740212,59.14817203329442,-10.447583590952608,108.42545492811412,747.5716050585232,1.274,1.0229039803623294,0.0,7.245833319615123,255.00010927308023,0.1027784494841076,2.3452515011702235e-06,-0.6774658057600451,-0.4477886979487912,0.0734646715616248,5.064087385239056,12.32002993849338,34.524900577152,29.536634802026377
1.03,31.22218167705252,131.010461762719,19.08460359181513,3.883817977665281,-2.573780087761786,15.330550659597195,13.975107872688133,-17.572009568739666,247.3046933904342,35.17952607578045,14.650431530490604,58.71945046094109,-10.74770061112523,108.07508695336628,756.6476240185585,1.274,1.022853416101322,0.0,7.264171566712509,255.00010927308023,0.103402218595764,2.4212931305150827e-06,-0.685809528124032,-0.4534022104533812,0.0748185274223648,4.658136490966551,12.37176337131454,34.7753735995805,27.18648458082847
1.04,31.22218103808848,131.01046311133794,19.37107875067223,3.5611026686325253,-2.3311288801837686,25.83022700880539,14.123752517454092,-17.803784918405736,345.4656368807608,35.35306366054535,14.770656803708851,58.28449331397664,-11.042804696642108,107.72898999573536,764.1099673432624,1.274,1.0228049544826707,0.0,7.282445176760459,255.00010927308023,0.1039126287690222,2.499487494561355e-06,-0.6935665446518947,-0.4585608945065152,0.0760359364494655,4.255421732902423,12.447401310927956,34.98699180741124,34.404298712828925
1.05,31.22218039562286,131.0104644718438,19.658648864935472,3.218143381368683,-2.075526210385357,14.203042710530728,14.341674607275564,-18.143728444370296,240.4562587980608,35.7068205491039,14.985696669892862,57.84368550831237,-11.3326110975149,107.38749699438848,779.4569270873149,1.274,1.022755494436122,0.0,7.300537500280131,255.00010927308023,0.1049527606339375,2.5798402244039217e-06,-0.7007085937156191,-0.4632457178931236,0.0775854596405133,3.828801966386729,12.474504359360756,35.380868952718785,27.140466735875865
1.06,31.22217974447344,131.01046586385897,19.95043313698223,2.896618146214196,-1.8340422804178884,21.39098365363201,14.437528045960766,-18.302373375931776,308.1796836557233,35.836372156505945,15.086704958705411,57.39743416057973,-11.616859742173112,107.0509188811558,785.1012417535043,1.274,1.0227013895379469,0.0,7.318475341038243,255.00010927308023,0.1053338974026461,2.6622864802831254e-06,-0.7072458552254394,-0.4674625047895399,0.0785912127801298,3.4280083665685184,12.586714983341848,35.5483306647055,31.638477664702386
1.07,31.222179094429386,131.01046725143735,20.240561186650133,2.559582453079611,-1.5830877659893705,25.59154253326899,14.595969701364387,-18.559231331530608,348.5093681440431,36.13367260033266,15.277557511981788,56.94614391517016,-11.895328903276228,106.71952814443584,798.1595173610455,1.274,1.0226540159946436,0.0,7.336454475457529,255.00010927308023,0.1062081007037095,2.7468711307827643e-06,-0.7131195068117109,-0.4711726458306704,0.0798990951940311,3.0093125004299197,12.653803595137973,35.88503339447982,34.81974222151178
1.08,31.222178435694552,131.01046867185653,20.53492969819508,2.221124877081804,-1.331708466083921,15.86178365483164,14.751181115499415,-18.81488484785236,261.0015785751465,36.46003657042465,15.486776017164969,56.49026071939223,-12.167807201259544,106.39359190831128,812.6198134231222,1.274,1.0226061614050743,0.0,7.35411456918019,255.00010927308023,0.1071677418793718,2.8335127992155915e-06,-0.718334476188179,-0.4743784578796658,0.0812080292880121,2.5895858084472394,12.721847129372716,36.25087112758628,28.691347421355015
1.09,31.222177772031653,131.01047011169015,20.8312889354655,1.89443105389254,-1.0880095954730735,14.097285018141212,14.809110077234848,-18.926701985474164,246.54375332456465,36.62183117104448,15.609970083009628,56.030231038507935,-12.434116701570188,106.07334425991836,819.824622291672,1.274,1.0225512795791307,0.0,7.371819547069865,255.00010927308023,0.1076436680809301,2.9221632268081075e-06,-0.7228700131611736,-0.4770653022567881,0.0820810803797513,2.1845371316198468,12.854098126179304,36.45093729445896,27.8615009324573
1.1,31.22217710740587,131.01047155530455,21.12724822586972,1.5660909870377224,-0.8437442246925922,32.08049732676195,14.859509197786569,-19.030689510168457,413.1890617384087,36.80780623725639,15.747914635102804,55.56651806580448,-12.694101082657845,105.75900007898436,828.1487829136754,1.274,1.0224981043155532,0.0,7.389432589859212,255.00010927308023,0.1081906715980573,3.0128263799045705e-06,-0.7266889599560817,-0.4792099785841455,0.0829313909666076,1.7788670532140278,12.987637189794487,36.67527599453807,40.15134450505886
1.11,31.22217643799458,131.01047301826264,21.42512334734341,1.225821525525011,-0.593662528469639,22.1805411028874,15.025745846782122,-19.31463217880486,324.1593910379213,37.27413765017871,16.042638459563044,55.09961184358311,-12.94762050326037,105.4507610951065,849.2416466972508,1.274,1.0224548851875197,0.0,7.4068155690411,255.00010927308023,0.1095617466246027,3.1054359784700527e-06,-0.7297779994382422,-0.4808035709272499,0.0843366602942372,1.361991128735561,13.03675206272862,37.18088702682388,33.02732895756924
1.12,31.22217575793564,131.01047452605223,21.72848582338382,0.8979471411567826,-0.3511392242779073,5.482195008525489,15.057676574474572,-19.39850983725064,172.7328179403806,37.50418332658729,16.209724687496852,54.630013964419646,-13.194557767153608,105.14880822486973,859.7315128305614,1.274,1.0223979224661404,0.0,7.424109170858531,255.00010927308023,0.1102383088173626,3.199828977881712e-06,-0.7321325478817158,-0.4818392046918988,0.0851284646571774,0.9641564853488231,13.172955769675832,37.44902685148973,25.16128513885751
1.13,31.2221750783968,131.01047603234696,22.030568114469325,0.5767832305833551,-0.1123432554728745,26.56597167404159,14.972848155625051,-19.30823991949312,367.5328077894322,37.535294918354985,16.266494576949384,54.15823213969347,-13.434816502997109,104.85330340098704,861.1334986011169,1.274,1.0223460397860296,0.0,7.441518690443665,255.00010927308023,0.1103301330905028,3.296009132290281e-06,-0.7337191422381845,-0.4822977232177747,0.0853812393435551,0.5876218816492129,13.383340630541849,37.517648092358726,36.09356122172059
1.14,31.22217439863516,131.0104775395747,22.331814275437385,0.2483889807644588,0.1277651787076741,12.439154417251764,15.060281933397272,-19.484683159085485,239.6953177322812,37.96783447317743,16.55287964771548,53.68479783449776,-13.668315314889869,104.56439653015065,881.0689725800986,1.274,1.0223022138470996,0.0,7.458657335695576,255.00010927308023,0.11160190641381,3.393961282600788e-06,-0.7345229261687463,-0.482173175906125,0.0864572443510988,0.2793222590333123,13.465399619811569,37.98790376388544,27.58980848682346
1.15,31.22217370621737,131.0104791034515,22.6398168748585,-0.072226225266097,0.3644545098341895,12.031919600611376,14.97409089747138,-19.400207721438388,237.4125115347709,38.08478330305218,16.661557395228066,53.21025395883727,-13.894993223214934,104.28221851503828,886.4788572682323,1.274,1.0222426194541194,0.0,7.475558501092408,255.00010927308023,0.1119460525925379,3.4934403193324466e-06,-0.7345301762851654,-0.4814496146406521,0.0867218410271937,0.3715422546581088,13.66030582949846,38.1420312975274,27.301255412824318
1.16,31.222173017477544,131.01048065180626,22.944620277216345,-0.3910648358784174,0.5986395085907886,39.46540973510651,14.898045564517927,-19.335081233375845,490.043774385954,38.26805089044169,16.80999398944124,52.73515523654917,-14.114800295396147,104.00689245573784,895.0048218810978,1.274,1.02219674531104,0.0,7.492646143067613,255.00010927308023,0.1124851345114016,3.5944575982741767e-06,-0.7337319157994665,-0.4801271389931566,0.0870419067363678,0.7150492305379266,13.837869289104898,38.36208325368814,46.40383274583615
