Time,Latitude,Longitude,Altitude,Angle of Attack,Angle of Sideslip,X-Acceleration,Y-Acceleration,Z-Acceleration,Thrust,True Velocity,Ground Velocity,Pitch,Roll,Yaw,Dynamic Pressure,cp,cg,parachute_deploy_gain,Wind Speed,Wind Direction,Mach,omega_x,omega_y,omega_z,Cmq,Angle of Attack(total),Angle of Attack(gust),True Velocity(gust),Acceleration
0.0,31.222216000000007,131.010392,3.000000004412624,0.0,0.0,0.0,0.0,0.0,2.2828121974499247,0.0,0.0,69.99999999623412,0.0,119.9999999935444,0.0,1.274,1.0271675151847728,0.0,0.0,0.0,0.0,0.0,0.0,0.0,-0.0,0.0,90.0,0.0,0.0
0.01,31.22221599999084,131.01039200000497,3.000002745347096,0.0,0.0,0.0,0.0,0.0,34.242186961749226,3.465174813755316e-14,2.8705476994166025e-14,69.9999999962611,-2.1713911667908447e-11,119.99999999352175,7.352495975525499e-28,1.274,1.0271659134330349,0.0,0.0,0.0,1.0183245502395064e-16,-3.3305335486039093e-18,7.169286865560398e-18,5.624298769768554e-18,-7.715917190115602e-34,0.0,89.99999999999979,3.465174813755316e-14,0.0
0.02,31.222215999994315,131.0103920000094,3.0000030495639742,0.0,0.0,0.0,0.0,0.0,25.871876237766216,3.8197434737535036e-11,2.4171837235633357e-11,69.99999999628672,-1.1921727947863515e-11,119.99999999353136,8.93414285188691e-22,1.274,1.027164492361118,0.0,0.0,0.0,1.1225230367947217e-13,-6.657678965418802e-18,1.4338573731120796e-17,1.1241821275959074e-17,-1.7010872994127372e-30,0.0,89.99999999975682,3.8197434737535036e-11,0.0
0.03,31.222215999994315,131.0103920000094,3.0000030495639742,0.0,0.0,9.81877837424427,-2.5122800045972096e-05,3.3498614629347925,180.34219359854663,1.2659015405517447e-10,1.1364406173918436e-10,69.99999999631459,-1.6431898037347223e-11,119.99999999352724,9.812605835254651e-21,1.274,1.0271551940870716,0.0,0.0,0.0,3.720154642239108e-13,-9.991600645811728e-18,2.150108433310316e-17,1.6859343782149594e-17,-8.453698244545225e-30,0.0,89.99999999919412,1.2659015405517447e-10,10.374487003414373
0.04,31.222215999994315,131.0103920000094,3.0000030495639742,18.83801224594347,-0.0001111777826462,48.68248476615645,-1.016330065874988e-05,3.3497854396877287,548.635972453808,0.1556173050466994,0.0975908358443652,69.99999999633813,-2.0932768807056278e-11,119.99999999352085,0.0148286043323172,1.274,1.027133720825283,0.0,0.0,0.0,0.0004573186944143,-1.3322134194415637e-17,-1.04744143520903e-11,1.336824254131964e-11,5.0626055458604615e-15,18.83801224625964,89.06236267790787,0.1555998412814392,48.79759610369246
0.05,31.22221599164764,131.01039201704114,3.002326315126219,5.772385609593056,-4.395076213712875e-06,71.20344550265034,4.905512691849684e-05,3.349217396035405,761.6984298824663,0.8326471944351852,0.3620326097059287,70.00000001316391,-1.0866255162484559e-10,120.00000000231074,0.4245281043148827,1.274,1.027093426565204,0.0,0.0,0.0,0.0024469331205246,-5.0245994431125096e-18,-7.32924164976824e-07,2.217344936947165e-11,1.895424184525467e-09,5.772385609594774,84.74112356985832,0.8326465040582279,71.28217104309611
0.06,31.22221596664444,131.01039206837547,3.015081730143309,4.056581213689704,3.169093567502233e-05,53.16249142470188,0.0001203825427859,3.3481235983850643,590.4875390737236,1.657216205300742,0.6755452977614796,69.99999964391398,-3.9285905645317736e-10,120.0000000287861,1.6816755551786196,1.274,1.027050317124926,0.0,0.0,0.0,0.0048701272653724,3.095757869075056e-13,-7.483541766772344e-06,3.074135420506017e-11,3.8518749565858254e-08,4.056581213813337,79.59316473687034,1.657221183301277,53.26781792157489
0.07,31.22221592883117,131.0103921460222,3.034593611434361,4.115662018628709,6.450869598349036e-05,81.18203554989698,0.0001593212642178,3.347059402768047,855.2937749779172,2.099899704220947,0.8579771146174259,69.99999543281565,-8.233801910783518e-10,120.00000006883089,2.700101932075157,1.274,1.027003201295312,0.0,0.0,0.0,0.006171060252819,3.4704292086287e-12,-2.6327204536316785e-05,1.9541142932033486e-10,1.7170712165327165e-07,4.115662019133419,76.90111966094352,2.099909837223217,81.2510043180746
0.08,31.22221588914193,131.01039222747755,3.0542761843835606,3.459696193892355,8.037433511260004e-05,16.298214211652088,0.0002413456836072,3.344878926597744,241.2171988638792,3.051964775152957,1.2149999716613011,69.99998042886442,-1.0128995578004475e-09,120.00000011111383,5.703497661025892,1.274,1.0269597189470347,0.0,0.0,0.0,0.0089689344021769,1.458982438104473e-11,-5.702803872814215e-05,7.043261397829576e-10,5.405702492731987e-07,3.459696194824858,71.30331929508368,3.051977400323993,16.63790856991177
0.09,31.2222158241468,131.01039236098703,3.0886872184095737,4.313676956300389,0.0001337561018991,50.35975918308536,0.0002293282821279,3.344215841840564,563.0937377043203,2.893161298572128,1.191209213966114,69.99994788602814,-7.098432023887522e-10,120.00000018106356,5.125380275808925,1.274,1.026918932011013,0.0,0.0,0.0,0.0085022553945842,3.8672912027154325e-11,-0.0001115933708951,2.016054215232918e-09,1.0027525988343615e-06,4.313676958370176,72.2316578138625,2.893182308931483,50.47067588835877
0.1,31.2222157788302,131.01039245392113,3.109877853389092,4.035124630954496,0.0001457499816535,47.804664812504015,0.0002878217657545,3.341734392237128,538.7437595981891,3.5677148583138303,1.4531247507621967,69.99988403958329,1.9248461973355822e-09,120.0000002323013,7.7939962029572305,1.274,1.0268846934974103,0.0,0.0,0.0,0.0104845969583028,8.579678749070606e-11,-0.0001726817043215,3.984565639703107e-09,1.913455350430327e-06,4.0351246335824245,68.43243098813296,3.567737752667411,47.92132267234452
0.11,31.222215703308,131.01039260899836,3.148841432727305,4.043401107254707,0.0001752764476999,37.67622367577205,0.0003286462930162,3.3392563999062723,442.86563930529127,4.034183355956686,1.6436552022667772,69.99978525353545,7.302513231814865e-09,120.00000031883242,9.96528118825134,1.274,1.026848594915519,0.0,0.0,0.0,0.0118554331868328,1.5870341853361987e-10,-0.0002596204409236,7.232030302688121e-09,3.252930323390323e-06,4.04340111104746,65.92012987243639,4.034210888316708,37.82391391539392
0.12,31.222215627491828,131.01039276462643,3.186995101203875,4.17874459224363,0.0002066711490009,41.15991989399172,0.0003576945202315,3.336766085769504,475.58594813540793,4.361857560629481,1.7865750500940407,69.99963665601238,1.781774420198147e-08,120.00000041104812,11.649831899889556,1.274,1.0268114448194128,0.0,0.0,0.0,0.0128183893919737,2.682972478760441e-10,-0.0003710216542429,1.2215991071490164e-08,5.026311388647148e-06,4.178744597345269,64.21681651392016,4.361890024457652,41.29495143136631
0.13,31.22221554594398,131.01039293200228,3.2277173449026786,4.202734874672792,0.0002327160860324,45.44886120763352,0.0003953741266062,3.333578629398489,515.9156326236897,4.792165672014363,1.9646716520715424,69.99942424225341,3.613383418913551e-08,120.00000051758742,14.061726603124043,1.274,1.026779572895131,0.0,0.0,0.0,0.0140829618979635,4.248908088871395e-10,-0.0005056103199642,1.908859219307828e-08,7.5253154423526356e-06,4.202734881104192,62.048594618540655,4.792202226971676,45.570952718869485
0.14,31.222215454191247,131.01039312033683,3.2737880595608355,4.184830647080848,0.000257138757548,42.32232525579263,0.0004369426767266,3.329727443445437,486.2390860568421,5.269261304374574,2.158791628597544,69.99913473613935,6.515851355725497e-08,120.00000064630268,17.000925061330125,1.274,1.0267449573927567,0.0,0.0,0.0,0.0154850332441425,6.382432869666793e-10,-0.0006690086306358,2.8426433029675884e-08,1.0948547100483978e-05,4.184830654966803,59.74181173116622,5.269301695636157,42.45310707234106
0.15,31.222215353826755,131.0103933263496,3.3242182719560263,4.21963947489699,0.0002846467688673,40.886944113003565,0.0004726792395108,3.325585650885676,472.5421858721398,5.6781946837482895,2.329510773545807,69.99875162806286,1.0876776246115984e-07,120.00000079954532,19.742017654108928,1.274,1.0267115958081523,0.0,0.0,0.0,0.0166867950518804,9.204756288136623e-10,-0.000865746478554,4.08948221429571e-08,1.526771148078443e-05,4.219639484480408,57.84996018384879,5.678239395958187,41.02196629910223
0.16,31.222215247130432,131.01039354534575,3.3775922280208457,4.253495568077899,0.0003118339050386,32.26872905470846,0.0005078415214353,3.32090791922544,391.1218908297597,6.081244877834229,2.4981889727471702,69.99825581174558,1.7187028096464329e-07,120.0000009800088,22.644030778355887,1.274,1.026675762255412,0.0,0.0,0.0,0.0178712695992133,1.2856146928958252e-09,-0.0010961187242953,5.6923362293832417e-08,2.0702404729358337e-05,4.253495579487569,56.06022383757386,6.081293860589489,32.43916312841722
0.17,31.22221513260033,131.01039378041813,3.4348437275053194,4.364838523348639,0.0003448792023946,40.840448242802736,0.0005326487904353,3.3162727284953744,471.78125980632416,6.362544479165355,2.6250789114832647,69.99762801982864,2.5997588617291615e-07,120.00000119506798,24.78723182122683,1.274,1.0266409836796937,0.0,0.0,0.0,0.0186979513961862,1.747791994374917e-09,-0.0013624931601664,7.706724512977917e-08,2.6923621797558364e-05,4.364838536947241,54.85936171416122,6.362598652663785,40.97486885600156
0.18,31.222215014088988,131.01039402363364,3.4935801365785646,4.353948305387995,0.0003681615230806,33.992183768165326,0.0005718025428208,3.310131992647221,407.1015672119096,6.81502088160835,2.810667639293692,69.99684761766231,3.794979223522764e-07,120.00000144728236,28.437950785509614,1.274,1.0266048342046536,0.0,0.0,0.0,0.020027681385988,2.3221419748804155e-09,-0.0016616990447559,1.0147209890543081e-07,3.517105786247627e-05,4.353948320923495,52.99157233768714,6.815078712285162,34.152972512863755
0.19,31.22221488419521,131.01039429023237,3.558399965607869,4.432620772533925,0.0003996774584738,38.45149959021069,0.0005986099513107,3.304145139297767,448.95313283182486,7.1223367465208405,2.946425726785696,69.99589577323147,5.440084577183829e-07,120.00000176148238,31.060341085698347,1.274,1.026566130444714,0.0,0.0,0.0,0.0209308229359413,3.022391489754689e-09,-0.0020041563310821,1.3135864879722746e-07,4.433199397898183e-05,4.432620790516937,51.77883352025967,7.122399527709208,38.59320142454953
0.2,31.222214751373183,131.01039456280608,3.624052454705669,4.443889400961181,0.0004246617145652,35.23432408779927,0.0006337972852267,3.2968110145188256,418.5156301991588,7.530482904611057,3.1167566004785483,69.99474776398331,7.478025600151903e-07,120.00000211715036,34.72195181863731,1.274,1.026529240027363,0.0,0.0,0.0,0.0221302820454282,3.866698391504749e-09,-0.0023849544920781,1.668144671071589e-07,5.57780533277244e-05,4.443889421210987,50.22448880200342,7.530549610317194,35.38822625098952
0.21,31.222214608673173,131.01039485566503,3.6948551453492566,4.493351735844891,0.0004538195602194,33.79371564104691,0.0006629296043866,3.2891790438445727,404.8187610144608,7.868284042829251,3.2629204975089228,69.99338155599101,1.0150082652278477e-06,120.00000255293388,37.906665490338085,1.274,1.0264923657015164,0.0,0.0,0.0,0.0231230169900677,4.871073773182836e-09,-0.0028117605859743,2.089322918608601e-07,6.870935089180403e-05,4.493351758715364,48.992529909481824,7.868355328639073,33.95340801819282
0.22,31.22221446109996,131.01039515850383,3.767700382407304,4.5412639153933885,0.000482649303782,41.008966751568416,0.0006914639179131,3.2808061382386606,472.5421858721387,8.20057841132235,3.4071691679735228,69.9917708347139,1.3454961520984431e-06,120.00000305929996,41.175744234065135,1.274,1.0264494137127138,0.0,0.0,0.0,0.0240995709751246,6.054779813287368e-09,-0.0032829112061357,2.580881224843564e-07,8.3609968899004e-05,4.54126394098788,47.82515604752711,8.2006542256977,41.13999323561041
0.23,31.22221430675399,131.0103954752338,3.843768625625224,4.52371495179584,0.0005047555656171,33.98493478127787,0.0007294889663961,3.2705214710765107,406.340642146096,8.647938096586296,3.5908865300848416,69.98989017772566,1.7539876018835507e-06,120.00000365514876,45.79040229326471,1.274,1.0264133390858623,0.0,0.0,0.0,0.0254142776666487,7.436335125872812e-09,-0.0038001790077148,3.1489825108822685e-07,0.0001020628978177,4.523714979897577,46.31461705147579,8.648017383405135,34.14194053232237
0.24,31.222214142622448,131.0103958120587,3.92493179063287,4.57837522350066,0.0005351929930195,35.051650311058864,0.0007555049947555,3.26053011385611,416.2328240017099,8.954297884844461,3.72617527247482,69.98771316795013,2.25257161141768e-06,120.0000043564586,49.09180568115741,1.274,1.0263750048312463,0.0,0.0,0.0,0.0263146218848643,9.034877387788232e-09,-0.0043732521010013,3.809642748985157e-07,0.00012161410144,4.578375254714954,45.32798984252032,8.954381952763216,35.20297212911011
0.25,31.22221397517227,131.0103961556623,4.0071748888306855,4.6034117733065,0.0005618935542827,36.03738579534623,0.000785606492708,3.249069743648399,425.3640807915084,9.311611941121669,3.8789349536029696,69.98520781816889,2.8559738498748624e-06,120.00000517181904,53.08749562138344,1.274,1.0263373768840591,0.0,0.0,0.0,0.0273647110956883,1.0873791100894836e-08,-0.0049950711786164,4.5609738277273444e-07,0.0001444478241125,4.603411807525074,44.2165428352526,9.311700203154778,36.183554686886296
0.26,31.22221379934012,131.01039651647062,4.09364247475714,4.621386912291471,0.0005881033207375,39.29107511182762,0.0008162761165496,3.236407051295005,455.80158342417656,9.67833954512075,4.034902068846398,69.98234620927953,3.5784678110229355e-06,120.00000612171208,57.350948423913096,1.274,1.0263006300381676,0.0,0.0,0.0,0.0284424679130479,1.2973286442992724e-08,-0.0056712051373577,5.414206381221602e-07,0.0001704578711045,4.621386949630312,43.12063533194282,9.678431924174348,39.42414126789902
0.27,31.222213616776543,131.01039689108487,4.183310605341074,4.617158109135719,0.0006115457810536,35.90419462403674,0.0008503454714941,3.221982799915672,423.8421996598744,10.088790784535757,4.205862468567124,69.97909721779352,4.436165972465058e-06,120.000007221354,62.31798301949865,1.274,1.026260090595354,0.0,0.0,0.0,0.0296487219805601,1.5355910600537293e-08,-0.0064045199323113,6.379142666348734e-07,0.0002006609239367,4.617158149547818,41.94410287616451,10.08888684592241,36.048472443180565
0.28,31.22221342607797,131.0103972823952,4.277051150896916,4.642105655370123,0.0006389739579882,41.51133203546672,0.0008785747638736,3.2071101123224945,476.3468732012228,10.432377224420517,4.35383399240675,69.97542808435722,5.446665372087172e-06,120.00000849080963,66.63429581008447,1.274,1.0262212716723291,0.0,0.0,0.0,0.0306584788590473,1.8045308789081613e-08,-0.0072006835403936,7.469524967369969e-07,0.0002332868227611,4.642105699250441,41.0023231023774,10.432477594215127,41.63503624837164
0.29,31.22221323001776,131.01039768469093,4.373143569786686,4.62134615173668,0.0006600657405645,33.17552944492765,0.0009148746278066,3.1894209319791806,397.9703104221098,10.876662296046485,4.536381530986506,69.9713027936179,6.629751536885327e-06,120.00000994797426,72.43000748232016,1.274,1.026183007522519,0.0,0.0,0.0,0.0319641703260467,2.1067646517035105e-08,-0.0080566154554079,8.688043379161898e-07,0.000272130659453,4.621346198772975,39.83162628795024,10.876765978930557,33.32848872465723
0.3,31.22221302403368,131.01039810736614,4.4744193758467325,4.664362353358112,0.0006905183788532,31.08096762732793,0.0009381960428197,3.172549142946348,378.1859457108735,11.168362145070317,4.66647911311536,69.96668711012893,8.005507138509574e-06,120.00001161892672,76.36634300732833,1.274,1.0261430389738484,0.0,0.0,0.0,0.0328214509167604,2.4447409007156216e-08,-0.0089829108229115,1.0056222251461646e-06,0.0003115527202986,4.664362404357781,39.09908960432563,11.168470611443622,31.242464973103964
0.31,31.22221281503337,131.01039853619727,4.576593712520673,4.700143580504286,0.0007196683316923,32.79732593144512,0.0009620705970519,3.154230688182399,394.1656220930229,11.470279728974068,4.800072153432283,69.96154070456518,9.597499105113692e-06,120.00001352112182,80.55022837857167,1.274,1.0261054058068628,0.0,0.0,0.0,0.0337087616009043,2.8214060606649844e-08,-0.0099686353219717,1.1565909895184251e-06,0.0003550834484269,4.700143635477137,38.36463422765983,11.47039277421126,32.94865339301887
0.32,31.222212598991007,131.01039897947376,4.68216432480395,4.718667719113184,0.0007464384342556,35.7316568886908,0.0009885845337584,3.133859770838664,421.5593934624264,11.808280530415894,4.946054328851105,69.95582953472353,1.14278227255889e-05,120.00001568218067,85.36654007972253,1.274,1.026068246703101,0.0,0.0,0.0,0.0347021168382987,3.2392058795580455e-08,-0.0110163301561155,1.3226102501723267e-06,0.0004039614423012,4.718667778018562,37.5686120062341,11.808397780690962,35.8688218659563
0.33,31.222212376029034,131.0103994369436,4.791055524254013,4.72141404831576,0.0007708346814671,35.42013590291081,0.0010176135371143,3.1111955852784385,418.5156301991632,12.181577273013426,5.104163223586657,69.94951809396906,1.351997394754887e-05,120.00001812674968,90.84831229869296,1.274,1.0260310883392356,0.0,0.0,0.0,0.0357992034445943,3.700677535501642e-08,-0.0121310534481307,1.5051409581878843e-06,0.0004588955105349,4.721414111097893,36.7208578211118,12.181698355442045,35.55651229220977
0.34,31.222212145785647,131.0103999093516,4.903491659547144,4.73024573449122,0.0007962944975467,27.63851074646407,0.0010446307681611,3.0871492806781062,345.4656368807584,12.53557620048282,5.2556261014174765,69.94256797855994,1.5899658158227497e-05,120.000020882338,96.20413272674828,1.274,1.0259901535019136,0.0,0.0,0.0,0.0368395817555172,4.208561016221623e-08,-0.0133180771902383,1.7057647550599631e-06,0.0005184333231541,4.730245801363397,35.94841996438923,12.535701282129995,27.810389570354005
0.35,31.222211909310875,131.01040039453565,5.018822212845608,4.780248518778662,0.0008286678570753,30.332092807652543,0.0010618579815451,3.063967690608957,370.5765700527057,12.774786382148209,5.367579971644358,69.93493776125636,1.8594985713558667e-05,120.00002397748868,99.9096898192772,1.274,1.025950003202184,0.0,0.0,0.0,0.0375426220587071,4.7658312175989686e-08,-0.0145774693288123,1.9252724355785177e-06,0.0005782798420984,4.780248590437683,35.44790728185619,12.774916548990808,30.486451961956565
0.36,31.22221166933814,131.0104008868675,5.135354490370708,4.798132156899578,0.0008554457330409,34.32674769697476,0.0010851169437774,3.0374319611165923,407.8625232777224,13.09301701329486,5.506730645516068,69.92658597246795,2.163521613217148e-05,120.0000274401514,104.94818266210537,1.274,1.0259105142325406,0.0,0.0,0.0,0.0384778908056978,5.3755109608570216e-08,-0.0158991451700967,2.162609490834569e-06,0.0006464142451675,4.798132232978766,34.796094028187134,13.09315138639638,34.46087058603792
0.37,31.222211421355144,131.01040139563804,5.255882891363927,4.797392186816851,0.0008791822061288,32.551601855236584,0.00111162791192,3.0078619428913056,391.1218908297639,13.457513730739372,5.661815946371007,69.91747693543164,2.5047738471809164e-05,120.0000313040604,110.87154396328836,1.274,1.025872170958032,0.0,0.0,0.0,0.0395491312153729,6.040098808671168e-08,-0.0172926678053148,2.420031948898497e-06,0.0007226353721561,4.797392267189059,34.07332166419882,13.457651832357364,32.69027405888565
0.38,31.22221116634284,131.01040191882743,5.379799334000849,4.811698494594017,0.0009057112478668,34.02947987649063,0.0011338447913587,2.9774881690446744,404.81876101445977,13.77554886562956,5.800899861213392,69.90756948297444,2.886339581486796e-05,120.00003560072224,116.17243393848278,1.274,1.02583050512925,0.0,0.0,0.0,0.0404838339452728,6.762496638941508e-08,-0.0187646375218858,2.69955777313946e-06,0.0008026686661094,4.8116985796350695,33.46655348088405,13.775691134419684,34.15949264475229
0.39,31.222210906095896,131.01040245274032,5.505993307722699,4.813508003664984,0.000929862892873,29.00025983045028,0.0011579891265804,2.9442136901860865,357.6406249338268,14.124492165837273,5.950648592462506,69.8968186645841,3.311602501056718e-05,120.00004036395212,122.13093644173792,1.274,1.02579027384009,0.0,0.0,0.0,0.0415093739609825,7.545934774906889e-08,-0.020311592409804,3.0013532510753577e-06,0.0008908380763632,4.813508093268025,32.821616487639595,14.124638228358922,29.149330452482886
0.4,31.222210638473225,131.0104030017851,5.635788650457906,4.841647069358873,0.0009592124397379,27.71178845184976,0.0011749448424961,2.91135549588368,345.4656368807565,14.390874239274588,6.07193451174791,69.8851815212744,3.783947407715338e-05,120.00004563180136,126.77947425345651,1.274,1.0257493418632293,0.0,0.0,0.0,0.0422922854866381,8.39343718693383e-08,-0.021938519432511,3.3271332720311508e-06,0.0009803271643914,4.841647164150728,32.348088166612904,14.391024912012275,27.864299944624147
0.41,31.22221036681104,131.01040355909262,5.767123077463226,4.86553909860892,0.0009876699832274,31.306062598221665,0.0011918093836199,2.876450850006428,378.9468707766882,14.663028799871563,6.195223154320929,69.87261222561014,4.307011032901644e-05,120.0000514391194,131.6183642808765,1.274,1.025708445186429,0.0,0.0,0.0,0.0430921644173401,9.308325447883581e-08,-0.0236371933433427,3.6760977501392174e-06,0.0010761942383903,4.865539198612839,31.87689439156756,14.663183942709727,31.437931330109585
0.42,31.22221008906472,131.01040412887247,5.901259531771367,4.867510642114694,0.0010118258958528,35.308283402190774,0.0012128114559048,2.8374461227958245,416.23282400171047,14.9952917972178,6.33928625560071,69.85906967380902,4.884273094936628e-05,120.00005782486392,137.64909586091787,1.274,1.0256701057426505,0.0,0.0,0.0,0.0440686959134695,1.0293499639582845e-07,-0.0254093547296826,4.049238334851429e-06,0.0011830797791891,4.867510747027452,31.315270489291198,14.995450734457847,35.422111438762386
0.43,31.222209804115888,131.01040471342728,6.038886819939341,4.854590670645608,0.0010330089741511,31.00586934514032,0.0012363751872706,2.794478603999558,375.90313951343126,15.369430568701889,6.497852263156962,69.8445117629242,5.519340856908871e-05,120.00006482835984,144.60167924299955,1.274,1.0256308158337524,0.0,0.0,0.0,0.0451682983415116,1.135186446762958e-07,-0.0272634397889413,4.449073329427772e-06,0.0013010625065656,4.854590780289497,30.70250814963406,15.369592833372094,31.13154422839874
0.44,31.22220951192321,131.01040531284193,6.180028459770617,4.866912332640401,0.0010595850174406,28.57707721036899,0.0012525768202179,2.752165534925872,353.07501253892326,15.659290812546615,6.627318538707029,69.82889155423543,6.216182865383864e-05,120.00007249162944,150.1053167542629,1.274,1.025586171750536,0.0,0.0,0.0,0.0460202245100907,1.2486676023179565e-07,-0.0292060158163984,4.8779154055816594e-06,0.001420032405556,4.866912447705031,30.24619499837236,15.659457251771938,28.709297424144207
0.45,31.222209215425703,131.01040592106523,6.322872201489905,4.881836476567178,0.0010866574689855,33.31904824532484,0.0012669045761511,2.7082028218433374,397.2093853562887,15.934249290371609,6.751662050993672,69.81215834018458,6.97909417564726e-05,120.00008085697964,155.42080512416243,1.274,1.0255397023523487,0.0,0.0,0.0,0.0468283602442113,1.3701614206272197e-07,-0.0312276295846745,5.334643585560923e-06,0.0015449645531859,4.8818365972149325,29.82567893138932,15.934419982127675,33.428929688274074
0.46,31.22220891307435,131.0104065412864,6.468371919199588,4.869610441729251,0.0011078049156487,38.95909776354321,0.0012868374716666,2.6582856015412624,449.7140588976424,16.292139278621757,6.904766425053949,69.79426683863348,7.812149592850748e-05,120.00008996920153,162.4785746623087,1.274,1.02549635315424,0.0,0.0,0.0,0.0478802236363867,1.499987870203256e-07,-0.0333272350234362,5.819761874615242e-06,0.0016858511402973,4.869610567434908,29.29014635640275,16.292313292210977,39.04968351401366
0.47,31.22220860266524,131.01040717804253,6.6178810515614845,4.838450928223533,0.0011247917292402,26.253747818137555,0.0013104398935566,2.6026193242279367,331.0078106302504,16.710658191447514,7.078951441335346,69.77517236812905,8.719457259907165e-05,120.0000998741591,170.9309671061642,1.274,1.025453319323251,0.0,0.0,0.0,0.0491102725711187,1.6384464803343264e-07,-0.0355167087264168,6.3368207228363735e-06,0.0018427306558807,4.838451058652396,28.68386015667837,16.710834873319172,26.382435512333956
0.48,31.222208284201663,131.0104078313267,6.771393590864176,4.869339340099417,0.0011561785713505,25.860860976019296,0.0013165328518772,2.5543454292827983,327.20312230115803,16.911139899671,7.177575416403102,69.75482343794755,9.70562828082882e-05,120.00011062072316,175.0543877818846,1.274,1.0254092882449153,0.0,0.0,0.0,0.0496995461609974,1.7858865391586845e-07,-0.0378054080201581,6.88909442277235e-06,0.0019849793891693,4.869339477030596,28.40887970825325,16.911321511776286,25.986704537635287
0.49,31.22220796480208,131.01040848648364,6.924537656029012,4.881367714530694,0.0011829003785372,32.565703383222065,0.0013261973190012,2.5011623511055703,389.6000096981238,17.169005224738054,7.296160258358563,69.73316318155707,0.0001077573203115,120.000122255028,180.4309832312717,1.274,1.025367445590036,0.0,0.0,0.0,0.05045746454003,1.942747077649401e-07,-0.0401641298712614,7.47069711110948e-06,0.002140948887153,4.881367857509675,28.058569663954906,17.169191034294997,32.66161128464712
0.5,31.222207637929923,131.01040915697027,7.081324512896956,4.862566137860805,0.001202418260511,33.47759680712428,0.0013425340759632,2.4399894027711366,397.970310422106,17.52898693231981,7.450304424940405,69.71015149227495,0.0001193385310595,120.0001348274002,188.0736471953394,1.274,1.0253278572281015,0.0,0.0,0.0,0.0515154948878309,2.109295159784217e-07,-0.0426011733481599,8.084173008518589e-06,0.0023184335011768,4.862566286171007,27.57768313050809,17.529175807738486,33.56639745442473
0.51,31.22220730314019,131.01040984370235,7.24202048914867,4.8479762258125,0.001223054804074,25.49162310288008,0.0013562860883156,2.3767006597692686,323.39843497208153,17.86914397471067,7.597652147346554,69.68574349602717,0.0001318441288964,120.00014838524436,195.4407439266201,1.274,1.025286455263166,0.0,0.0,0.0,0.0525152689856776,2.2858192086249162e-07,-0.0451315948093539,8.734206149830708e-06,0.002503767471626,4.847976379721193,27.13799345359824,17.86933609171003,25.602178740977283
0.52,31.222206962738102,131.01041054193402,7.405210501673173,4.865306299521403,0.0012516517170965,30.733671928447727,0.0013599291289974,2.317711624364424,372.098451184342,18.08534843773428,7.701914987606457,69.65988568649581,0.0001453248538387,120.00016298000436,200.19561780583155,1.274,1.0252426840672306,0.0,0.0,0.0,0.0531507657929359,2.4726951523704535e-07,-0.0477531686556663,9.421346966092632e-06,0.0026812161964639,4.865306460134566,26.8699055233151,18.085545046726228,30.820940596104087
0.53,31.222206619320115,131.01041124632013,7.569307468221277,4.848802699234936,0.0012715119568563,32.301199055744725,0.0013711327835325,2.2490252325653923,386.55624643486095,18.41963113311156,7.8474319110539055,69.6325258319474,0.0001598315062727,120.0001786629144,207.6614205945027,1.274,1.0251993415311351,0.0,0.0,0.0,0.0541332845214831,2.67031759303889e-07,-0.0504479325599339,1.0141887756417996e-05,0.0028848299490111,4.848802865552398,26.45837260670532,18.419830861742675,32.37940050117613
0.54,31.22220626697288,131.01041196903336,7.737918664599091,4.831496690588052,0.0012913635058467,28.31291960103712,0.0013809098107221,2.177242866245296,349.2703242098436,18.75116898748492,7.992112829440902,69.60362200959217,0.0001754082864028,120.00019548734956,215.20067397992847,1.274,1.0251561018460285,0.0,0.0,0.0,0.0551077428911958,2.878941684235108e-07,-0.0532336286085667,1.090122304443916e-05,0.003098869611663,4.831496862756785,26.061835558272342,18.751371834390056,28.396510432451375
0.55,31.222205908994248,131.01041270328463,7.909026079894722,9.733191319765169,9.297818225662493,30.185670857136675,-0.5263022773373187,1.815646682234368,365.2500005919912,20.15488583947672,8.113323699629928,69.57312211246325,0.0001921068626005,120.00021350480982,248.62252994758688,1.274,1.025112921033824,0.0,3.7596053489187766,0.0,0.0592332356177263,3.0989272306468813e-07,-0.0561100530405476,1.1700476995263424e-05,0.0035107731766435,13.429437566264813,34.42032336603195,21.608982020748854,30.244806034379348
0.56,31.222205546564343,131.01041344664463,8.081909946161325,-6.101448871242854,-0.0237089741733602,28.046748298465367,-0.1204015134881174,2.495670732757586,346.22656194657776,18.042191310787583,8.247294810559758,69.54097415464405,0.0002099796112633,120.00023276987916,199.22835723657184,1.274,1.0250709539098009,0.0,3.773321678167647,120.00005142262596,0.0530243367167633,3.3302698971832e-07,-0.0625881051614596,0.0063968696062511,0.0035055456536863,6.101494760909393,27.131666581711357,18.038467113939507,28.15782234208219
0.57,31.222205178420328,131.01041420495483,8.258296221886255,-5.960904162082924,-0.0186520962195989,27.72497244551853,-0.121415916783073,2.552675912833858,343.1828296833045,18.30169666940256,8.379818884525848,69.50511423405666,0.0100165048196521,120.01070091644786,204.99720392359785,1.274,1.0250279191823897,0.0,3.786930847216913,120.00005142262596,0.0537871060642781,3.623868587881554e-07,-0.059180177007744,0.0063811449066026,0.0033622871252757,5.960933238522636,26.790861861473164,18.29876680503143,27.842503358095733
0.58,31.222204803445024,131.01041497390457,8.436460393651473,-5.833304565680892,-0.0218887322110842,36.64829460475355,-0.122117939297212,2.611800711591535,426.12500585731766,18.567675252728257,8.510841381591375,69.47120630147558,0.0197657700907235,120.02111029800707,210.99534065227093,1.274,1.024981594484354,0.0,3.800559440921576,120.00005142262596,0.0545689038282776,3.902326535397725e-07,-0.0557538399830636,0.0063679040644324,0.0032136018667818,5.833345490886238,26.444165538519947,18.564236978796355,36.74144680309931
0.59,31.22220442321117,131.01041575506787,8.617313354993588,-5.666827736375088,-0.0248955746062294,29.61512718056396,-0.1236015453477143,2.667810790749769,360.68438819710633,18.968622641498254,8.689593326703001,69.4392609115025,0.0294646592115961,120.03146811145604,220.20230126228705,1.274,1.0249386802161349,0.0,3.814086112341079,120.00005142262596,0.0557473696845016,4.1655746391659545e-07,-0.0523023407210505,0.0063524014916196,0.0030797051232249,5.666882243447959,25.9423523072777,18.964712053906812,29.735303087041697
0.6,31.222204032979928,131.01041655648328,8.803010372316416,-5.548159763167592,-0.0279991000967943,26.26419225211956,-0.1240882480172369,2.7322334483436195,329.4859594986072,19.220364762290664,8.815960190689918,69.40929249658376,0.0391127622879837,120.04177377255506,226.08188553050067,1.274,1.024891335813742,0.0,3.82757889916072,120.00005142262596,0.0564873393678842,4.41343321440421e-07,-0.0488025033933467,0.0063344257927056,0.0029117105155417,5.548230191277512,25.63131521250829,19.21596667410715,26.40621692264609
0.61,31.222203640125606,131.0104173632164,8.98919383079405,-5.435374395887853,-0.0310630665751923,30.854619964932592,-0.1244188565532819,2.79887404056228,372.0984511843332,19.457183919687896,8.937178658513087,69.3813287453625,0.048709381105735,120.0520263763894,231.68329424924408,1.274,1.0248423929069768,0.0,3.841191027417475,120.00005142262596,0.0571834548034764,4.645750679107045e-07,-0.0452841805627755,0.0063140412159476,0.0027350369780654,5.435462891170316,25.343888712709912,19.4523045448394,30.981554982395835
0.62,31.22220324111153,131.01041818253705,9.17799592819416,-5.300026261351454,-0.0339330892627612,38.47536159910388,-0.1252070502493782,2.864712974574436,442.86563930529206,19.779434844365767,9.088705794436668,69.35538026471016,0.0582538938689251,120.0622251110237,239.41680715853707,1.274,1.0247996097896497,0.0,3.85460140931092,120.00005142262596,0.0581306540648997,4.862449284013539e-07,-0.0417517393975638,0.0062911973280062,0.0025634053297735,5.300134577483472,24.966046132011165,19.77410464748029,38.5820645820558
0.63,31.22220283402348,131.01041901836842,9.370554728642244,-5.143800605655297,-0.0365783355148611,21.599920925866662,-0.126472798770267,2.9308095912844943,286.11251274707456,20.192858976711115,9.272665358710036,69.3314551565471,0.0677455870596983,120.07236906529168,249.52523446653325,1.274,1.024756158874558,0.0,3.867959612652288,120.00005142262596,0.0593458134114146,5.063420252902562e-07,-0.038192068940952,0.0062657130979939,0.0023938216978211,5.143930311429574,24.499335032034445,20.18711326559471,21.798216079140204
0.64,31.22220241798856,131.0104198724922,9.567380926578776,-5.063274681420693,-0.0396520938658475,21.193073710299576,-0.1258913430184582,3.006136538528825,282.3078244179702,20.31635664792555,9.35409098118934,69.30956903337024,0.077183487241115,120.08245704954544,252.58194078656183,1.274,1.024708534665538,0.0,3.881351713408385,120.00005142262596,0.0597088995371051,5.248491172045278e-07,-0.0345911626846071,0.006237363901541,0.0021813410942083,5.063429538667903,24.353889910157267,20.31012811208332,21.405585224625746
0.65,31.222202003075388,131.01042072423928,9.762445153731337,-4.963141576083776,-0.0425382132852734,37.83656161136744,-0.1257170418851997,3.0803563657881896,436.7781447787504,20.517924853845024,9.463199168720465,69.28974551141498,0.0865663141919159,120.09248753443536,257.613948825871,1.274,1.0246641738210605,0.0,3.894806981887823,120.00005142262596,0.0603014325344846,5.417644117766142e-07,-0.0310032953888763,0.0062065113790412,0.0019744482317381,4.96332341034425,24.127561506044007,20.51124296754118,37.96195193461048
0.66,31.222201580270426,131.0104215921064,9.9611415933109,-4.804000729601305,-0.0448621834936061,32.097529161251444,-0.126966395666946,3.152180184818772,383.5125151715984,20.970510390774663,9.661426408807245,69.271977148801,0.0958932117276315,120.1024594651482,269.09908437317085,1.274,1.0246195561629028,0.0,3.9079161801975433,120.00005142262596,0.0616317030661829,5.57089624638306e-07,-0.0274163921920329,0.0061729916148777,0.0017844955811713,4.804209706810958,23.648328241569,20.96346345619034,32.25218967202971
0.67,31.22220114552262,131.01042248438495,10.165870188659296,-4.6865532512692525,-0.0474516561016169,21.92798063299161,-0.1271069569577576,3.229290052975007,289.15624401033847,21.254565036822346,9.799975918635043,69.25626341266569,0.1051630661546266,120.11237150808364,276.4331511641336,1.274,1.024572383541697,0.0,3.9210477385013167,120.00005142262596,0.0624666754530744,5.708104706307251e-07,-0.0237895107005175,0.0061362912585552,0.0015693700698437,4.686792934704229,23.35133252742346,21.247111348963944,22.164855178087798
0.68,31.222200708665312,131.01042338090753,10.370761441334585,-4.59707140646254,-0.0502489172448867,27.508555888785803,-0.1264312079671576,3.3089565386295248,340.89999248584934,21.41527599780761,9.894756582615695,69.24262720143173,0.1143740809371072,120.12222158554027,280.6237914814209,1.274,1.0245245285832842,0.0,3.9343499563360056,120.00005142262596,0.0629391467355594,5.829201849509066e-07,-0.020154894818849,0.0060966270473085,0.0013396251786622,4.597345435068249,23.180409315667752,21.407382917356063,27.707143939990264
0.69,31.22220026824389,131.01042428465982,10.57668861599739,-4.4785917812703735,-0.0526886222776527,33.99211719086082,-0.1264595807322662,3.388558417793714,401.0140726853658,21.710315978388632,10.037265037904712,69.23107296251617,0.1235246914768074,120.13200788070569,288.40370616245235,1.274,1.024479631064582,0.0,3.947434587726641,120.00005142262596,0.0638064126576577,5.934240025903817e-07,-0.0165358299717812,0.0060541869677095,0.0011141986916852,4.478901068113691,22.882980629027077,21.70203967012134,34.16083065871752
0.7,31.22219981870678,131.01042520700636,10.786948230518458,-4.347271859652061,-0.0548964697472878,28.408747456674167,-0.1267862956449369,3.4699050562001195,349.270324209851,22.07470757990022,10.204472455459172,69.2215918105193,0.1326135103262906,120.14172877267752,298.16021865245693,1.274,1.0244351749185203,0.0,3.960380909306141,120.00005142262596,0.0648775100101149,6.023211666805632e-07,-0.0129124463786092,0.0060086431608326,0.000884637251858,4.34761779125722,22.52794247147657,22.06608446391625,28.620154575419356
0.71,31.22219936158333,131.01042614480366,11.000622837547043,-4.240266766341501,-0.0573133665468284,23.234700965897645,-0.1263364734874366,3.553189491691945,301.3312640634036,22.32341258808261,10.330575783622033,69.21418623130906,0.1416386797465534,120.1513821323317,304.9102617793257,1.274,1.0243880468141104,0.0,3.97339490391376,120.00005142262596,0.0656086115589602,6.096063301150229e-07,-0.0092764817735238,0.0059597686499025,0.0006426828394505,4.240653378026423,22.286930463366573,22.314409827019198,23.505157847653102
0.72,31.22219890095217,131.01042708970064,11.215290771413327,-4.142678578964497,-0.0597937943132556,28.573725757798623,-0.1255072586317801,3.637172834648077,350.7922053414578,22.522713905717843,10.439084765814885,69.20886344057999,0.1505980011751755,120.16096546523352,310.37258732485253,1.274,1.024337302174265,0.0,3.9863823926246695,120.00005142262596,0.0661945193525977,6.152829040523168e-07,-0.0056500062673683,0.0059077608204068,0.00039492399293,4.143109324406899,22.09424729418038,22.51332152017548,28.804558354242403
0.73,31.222198435418846,131.01042804454988,11.43178073992754,-4.025723002949006,-0.0619412991245087,36.29535930318658,-0.1251737573703802,3.7227327758369024,422.3203185282354,22.827892193546656,10.585227644039955,69.20561802037427,0.1594894556665198,120.17047647732066,318.83391599743334,1.274,1.024292465384646,0.0,3.999227175871356,120.00005142262596,0.0670916057698757,6.193598388990532e-07,-0.0020438242266848,0.0058526945797964,0.0001447918765205,4.026198716563779,21.81184789844933,22.81816247892773,36.48599066405128
0.74,31.22219796149238,131.01042901648307,11.652158858774948,-3.894612235483825,-0.0637871134072134,22.48455866114404,-0.125212276310566,3.811038145127816,294.4828134710563,23.222189975903675,10.76305758467734,69.20443836714523,0.168311040235026,120.17991289707714,329.9362575984098,1.274,1.0242470321640116,0.0,4.011983315922282,120.00005142262596,0.0682506240787088,6.218405720863957e-07,0.0015556975064638,0.0057942557453449,-0.0001121124851279,3.895133757927337,21.4603386063733,23.21217032162976,22.805592911480847
0.75,31.222197479025475,131.01043000579068,11.876508378680455,-3.805469683623672,-0.0662196356535623,26.346797203144327,-0.1237785898066821,3.8973364175720167,330.24688556441737,23.371442235339263,10.853670797407757,69.20532068302984,0.1770602804277652,120.1892719485081,334.18377976116795,1.274,1.0241984712898409,0.0,4.024771203716091,120.00005142262596,0.0686894542333809,6.227237518202805e-07,0.0051588679319279,0.0057321354174858,-0.0003741590179101,3.806044942358042,21.32135098461856,23.36104048161034,26.633780714623324
0.76,31.222196996635343,131.0104309948624,12.09972810615942,-3.695563741572852,-0.0682473974997354,28.398977484880447,-0.1229324759116712,3.9859390385799625,349.2703242098581,23.647556400856207,10.989342382053064,69.20826706041956,0.1857342359707946,120.19855035122504,342.11929692877544,1.274,1.0241522053390697,0.0,4.037562434393307,120.00005142262596,0.0695011380735051,6.220264441494471e-07,0.0087243278566837,0.0056669630007888,-0.0006402140961694,3.6961929893436856,21.07980275170412,23.63683612726064,28.677600049510005
0.77,31.222196504717537,131.01043200331682,12.327505277881066,-3.583848053593688,-0.0701732067276489,26.502857596130173,-0.1220250127910269,4.075637898205728,331.76876669606884,23.93536409049732,11.129083141904024,69.21325593122474,0.1943306603174273,120.20774559034164,350.48998082382707,1.274,1.0241065975906936,0.0,4.050096371039135,120.00005142262596,0.0703471974528387,6.197586135509772e-07,0.0122684544347832,0.0055983431814204,-0.0009112286737112,3.584534101726422,20.833621209660176,23.924341311716333,26.814682081684136
0.78,31.22219600721204,131.01043302309748,12.557506002982922,-3.4784788468780814,-0.0721408151470562,21.644049070134933,-0.1207887852836664,4.1651380989508,286.8734378128874,24.18469568197579,11.255064452200452,69.22027508484662,0.2028467136457863,120.21685450664673,357.8221271829633,1.274,1.0240588105546735,0.0,4.0626950992835695,120.00005142262596,0.0710801795525014,6.15931070802051e-07,0.0157888820681603,0.0055261996058971,-0.0011848950918018,3.4792259181879706,20.62263631723392,24.17336383222539,22.041502341364815
0.79,31.2221955046977,131.01043405302008,12.789389607250495,-3.381912648404127,-0.074225455707634,31.02303308613604,-0.1191075157163226,4.253019270902995,373.6203323159581,24.370924238741825,11.358513304234602,69.22931096305939,0.2112793556524869,120.2258737348218,363.3459029997815,1.274,1.0240083170932772,0.0,4.075227088238162,120.00005142262596,0.0716277031321669,6.105591697101034e-07,0.0192765786487987,0.0054506149688778,-0.0014577403527631,3.38272614616267,20.46399395316089,24.35926493468504,31.313430686886797
0.8,31.222194998204404,131.01043509098096,13.02254826392936,-3.262691290553045,-0.0757562713810143,31.428879907546232,-0.1181454782012214,4.3460839342511965,377.42502064505805,24.722044923637668,11.520419612003572,69.24034483237901,0.2196255415700366,120.23479990950916,373.8826625647256,1.274,1.0239625010683884,0.0,4.087670855760329,120.00005142262596,0.072659860387952,6.036639262287808e-07,0.0227190417754846,0.0053717728798125,-0.0017427813312276,3.26356971205832,20.18261949988113,24.71014515982317,31.72817196373814
0.81,31.222194481655915,131.01043614936685,13.260579395784536,-3.1496215264611527,-0.0773371240850576,20.223712182307622,-0.1168278616520269,4.438708117192699,273.9374926939922,25.032653599830542,11.667791735195182,69.25335081072696,0.2278823411102695,120.2436298011565,383.3278702869483,1.274,1.0239149950770308,0.0,4.099978602707576,120.00005142262596,0.0735729591110976,5.95256784348986e-07,0.0261356150446745,0.0052890976700672,-0.0020300100349835,3.150569911130606,19.937925250700047,25.02050551647559,20.705417477841596
0.82,31.222193960181368,131.01043721771083,13.500449322952605,-3.058108623894373,-0.079362067106037,26.149658315739767,-0.1145418951122299,4.525035288239794,328.725004432774,25.17356207767523,11.754819252701658,69.26831407847469,0.2360459727371224,120.25235926397764,387.646581665485,1.274,1.0238644186635044,0.0,4.11235964160558,120.00005142262596,0.0739873005598608,5.853545754690686e-07,0.0295161816633191,0.0052026873877419,-0.0023054378225238,3.05913724948934,19.821336868788656,25.161095917311755,26.538532254732726
0.83,31.22219343698682,131.01043828947985,13.740262080403827,-2.9486051945719267,-0.0808761579042318,33.393313420618995,-0.1128404250792049,4.616391055037822,395.6875032246518,25.459374634526064,11.89307519642118,69.28521402407083,0.2441126493823921,120.2609841545838,396.4898505668365,1.274,1.0238188483711983,0.0,4.124654531916965,120.00005142262596,0.0748275311172426,5.739868444352192e-07,0.0328344873190156,0.0051131318619333,-0.0025936808521947,2.9497131675709314,19.602132035276803,25.446670641568694,33.711083941965704
0.84,31.222192904376943,131.0104393803494,13.984578734584613,-2.8304715823323767,-0.08207322188183,20.36361798704993,-0.111358982580848,4.711385968577742,275.45937482564227,25.82435272245888,12.059174500893004,69.3040150148179,0.2520792022004308,120.2695010092022,407.9296861762866,1.274,1.0237739661568126,0.0,4.136769047414573,120.00005142262596,0.075900445757309,5.611744200046813e-07,0.036105823652227,0.0050199017582981,-0.0028929110241048,2.8316602747475885,19.33216314162739,25.81146069532173,20.901829969895367
0.85,31.22219236413495,131.01044048667634,14.232347868011114,-2.7381581205769048,-0.0839175426204223,22.253707087428584,-0.1086569622185478,4.795555369754917,292.9609323393965,25.95811669924039,12.143255208441984,69.32469016232223,0.2599416409713438,120.2779054832975,412.15678045369566,1.274,1.0237227741398531,0.0,4.148934182782897,120.00005142262596,0.076293805205628,5.469360272582876e-07,0.0393354719963246,0.0049226761435457,-0.0031679300792405,2.7394427691222543,19.226702895131343,25.944934967183038,22.764811371344436
0.86,31.222191823976,131.01044159275125,14.4789968268978,-2.6354927779176407,-0.085398028253263,28.01811525898632,-0.1062658953110805,4.882898397292656,346.2265619465616,26.185444984100577,12.260257924481277,69.34721559384761,0.2676954097753531,120.2861926289556,419.39738454904415,1.274,1.023674789281455,0.0,4.161094402546499,120.00005142262596,0.0769621626049423,5.313070469880368e-07,0.042490875091078,0.0048223423569819,-0.0034519411898439,2.6368750181852154,19.05885018091241,26.17203069815769,28.44061834532842
0.87,31.22219127568881,131.01044271528804,14.729401137619902,-2.5248696502516847,-0.086557295957414,26.029715352146056,-0.1040731374536986,4.973431872730286,327.9640783669946,26.48996461867437,12.404291720978511,69.37154881344132,0.2753369479865592,120.2943585871754,429.1984189900516,1.274,1.0236288969245204,0.0,4.173016276021984,120.00005142262596,0.077857402287401,5.143172856271527e-07,0.0455799099679808,0.0047185505086388,-0.0037458652610276,2.5263519283491327,18.84243875227276,26.47636823559136,26.500791254684774
0.88,31.22219072044168,131.01044385189968,14.982874739344483,-2.4202968650630203,-0.0878278845403989,22.39131226098681,-0.1014738739724574,5.060089700516817,294.4828134710421,26.736078785700645,12.52748586731752,69.39765182100486,0.2828620801057437,120.30239884058317,437.20005702529465,1.274,1.0235805388426191,0.0,4.184944378161095,120.00005142262596,0.0785809881079433,4.95994469087514e-07,0.0486068965531531,0.0046109959721084,-0.0040316455588257,2.4218889453609465,18.668538461891416,26.722282819260844,22.95616844103984
0.89,31.22219016101252,131.0104449969319,15.23777130611208,-2.3197158710555708,-0.0891663727731954,24.611570182859406,-0.0985504655054172,5.142884584640761,315.02813424808807,26.937786927368,12.63481148816434,69.42548908987929,0.2902660599751411,120.31030826933376,443.8109169584209,1.274,1.0235293752791452,0.0,4.1968497728118335,120.00005142262596,0.079174063590633,4.763721970767074e-07,0.0515609681892514,0.0044999287902226,-0.004308827270091,2.3214280130622207,18.526120976260124,26.92378071193904,25.14335619822861
0.9,31.22218959701544,131.0104461511683,15.494324023301072,-2.21450334732926,-0.0902611087267418,27.24349287370537,-0.0957029431267761,5.227188707480517,339.3781423542166,27.19116110650512,12.760080574785803,69.45501887372556,0.2975442963544057,120.3180819318233,452.1879238453861,1.274,1.0234837388140003,0.0,4.208655753771808,120.00005142262596,0.0799189983945555,4.554877888338729e-07,0.0544333594856035,0.0043855603248795,-0.0045915392263483,2.216341148343392,18.35319459987778,27.176982930565504,27.740594168052176
0.91,31.222189026356133,131.010447318862,15.753787238587137,-2.107183245695046,-0.0911854016687205,20.5456353931126,-0.0928164923570478,5.311870755847672,277.7421810230785,27.473106025653045,12.895114350471,69.48619440752599,0.3046922995246262,120.32571500645392,461.6025043931005,1.274,1.023436404813438,0.0,4.220374767953369,120.00005142262596,0.0807479141991588,4.3337738058958454e-07,0.0572252852624055,0.0042677002593483,-0.0048769725804724,2.1091543943739097,18.165701998120344,27.458782662299623,21.221397680991807
0.92,31.222188449560576,131.0104484989385,16.01585563630345,-2.0086880270433034,-0.092400336003895,24.58391068074281,-0.0893515065667989,5.387434774227482,315.0281342480675,27.64169387448391,12.99010854019618,69.51896961819396,0.3117051398642104,120.33320220917248,467.27334436227096,1.274,1.0233859136578225,0.0,4.232064426375534,120.00005142262596,0.0812436614565214,4.100779074595105e-07,0.0599351537936468,0.0041462491305341,-0.0051391338830331,2.0108112576538586,18.05092610357135,27.627179669936307,25.167461165104076
0.93,31.22218787030405,131.01044968392887,16.278338308868037,-1.90324980317056,-0.0932280663372869,29.36482724508889,-0.0861061845768734,5.467114047723342,359.16250706547066,27.904481643731184,13.11785245111392,69.55329751525088,0.3185775601123368,120.34053791324892,476.1882473277828,1.274,1.0233407575091376,0.0,4.243710531999384,120.00005142262596,0.0820162825104993,3.856335390383121e-07,0.0625479038665653,0.0040217581536719,-0.0054140146486946,1.90553092039037,17.88099321313507,27.88983741977745,29.869546856618882
0.94,31.222187283213863,131.01045088474345,16.5444556543367,-1.7946362911269238,-0.0938073042918772,21.0913223841852,-0.0828842882060109,5.548536043523045,283.06875048378083,28.218996117525403,13.263356057844534,69.58912249591894,0.3253048538180738,120.34771710024133,486.97063529984655,1.274,1.0232914783978162,0.0,4.2552173442638175,120.00005142262596,0.0829409460667575,3.600854683548191e-07,0.0650683152413159,0.0038938478652924,-0.0056955114518284,1.7970855154348444,17.683783824143497,28.204260907207725,21.809103648365227
0.95,31.22218668946332,131.01045209899272,16.813517313797778,-1.6958758452438127,-0.0947893497350168,27.52928032348509,-0.0790012201488165,5.617175727430151,342.421873617488,28.38576086539956,13.356960330488368,69.62639168449843,0.3318815983644927,120.35473399144144,492.73057412605567,1.274,1.0232418269359267,0.0,4.266727155254899,120.00005142262596,0.0834313523636992,3.334750017778182e-07,0.0674961438975044,0.0037623166264725,-0.0059427831996804,1.698522086783436,17.57633928349848,28.370871395953323,28.09662220756507
0.96,31.22218609394689,131.01045331673936,17.082590606709452,-1.5890115131519016,-0.0952393105428456,26.939504650818865,-0.0754393289213579,5.693338205907198,337.09533515678265,28.690591463897974,13.49840281740406,69.66505205917197,0.3383018815815418,120.36158229328176,503.3571148794932,1.274,1.0231951201821403,0.0,4.278208792188867,120.00005142262596,0.0843275656606669,3.058511917098979e-07,0.0698147320025813,0.0036279221511197,-0.006212776620891,1.5918623651440549,17.39141862316257,28.675631314870508,27.53464548256763
0.97,31.22218548914005,131.0104545532524,17.356206343715225,-1.4848637397075457,-0.095741559161526,16.92264158325453,-0.0715829107159506,5.763971049440418,245.0218871929888,28.954635963068505,13.62527919493325,69.70504107690762,0.3445606294911217,120.36825663099452,512.6512427206561,1.274,1.0231476260761452,0.0,4.289538504303253,120.00005142262596,0.085103909640212,2.772595620978565e-07,0.0720310367973384,0.0034900643839837,-0.0064688268232559,1.4879464773350632,17.233225889548613,28.93959692112207,17.877479814761063
0.98,31.222184880108063,131.0104557982481,17.63132809232253,-1.3885616541122023,-0.0966395045997573,25.020332426946403,-0.0671521176925647,5.820117073513504,319.593746642963,29.07159098379189,13.70078535072498,69.74630015788382,0.3506517184187912,120.37475050874625,516.7874049950125,1.274,1.0230935628253934,0.0,4.300908253950508,120.00005142262596,0.0854479308827898,2.477489824849359e-07,0.0741370289873946,0.003349005793197,-0.0066846743045251,1.3919198370019543,17.159408262688576,29.056410893104623,25.688427490043445
0.99,31.22218426949471,131.01045704636442,17.906361848294715,-1.2839802126160853,-0.0968926631574559,27.407910962140257,-0.0631001350884969,5.886442180687251,341.66094855170127,29.36024657718937,13.83550973719681,69.78876612622996,0.3565691676081346,120.38105759771308,527.0869290168336,1.274,1.0230490803133316,0.0,4.3121906614469045,120.00005142262596,0.0862966222634857,2.173742511866832e-07,0.0761188395801443,0.0032055534486634,-0.0069313313432677,1.287630305229834,16.992449139665208,29.345026720505565,28.032976411402167
1.0,31.222183649429645,131.01045831355975,18.186075880356924,-1.1801791929546523,-0.0970771017770432,24.41817921178869,-0.0588740042138196,5.949314960040057,314.2672081822764,29.64445615552613,13.968280882291864,69.8323678783512,0.3623079273540945,120.3871725843818,537.3263728559239,1.274,1.022999484445133,0.0,4.323323072983694,120.00005142262596,0.0871322555966928,1.8618730153062337e-07,0.0779839982458436,0.0030589434891223,-0.0071697187673681,1.1841644980072823,16.83130133189205,29.629207327333216,25.132554399844793
1.01,31.22218302456813,131.01045959038893,18.467667976337964,-1.079433728128552,-0.0973609368537282,25.567125736351745,-0.0543523722832305,6.004124640144769,324.92031610370094,29.87205398284395,14.0811426995875,69.87703860244196,0.3678616404755117,120.39308876060343,545.5940276323146,1.274,1.0229507481225095,0.0,4.334499879368371,120.00005142262596,0.0878014998569398,1.5424159322306337e-07,0.0797274341429058,0.0029092805472101,-0.0073860843516188,1.0838151151976323,16.703285389427222,29.856760570005637,26.26271854346359
1.02,31.222182395396857,131.0104608758647,18.75084797556129,-0.9779861179400728,-0.0974565137228354,21.16795794702821,-0.0497722579128125,6.057910369359099,284.59063161543185,30.13202085224498,14.204791020731207,69.92270858952392,0.3732238682497634,120.39879934808108,555.1165094209986,1.274,1.0229039803623294,0.0,4.345607576164456,120.00005142262596,0.0885658910376504,1.2159349115141397e-07,0.0813419081937487,0.0027569499398832,-0.0076010255793876,0.9828294340980176,16.560728266098945,30.116712426248867,22.017792781475645
1.03,31.222181759838303,131.0104621741953,19.03688979802236,-0.8793625166762074,-0.0976938634629429,17.100145373881812,-0.0448981900638437,6.101653746872639,247.3046933904342,30.320457891200736,14.303484426647652,69.96930398679142,0.3783885073602267,120.40429794057468,562.0658575292991,1.274,1.022853416101322,0.0,4.356636056912545,120.00005142262596,0.0891200444281963,8.830064291923749e-08,0.0828249899491089,0.0026018889165221,-0.0077878000886146,0.8847721612360515,16.4575639216087,30.30511218244869,18.156188093927852
1.04,31.22218112104743,131.01046347898543,19.323879945984608,-0.7821643169706389,-0.0979652876531216,27.77730106002297,-0.0398424920544604,6.137708723579904,345.4656368807608,30.470046868973952,14.388543759765556,70.01674953860213,0.3833491378222913,120.40957780114675,567.6099077007657,1.274,1.0228049544826707,0.0,4.367635819911781,120.00005142262596,0.0895600170046401,5.4422824395728354e-08,0.0841694648357342,0.0024445805809993,-0.0079530436224461,0.7882750916684957,16.375849140619344,30.454658525071963,28.447346273050414
1.05,31.222180478503248,131.01046479129008,19.612142043890334,-0.6807801433358817,-0.0975774106299187,16.33149257987744,-0.0350214793987534,6.185097956522473,240.4562587980608,30.8003047502316,14.53503924532384,70.06496586116289,0.3880998329928641,120.4146327335634,579.9649210781273,1.274,1.022755494436122,0.0,4.378534082027389,120.00005142262596,0.0905310320498243,2.0021900328731852e-08,0.0853706837971244,0.0022853562579734,-0.0081537506491949,0.6877372365602549,16.20493800305692,30.784977333821235,17.46351376792167
1.06,31.222179826584465,131.01046612249175,19.905137665542263,-0.5852230849145932,-0.0978068774070806,23.700797271034222,-0.0296697758831094,6.208228662724417,308.1796836557233,30.90568833716801,14.604350325778288,70.11387091570724,0.3926349542165674,120.41945686452084,583.9239910543915,1.274,1.0227013895379469,0.0,4.389345479906783,120.00005142262596,0.0908410853189516,-1.4839325149343429e-08,0.0864316033132384,0.0021233862122817,-0.0082830907777905,0.5933396259401245,16.148501482995858,30.89032487625297,24.500423969942585
1.07,31.22217917583625,131.01046745123236,20.19640053754876,-0.48701550425096,-0.0974229819704921,28.084859204152064,-0.0245055282944373,6.241385983698651,348.5093681440431,31.17896183699555,14.73052906788558,70.16338432783776,0.3969473985394838,120.42404275731998,594.2793355870659,1.274,1.0226540159946436,0.0,4.4001998833766125,120.00005142262596,0.0916446192758613,-5.0098614705771575e-08,0.087341424052377,0.001959997956789,-0.0084440578641779,0.4966639811922377,16.010877600142525,31.16365867814716,28.77003329917211
1.08,31.22217851562337,131.0104687990473,20.49248327887519,-0.3892553820253883,-0.0968650361377855,18.539197790082344,-0.0192437509796836,6.272275273646083,261.0015785751465,31.481355886254835,14.8661126167765,70.21341957262752,0.4010318694162032,120.42838492937868,605.8454292397048,1.274,1.0226061614050743,0.0,4.410858648487611,120.00005142262596,0.0925337581376472,-8.56891908838872e-08,0.0881020635964619,0.001794441671798,-0.008599960195898,0.4011264679680024,15.862124031541208,31.46614036920693,19.5715012743054
1.09,31.2221778499728,131.01047015777863,20.79092579722409,-0.2947324628827731,-0.0967228043459992,16.956795612840835,-0.0136546238028624,6.283334795247213,246.54375332456465,31.61876863479156,14.945377268146208,70.26389119683816,0.4048817296298115,120.43247646755422,611.1283547997707,1.274,1.0225512795791307,0.0,4.421563872284726,120.00005142262596,0.0929379710686887,-1.2154516196803274e-07,0.0887098118383292,0.0016267064480309,-0.0086968322487331,0.3101974259075359,15.794464225880125,31.60357545942938,18.083511828557356
1.1,31.222177183219745,131.01047151865114,21.089047575509696,-0.2005151724632947,-0.0964153927666606,35.12032477660442,-0.0080322424470083,6.291215430548323,413.1890617384087,31.780314261668966,15.032498967824452,70.31471162044022,0.4084901117166188,120.43631022415046,617.3713451966156,1.274,1.0224981043155532,0.0,4.432225213926933,120.00005142262596,0.0934131210989273,-1.5760164583706837e-07,0.0891590232236179,0.0014578268381061,-0.0087852785527827,0.2224909535230839,15.716622858849195,31.765169374336168,35.679359138368255
1.11,31.22217651115069,131.0104728901931,21.3894675484756,-0.1055098690357138,-0.0951861388056301,25.40059029586569,-0.0025610186625607,6.318757953047916,324.1593910379213,32.22238901718055,15.213760244605147,70.36579004109518,0.4118515784984224,120.4398805894247,634.6481739080884,1.274,1.0224548851875197,0.0,4.442749159492595,120.00005142262596,0.0947128498005912,-1.937898520722017e-07,0.0894479017242486,0.0012878354283015,-0.0089360874251326,0.1421011021889534,15.510664696932889,32.2074372203385,26.17473392427226
1.12,31.22217582720219,131.0104742856836,21.696299467497635,-0.013144066002374,-0.0945738163130451,8.877376532159426,0.0032542425650786,6.319412491726228,172.7328179403806,32.42797893110434,15.314894063284216,70.41703463118694,0.4149605820211239,120.44318184662929,642.7536135758336,1.274,1.0223979224661404,0.0,4.453230553646041,120.00005142262596,0.0953174803520944,-2.3003484822857746e-07,0.089574468946958,0.0011153964535313,-0.0090055624094512,0.0954828416307861,15.416773482975348,32.41312331752263,10.8969169458345
1.13,31.222175143730155,131.01047568011776,22.00185045918678,0.0781337037482125,-0.0944464807627595,30.12969820962456,0.00922672798658,6.296553014997398,367.5328077894322,32.43439054434439,15.348930682125436,70.46835239632134,0.4178092609439327,120.44620581163524,642.9889364529483,1.274,1.0223460397860296,0.0,4.463810647424824,120.00005142262596,0.0953366551028041,-2.662716710724016e-07,0.0895344481986116,0.0009419477381546,-0.0090030543806038,0.122576538784979,15.414169873305772,32.419554932556935,30.78060069599415
1.14,31.222174459953383,131.010477075079,22.306594325807207,0.1679292860082929,-0.093075825184915,16.168964041477153,0.0150641497421671,6.303427010617774,239.6953177322812,32.84235304101857,15.51704408486352,70.51964791128387,0.4203918834562341,120.44894658270076,659.2465035534494,1.274,1.0223022138470996,0.0,4.474224964798325,120.00005142262596,0.096536139556939,-3.024349623731853e-07,0.0893277564651917,0.0007687430175062,-0.0090949842175265,0.1919982539682374,15.232718069170442,32.82773273101752,17.354216121201624
1.15,31.222173761845124,131.01047849894402,22.619357358495893,0.2576660121642141,-0.0925124961029532,15.918283152669828,0.0210931531079879,6.276186936020579,237.4125115347709,32.93477926536727,15.579260747478104,70.57082572348715,0.4227046395703735,120.45140031673635,662.9423629191608,1.274,1.0222426194541194,0.0,4.484494595308184,120.00005142262596,0.0968081569796948,-3.384413973507879e-07,0.0889485855984279,0.0005938186667828,-0.0090815925860006,0.2737704842808812,15.193518005226451,32.92024744277544,17.110894363111342
1.16,31.22217306776135,131.01047991457563,22.92861417255837,0.3457071519108556,-0.0916720855651363,43.500790116719976,0.0271231722511926,6.2487309931234405,490.043774385954,33.093274807500634,15.663234947322085,70.62178699474991,0.4247403728727965,120.4535595923654,669.3185300135706,1.274,1.02219674531104,0.0,4.49491452710653,120.00005142262596,0.0972743766446569,-3.742285999292356e-07,0.0883985733080806,0.0004190462976236,-0.0090686013738314,0.3576550071942513,15.12628345764959,33.078874996116866,43.94731067391743
