Time,Latitude,Longitude,Altitude,Angle of Attack,Angle of Sideslip,X-Acceleration,Y-Acceleration,Z-Acceleration,Thrust,True Velocity,Ground Velocity,Pitch,Roll,Yaw,Dynamic Pressure,cp,cg,parachute_deploy_gain,Wind Speed,Wind Direction,Mach,omega_x,omega_y,omega_z,Cmq,Angle of Attack(total),Angle of Attack(gust),True Velocity(gust),Acceleration
0.0,31.222216000000007,131.010392,3.000000004412624,0.0,0.0,0.0,0.0,0.0,2.2828121974499247,0.0,0.0,69.99999999623412,0.0,119.9999999935444,0.0,1.274,1.0271675151847728,0.0,0.0,0.0,0.0,0.0,0.0,0.0,-0.0,0.0,90.0,0.0,0.0
0.01,31.22221599999084,131.01039200000497,3.000002745347096,0.0,0.0,0.0,0.0,0.0,34.242186961749226,3.465174813755316e-14,2.8705476994166025e-14,69.9999999962611,-2.1713911667908447e-11,119.99999999352175,7.352495975525499e-28,1.274,1.0271659134330349,0.0,0.0,0.0,1.0183245502395064e-16,-3.3305335486039093e-18,7.169286865560398e-18,5.624298769768554e-18,-7.715917190115602e-34,0.0,89.99999999999979,3.465174813755316e-14,0.0
0.02,31.222215999994315,131.0103920000094,3.0000030495639742,0.0,0.0,0.0,0.0,0.0,25.871876237766216,3.8197434737535036e-11,2.4171837235633357e-11,69.99999999628672,-1.1921727947863515e-11,119.99999999353136,8.93414285188691e-22,1.274,1.027164492361118,0.0,0.0,0.0,1.1225230367947217e-13,-6.657678965418802e-18,1.4338573731120796e-17,1.1241821275959074e-17,-1.7010872994127372e-30,0.0,89.99999999975682,3.8197434737535036e-11,0.0
0.03,31.222215999994315,131.0103920000094,3.0000030495639742,0.0,0.0,9.81877837424427,-2.5122800045972096e-05,3.3498614629347925,180.34219359854663,1.2659015405517447e-10,1.1364406173918436e-10,69.99999999631459,-1.6431898037347223e-11,119.99999999352724,9.812605835254651e-21,1.274,1.0271551940870716,0.0,0.0,0.0,3.720154642239108e-13,-9.991600645811728e-18,2.150108433310316e-17,1.6859343782149594e-17,-8.453698244545225e-30,0.0,89.99999999919412,1.2659015405517447e-10,10.374487003414373
0.04,31.222215999994315,131.0103920000094,3.0000030495639742,18.83801224594347,-0.0001111777826462,48.68248476615645,-1.016330065874988e-05,3.3497854396877287,548.635972453808,0.1556173050466994,0.0975908358443652,69.99999999633813,-2.0932768807056278e-11,119.99999999352085,0.0148286043323172,1.274,1.027133720825283,0.0,0.0,0.0,0.0004573186944143,-1.3322134194415637e-17,-1.04744143520903e-11,1.336824254131964e-11,5.0626055458604615e-15,18.83801224625964,89.06236267790787,0.1555998412814392,48.79759610369246
0.05,31.22221599164764,131.01039201704114,3.002326315126219,5.772385609593056,-4.395076213712875e-06,71.20344550265034,4.905512691849684e-05,3.349217396035405,761.6984298824663,0.8326471944351852,0.3620326097059287,70.00000001316391,-1.0866255162484559e-10,120.00000000231074,0.4245281043148827,1.274,1.027093426565204,0.0,0.0,0.0,0.0024469331205246,-5.0245994431125096e-18,-7.32924164976824e-07,2.217344936947165e-11,1.895424184525467e-09,5.772385609594774,84.74112356985832,0.8326465040582279,71.28217104309611
0.06,31.22221596664444,131.01039206837547,3.015081730143309,4.056581213689704,3.169093567502233e-05,53.16249142470188,0.0001203825427859,3.3481235983850643,590.4875390737236,1.657216205300742,0.6755452977614796,69.99999964391398,-3.9285905645317736e-10,120.0000000287861,1.6816755551786196,1.274,1.027050317124926,0.0,0.0,0.0,0.0048701272653724,3.095757869075056e-13,-7.483541766772344e-06,3.074135420506017e-11,3.8518749565858254e-08,4.056581213813337,79.59316473687034,1.657221183301277,53.26781792157489
0.07,31.22221592883117,131.0103921460222,3.034593611434361,4.115662018628709,6.450869598349036e-05,81.18203554989698,0.0001593212642178,3.347059402768047,855.2937749779172,2.099899704220947,0.8579771146174259,69.99999543281565,-8.233801910783518e-10,120.00000006883089,2.700101932075157,1.274,1.027003201295312,0.0,0.0,0.0,0.006171060252819,3.4704292086287e-12,-2.6327204536316785e-05,1.9541142932033486e-10,1.7170712165327165e-07,4.115662019133419,76.90111966094352,2.099909837223217,81.2510043180746
0.08,31.22221588914193,131.01039222747755,3.0542761843835606,3.459696193892355,8.037433511260004e-05,16.298214211652088,0.0002413456836072,3.344878926597744,241.2171988638792,3.051964775152957,1.2149999716613011,69.99998042886442,-1.0128995578004475e-09,120.00000011111383,5.703497661025892,1.274,1.0269597189470347,0.0,0.0,0.0,0.0089689344021769,1.458982438104473e-11,-5.702803872814215e-05,7.043261397829576e-10,5.405702492731987e-07,3.459696194824858,71.30331929508368,3.051977400323993,16.63790856991177
0.09,31.2222158241468,131.01039236098703,3.0886872184095737,4.313676956300389,0.0001337561018991,50.35975918308536,0.0002293282821279,3.344215841840564,563.0937377043203,2.893161298572128,1.191209213966114,69.99994788602814,-7.098432023887522e-10,120.00000018106356,5.125380275808925,1.274,1.026918932011013,0.0,0.0,0.0,0.0085022553945842,3.8672912027154325e-11,-0.0001115933708951,2.016054215232918e-09,1.0027525988343615e-06,4.313676958370176,72.2316578138625,2.893182308931483,50.47067588835877
0.1,31.2222157788302,131.01039245392113,3.109877853389092,4.035124630954496,0.0001457499816535,47.804664812504015,0.0002878217657545,3.341734392237128,538.7437595981891,3.5677148583138303,1.4531247507621967,69.99988403958329,1.9248461973355822e-09,120.0000002323013,7.7939962029572305,1.274,1.0268846934974103,0.0,0.0,0.0,0.0104845969583028,8.579678749070606e-11,-0.0001726817043215,3.984565639703107e-09,1.913455350430327e-06,4.0351246335824245,68.43243098813296,3.567737752667411,47.92132267234452
0.11,31.222215703308,131.01039260899836,3.148841432727305,4.043401107254707,0.0001752764476999,37.67622367577205,0.0003286462930162,3.3392563999062723,442.86563930529127,4.034183355956686,1.6436552022667772,69.99978525353545,7.302513231814865e-09,120.00000031883242,9.96528118825134,1.274,1.026848594915519,0.0,0.0,0.0,0.0118554331868328,1.5870341853361987e-10,-0.0002596204409236,7.232030302688121e-09,3.252930323390323e-06,4.04340111104746,65.92012987243639,4.034210888316708,37.82391391539392
0.12,31.222215627491828,131.01039276462643,3.186995101203875,4.17874459224363,0.0002066711490009,41.15991989399172,0.0003576945202315,3.336766085769504,475.58594813540793,4.361857560629481,1.7865750500940407,69.99963665601238,1.781774420198147e-08,120.00000041104812,11.649831899889556,1.274,1.0268114448194128,0.0,0.0,0.0,0.0128183893919737,2.682972478760441e-10,-0.0003710216542429,1.2215991071490164e-08,5.026311388647148e-06,4.178744597345269,64.21681651392016,4.361890024457652,41.29495143136631
0.13,31.22221554594398,131.01039293200228,3.2277173449026786,4.202734874672792,0.0002327160860324,45.44886120763352,0.0003953741266062,3.333578629398489,515.9156326236897,4.792165672014363,1.9646716520715424,69.99942424225341,3.613383418913551e-08,120.00000051758742,14.061726603124043,1.274,1.026779572895131,0.0,0.0,0.0,0.0140829618979635,4.248908088871395e-10,-0.0005056103199642,1.908859219307828e-08,7.5253154423526356e-06,4.202734881104192,62.048594618540655,4.792202226971676,45.570952718869485
0.14,31.222215454191247,131.01039312033683,3.2737880595608355,4.184830647080848,0.000257138757548,42.32232525579263,0.0004369426767266,3.329727443445437,486.2390860568421,5.269261304374574,2.158791628597544,69.99913473613935,6.515851355725497e-08,120.00000064630268,17.000925061330125,1.274,1.0267449573927567,0.0,0.0,0.0,0.0154850332441425,6.382432869666793e-10,-0.0006690086306358,2.8426433029675884e-08,1.0948547100483978e-05,4.184830654966803,59.74181173116622,5.269301695636157,42.45310707234106
0.15,31.222215353826755,131.0103933263496,3.3242182719560263,4.21963947489699,0.0002846467688673,40.886944113003565,0.0004726792395108,3.325585650885676,472.5421858721398,5.6781946837482895,2.329510773545807,69.99875162806286,1.0876776246115984e-07,120.00000079954532,19.742017654108928,1.274,1.0267115958081523,0.0,0.0,0.0,0.0166867950518804,9.204756288136623e-10,-0.000865746478554,4.08948221429571e-08,1.526771148078443e-05,4.219639484480408,57.84996018384879,5.678239395958187,41.02196629910223
0.16,31.222215247130432,131.01039354534575,3.3775922280208457,4.253495568077899,0.0003118339050386,32.26872905470846,0.0005078415214353,3.32090791922544,391.1218908297597,6.081244877834229,2.4981889727471702,69.99825581174558,1.7187028096464329e-07,120.0000009800088,22.644030778355887,1.274,1.026675762255412,0.0,0.0,0.0,0.0178712695992133,1.2856146928958252e-09,-0.0010961187242953,5.6923362293832417e-08,2.0702404729358337e-05,4.253495579487569,56.06022383757386,6.081293860589489,32.43916312841722
0.17,31.22221513260033,131.01039378041813,3.4348437275053194,4.364838523348639,0.0003448792023946,40.840448242802736,0.0005326487904353,3.3162727284953744,471.78125980632416,6.362544479165355,2.6250789114832647,69.99762801982864,2.5997588617291615e-07,120.00000119506798,24.78723182122683,1.274,1.0266409836796937,0.0,0.0,0.0,0.0186979513961862,1.747791994374917e-09,-0.0013624931601664,7.706724512977917e-08,2.6923621797558364e-05,4.364838536947241,54.85936171416122,6.362598652663785,40.97486885600156
0.18,31.222215014088988,131.01039402363364,3.4935801365785646,4.353948305387995,0.0003681615230806,33.992183768165326,0.0005718025428208,3.310131992647221,407.1015672119096,6.81502088160835,2.810667639293692,69.99684761766231,3.794979223522764e-07,120.00000144728236,28.437950785509614,1.274,1.0266048342046536,0.0,0.0,0.0,0.020027681385988,2.3221419748804155e-09,-0.0016616990447559,1.0147209890543081e-07,3.517105786247627e-05,4.353948320923495,52.99157233768714,6.815078712285162,34.152972512863755
0.19,31.22221488419521,131.01039429023237,3.558399965607869,4.432620772533925,0.0003996774584738,38.45149959021069,0.0005986099513107,3.304145139297767,448.95313283182486,7.1223367465208405,2.946425726785696,69.99589577323147,5.440084577183829e-07,120.00000176148238,31.060341085698347,1.274,1.026566130444714,0.0,0.0,0.0,0.0209308229359413,3.022391489754689e-09,-0.0020041563310821,1.3135864879722746e-07,4.433199397898183e-05,4.432620790516937,51.77883352025967,7.122399527709208,38.59320142454953
0.2,31.222214751373183,131.01039456280608,3.624052454705669,4.443889400961181,0.0004246617145652,35.23432408779927,0.0006337972852267,3.2968110145188256,418.5156301991588,7.530482904611057,3.1167566004785483,69.99474776398331,7.478025600151903e-07,120.00000211715036,34.72195181863731,1.274,1.026529240027363,0.0,0.0,0.0,0.0221302820454282,3.866698391504749e-09,-0.0023849544920781,1.668144671071589e-07,5.57780533277244e-05,4.443889421210987,50.22448880200342,7.530549610317194,35.38822625098952
0.21,31.222214608673173,131.01039485566503,3.6948551453492566,4.493351735844891,0.0004538195602194,33.79371564104691,0.0006629296043866,3.2891790438445727,404.8187610144608,7.868284042829251,3.2629204975089228,69.99338155599101,1.0150082652278477e-06,120.00000255293388,37.906665490338085,1.274,1.0264923657015164,0.0,0.0,0.0,0.0231230169900677,4.871073773182836e-09,-0.0028117605859743,2.089322918608601e-07,6.870935089180403e-05,4.493351758715364,48.992529909481824,7.868355328639073,33.95340801819282
0.22,31.22221446109996,131.01039515850383,3.767700382407304,4.5412639153933885,0.000482649303782,41.008966751568416,0.0006914639179131,3.2808061382386606,472.5421858721387,8.20057841132235,3.4071691679735228,69.9917708347139,1.3454961520984431e-06,120.00000305929996,41.175744234065135,1.274,1.0264494137127138,0.0,0.0,0.0,0.0240995709751246,6.054779813287368e-09,-0.0032829112061357,2.580881224843564e-07,8.3609968899004e-05,4.54126394098788,47.82515604752711,8.2006542256977,41.13999323561041
0.23,31.22221430675399,131.0103954752338,3.843768625625224,4.52371495179584,0.0005047555656171,33.98493478127787,0.0007294889663961,3.2705214710765107,406.340642146096,8.647938096586296,3.5908865300848416,69.98989017772566,1.7539876018835507e-06,120.00000365514876,45.79040229326471,1.274,1.0264133390858623,0.0,0.0,0.0,0.0254142776666487,7.436335125872812e-09,-0.0038001790077148,3.1489825108822685e-07,0.0001020628978177,4.523714979897577,46.31461705147579,8.648017383405135,34.14194053232237
0.24,31.222214142622448,131.0103958120587,3.92493179063287,4.57837522350066,0.0005351929930195,35.051650311058864,0.0007555049947555,3.26053011385611,416.2328240017099,8.954297884844461,3.72617527247482,69.98771316795013,2.25257161141768e-06,120.0000043564586,49.09180568115741,1.274,1.0263750048312463,0.0,0.0,0.0,0.0263146218848643,9.034877387788232e-09,-0.0043732521010013,3.809642748985157e-07,0.00012161410144,4.578375254714954,45.32798984252032,8.954381952763216,35.20297212911011
0.25,31.22221397517227,131.0103961556623,4.0071748888306855,4.6034117733065,0.0005618935542827,36.03738579534623,0.000785606492708,3.249069743648399,425.3640807915084,9.311611941121669,3.8789349536029696,69.98520781816889,2.8559738498748624e-06,120.00000517181904,53.08749562138344,1.274,1.0263373768840591,0.0,0.0,0.0,0.0273647110956883,1.0873791100894836e-08,-0.0049950711786164,4.5609738277273444e-07,0.0001444478241125,4.603411807525074,44.2165428352526,9.311700203154778,36.183554686886296
0.26,31.22221379934012,131.01039651647062,4.09364247475714,4.621386912291471,0.0005881033207375,39.29107511182762,0.0008162761165496,3.236407051295005,455.80158342417656,9.67833954512075,4.034902068846398,69.98234620927953,3.5784678110229355e-06,120.00000612171208,57.350948423913096,1.274,1.0263006300381676,0.0,0.0,0.0,0.0284424679130479,1.2973286442992724e-08,-0.0056712051373577,5.414206381221602e-07,0.0001704578711045,4.621386949630312,43.12063533194282,9.678431924174348,39.42414126789902
0.27,31.222213616776543,131.01039689108487,4.183310605341074,4.617158109135719,0.0006115457810536,35.90419462403674,0.0008503454714941,3.221982799915672,423.8421996598744,10.088790784535757,4.205862468567124,69.97909721779352,4.436165972465058e-06,120.000007221354,62.31798301949865,1.274,1.026260090595354,0.0,0.0,0.0,0.0296487219805601,1.5355910600537293e-08,-0.0064045199323113,6.379142666348734e-07,0.0002006609239367,4.617158149547818,41.94410287616451,10.08888684592241,36.048472443180565
0.28,31.22221342607797,131.0103972823952,4.277051150896916,4.642105655370123,0.0006389739579882,41.51133203546672,0.0008785747638736,3.2071101123224945,476.3468732012228,10.432377224420517,4.35383399240675,69.97542808435722,5.446665372087172e-06,120.00000849080963,66.63429581008447,1.274,1.0262212716723291,0.0,0.0,0.0,0.0306584788590473,1.8045308789081613e-08,-0.0072006835403936,7.469524967369969e-07,0.0002332868227611,4.642105699250441,41.0023231023774,10.432477594215127,41.63503624837164
0.29,31.22221323001776,131.01039768469093,4.373143569786686,4.62134615173668,0.0006600657405645,33.17552944492765,0.0009148746278066,3.1894209319791806,397.9703104221098,10.876662296046485,4.536381530986506,69.9713027936179,6.629751536885327e-06,120.00000994797426,72.43000748232016,1.274,1.026183007522519,0.0,0.0,0.0,0.0319641703260467,2.1067646517035105e-08,-0.0080566154554079,8.688043379161898e-07,0.000272130659453,4.621346198772975,39.83162628795024,10.876765978930557,33.32848872465723
0.3,31.22221302403368,131.01039810736614,4.4744193758467325,4.664362353358112,0.0006905183788532,31.08096762732793,0.0009381960428197,3.172549142946348,378.1859457108735,11.168362145070317,4.66647911311536,69.96668711012893,8.005507138509574e-06,120.00001161892672,76.36634300732833,1.274,1.0261430389738484,0.0,0.0,0.0,0.0328214509167604,2.4447409007156216e-08,-0.0089829108229115,1.0056222251461646e-06,0.0003115527202986,4.664362404357781,39.09908960432563,11.168470611443622,31.242464973103964
0.31,31.22221281503337,131.01039853619727,4.576593712520673,4.700143580504286,0.0007196683316923,32.79732593144512,0.0009620705970519,3.154230688182399,394.1656220930229,11.470279728974068,4.800072153432283,69.96154070456518,9.597499105113692e-06,120.00001352112182,80.55022837857167,1.274,1.0261054058068628,0.0,0.0,0.0,0.0337087616009043,2.8214060606649844e-08,-0.0099686353219717,1.1565909895184251e-06,0.0003550834484269,4.700143635477137,38.36463422765983,11.47039277421126,32.94865339301887
0.32,31.222212598991007,131.01039897947376,4.68216432480395,4.718667719113184,0.0007464384342556,35.7316568886908,0.0009885845337584,3.133859770838664,421.5593934624264,11.808280530415894,4.946054328851105,69.95582953472353,1.14278227255889e-05,120.00001568218067,85.36654007972253,1.274,1.026068246703101,0.0,0.0,0.0,0.0347021168382987,3.2392058795580455e-08,-0.0110163301561155,1.3226102501723267e-06,0.0004039614423012,4.718667778018562,37.5686120062341,11.808397780690962,35.8688218659563
0.33,31.222212376029034,131.0103994369436,4.791055524254013,4.72141404831576,0.0007708346814671,35.42013590291081,0.0010176135371143,3.1111955852784385,418.5156301991632,12.181577273013426,5.104163223586657,69.94951809396906,1.351997394754887e-05,120.00001812674968,90.84831229869296,1.274,1.0260310883392356,0.0,0.0,0.0,0.0357992034445943,3.700677535501642e-08,-0.0121310534481307,1.5051409581878843e-06,0.0004588955105349,4.721414111097893,36.7208578211118,12.181698355442045,35.55651229220977
0.34,31.222212145785647,131.0103999093516,4.903491659547144,4.73024573449122,0.0007962944975467,27.63851074646407,0.0010446307681611,3.0871492806781062,345.4656368807584,12.53557620048282,5.2556261014174765,69.94256797855994,1.5899658158227497e-05,120.000020882338,96.20413272674828,1.274,1.0259901535019136,0.0,0.0,0.0,0.0368395817555172,4.208561016221623e-08,-0.0133180771902383,1.7057647550599631e-06,0.0005184333231541,4.730245801363397,35.94841996438923,12.535701282129995,27.810389570354005
0.35,31.222211909310875,131.01040039453565,5.018822212845608,4.780248518778662,0.0008286678570753,30.332092807652543,0.0010618579815451,3.063967690608957,370.5765700527057,12.774786382148209,5.367579971644358,69.93493776125636,1.8594985713558667e-05,120.00002397748868,99.9096898192772,1.274,1.025950003202184,0.0,0.0,0.0,0.0375426220587071,4.7658312175989686e-08,-0.0145774693288123,1.9252724355785177e-06,0.0005782798420984,4.780248590437683,35.44790728185619,12.774916548990808,30.486451961956565
0.36,31.22221166933814,131.0104008868675,5.135354490370708,4.798132156899578,0.0008554457330409,34.32674769697476,0.0010851169437774,3.0374319611165923,407.8625232777224,13.09301701329486,5.506730645516068,69.92658597246795,2.163521613217148e-05,120.0000274401514,104.94818266210537,1.274,1.0259105142325406,0.0,0.0,0.0,0.0384778908056978,5.3755109608570216e-08,-0.0158991451700967,2.162609490834569e-06,0.0006464142451675,4.798132232978766,34.796094028187134,13.09315138639638,34.46087058603792
0.37,31.222211421355144,131.01040139563804,5.255882891363927,4.797392186816851,0.0008791822061288,32.551601855236584,0.00111162791192,3.0078619428913056,391.1218908297639,13.457513730739372,5.661815946371007,69.91747693543164,2.5047738471809164e-05,120.0000313040604,110.87154396328836,1.274,1.025872170958032,0.0,0.0,0.0,0.0395491312153729,6.040098808671168e-08,-0.0172926678053148,2.420031948898497e-06,0.0007226353721561,4.797392267189059,34.07332166419882,13.457651832357364,32.69027405888565
0.38,31.22221116634284,131.01040191882743,5.379799334000849,4.811698494594017,0.0009057112478668,34.02947987649063,0.0011338447913587,2.9774881690446744,404.81876101445977,13.77554886562956,5.800899861213392,69.90756948297444,2.886339581486796e-05,120.00003560072224,116.17243393848278,1.274,1.02583050512925,0.0,0.0,0.0,0.0404838339452728,6.762496638941508e-08,-0.0187646375218858,2.69955777313946e-06,0.0008026686661094,4.8116985796350695,33.46655348088405,13.775691134419684,34.15949264475229
0.39,31.222210906095896,131.01040245274032,5.505993307722699,4.813508003664984,0.000929862892873,29.00025983045028,0.0011579891265804,2.9442136901860865,357.6406249338268,14.124492165837273,5.950648592462506,69.8968186645841,3.311602501056718e-05,120.00004036395212,122.13093644173792,1.274,1.02579027384009,0.0,0.0,0.0,0.0415093739609825,7.545934774906889e-08,-0.020311592409804,3.0013532510753577e-06,0.0008908380763632,4.813508093268025,32.821616487639595,14.124638228358922,29.149330452482886
0.4,31.222210638473225,131.0104030017851,5.635788650457906,4.841647069358873,0.0009592124397379,27.71178845184976,0.0011749448424961,2.91135549588368,345.4656368807565,14.390874239274588,6.07193451174791,69.8851815212744,3.783947407715338e-05,120.00004563180136,126.77947425345651,1.274,1.0257493418632293,0.0,0.0,0.0,0.0422922854866381,8.39343718693383e-08,-0.021938519432511,3.3271332720311508e-06,0.0009803271643914,4.841647164150728,32.348088166612904,14.391024912012275,27.864299944624147
0.41,31.22221036681104,131.01040355909262,5.767123077463226,4.86553909860892,0.0009876699832274,31.306062598221665,0.0011918093836199,2.876450850006428,378.9468707766882,14.663028799871563,6.195223154320929,69.87261222561014,4.307011032901644e-05,120.0000514391194,131.6183642808765,1.274,1.025708445186429,0.0,0.0,0.0,0.0430921644173401,9.308325447883581e-08,-0.0236371933433427,3.6760977501392174e-06,0.0010761942383903,4.865539198612839,31.87689439156756,14.663183942709727,31.437931330109585
0.42,31.22221008906472,131.01040412887247,5.901259531771367,4.867510642114694,0.0010118258958528,35.308283402190774,0.0012128114559048,2.8374461227958245,416.23282400171047,14.9952917972178,6.33928625560071,69.85906967380902,4.884273094936628e-05,120.00005782486392,137.64909586091787,1.274,1.0256701057426505,0.0,0.0,0.0,0.0440686959134695,1.0293499639582845e-07,-0.0254093547296826,4.049238334851429e-06,0.0011830797791891,4.867510747027452,31.315270489291198,14.995450734457847,35.422111438762386
0.43,31.222209804115888,131.01040471342728,6.038886819939341,4.854590670645608,0.0010330089741511,31.00586934514032,0.0012363751872706,2.794478603999558,375.90313951343126,15.369430568701889,6.497852263156962,69.8445117629242,5.519340856908871e-05,120.00006482835984,144.60167924299955,1.274,1.0256308158337524,0.0,0.0,0.0,0.0451682983415116,1.135186446762958e-07,-0.0272634397889413,4.449073329427772e-06,0.0013010625065656,4.854590780289497,30.70250814963406,15.369592833372094,31.13154422839874
0.44,31.22220951192321,131.01040531284193,6.180028459770617,4.866912332640401,0.0010595850174406,28.57707721036899,0.0012525768202179,2.752165534925872,353.07501253892326,15.659290812546615,6.627318538707029,69.82889155423543,6.216182865383864e-05,120.00007249162944,150.1053167542629,1.274,1.025586171750536,0.0,0.0,0.0,0.0460202245100907,1.2486676023179565e-07,-0.0292060158163984,4.8779154055816594e-06,0.001420032405556,4.866912447705031,30.24619499837236,15.659457251771938,28.709297424144207
0.45,31.222209215425703,131.01040592106523,6.322872201489905,4.881836476567178,0.0010866574689855,33.31904824532484,0.0012669045761511,2.7082028218433374,397.2093853562887,15.934249290371609,6.751662050993672,69.81215834018458,6.97909417564726e-05,120.00008085697964,155.42080512416243,1.274,1.0255397023523487,0.0,0.0,0.0,0.0468283602442113,1.3701614206272197e-07,-0.0312276295846745,5.334643585560923e-06,0.0015449645531859,4.8818365972149325,29.82567893138932,15.934419982127675,33.428929688274074
0.46,31.22220891307435,131.0104065412864,6.468371919199588,4.869610441729251,0.0011078049156487,38.95909776354321,0.0012868374716666,2.6582856015412624,449.7140588976424,16.292139278621757,6.904766425053949,69.79426683863348,7.812149592850748e-05,120.00008996920153,162.4785746623087,1.274,1.02549635315424,0.0,0.0,0.0,0.0478802236363867,1.499987870203256e-07,-0.0333272350234362,5.819761874615242e-06,0.0016858511402973,4.869610567434908,29.29014635640275,16.292313292210977,39.04968351401366
0.47,31.22220860266524,131.01040717804253,6.6178810515614845,4.838450928223533,0.0011247917292402,26.253747818137555,0.0013104398935566,2.6026193242279367,331.0078106302504,16.710658191447514,7.078951441335346,69.77517236812905,8.719457259907165e-05,120.0000998741591,170.9309671061642,1.274,1.025453319323251,0.0,0.0,0.0,0.0491102725711187,1.6384464803343264e-07,-0.0355167087264168,6.3368207228363735e-06,0.0018427306558807,4.838451058652396,28.68386015667837,16.710834873319172,26.382435512333956
0.48,31.222208284201663,131.0104078313267,6.771393590864176,4.869339340099417,0.0011561785713505,25.860860976019296,0.0013165328518772,2.5543454292827983,327.20312230115803,16.911139899671,7.177575416403102,69.75482343794755,9.70562828082882e-05,120.00011062072316,175.0543877818846,1.274,1.0254092882449153,0.0,0.0,0.0,0.0496995461609974,1.7858865391586845e-07,-0.0378054080201581,6.88909442277235e-06,0.0019849793891693,4.869339477030596,28.40887970825325,16.911321511776286,25.986704537635287
0.49,31.22220796480208,131.01040848648364,6.924537656029012,4.881367714530694,0.0011829003785372,32.565703383222065,0.0013261973190012,2.5011623511055703,389.6000096981238,17.169005224738054,7.296160258358563,69.73316318155707,0.0001077573203115,120.000122255028,180.4309832312717,1.274,1.025367445590036,0.0,0.0,0.0,0.05045746454003,1.942747077649401e-07,-0.0401641298712614,7.47069711110948e-06,0.002140948887153,4.881367857509675,28.058569663954906,17.169191034294997,32.66161128464712
0.5,31.222207637929923,131.01040915697027,7.081324512896956,4.862566137860805,0.001202418260511,33.47759680712428,0.0013425340759632,2.4399894027711366,397.970310422106,17.52898693231981,7.450304424940405,69.71015149227495,0.0001193385310595,120.0001348274002,188.0736471953394,1.274,1.0253278572281015,0.0,0.0,0.0,0.0515154948878309,2.109295159784217e-07,-0.0426011733481599,8.084173008518589e-06,0.0023184335011768,4.862566286171007,27.57768313050809,17.529175807738486,33.56639745442473
0.51,31.22220730314019,131.01040984370235,7.24202048914867,4.8479762258125,0.001223054804074,25.49162310288008,0.0013562860883156,2.3767006597692686,323.39843497208153,17.86914397471067,7.597652147346554,69.68574349602717,0.0001318441288964,120.00014838524436,195.4407439266201,1.274,1.025286455263166,0.0,0.0,0.0,0.0525152689856776,2.2858192086249162e-07,-0.0451315948093539,8.734206149830708e-06,0.002503767471626,4.847976379721193,27.13799345359824,17.86933609171003,25.602178740977283
0.52,31.222206962738102,131.01041054193402,7.405210501673173,4.865306299521403,0.0012516517170965,30.733671928447727,0.0013599291289974,2.317711624364424,372.098451184342,18.08534843773428,7.701914987606457,69.65988568649581,0.0001453248538387,120.00016298000436,200.19561780583155,1.274,1.0252426840672306,0.0,0.0,0.0,0.0531507657929359,2.4726951523704535e-07,-0.0477531686556663,9.421346966092632e-06,0.0026812161964639,4.865306460134566,26.8699055233151,18.085545046726228,30.820940596104087
0.53,31.222206619320115,131.01041124632013,7.569307468221277,4.848802699234936,0.0012715119568563,32.301199055744725,0.0013711327835325,2.2490252325653923,386.55624643486095,18.41963113311156,7.8474319110539055,69.6325258319474,0.0001598315062727,120.0001786629144,207.6614205945027,1.274,1.0251993415311351,0.0,0.0,0.0,0.0541332845214831,2.67031759303889e-07,-0.0504479325599339,1.0141887756417996e-05,0.0028848299490111,4.848802865552398,26.45837260670532,18.419830861742675,32.37940050117613
0.54,31.22220626697288,131.01041196903336,7.737918664599091,4.831496690588052,0.0012913635058467,28.31291960103712,0.0013809098107221,2.177242866245296,349.2703242098436,18.75116898748492,7.992112829440902,69.60362200959217,0.0001754082864028,120.00019548734956,215.20067397992847,1.274,1.0251561018460285,0.0,0.0,0.0,0.0551077428911958,2.878941684235108e-07,-0.0532336286085667,1.090122304443916e-05,0.003098869611663,4.831496862756785,26.061835558272342,18.751371834390056,28.396510432451375
0.55,31.222205908994248,131.01041270328463,7.909026079894722,18.22227304405061,23.92206346522504,31.14972295702412,-1.799328987810296,1.1733806144452297,365.2500005919912,24.089588654520423,8.113323699629928,69.57312211246325,0.0001921068626005,120.00021350480982,355.171872308874,1.274,1.025112921033824,0.0,11.278816046756331,0.0,0.0707969418468491,3.0989272306468813e-07,-0.0561100530405476,1.1700476995263424e-05,0.0041961578129615,29.74335228186028,46.321371547591774,27.739031214257945,31.223703290482472
0.56,31.222205546564343,131.01041344664463,8.081909946161325,22.42312522349509,-18.59065031215616,29.157877182994543,1.1670595561367785,0.3978629898443933,346.22656194657776,25.190894036146624,8.243352958320413,69.54097415464405,0.0002099796112633,120.00023276987916,388.3825858810458,1.274,1.0250709539098009,0.0,11.31996503450294,255.00010927308023,0.0740337148941713,3.328942889008732e-07,-0.0703538438275002,0.021798850319368,0.0055018146032903,28.817703512465865,21.23205102771444,22.32165222651925,29.183936074231866
0.57,31.222205181621927,131.01041420618407,8.258620404968442,22.21428296446476,-18.389538803833045,28.87553850062552,1.5570306835975876,-0.0365474570873448,343.1828296833045,25.45968806013309,8.355565842296016,69.50066143418694,0.0336209205219168,120.03589793637576,396.7083797209265,1.274,1.0250279191823897,0.0,11.360792541650731,255.00010927308023,0.0748238249053298,3.735954964993216e-07,-0.0904893657671241,0.0026055188449884,0.0071518400624911,28.5380156097678,21.05755647924969,22.620406006777223,28.917510334871338
0.58,31.22220480488127,131.01041496893384,8.437267100575486,21.996955967679657,-18.21364308235574,37.84012967997342,1.96353737513401,-0.4876447211566516,426.12500585731766,25.73978484688132,8.471878291565849,69.44881468877726,0.0375226245188062,120.04006427745296,405.4782773196439,1.274,1.024981594484354,0.0,11.401752964356744,255.00010927308023,0.0756471576292834,4.1239155048493204e-07,-0.1109420622961206,-0.0168030249714169,0.0088646352070976,28.26719260412823,20.873063433012987,22.926734822030294,37.89417752894006
0.59,31.22220442434244,131.0104157445316,8.618737406465597,21.654197701664163,-17.944889749627038,30.8457916241987,2.396667954592706,-0.9822737715924896,360.68438819710633,26.13981126046169,8.635897343265798,69.38525449065646,0.0118135226688089,120.012602248533,418.17213990984703,1.274,1.0249386802161349,0.0,11.44244040732662,255.00010927308023,0.0768229603578113,4.493166726364018e-07,-0.1317147398023638,-0.0364641751501348,0.0106878162712701,27.845017784792592,20.57858918459993,23.366892605264745,30.954349290049965
0.6,31.222204032838565,131.01041653764307,8.805237675770249,21.432545092872964,-17.764634051402926,27.53306988220672,2.8333817980952705,-1.4668212627237012,329.4859594986072,26.407838234360952,8.747338154530313,69.30978250334297,-0.0435599387698667,119.95342607414952,426.7839954075165,1.274,1.024891335813742,0.0,11.483051894623896,255.00010927308023,0.0776108349787707,4.843869540984573e-07,-0.1529192437879515,-0.0564646924160972,0.0125354338362515,27.56782546565659,20.387990655548464,23.66187034952849,27.717315060608502
0.61,31.22220363810149,131.01041733381192,8.9923998507859,21.21403075409556,-17.586312164106378,32.15929138636294,3.2809155644146646,-1.9626645092811488,372.0984511843332,26.66323566966365,8.853766816366926,69.22211848170433,-0.1286748235041187,119.86241700913833,435.0711847279206,1.274,1.0248423929069768,0.0,11.52405676861144,255.00010927308023,0.0783615960700502,5.17637765331281e-07,-0.1744128444042133,-0.0766855258720419,0.0144353689160534,27.294004088434885,20.19921814270616,23.943956166960604,32.38574503373062
0.62,31.22220323659017,131.01041814036353,9.182355018564234,20.91611789843621,-17.348360782858276,39.811674654362,3.7535667785452542,-2.4954764924871404,442.86563930529206,26.994959977938112,8.990915009244556,69.12204594755113,-0.243318099191287,119.7397584477455,445.9560623222839,1.274,1.0247996097896497,0.0,11.56448912702576,255.00010927308023,0.0793366832515274,5.491095958299234e-07,-0.1961732907623131,-0.0971052958897865,0.0164380847395083,26.923589150003878,19.9401567013972,24.311334230769894,40.06602182985384
0.63,31.222202826385576,131.0104189612789,9.376239441562433,20.54000787670429,-17.051242538557496,22.96312342151035,4.258902361415766,-3.074178361138449,286.11251274707456,27.409118427195967,9.161143570373836,69.00934328731047,-0.3871372890944523,119.58577508792328,459.73624621495264,1.274,1.024756158874558,0.0,11.60479953046804,255.00010927308023,0.0805540480495501,5.788468159238813e-07,-0.2182643618311726,-0.1177715893756402,0.0185694252329301,26.457539863623648,19.611447369179764,24.770076688914763,23.55618515786633
0.64,31.222202406618408,131.01041979843134,9.574560903063617,20.37976733433881,-16.914582409240268,22.580736042587965,4.727965884999481,-3.586330375764156,282.3078244179702,27.5635244613667,9.227821940437956,68.883734448503,-0.5597441153740924,119.4008220351698,464.921721859116,1.274,1.024708534665538,0.0,11.645234379066512,255.00010927308023,0.0810080210138623,6.069013676931658e-07,-0.2407547538164287,-0.1387366928452565,0.0205978510635401,26.25262551399785,19.471303419786462,24.94501312703845,23.347485243573423
0.65,31.22220198736626,131.0104206308303,9.7713000995046,20.148246619729107,-16.724126912476518,39.2424294212532,5.218927047314422,-4.131191411252722,436.7781447787504,27.788631959516813,9.323083407778991,68.74488600342748,-0.7607193096359969,119.18527943399374,472.5377069013416,1.274,1.0246641738210605,0.0,11.685884322969011,255.00010927308023,0.081669783599638,6.333558961360435e-07,-0.2633727804336478,-0.1597758160915679,0.0227165379485648,25.960712738259605,19.268155946150383,25.19875750999628,39.802917090128425
0.66,31.22220155962029,131.0104214773842,9.97183886731268,19.721792112197576,-16.38613449160046,33.512946823034945,5.779150157445716,-4.777436484903102,383.5125151715984,28.2403283248065,9.51012553701489,68.59260479953869,-0.9892133363673132,118.93998103286413,488.0150951841729,1.274,1.0246195561629028,0.0,11.72552239437814,255.00010927308023,0.0829974906388355,6.582850343525112e-07,-0.2861751649080405,-0.1809314701226303,0.0250840356511646,25.430466729877278,18.892727378198455,25.701344662858947,34.34152123411478
0.67,31.222201119360747,131.010422346832,10.178563020536153,19.41133918125039,-16.13439613712681,23.347011899905635,6.3181610734024725,-5.386037289058108,289.15624401033847,28.54054819115543,9.6366373634728,68.42664973279025,-1.2443477663770417,118.66578461364672,498.4364252642542,1.274,1.024572383541697,0.0,11.765250175221077,255.00010927308023,0.0838800235766452,6.817602623108179e-07,-0.3093671854104045,-0.2023667553316116,0.0274046122576945,25.04057003223744,18.61905247542415,26.039525736484197,24.779255874277542
0.68,31.222200676406,131.01042321840208,10.385621043936595,19.177188675899348,-15.939754166626791,28.92410470890689,6.83512217626933,-5.960323334780496,340.89999248584934,28.729620324435864,9.71856614095606,68.24664539311473,-1.5253842114604277,118.3633901860768,505.0522262154474,1.274,1.0245245285832842,0.0,11.805491945144691,255.00010927308023,0.0844358995218634,7.038876983549478e-07,-0.3327819631763997,-0.2239419296538293,0.0296734563741605,24.743335682499584,18.412867416232075,26.257982289358,30.31250868257966
0.69,31.22220022930504,131.01042409516393,10.593883634994276,18.8398150308104,-15.665872733512575,35.39390351191038,7.3982069497980305,-6.599443467509108,401.0140726853658,29.041096204755416,9.85095690937534,68.05229955132496,-1.8312979721272635,118.03379847504748,516.0524476371701,1.274,1.024479631064582,0.0,11.84512626196468,255.00010927308023,0.0853515227403727,7.247832066022799e-07,-0.3562947141225332,-0.2455516198168923,0.0321138348428173,24.31882754601726,18.115466519711,26.61085332286824,36.75614949859833
0.7,31.22219977257188,131.01042498926208,10.806623044841672,18.44863508333203,-15.34980093539435,29.786067707127465,7.996483385803629,-7.2854979332126,349.270324209851,29.416595255247167,10.010386266917116,67.84338143519857,-2.1608454563464625,117.67823992369702,529.4729399594502,1.274,1.0244351749185203,0.0,11.884367173285275,255.00010927308023,0.0864553185966375,7.445555619417791e-07,-0.3800032485123972,-0.2672718494726925,0.0346929018101848,23.827097548846364,17.770565365961623,27.03419324809321,31.68962063717173
0.71,31.222199307761088,131.01042589763165,11.022918469631309,18.1243535836243,-15.083781533328663,24.57753321992157,8.570659084706065,-7.936187239940365,301.3312640634036,29.687111135068697,10.12756482877234,67.61959282351316,-2.5128231195218977,117.2978964075638,539.2446131742786,1.274,1.0243880468141104,0.0,11.923788998339452,255.00010927308023,0.0872505771686731,7.633265488557991e-07,-0.4039455116934828,-0.2891300619503559,0.0372171075528207,23.416618980431423,17.485843098215206,27.345030280361403,27.212026830612878
0.72,31.222198838913847,131.01042681137807,11.240364119225152,17.8205223027872,-14.832519812864176,29.870667226232623,9.135296431366235,-8.573614544358625,350.7922053414578,29.912775095515727,10.227004918927756,67.38060395762567,-2.8860032252298464,116.8939706074025,547.462380839492,1.274,1.024337302174265,0.0,11.963170174369626,255.00010927308023,0.0879140204124474,7.812414905235635e-07,-0.4279993725250904,-0.3110228238928053,0.0397322044769431,23.03047936332561,17.22056531442955,27.60882491718128,32.391623420021695
0.73,31.22219836466821,131.01042773364995,11.459778911701386,17.44195278393597,-14.522675604581783,37.53265923675104,9.746353685249586,-9.27373816642784,422.3203185282354,30.23646491205703,10.368121890567805,67.12615038959461,-3.2789729293244165,116.46786095778036,559.3630164603339,1.274,1.024292465384646,0.0,12.002148033711164,255.00010927308023,0.0888655688107716,7.984516835983182e-07,-0.4521004931463393,-0.3328939667549584,0.0424228331059292,22.55097810847441,16.89009977873739,27.97959663063794,39.870968625298175
0.74,31.222197881646235,131.0104286725799,11.683196823350588,17.00403506712875,-14.165662397984407,23.64746677664481,10.404771122118913,-10.036268141667296,294.4828134710563,30.643559084639016,10.545357213429682,66.85600161850796,-3.690215329830852,116.0210755743823,574.5142590448261,1.274,1.0242470321640116,0.0,12.040873869539848,255.00010927308023,0.0900622536478915,8.15105901468677e-07,-0.4763130336048174,-0.3547927896023803,0.0452956009692874,21.996665298170424,16.508306816212247,28.441021942030645,27.716215926198252
0.75,31.22219738976463,131.0104296288793,11.910686224156716,16.697523232222533,-13.909299067378022,27.422691186642943,10.971911592051702,-10.67791121040025,330.24688556441737,30.82414014385107,10.628482137214,66.56988600626262,-4.118253723716607,115.55507663653673,581.29268262212,1.274,1.0241984712898409,0.0,12.079640258467595,255.00010927308023,0.0905932188002193,8.313626256521583e-07,-0.5006831581359006,-0.3767542808640871,0.0478926448995735,21.604311432562124,16.247071970801375,28.66066987021155,31.40707919751492
0.76,31.222196897399577,131.0104305826124,12.137217325851656,16.31011440121691,-13.589098882269756,29.37132383393653,11.596547222321794,-11.39639189048614,349.2703242098581,31.12344813053281,10.762807580854773,66.26750232121381,-4.561636875827066,115.07129659214398,592.6235140543528,1.274,1.0241522053390697,0.0,12.118470974335876,255.00010927308023,0.0914731291499408,8.474173672274797e-07,-0.5249792268494241,-0.3985846585334781,0.050703185550919,21.11041803482857,15.916278898966237,29.0088334820716,33.57130202061048
0.77,31.222196395293075,131.01043155646053,12.368379771406572,15.907446811729995,-13.255605713764336,27.35498005584017,12.23284005653944,-12.130905689915387,331.76876669606884,31.43406117571319,10.903484560660546,65.94869060495112,-5.0186811529977495,114.5714208218996,604.497925574655,1.274,1.0241065975906936,0.0,12.156552239145563,255.00010927308023,0.092386274954639,8.634437947360626e-07,-0.549277837100862,-0.420344508575752,0.0535782285158589,20.59621028707088,15.575635714795492,29.37040056454655,32.327947391721466
0.78,31.22219588730789,131.01043254148627,12.601864859791636,15.516458698477896,-12.930101262739347,22.35908335569447,12.855963838907508,-12.849476496367032,286.8734378128874,31.70966379578172,11.030408292947769,65.61324779186894,-5.487791989731943,114.05703863511792,615.1306456480328,1.274,1.0240588105546735,0.0,12.194826897644772,255.00010927308023,0.0931965303095762,8.796328771179364e-07,-0.5735555531148672,-0.4420115136183843,0.0564356028985755,20.09544655925688,15.250151123463793,29.695804070413896,28.815160262696434
0.79,31.222195374027912,131.01043353645028,12.83733173071836,15.147274558643188,-12.620526292963165,31.583767009770725,13.448979237404304,-13.531066666056049,373.6203323159581,31.92652451271863,11.133133514776969,65.26098982566586,-5.9673736898344325,113.52974245412364,623.5590079605892,1.274,1.0240083170932772,0.0,12.23287732064446,255.00010927308023,0.0938341457366931,8.961879090118705e-07,-0.5977499986875913,-0.4635320230648409,0.059217142989391,19.62084600549493,14.950116383126092,29.96008885432916,36.89849788510187
0.8,31.222194856458184,131.01043453895292,13.074180144662256,14.689434529951267,-12.23991629779838,31.815006868079088,14.128495021696263,-14.325249208220644,377.42502064505805,32.29945530070063,11.30574859895274,64.89177755000682,-6.455808267734032,112.99115238460294,638.1970432455569,1.274,1.0239625010683884,0.0,12.27062117654044,255.00010927308023,0.0949304674069671,9.133214738126712e-07,-0.6217794159766131,-0.4848362259586831,0.0623157581893829,19.03386964358093,14.575738338423124,30.39140416043857,37.64334999002668
0.81,31.222194328946124,131.0104355646621,13.31589731125766,14.24414973132696,-11.867783544982036,20.415812923351137,14.791255623335804,-15.09947505822862,273.9374926939922,32.635022744492275,11.463876488387818,64.50553110541331,-6.951454933211086,112.44291855171424,651.5115949514013,1.274,1.0239149950770308,0.0,12.308025496156052,255.00010927308023,0.0959169863041957,9.31230843958107e-07,-0.6457349106001786,-0.5059974894489303,0.0653874573031214,18.461261416814363,14.220286322920291,30.784137161622944,29.386745435148182
0.82,31.22219379637617,131.01043660097835,13.559515762289976,13.866381230095213,-11.54798415694024,26.129602041412507,15.358229027905503,-15.754297498158785,328.725004432774,32.810532982022764,11.552055475322616,64.1021234619654,-7.452808908437502,111.886546586779,658.5226540606363,1.274,1.0238644186635044,0.0,12.345635608029545,255.00010927308023,0.0964330902206154,9.501386437114808e-07,-0.6695456009104565,-0.5269553319788876,0.0681615643248625,17.972525101049268,13.935851305208653,31.008836182828933,34.15888158849291
0.83,31.222193261722488,131.01043763951435,13.80319967787971,13.416434223658662,-11.169701248970982,33.13945217518361,16.00329707477526,-16.5105743194256,395.6875032246518,33.124373419463446,11.704013113161734,63.6814822179506,-7.958367873053724,111.32354583712052,671.165045215785,1.274,1.0238188483711983,0.0,12.382983589922445,255.00010927308023,0.0973557629907104,9.702853346254877e-07,-0.6930492390622384,-0.5475741244724093,0.0712275001938523,17.39162222600351,13.59491023853831,31.380933178924906,40.3351939637343
0.84,31.22219271795988,131.01043870096856,14.051337572202268,12.927451473861668,-10.75892310951268,19.853820593042,16.69511623010405,-17.327955431514,275.45937482564227,33.51452980818274,11.893047395870768,63.24364961579779,-8.466577056713305,110.75549262896648,687.052459858125,1.274,1.0237739661568126,0.0,12.41979572728804,255.00010927308023,0.0985027464229501,9.9188258526923e-07,-0.7163128233220947,-0.5679080888444203,0.0744837351829981,16.760008693520536,13.22905729817674,31.83443646390591,31.195498673909952
0.85,31.222192166849965,131.010439781301,14.302885112204514,12.523113224635846,-10.414495769031836,21.469333909158507,17.240682170801108,-17.964037738865553,292.9609323393965,33.68432035403184,11.982668478958496,62.7886390053847,-8.976023237209064,110.18381537011274,694.0147872458272,1.274,1.0237227741398531,0.0,12.456685377081476,255.00010927308023,0.0990020597631075,1.0151517654547664e-06,-0.739347437324012,-0.5879651702532211,0.0772665391669008,16.23433435915363,12.956093857005508,32.05740851632004,32.87674059423939
0.86,31.22219161537912,131.0104408593109,14.55345662609886,12.073872478359323,-10.03306498137168,26.937441056095302,17.834411988016182,-18.663649423217453,346.2265619465616,33.94444994824003,12.115688804935465,62.31646992516941,-9.485388814670852,109.60984553974365,704.7583763636579,1.274,1.023674789281455,0.0,12.493531981774623,255.00010927308023,0.0997668923609161,1.0403496868625828e-06,-0.7619518885398596,-0.6075780309733105,0.0802418576005631,15.650664678676216,12.655937186268764,32.37650168065922,37.3098350492423
0.87,31.222191056221384,131.0104419581372,14.807700585969483,11.589401123732532,-9.622076763561896,24.63068378935891,18.470112505734285,-19.41866141432415,327.9640783669946,34.27931775278416,12.286180301770772,61.82730527723677,-9.99330666481546,109.03498235341073,718.7145398504664,1.274,1.0236288969245204,0.0,12.529712737252405,255.00010927308023,0.1007513988259234,1.0676965805051455e-06,-0.7841494571129487,-0.6267655587145325,0.0833921288413711,15.020988016876714,12.33914954952742,32.774979897011555,36.39917651582287
0.88,31.222190490555928,131.0104430752431,15.064928346370086,11.119463049315328,-9.22160969134184,20.65333170611184,19.05801656306704,-20.116903719169617,294.4828134710421,34.55876506913037,12.43267374638004,61.32130855243945,-10.4985345528582,108.46049773034451,730.4622771172977,1.274,1.0235805388426191,0.0,12.565903936704103,255.00010927308023,0.1015730258280101,1.097413780971126e-06,-0.8059440675121022,-0.6455303573202589,0.0864065040395313,14.40862255231493,12.055417168634817,33.11648370515583,34.56093055933481
0.89,31.22218992088264,131.01044420285686,15.3235644454347,10.657242033155052,-8.826247621244557,22.514497440646327,19.602415604710725,-20.76411850695156,315.02813424808807,34.795893910366445,12.560848647355336,60.798655820929,-10.99993837649094,107.88755486961338,740.5025730414266,1.274,1.0235293752791452,0.0,12.602002968225214,255.00010927308023,0.1022702789692649,1.129736837221228e-06,-0.8272525348127964,-0.6638035566357373,0.0892973629488607,13.804982765613136,11.800934039351706,33.41494709571704,36.363524442982765
0.9,31.22218934690481,131.01044534229905,15.583818747824322,10.171930198709402,-8.411184060324278,24.766503232216586,20.16804484346896,-21.44103520324906,339.3781423542166,35.083672154783905,12.71584644503106,60.25959232344383,-11.496436733167824,107.31727170153609,752.783010758951,1.274,1.0234837388140003,0.0,12.637790177186831,255.00010927308023,0.1031164045854778,1.1648955626652631e-06,-0.8480031789570432,-0.6815260334704114,0.092292030062587,13.170811199694096,11.547272651572191,33.76718698093089,38.46878872211256
0.91,31.22218876692185,131.01044650041692,15.846843540092856,9.672766263751509,-7.983885953893687,17.668403913762255,20.73930485843708,-22.12819012046748,277.7421810230785,35.39991755624773,12.887474685005731,59.704425554613216,-11.987014591777514,106.75070622346924,766.3960397408374,1.274,1.023436404813438,0.0,12.673300041633388,255.00010927308023,0.1040462081006855,1.203102375689186e-06,-0.8681795972024853,-0.6986844206185147,0.0953372301588484,12.517880751426734,11.305465416943816,34.14986625220276,35.09911766524332
0.92,31.222188181492875,131.01044767618316,16.112323593206863,9.19999506610372,-7.576876735052054,21.289038469173143,21.209323917164696,-22.69306121500068,315.0281342480675,35.60622250210459,13.00665844077934,59.133488999848176,-12.470758617341396,106.18881610713072,775.3351633362269,1.274,1.0233859136578225,0.0,12.708692111975724,255.00010927308023,0.1046528859072569,1.2445663216035176e-06,-0.8877488548026539,-0.7152518606328412,0.0980518186929849,11.897653474556847,11.12052486786431,34.41951537373081,37.65678700145455
0.93,31.22218759372637,131.0104488581595,16.378213751661725,8.696216911926467,-7.143937468427091,25.63331825019412,21.728945046507167,-23.32291651738857,359.16250706547066,35.905158024378004,13.17482926392466,58.54715249376265,-12.946844950313473,105.632472488515,788.3884857320886,1.274,1.0233407575091376,0.0,12.743918921751249,255.00010927308023,0.1055318260413666,1.289507633132914e-06,-0.9066030577284891,-0.7311400645319144,0.1009723730877579,11.236864695380028,10.933393375875989,34.785896302590345,40.90443120527335
0.94,31.222186999289047,131.01045006413787,16.64746299980795,8.17571334523122,-6.696593893575891,16.905068867456027,22.26823631429989,-23.980561608965104,283.06875048378083,36.25533065699164,13.372322882853334,57.945871742957074,-13.414498187030068,105.08250805551656,803.8205380620251,1.274,1.0232914783978162,0.0,12.778696155624548,255.00010927308023,0.1065613711786101,1.3381070429732602e-06,-0.924743555620992,-0.7463508458588685,0.1039945296531202,10.553748360892229,10.760532561051322,35.20582540099172,36.833721466128104
0.95,31.222186399293715,131.0104512910922,16.91939368643681,7.685952359168979,-6.273244719663396,22.87458510088452,22.66992128971611,-24.47129168596723,342.421873617488,36.46105006832264,13.497746733940708,57.33011557478356,-13.87305089960634,104.53964741897036,812.9472379025901,1.274,1.0232418269359267,0.0,12.813439003333713,255.00010927308023,0.1071663487988534,1.3905407426958412e-06,-0.9421434729981726,-0.7608625935136332,0.1065496886405316,9.90913396977167,10.65964912096589,35.47761870528682,40.4476957514173
0.96,31.22218579767849,131.01045252266908,17.19132265575474,7.1616766141514265,-5.821434771603422,21.800170150892846,23.154790087311497,-25.068553579369496,337.09533515678265,36.8031911840844,13.697271303525936,56.700383838602406,-14.321922525528263,104.0045309640274,828.2541662098877,1.274,1.0231951201821403,0.0,12.848058276822083,255.00010927308023,0.1081723021482404,1.4470028355099012e-06,-0.9586856749931904,-0.7745803232257085,0.109435025350233,9.21964848786487,10.553993324926385,35.89033484359115,40.49474164823202
0.97,31.222185188642296,131.01045378527127,17.46732415398488,6.643245407175401,-5.373644800238872,11.28621759292336,23.5813478470224,-25.597237992628976,245.0218871929888,37.105526413652,13.879066959001356,56.057267426885225,-14.760573791443734,103.4777689393822,841.895825672644,1.274,1.0231476260761452,0.0,12.882219926716717,255.00010927308023,0.1090612684712811,1.5076268570161352e-06,-0.9743812073952008,-0.7875138225309312,0.1121374333634295,8.536930173739044,10.49464619987665,36.26267317547396,36.587938814428576
0.98,31.2221845762499,131.01045506189897,17.744622649453696,6.14889000653683,-4.944586927318052,18.87889137927915,23.858558136241424,-25.944743144116902,319.593746642963,37.26305175175687,13.985289084586825,55.40136185139122,-15.18856604671424,102.95987029249837,849.0366443980373,1.274,1.0230935628253934,0.0,12.916436657483164,255.00010927308023,0.1095246126242675,1.57256065753457e-06,-0.989160784987084,-0.7996072070503331,0.1143185899630414,7.884402839037026,10.510168374428268,36.48732157527138,39.98465996935867
0.99,31.22218396249524,131.01045634298103,18.021797160804606,5.621253629338288,-4.488481841190216,20.75078655863268,24.244875088418823,-26.430887065355265,341.66094855170127,37.59079325689265,14.186909989754517,54.73332046125493,-15.605518359224376,102.45129324179176,864.0144690168919,1.274,1.0230490803133316,0.0,12.950365181834348,255.00010927308023,0.1104882652472805,1.6419522461042243e-06,-1.0029254334422173,-0.8107814940707047,0.1169257389221507,7.188897972232752,10.517496780350855,36.88646510038342,41.43670959326436
1.0,31.222183341668,131.01045765802925,18.30303266021319,5.093538812889324,-4.031970419883124,17.23878314372706,24.596288620091247,-26.87754877612191,314.2672081822764,37.91445557116568,14.390052863814688,54.053874092343136,-16.011094448237603,101.95246117953576,878.9333675168169,1.274,1.022999484445133,0.0,12.98384172743714,255.00010927308023,0.111439939257557,1.7158731529290384e-06,-1.0156890876064628,-0.8210483568428142,0.119430119804075,6.492923872361279,10.563708995780432,37.281637736751705,40.305777332438225
1.01,31.222182717355256,131.01045899059906,18.58580879854438,4.573159289657809,-3.5811067164167074,17.862140229917603,24.866629406745545,-27.227572381152367,324.92031610370094,38.182481055261576,14.565251797095616,53.36375412026205,-16.40504502838724,101.46371011134949,891.379822176625,1.274,1.0229507481225095,0.0,13.01737338828835,255.00010927308023,0.1122280903701779,1.7944078434232216e-06,-1.027399910273319,-0.8303663276442457,0.1216578482450935,5.806105339930006,10.661730809449196,37.62032830403655,40.97250308946909
1.02,31.22218208995292,131.01046033903913,18.869858006607373,4.047687128181353,-3.126153140097484,12.935283782817212,25.128648444300616,-27.571033446577047,284.59063161543185,38.48296715205439,14.762080852134885,52.663736123225526,-16.787174486987993,100.98532827541268,905.4401761760798,1.274,1.0229039803623294,0.0,13.050659766409945,255.00010927308023,0.1131116584966205,1.8776294365370164e-06,-1.0379947674232346,-0.8386856286539212,0.1238763295335599,5.112762255300756,10.787700950163346,37.99215577194007,39.48331830648908
1.03,31.22218145812491,131.01046171197893,19.15624713871865,3.5299172261103275,-2.677131552239504,8.342540575209716,25.29229742132153,-27.79639708135897,247.3046933904342,38.712463873225765,14.92119614134444,51.954646879210514,-17.157333594535952,100.51756456784298,916.2465268654532,1.274,1.022853416101322,0.0,13.083675097227692,255.00010927308023,0.1137865779994886,1.965569687640868e-06,-1.0474360528305002,-0.8459764150098975,0.1257450795740715,4.429252482798407,10.96751087597086,38.29209403013216,38.49594761532945
1.04,31.222180824125047,131.01046309734332,19.443307015719608,3.015214160084128,-2.230486830570974,18.50065121510316,25.383241897525835,-27.935320616398688,345.4656368807608,38.90345773445107,15.060382673529183,51.237346454781886,-17.515424380806163,100.06062162131748,925.2842028898962,1.274,1.0228049544826707,0.0,13.1165468343524,255.00010927308023,0.1143483318708939,2.058258289275838e-06,-1.0556660847261936,-0.8521936518515328,0.1273548437206674,3.749932520637086,11.190888400728907,38.55318217144036,42.035285208407934
1.05,31.22218018765687,131.01046449746144,19.731296908074583,2.4857389769734777,-1.7731415301892428,6.540190003892604,25.589877182581773,-28.22154420187257,240.4562587980608,39.27477060149119,15.309666630951586,50.51274115800356,-17.861389429312176,99.6146684660474,943.0051031802255,1.274,1.022755494436122,0.0,13.149089123838678,255.00010927308023,0.11544010117693,2.155693023382427e-06,-1.0626424011896671,-0.857304694964424,0.1294164493284691,3.0530241088514294,11.396601384729806,38.99629063748465,38.65322052099778
1.06,31.222179545278493,131.01046593657108,20.02306035807378,1.974363544751152,-1.3294186623816209,13.409772063919268,25.561150318961456,-28.219486375683328,308.1796836557233,39.421729653436685,15.427917493369543,49.78177252115262,-18.19521312222568,99.17983808838608,950.0487903873498,1.274,1.0227013895379469,0.0,13.18133937162128,255.00010927308023,0.1158724385277023,2.2577942648969848e-06,-1.0683527794606222,-0.8612979237963063,0.130595096819001,2.380076840841991,11.692217693321874,39.21292379513998,40.36748448618256
1.07,31.222178903737365,131.0104673705123,20.313197190331067,1.4542757704590283,-0.8803259391660851,17.305205052303272,25.63564966249361,-28.349404499017226,348.5093681440431,39.73664875470609,15.650920914004498,49.045396348646285,-18.516924056006648,98.7562229980236,965.261381998868,1.274,1.0226540159946436,0.0,13.213616046151396,255.00010927308023,0.1167984638138728,2.3645545802339863e-06,-1.0727357458679243,-0.8641281261101375,0.1321747202246506,1.6999192165187538,11.967004897144676,39.59837292016789,41.95647019196526
1.08,31.222178256555136,131.01046884532244,20.607077349983108,0.936610099512274,-0.4340512120697366,7.286977279982181,25.69227583003608,-28.46122336523895,261.0015785751465,40.08052828559278,15.896181912377836,48.304615029136016,-18.82657915928986,98.34389491286184,982.0126270546032,1.274,1.0226061614050743,0.0,13.245331445673171,255.00010927308023,0.1178096241982731,2.4758410326800686e-06,-1.075774401881715,-0.8657798070381385,0.133692423010878,1.0322897612854427,12.256558170818174,40.01234833278308,39.028634496375304
1.09,31.222177606409048,131.01047034457258,20.902613810085864,0.4279082601336489,0.0054880603963491,5.255323118788022,25.56219170884548,-28.3445906897832,246.54375332456465,40.2597034593415,16.04193462046416,47.560447249199214,-19.12426919462488,97.94289644171307,990.784065730404,1.274,1.0225512795791307,0.0,13.277066033898972,255.00010927308023,0.1183366725686153,2.5915283263791897e-06,-1.077432455036877,-0.8662234030222947,0.134493237712267,0.4279434510977504,12.613837232601174,40.26056552185136,38.5286891473611
1.1,31.222176955820085,131.0104718488951,21.19764847054857,-0.0786784756338927,0.4423181096470861,22.99340283789045,25.409051207943023,-28.20297171421976,413.1890617384087,40.46301338628693,16.205408723144014,46.81394058529158,-19.4101098690562,97.55325181515629,1000.7878139375392,1.274,1.0224981043155532,0.0,13.308582439682247,255.00010927308023,0.1189346640937406,2.711517601775356e-06,-1.0776796458597169,-0.8654390888640605,0.1351996040482818,0.4492610484729877,12.982089012191112,40.532491862355215,44.381573551040965
1.11,31.22217630246654,131.01047337765644,21.49424890311019,-0.581661606734612,0.8725641176249264,12.869311414566845,25.45178771399924,-28.31018041025417,324.1593910379213,40.94667636710598,16.553153896333463,46.0661659346147,-19.684242654706715,97.1749647435213,1024.8268678438576,1.274,1.0224548851875197,0.0,13.3396775156854,255.00010927308023,0.1203567181816829,2.8356309166634355e-06,-1.0764958167703569,-0.8634110511353942,0.1366614885258796,1.0486525676661098,13.280110602111035,41.08373312021108,40.18555696994534
1.12,31.222175643109026,131.01047496273176,21.795538279001416,-1.0784539496941905,1.2989067161997463,-4.024354681087502,25.244680288930425,-28.10980199768024,172.7328179403806,41.19380033132581,16.75213966368995,45.31821073827995,-19.946831153380685,96.80802216826277,1037.2043801840553,1.274,1.0223979224661404,0.0,13.37057905818732,255.00010927308023,0.1210835143046826,2.963583698465937e-06,-1.0738337250419507,-0.8600940912047428,0.1371423147359143,1.6882009122402275,13.662163932389657,41.3978146450283,37.99539816659764
1.13,31.22217498438341,131.01047654645205,22.0955026325894,-1.5743774732681877,1.7254566536915867,16.89521924902518,24.82409491990529,-27.64591236725117,367.5328077894322,41.242021842991406,16.821909300450486,44.57119878379149,-20.19804712086488,96.45241277535494,1039.6041536127263,1.274,1.0223460397860296,0.0,13.40161193408402,255.00010927308023,0.1212256651490835,3.0952214208204334e-06,-1.0696861128241266,-0.8554893272449073,0.1367685898443546,2.3356189121707818,14.117232192400442,41.51301497508694,40.816425525550734
1.14,31.22217432572325,131.0104781318022,22.394562545312496,-2.0527877200412954,2.1322211565160334,2.630663755940135,24.697520619695936,-27.554863651102885,239.6953177322812,41.69129705817457,17.162323816857118,43.82625938003278,-20.43808507627196,96.10810572983485,1062.3471285735031,1.274,1.0223022138470996,0.0,13.432159287685266,255.00010927308023,0.1225466659268342,3.230360167978844e-06,-1.0640725452923996,-0.8496199762300307,0.1375289834851418,2.959452456137309,14.450330845888097,42.02614827235555,37.096609378594074
1.15,31.222173660570053,131.01047978849186,22.699290388968898,-2.535183224251558,2.5444264257970746,2.1223621188341864,24.260190059389096,-27.07809045719061,237.4125115347709,41.82496426832029,17.294001742689872,43.084507965199904,-20.667164223220382,95.77504609245196,1069.138774968014,1.274,1.0222426194541194,0.0,13.462278937334796,255.00010927308023,0.1229399877308067,3.368587836307787e-06,-1.0569137064111795,-0.842409698481684,0.1370376761741154,3.5912440266062275,14.8913258720001,42.22451048056927,36.418185367875495
1.16,31.222172997758737,131.01048142634286,23.00102185662784,-3.0072603094508685,2.9460067949435533,29.488602345489085,23.83497507845748,-26.620446537315672,490.043774385954,42.02489518567517,17.472928192367313,42.34711856652844,-20.88549348052632,95.45320424700328,1079.3532772458473,1.274,1.02219674531104,0.0,13.49263344703915,255.00010927308023,0.1235280837804548,3.509712561188246e-06,-1.0482612853138844,-0.8339112843892333,0.1365615619985694,4.208871347191738,15.312847626402398,42.48744897438849,46.32852122750256
