Time,Latitude,Longitude,Altitude,Angle of Attack,Angle of Sideslip,X-Acceleration,Y-Acceleration,Z-Acceleration,Thrust,True Velocity,Ground Velocity,Pitch,Roll,Yaw,Dynamic Pressure,cp,parachute_deploy_gain,Wind Speed,Mach,omega_x,omega_y,omega_z,Cmq,Angle of Attack(total),Angle of Attack(gust),True Velocity(gust),Acceleration
0.0,31.222186000000004,131.010384,3.000000003643237,0.0,0.0,0.0,0.0,0.0,2.2828121974499247,0.0,0.0,69.99999999623421,0.0,113.69999999388332,0.0,15.288,0.0,0.0,0.0,0.0,0.0,0.0,-0.0,0.0,90.0,0.0,0.0
0.01,31.22218600000153,131.01038399999584,2.99999882256592,0.0,0.0,0.0,0.0,0.0,34.24218696174923,7.502283530665459e-11,7.190531319924593e-11,69.99999999623329,-4.83564628150269e-13,113.69999999388072,3.446445726795683e-21,15.288,0.0,0.0,2.204725565824978e-13,-3.659182332138578e-19,7.589415207398531e-19,4.811147140404426e-19,-1.5108918610345807e-31,0.0,89.9999999995224,7.502283530665459e-11,0.0
0.02,31.22218600000288,131.01038399999217,2.999997775701936,0.0,0.0,0.0,0.0,0.0,25.871876237766408,1.5320717031631675e-10,1.4674636035870463e-10,69.99999999623222,-9.67129256300373e-13,113.69999999387804,1.4372842949972735e-20,15.288,0.0,0.0,4.5023593667086093e-13,-7.284483346386986e-19,1.5178830414797062e-18,9.757819552369542e-19,-6.170906918166791e-31,0.0,89.99999999902465,1.5320717031631675e-10,0.0
0.03,31.22218599928065,131.01038400193067,3.000201659671132,18.81500467334555,-0.00012974450181,11.96616230539064,-1.8916256735984712e-05,3.349833086198469,180.34219359854663,0.0882870268161719,0.0553390044312322,69.99999999799445,-4.212591857125379e-12,113.69999999488518,0.0047728553458352,15.288,0.0,0.0,0.0002594525584132,3.2187251995663407e-17,-7.20264389268894e-10,1.2365134327422308e-11,1.6874092354518158e-13,18.815004673776716,89.46786891739345,0.0882666465974854,12.426199017587786
0.04,31.22218599548236,131.0103840121632,3.001799604587872,9.46752327608497,-4.6177622759613696e-05,55.21900012092241,3.931876292165237e-06,3.349616504302861,548.6359724538078,0.3767519978512604,0.1853356633749705,70.00000000507204,-2.4624598767003407e-11,113.70000000019972,0.086915163246288,15.288,0.0,0.0,0.0011071759353184,1.6174128009138757e-15,-1.3693172015529268e-08,2.7753303060112748e-11,1.3689612277852356e-11,9.467523276196548,87.63554493451223,0.3767447442872393,55.32050167054111
0.05,31.222185984749512,131.01038404118162,3.00777936418888,5.376730308971262,-2.257790939128127e-06,80.28807156553681,5.266841443842784e-05,3.348887800834877,761.6984298824644,1.018787885905993,0.4366201147110198,70.00000000894464,-1.1355399380652658e-10,113.70000001523856,0.635552918586145,15.288,0.0,0.0,0.0029939522895272,1.6418815498809788e-14,-9.32122351075408e-08,4.303264669380585e-11,2.5199270302492604e-10,5.3767303089717045,83.57022052969386,1.0187875312530217,80.35788377762394
0.06,31.22218596447235,131.01038409608267,3.0201664202003013,4.296730121134882,2.4863835723705905e-05,60.21296515808257,0.0001057204249726,3.347700952379021,590.4875390737208,1.721098934225416,0.7081674028809783,69.99999995523842,-3.0560354507026086e-10,113.70000004366592,1.8138247671743823,15.288,0.0,0.0,0.0050578622752421,8.328976953118383e-14,-3.2824985336199985e-07,5.923438275930214e-11,1.4991363363716091e-09,4.296730121206683,79.20467073327266,1.7211028398275985,60.305955550063224
0.07,31.22218593493329,131.01038417609837,3.038741944736831,3.8204913578752526,4.8016684030909405e-05,91.4060317508128,0.0001597686613101,3.346072557365335,855.2937749779139,2.4375792548422868,0.9844712334613328,69.99999973536046,-5.939103491363046e-10,113.7000000850886,3.6383156301599167,15.288,0.0,0.0,0.007163413150771,2.709313825263564e-13,-7.906546256197275e-07,7.920022733617308e-11,5.114174483651565e-09,3.820491358176508,74.87999294483174,2.437586797285377,91.46725557277466
0.08,31.222185894468456,131.01038428575305,3.0647976109320942,3.588632851766762,7.220043782492885e-05,19.18449428359557,0.0002119618497595,3.3440615022685813,241.2171988638848,3.1292508166901074,1.2522236515868983,69.99999919480445,-9.914748373602156e-10,113.7000001418522,5.996012698481753,15.288,0.0,0.0,0.0091960591623389,6.80386533246681e-13,-1.5973238302190878e-06,1.0839624626357699e-10,1.3263625118823921e-08,3.58863285249208,70.86684630658345,3.1292621579083604,19.473766155861934
0.09,31.22218584634549,131.01038441616095,3.0957981580345013,3.551302481506045,9.685468678862004e-05,57.102946699906326,0.0002554087225869,3.341892818148368,563.0937377043176,3.701810007254615,1.479132491047967,69.99999812344194,-1.4359264356978275e-09,113.7000002093888,8.390904013834115,15.288,0.0,0.0,0.010878666406854,1.440096519545733e-12,-2.748643691533636e-06,1.5214952332699618e-10,2.6999776649034504e-08,3.5513024828250237,67.68737872952666,3.701825221153239,57.20065357568538
0.1,31.222185790329306,131.01038456796124,3.1319266121977414,3.608446747536112,0.0001234669721807,54.26147302645416,0.0002914860332524,3.3396271157106168,538.7437595981919,4.174070299823608,1.6716491241860567,69.9999963052332,-1.902380107712657e-09,113.70000028805804,10.668380938744466,15.288,0.0,0.0,0.0122665227999911,2.687800116751415e-12,-4.315796035622946e-06,2.1749089204950437e-10,4.7802076800548326e-08,3.608446749645647,65.17160335282355,4.174089693970246,54.36414778470795
0.11,31.222185727066616,131.0103847393952,3.172681775073216,3.633547373470009,0.0001485939126744,42.987553988990406,0.0003293995000288,3.337005588796181,442.8656393052949,4.672024955140527,1.8729475711242067,69.99999349387662,-2.3433348587116544e-09,113.70000037699285,13.365573690709628,15.288,0.0,0.0,0.0137298902182575,4.5789425819531184e-12,-6.340230783164189e-06,3.1157625832417107e-10,7.860218435507205e-08,3.6335473765043056,62.62546922225161,4.672048296217748,43.116880735560244
0.12,31.22218565692512,131.0103849294629,3.2177790417108385,3.650108937861461,0.0001727442530266,46.86777100765684,0.000367618259785,3.334068179146888,475.58594813540446,5.17479364099247,2.0758708919414386,69.99998941286465,-2.702771525550512e-09,113.70000047573096,16.396890189902592,15.288,0.0,0.0,0.0152074069417046,7.288473386564583e-12,-8.86736416607888e-06,4.42271554299792e-10,1.217615295152289e-07,3.6501089419435786,60.16906436414164,5.174820775596283,46.986210423745625
0.13,31.222185580265183,131.0103851371844,3.2669395832841857,3.7280113734654137,0.0001995014041665,51.64515456841877,0.0003986198234033,3.3311573548369657,515.9156326236895,5.579364582999854,2.2451120211463422,69.99998375846928,-2.9114380666036422e-09,113.70000058383452,19.060875702782603,15.288,0.0,0.0,0.0163963474924215,1.100846422415094e-11,-1.1941028436408576e-05,6.179653149059831e-10,1.7678562106638216e-07,3.728011378795934,58.279338776943774,5.579395920607139,51.75247433579817
0.14,31.22218549718016,131.01038536230575,3.320091807147376,3.768719651034081,0.0002242721760019,48.1660778383537,0.0004326225136175,3.32784677779744,486.2390860568404,6.025734265159953,2.428648685938864,69.99997621008868,-2.890941335368725e-09,113.70000070125378,22.232643351545065,15.288,0.0,0.0,0.0177081261985351,1.5941871344608664e-11,-1.560901486259027e-05,8.477542742712431e-10,2.495765160917323e-07,3.7687196576976176,56.27980129251342,6.025769493750979,48.280903250602165
0.15,31.22218540777004,131.01038560455507,3.377159065217065,3.821894709649632,0.000249725644238,46.56959330999435,0.0004643042952466,3.324387732286376,472.54218587214,6.441023336496372,2.6014999612196745,69.99996641132823,-2.546763407193136e-09,113.70000082794672,25.402620271850456,15.288,0.0,0.0,0.0189285691155931,2.2314099732464315e-11,-1.992367942778425e-05,1.1417519574710292e-09,3.4051816697623295e-07,3.821894717796148,54.501255563441134,6.441062563308839,46.68809885900716
0.16,31.22218531193176,131.01038586421257,3.4382223512025254,3.8463320955387794,0.0002733212404609,36.974247749122085,0.0004987816203583,3.3205066466509234,391.1218908297564,6.895451966878468,2.7877331692857847,69.99995397923414,-1.77088415515292e-09,113.70000096417354,29.113317717489338,15.288,0.0,0.0,0.0202640360420561,3.0367358387834494e-11,-2.4945905791363795e-05,1.5114297685186711e-09,4.5643121540033697e-07,3.846332105235269,52.641145594326446,6.895494900078523,37.12304892183151
0.17,31.222185210004127,131.010386140357,3.503019838429153,3.8860314262554336,0.000297865039677,46.520531453299206,0.0005306403365217,3.31650761597812,471.78125980632376,7.314788342774694,2.9619016331667103,69.99993849340957,-4.3039914767238207e-10,113.70000110959404,32.761746921137856,15.288,0.0,0.0,0.0214963781445172,4.0366633128431416e-11,-3.0713078585132897e-05,1.96747427715988e-09,5.961228045584824e-07,3.886031437653654,51.00464968745696,7.314835131305714,46.63860064094784
0.18,31.22218510147516,131.01038643438045,3.571950002194137,3.9107265153396016,0.0003214293682635,38.895647526122765,0.0005639254295027,3.312149448254175,407.10156721191447,7.754626295791602,3.1430587898572058,69.9999195084231,1.6149322372810674e-09,113.70000126508234,36.81988229018681,15.288,0.0,0.0,0.0227889722876034,5.2593391349219385e-11,-3.731786027786564e-05,2.525509173087448e-09,7.6786585232224e-07,3.9107265285284982,49.36615848311875,7.754676785798701,39.036415444581515
0.19,31.222184986476247,131.0103867459258,3.644912152926752,3.920599115663931,0.0003437679584038,43.86258669386953,0.0005989384366483,3.307389681300437,448.9531328318269,8.219206165926856,3.332657190859447,69.99989653019398,4.538529095696477e-09,113.70000143063515,41.36350714675367,15.288,0.0,0.0,0.02415428010977,6.735860419174937e-11,-4.481243905342629e-05,3.199401151670645e-09,9.773118416308382e-07,3.92059913071168,47.71893898797248,8.21926016487149,43.987104227715655
0.2,31.222184864792144,131.01038707557822,3.722074668489528,3.943376465171875,0.000367328732016,40.28070981710589,0.0006315894240138,3.30251450988504,418.51563019916136,8.65238089736321,3.511445117640573,69.99986902534273,8.534090245934178e-09,113.7000016067622,45.83799876721736,15.288,0.0,0.0,0.025427299120469,8.499785987217288e-11,-5.328041996372527e-05,4.006766070954748e-09,1.2232205148646746e-06,3.9433764822533854,46.2587826635041,8.652438597225508,40.41586552155969
0.21,31.22218473678744,131.01038742234647,3.803156063113743,3.9664546506877016,0.000390962054969,38.67679184347145,0.0006636984664108,3.297405915846789,404.8187610144644,9.079179692250786,3.688002035198235,69.99983642883521,1.3827831253856693e-08,113.70000179318536,50.47126980736161,15.288,0.0,0.0,0.0266815841422463,1.0586558589671407e-10,-6.275155280099118e-05,4.961340042512481e-09,1.5117124669161171e-06,3.9664546699249135,44.88773728276958,9.079241104426773,38.817098210937615
0.22,31.2221846022986,131.01038778667507,3.8882846911135607,3.956175711337521,0.0004112685792646,46.713636108302936,0.0007011135033803,3.291572407481395,472.5421858721365,9.580256326712124,3.889976788904857,69.99979815126248,2.0662823443484168e-08,113.70000199039316,56.195522894218605,15.288,0.0,0.0,0.0281541581291438,1.3033127211465288e-10,-7.330053770532661e-05,6.0817207473359025e-09,1.8632831045819008e-06,3.956175732680424,43.35679625546934,9.580320928629488,46.8294591882524
0.23,31.222184460898035,131.01038816972698,3.977794004014759,3.9879066397329104,0.0004360962274406,38.89105719050748,0.0007308686121188,3.286096544282012,406.3406421461021,9.977039034039262,4.056142701351626,69.99975353557706,2.9316661139418326e-08,113.70000219928508,60.9462612310605,15.288,0.0,0.0,0.0293202403623685,1.5880617816859538e-10,-8.505067486192354e-05,7.393319440773217e-09,2.2514912291167663e-06,3.987906663538912,42.20670487756048,9.97710753587448,39.0296395118868
0.24,31.222184313516166,131.01038856897196,4.070963590490852,4.003523997322975,0.000459165577055,40.0792299321398,0.0007630441688766,3.280134925833028,416.2328240017114,10.408422364424831,4.234121060914368,69.99970190737699,4.010976417051318e-08,113.70000241888,66.32994780718496,15.288,0.0,0.0,0.030588009649109,1.91711512587616e-10,-9.795845222523724e-05,8.904557280909524e-09,2.7052895870113487e-06,4.003524023611085,41.011349410369874,10.408494489985014,40.21323112692186
0.25,31.22218416001652,131.01038898478134,4.167901030441617,4.0261356185860135,0.0004830526730531,41.17760020658354,0.0007934613160587,3.2740610008587527,425.36408079150686,10.816813039390448,4.4041629376391525,69.99964258149416,5.3372865854010094e-08,113.70000264972064,71.63651430352668,15.288,0.0,0.0,0.0317882126436337,2.2947426169209347e-10,-0.0001121037688082,1.0637152702866709e-08,3.217380562698304e-06,4.026135647516394,39.93186687113378,10.816888917126896,41.30755663120434
0.26,31.222184000702686,131.0103894163294,4.26837241014618,4.053359329950934,0.000507503069958,44.80261175215926,0.0008224724146494,3.2678597736729302,455.8015834241788,11.207047269494833,4.567925492611352,69.99957484039399,6.947299261165984e-08,113.70000289176392,76.89781807056055,15.288,0.0,0.0,0.0329350617559806,2.7254099134167665e-10,-0.0001275114371842,1.260720913253598e-08,3.7915697709142366e-06,4.053359361668992,38.945390435244384,11.207126987890645,44.921630958721536
0.27,31.22218383516388,131.01038986473338,4.372698316214008,4.0614460923241,0.0005296455772492,41.029837477288126,0.0008548809954683,3.2610328932384265,423.84219965987256,11.645685385842508,4.748226940060522,69.99949794024376,8.879821051920497e-08,113.70000314600205,83.0342688744587,15.288,0.0,0.0,0.0342241635563461,3.2137296827284217e-10,-0.0001442952656441,1.4842505534226832e-08,4.458527942364847e-06,4.061446126801262,37.8838346421185,11.645768582375233,41.15922617924542
0.28,31.222183663504484,131.01039032970942,4.48079961904222,4.081133040992532,0.0005533279247169,47.27661484082626,0.0008845140695959,3.254218495915602,476.3468732012221,12.047344998676092,4.915789434712848,69.99941106884992,1.1178948978424788e-07,113.70000341275257,88.85982357848233,15.288,0.0,0.0,0.0354045979054623,3.764736350660473e-10,-0.0001625146963723,1.7365685655384934e-08,5.194620655212288e-06,4.081133078439725,36.956255322213885,12.047431915223257,47.38848224631549
0.29,31.22218348566054,131.0103908114315,4.592727908358551,4.1001100265020245,0.0005770279952742,37.989969791857405,0.0009138463939581,3.247164755122801,397.97031042211177,12.446314684600782,5.082367374004485,69.99931338876085,1.3891902435864665e-07,113.70000369260468,94.8417675268915,15.288,0.0,0.0,0.0365771315767517,4.3836067907166327e-10,-0.0001822432988888,2.0202163500922312e-08,6.018074062137429e-06,4.100110067036654,36.07377590258778,12.446405323946324,38.12849176886316
0.3,31.222183301933686,131.01039130907952,4.708251093558373,4.112858061667493,0.0005998635114143,35.655053282557844,0.000944131403186,3.2397207148238625,378.1859457108711,12.860033399289696,5.253940723820665,69.99920403105713,1.707002607527005e-07,113.7000039856728,101.2505662360602,15.288,0.0,0.0,0.03779301412572,5.075709863465428e-10,-0.0002035013069687,2.3370674033523645e-08,6.94335970778e-06,4.112858105337573,35.19685285507256,12.860127625629724,35.80193592228613
0.31,31.222183112488807,131.0103918222051,4.827243246502713,4.136140889545823,0.0006242383343011,37.56633644061071,0.0009716215464757,3.232339252743767,394.1656220930212,13.2364445751808,5.4126574282679245,69.99908210036875,2.0768081583188525e-07,113.7000042923011,107.26326115439352,15.288,0.0,0.0,0.0388992619788015,5.846561731689753e-10,-0.0002263323252403,2.6893437641668458e-08,7.948283231812338e-06,4.1361409365698805,34.43286455705216,13.236542630309057,37.70514091683033
0.32,31.22218291741533,131.01039235056504,4.949637017503345,4.1622282001352975,0.0006491019906456,40.83513712643371,0.0009979686925508,3.224840963348891,421.55939346242695,13.59846554462374,5.566374262777002,69.99894668612772,2.504388718903276e-07,113.70000461297312,113.2095365840355,15.288,0.0,0.0,0.0399632243410653,6.701756367872645e-10,-0.00025078340164,3.0793566854276295e-08,9.047716714467492e-06,4.16222825066026,33.72644865222576,13.598567505326,40.96227562489027
0.33,31.222182716732533,131.01039289410716,5.075419569102976,4.187801887681037,0.0006739743721461,40.48743503284469,0.0010239291638211,3.217136801802925,418.5156301991682,13.956637761217308,5.718704299733134,69.99879684673242,2.995902922462564e-07,113.70000494831164,119.25032483364384,15.288,0.0,0.0,0.0410158804634189,7.647061680070125e-10,-0.0002769136723495,3.509664608790402e-08,1.0253455741189656e-05,4.187801941818244,33.053267359159875,13.956743628864118,40.61505097607
0.34,31.222182510255863,131.01039345333336,5.204736257784645,4.19642921746386,0.0006961879027693,31.814592723444047,0.0010535137542081,3.208669900766693,345.46563688075645,14.367047160772364,5.88887983533068,69.99863160305904,3.557915789971256e-07,113.70000529927128,126.36523219087664,15.288,0.0,0.0,0.042222056531773,8.688448410811866e-10,-0.0003048202762282,3.9835373705550826e-08,1.1618525957862828e-05,4.196429275109305,32.30947868183619,14.367156517712404,31.97598901989736
0.35,31.222182298183583,131.0103940277045,5.337435501771672,4.210915783240843,0.0007193441544952,34.813487415034444,0.0010813034848195,3.200164272309822,370.5765700527033,14.754132934586384,6.050986755458457,69.99844991734221,4.1975736284587617e-07,113.70000566632532,133.26448209504355,15.288,0.0,0.0,0.0433596939127697,9.832256819293898e-10,-0.0003345386312107,4.503361101379695e-08,1.309465610343774e-05,4.210915844572415,31.63649055965014,14.75424592890194,34.96026256388454
0.36,31.222182080444604,131.0103946174141,5.4735747500461605,4.22903876037745,0.0007431682866607,39.2632255716727,0.0011077666085529,3.1915717453569297,407.8625232777193,15.124417129017054,6.2072589919251575,69.99825073022951,4.922382611919288e-07,113.70000605036684,140.03566173682628,15.288,0.0,0.0,0.0444479595865755,1.1084921261805627e-09,-0.0003661511460057,5.0723697896912267e-08,1.4691545926915382e-05,4.229038825557203,31.017264542603208,15.124533865618538,39.39272792946638
0.37,31.22218185710795,131.01039522227452,5.613102797925907,4.249164960780052,0.0007674149135003,37.28328237034959,0.001133274451316,3.1828514669894137,391.1218908297666,15.483077353331511,6.359470679857624,69.99803294268581,5.740349991123437e-07,113.70000645214331,146.75405277514704,15.288,0.0,0.0,0.0455020695186381,1.245311285088233e-09,-0.0003997125883071,5.6934243389647934e-08,1.641828325195534e-05,4.2491650299519,30.439178816713017,15.483197898584232,37.418894813348615
0.38,31.2221816281124,131.0103958424523,5.756069531572451,4.260095806433531,0.0007900626414612,38.9278000801764,0.0011607546399008,3.1735466295306622,404.8187610144602,15.87126705947922,6.521735074464384,69.99779542676283,6.659911329739736e-07,113.70000687263192,154.20298254405043,15.288,0.0,0.0,0.0466429667223463,1.3943646956867835e-09,-0.0004353006984059,6.369875435270817e-08,1.8328108041903096e-05,4.260095879559656,29.83470194713067,15.87139116222873,39.05694584372078
0.39,31.22218139339905,131.0103964781077,5.9025231349944285,4.274091258047817,0.0008133283308351,33.320076729592266,0.0011870382950339,3.164143363712209,357.64062493382744,16.24457853509073,6.678818328235205,69.9975369905506,7.690136753559805e-07,113.70000731287368,161.54010621938565,15.288,0.0,0.0,0.0477401448128051,1.5563705124515804e-09,-0.0004730068442167,7.105463478762673e-08,2.0383860516746246e-05,4.274091335289374,29.274934656826048,16.244706292406182,33.46997636540994
0.4,31.22218115316572,131.01039712870306,6.0523126585892895,4.286421841403391,0.0008363022448449,31.88018820767003,0.0012133780841982,3.1544430614236454,345.465636880754,16.62063299903514,6.836764518435374,69.99725641601981,8.840594270905819e-07,113.70000777359816,169.10340080049767,15.288,0.0,0.0,0.0488453895716005,1.7320643186450851e-09,-0.0005128553637434,7.9027539265021e-08,2.2612406375611563e-05,4.286421922834417,28.730746964325096,16.620764365084565,32.03586915718869
0.41,31.22218090752676,131.01039779392735,6.205351877049411,4.30025870409831,0.0008595777771371,35.882550741685804,0.0012389121673015,3.1445895889870297,378.94687077668647,16.987310563534386,6.99141560549392,69.9969524610574,1.0121301778427253e-06,113.70000825570062,176.64448930727934,15.288,0.0,0.0,0.0499230826371405,1.922193031274436e-09,-0.0005548883906878,8.764667734700782e-08,2.5005077415911235e-05,4.300258789847355,28.21875643368965,16.987445585695873,36.020076248499606
0.42,31.222180656535848,131.0103984736348,6.36160173428776,4.322008670726048,0.0008844838439129,40.34064925656127,0.001261804338223,3.134918999355981,416.2328240017114,17.318628721060172,7.133856886815013,69.99662385300175,1.154276942054023e-06,113.70000876021427,183.59942989625057,15.288,0.0,0.0,0.0508968652507098,2.1275184665783874e-09,-0.0005991661829955,9.694534598491077e-08,2.752657757470936e-05,4.322008761057615,27.772396468009568,17.318767655457478,40.462275036947325
0.43,31.222180400205527,131.0103991677914,6.521055075967404,4.339436441324956,0.0009085827200945,35.541853595187746,0.0012854696362701,3.124839917627212,375.9031395134336,17.662848429084132,7.280642039343927,69.99626930133451,1.3115939750280808e-06,113.70000928827632,190.96736675963504,15.288,0.0,0.0,0.0519085689713619,2.3488101247838237e-09,-0.0006457514522491,1.0695800287133593e-07,3.0255957891170616e-05,4.339436536261635,27.322335771349252,17.662991148924057,35.67895714766603
0.44,31.22218013836212,131.0103998768696,6.683849332059896,4.342209064313268,0.0009296474314902,32.82948243168077,0.0013129688908547,3.113754688841357,353.0750125389216,18.063580761318697,7.446730341918701,69.99588746395321,1.4852372182848018e-06,113.7000098413532,199.7278270846888,15.288,0.0,0.0,0.0530863610987301,2.586862292117705e-09,-0.0006947575786514,1.1773083546077225e-07,3.329010177793299e-05,4.342209163639375,26.81344244367223,18.06372678999575,32.9768158972058
0.45,31.22217987077456,131.0104006014978,6.850166573233225,4.3420317510315165,0.0009500780330031,38.11022602597878,0.001341042003417,3.1022288449712887,397.2093853562869,18.47486275310604,7.616350301328129,69.99547690348253,1.6764536248320808e-06,113.70001042108892,208.92306716049887,15.288,0.0,0.0,0.0542951637545535,2.842521175226318e-09,-0.0007463379956615,1.2932090054593452e-07,3.657529369088674e-05,4.342031854775571,26.30944884471334,18.47501199101448,38.23628058998621
0.46,31.22217959739673,131.01040134180155,7.020045503401754,4.351169003849846,0.0009725797783515,44.3937050866137,0.0013660055515545,3.09098240974522,449.7140588976434,18.844323061800488,7.771531995684422,69.99503610583268,1.8865779683531e-06,113.70001102895836,217.3591612614144,15.288,0.0,0.0,0.0553810645782081,3.1166808800591503e-09,-0.000800596194505,1.417768495237597e-07,4.001824400409673e-05,4.351169112337076,25.873596578896564,18.844475834274814,44.50118229261506
0.47,31.22217931813738,131.01040209802923,7.193559875579052,4.358630093683735,0.0009947969928181,30.22514089990685,0.0013910994973101,3.079396422776949,331.0078106302534,19.2180591098146,7.9280875671397615,69.99456352718363,2.1170044481277104e-06,113.70001166656292,226.0625808853568,15.288,0.0,0.0,0.0564795377574197,3.4102493884459798e-09,-0.0008576351980594,1.551487523304888e-07,4.3718862242359527e-05,4.35863020698899,25.44665981168229,19.218215372160817,30.381603425148434
0.48,31.22217903348153,131.01040286886197,7.370336324605091,4.365514409145237,0.001016880998596,29.779838936311712,0.001416009414045,3.067527859335786,327.2031223011574,19.5915905767454,8.084483592791102,69.99405758812365,2.369198154608765e-06,113.70001233476164,234.93171707892955,15.288,0.0,0.0,0.057577416115756,3.7241711041759195e-09,-0.0009173883913609,1.6944871263079066e-07,4.767297940601472e-05,4.365514527349481,25.03354780044292,19.59175030803913,29.937410312943754
0.49,31.22217874361868,131.01040365378466,7.5502307795521535,4.3786401372577615,0.0010404145545081,37.2489281064929,0.0014385799934191,3.0558405437943126,389.60000969812296,19.93403005898306,8.23012235628909,69.99351671352461,2.644660619562788e-06,113.700013034871,243.21198709852868,15.288,0.0,0.0,0.0585839249886784,4.059374595909599e-09,-0.0009798792959512,1.8470833984680338e-07,5.180951737438081e-05,4.378640260624215,24.667474291142685,19.934193486919103,37.37406598941686
0.5,31.22217844858332,131.0104044527036,7.733219389747018,4.396362248945555,-3.539395746917352,38.27407394031274,0.2305845694675799,3.04425593929377,397.97031042210494,20.28869948673695,8.3664649573212,69.99293932307316,2.9449363413826395e-06,113.70001376847225,251.93908433796503,15.288,0.0,1.2525784889493092,0.0596263825678011,4.416769394513709e-09,-0.0010472760810716,5.18679161945689e-06,5.635722750127486e-05,5.641872197523338,20.780087267066893,19.73308603420465,38.39564297490184
0.51,31.222178148376155,131.0104052653437,7.919241809795622,4.408037069912773,-3.4874001520806326,29.363723828451263,0.2361210361750325,3.032037260409315,323.3984349720841,20.630545885992777,8.51192952548936,69.99232260952357,-2.7431684354195568e-05,113.69998186180744,260.49585035881745,15.288,0.0,1.2575491204889595,0.0606311608980565,4.786947400834329e-09,-0.0011154011635499,-4.948912138784149e-05,6.103350077686367e-05,5.618606576447599,20.490530971239856,20.083084531362797,29.520794030069574
0.52,31.222177842872306,131.01040609168862,8.108309292870297,4.417017774194174,-3.4360657350579724,35.20077727592028,0.2418687956006913,3.0194106551926287,372.0984511843415,20.981167733092207,8.660269595463713,69.99166613064732,-0.0001448001851692,113.69985738247324,269.420599020795,15.288,0.0,1.2625021495314006,0.061661735802665,5.149761357663628e-09,-0.0011864474539792,-0.0001055406473775,6.602322714356717e-05,5.594031615337239,20.200986550216545,20.44175525632488,35.33086557173375
0.53,31.222177531930804,131.0104069321176,8.300533484454473,4.426133730690318,-3.38680980832452,36.94207877248771,0.2476412901908076,3.00656439370978,386.5562464348624,21.32808932902698,8.807238893637987,69.99096817003526,-0.0003513796153871,113.69963796827352,278.39880834129195,15.288,0.0,1.2674383818665955,0.062681442612399,5.5054768669036535e-09,-0.0012605486017619,-0.0001630317309851,7.130534967027216e-05,5.571203531630431,19.92262561387621,20.796400244513425,37.06505011051271
0.54,31.22217721545252,131.01040778688846,8.495991536374937,4.435027992563201,-3.339254432687492,32.48762273447611,0.2534598189118859,2.9934703391618047,349.2703242098436,21.672981814287564,8.953409641580027,69.99022695217164,-0.0006494463893963,113.69932119579168,287.47008152386326,15.288,0.0,1.2723614167162047,0.0636951927717169,5.854377654403479e-09,-0.0013378225139999,-0.0002220101277988,7.689880374818415e-05,5.549577395095539,19.65356734309533,21.1487498463328,32.62622775450594
0.55,31.22217689371184,131.0104086552435,8.694470940694192,4.444940687298589,-3.294200578740503,34.4112353872856,0.2592513330985427,2.9802316034817418,365.2500005919907,22.009811021166342,9.096709883833086,69.98944066246874,-0.001041288678866,113.69890462845204,296.46926000788267,15.288,0.0,1.277265508530666,0.0646852522120033,6.1967897641305916e-09,-0.0014182437675927,-0.0002824144123072,8.2786846039199e-05,5.530594116236302,19.39812603617675,21.492644241586884,34.54102072237127
0.56,31.222176566709173,131.01040953717046,8.895971782933328,4.456759155770673,-3.252160040818884,32.14112155325637,0.2649572689204702,2.966937312166805,346.2265619465787,22.3339378107272,9.235543606348946,69.98860747351813,-0.0015291545524683,113.69838587262132,305.25953902350915,15.288,0.0,1.282150587964883,0.0656379867486601,6.533045455505705e-09,-0.0015018947621252,-0.0003442655034106,8.89591331253772e-05,5.515242759821523,19.159113318751476,21.823363970304708,32.27885707502486
0.57,31.222176234515604,131.01041043246497,9.100439398201306,4.466297203358304,-3.209978673119918,31.78513950947916,0.2708276472850401,2.953224723000893,343.1828296833023,22.6661411984276,9.37705458253322,69.98772552708432,-0.0021152887603904,113.69776253796364,314.40199420674963,15.288,0.0,1.287014529730132,0.0666144644957727,6.86350334122145e-09,-0.0015888220892662,-0.0004075573531314,9.550587092584376e-05,5.49826249465023,18.92015074765404,22.162182658826445,31.92318871159538
0.58,31.222175897109263,131.01041134117585,9.307891304552314,4.470822797864857,-3.1657209035980407,41.7403940873209,0.2770436881092908,2.9388152659312805,426.1250058573153,23.020824986642143,9.526193868636687,69.98679292358025,-0.002801954195401,113.69703221482298,324.31215603558115,15.288,0.0,1.291857341864302,0.0676570177616494,7.188534632626703e-09,-0.0016791120650144,-0.0004723127940304,0.0001025106823649,5.476284580442774,18.67100257087679,22.523807683388483,41.84463988299153
0.59,31.222175554093347,131.01041226437073,9.51863576759345,4.4805554256038285,-3.126579827105609,33.902254873447234,0.2829693961596808,2.924657009854469,360.68438819711065,23.34589568307524,9.665045002467572,69.98580765749047,-0.0035915577360268,113.69619234068104,333.52911702314657,15.288,0.0,1.296684976383408,0.0686125469025869,7.50849277504555e-09,-0.0017730323562411,-0.0005386818656761,0.0001097708361231,5.461770730931719,18.44952642741754,22.855017378875434,34.02934874205839
0.6,31.2221752056758,131.01041320147291,9.732512112880368,4.481857481172441,-3.082969035706816,30.168296064057724,0.289476266117107,2.9094300232179413,329.4859594986058,23.71199523693817,9.817897347440937,69.98476767227508,-0.0044865356477526,113.69524032071864,344.06456829901526,15.288,0.0,1.3014932905972976,0.0696886653196618,7.823800384708063e-09,-0.0018705732157098,-0.0006066152124509,0.0001176233818247,5.438046241039679,18.20513725458708,23.22795724442759,30.3096464343827
0.61,31.22217485180836,131.01041415260232,9.949558375451216,4.4815682688241045,-3.0396863989016127,35.291958624115324,0.2961441950525514,2.893756809286024,372.0984511843297,24.08447725347512,9.972837878200991,69.98367084730455,-0.0054893795772438,113.69417350135892,354.9516103290744,15.288,0.0,1.3062837380150758,0.0707835493252409,8.134877399814126e-09,-0.0019718471885334,-0.0006761500731083,0.0001259366915338,5.413436365634439,17.963086058730713,23.607228379194893,35.411634717728305
0.62,31.22217449260263,131.01041511744413,10.169688714246831,4.493338099507467,-3.0058053099383866,43.7987686438197,0.3020461610896059,2.8790886430358174,442.86563930529206,24.38975662324137,10.104566578600508,69.9825149966466,-0.0066026347610203,113.69298917157008,363.9992216299936,15.288,0.0,1.3110581601876323,0.0716809341596104,8.442173190220925e-09,-0.0020769120793463,-0.0007472855065089,0.0001343254173119,5.404296402800444,17.771850860122036,23.917822373243222,43.894333552438525
0.63,31.22217412787832,131.0104160964781,10.393043721411114,4.500888310977638,-2.9702127361407094,24.98259731451889,0.3082617648612123,2.8637497937965817,286.11251274707894,24.71447910501409,10.242870433464024,69.98129795030549,-0.00782875017756,113.69168472297528,373.748217379532,15.288,0.0,1.3158080568036674,0.0726354690951778,8.746144271670686e-09,-0.0021859267927927,-0.0008200867686541,0.0001432551948367,5.39091843364481,17.57243840981304,24.24812812236793,25.148086543046407
0.64,31.222173758206,131.0104170881419,10.619181763166768,4.501895381435663,-2.931468456007192,24.53164049231665,0.3149758692476292,2.847428919642914,282.30782441796754,25.072417615290288,10.39249388548851,69.98001748971411,-0.0091701957079035,113.6902575236688,384.6442123616871,15.288,0.0,1.320537961142442,0.0736876327915459,9.047333342800908e-09,-0.0022986887132252,-0.0008943798981036,0.0001528235382731,5.370556245734462,17.356825835232538,24.61214450029991,24.69834906415603
0.65,31.22217338356631,131.01041809247795,10.848118757762432,4.511806691748528,-2.8995581505969867,43.10364875585256,0.3210986698401186,2.831871349579295,436.7781447787475,25.378282751554444,10.524108826117237,69.97867139565406,-0.0106293788240304,113.68870500877355,394.0775479169458,15.288,0.0,1.325240314472565,0.0745867605962143,9.346245572109768e-09,-0.0024153092851762,-0.000970201864316,0.0001625321608583,5.361571505437287,17.178843511412925,24.92301560753578,43.197767717374596
0.66,31.22217300346494,131.01041911082132,11.08023903639328,4.519094439327176,-2.8669398944891875,36.71125493565564,0.3274404547925498,2.8157804520046863,383.51251517160017,25.69554754459852,10.659531828052948,69.9772574018472,-0.0122087289182557,113.6870245905128,403.9831965532617,15.288,0.0,1.329922566424887,0.0755193994302245,9.643365998435376e-09,-0.0025361286273091,-0.0010477332279588,0.0001727920666909,5.350187372222929,16.997928112142716,25.245397578182864,36.820538776015034
0.67,31.222172618081725,131.01042014267233,11.3154041094383,4.52057572239876,-2.831654502676405,25.372930362803555,0.3342517949732577,2.7987312125192534,289.1562440103425,26.04295054567823,10.805209774351743,69.97577310961904,-0.0139108414411959,113.68521350315253,414.97134976557504,15.288,0.0,1.3345891636159728,0.0765406224211733,9.93926370735501e-09,-0.0026611428002555,-0.00112693121917,0.0001837567093726,5.332656416294008,16.803286113022,25.59833634343055,25.529007341807297
0.68,31.22217222758002,131.01042118757647,11.553488363784174,4.523232838639207,-2.7980624599867783,31.604285418666294,0.3410236097027063,2.7815502620628365,340.8999924858462,26.38119181729793,10.947630238285983,69.97421605115015,-0.0157382933736793,113.68326900316934,425.8107634399893,15.288,0.0,1.3392248603203778,0.07753492685313,1.023453042466423e-08,-0.0027903656421531,-0.0012077661519329,0.0001951778084527,5.317190498059801,16.618701425966474,25.94184787411251,31.728286682190696
0.69,31.22217183203638,131.0104222453157,11.794433552359788,4.530750107795641,-2.7683566022306927,38.846603567500885,0.347461771561995,2.7647444406050816,401.0140726853634,26.688378567006247,11.0792635594719,69.97258385446045,-0.0176936434096663,113.68118835790662,435.77482977864287,15.288,0.0,1.3438393594098437,0.0784379689626303,1.0529756754622596e-08,-0.002923842892374,-0.0012902288532607,0.0002068907544926,5.308060994308403,16.45606314633953,26.253695304807152,38.946413830224806
0.7,31.22217143131664,131.0104233162459,12.038344902718586,4.537538197398177,-2.739034113418024,32.62742819725655,0.353989190486248,2.7476087727412923,349.27032420985284,26.996675162991885,11.21116810001531,69.97087401879553,-0.0197793944804837,113.67896890247349,445.8904314942217,15.288,0.0,1.3484362014137512,0.0793442805187406,1.0825548346207666e-08,-0.0030617423843967,-0.0013743843449075,0.0002191460343561,5.298666566268844,16.296305046954345,26.5665925479598,32.744827577529826
0.71,31.222171025471773,131.01042440021905,12.285184133230045,4.540439133352794,-2.7081674947141745,26.862737252008987,0.3608626518201725,2.729689342348382,301.33126406340574,27.32510603009903,11.349888573153526,69.96908400543909,-0.0219981171876651,113.67660789655484,456.7946492979922,15.288,0.0,1.3530013429186525,0.0803097752866338,1.1122547591419088e-08,-0.0032041236375391,-0.0014602303426566,0.0002321215789771,5.285300128411279,16.129011046432044,26.89986645518613,27.003482709266976
0.72,31.22217061450227,131.01042549722447,12.534952120942652,4.538771023452965,-2.675427109193976,32.827365824673066,0.3681598371479328,2.710838738008956,350.79220534145287,27.678574570111728,11.49711234515936,69.9672112050894,-0.024352433215231,113.67410254518828,468.6777331684325,15.288,0.0,1.357546336391477,0.0813488652269793,1.142141088381277e-08,-0.0033510904420069,-0.0015477911810095,0.0002459030114392,5.267197699994726,15.952101220302408,27.25847216828668,32.94116171776721
0.73,31.22217019840358,131.01042660726512,12.787653721440508,4.54645203227614,-2.648956289656892,41.454306362504525,0.3747307362643617,2.693070035579633,422.320318528234,27.97260047620443,11.623776831222532,69.96525291063577,-0.0268450568207323,113.67144995451416,478.6764105394466,15.288,0.0,1.3620735497259653,0.0822132580560685,1.1722813610597982e-08,-0.0035027615785543,-0.0016370997847772,0.0002597567599575,5.260461933044595,15.810445499988257,27.5566516133688,41.5433817272694
0.74,31.22216977711229,131.01042773050492,13.043339502292032,4.550519696833506,-2.621076606777452,26.055784022685646,0.3816358390404174,2.67452580112548,294.48281347105944,28.28562646195037,11.756864712430408,69.96320639963145,-0.0294785933483496,113.66864734910703,489.4375444811972,15.288,0.0,1.3665744736155827,0.0831335012194685,1.2027459195984609e-08,-0.0036592546504198,-0.001728186034352,0.0002743918516363,5.250030389092603,15.66187117366252,27.87405229897432,26.195469364211945
0.75,31.222169350980018,131.01042886597784,13.3017382453126,4.5521250189226015,-2.5924792210855,30.373862023671965,0.3887959055677481,2.655332539982928,330.24688556441487,28.611189471882188,11.894159795350156,69.96106900636364,-0.0322556897049501,113.66569189986608,500.7566520218557,15.288,0.0,1.3710475284934616,0.0840905995934611,1.2336103122058364e-08,-0.003820433681863,-0.0018209337648429,0.0002897681025654,5.237236047463551,15.510098031819307,28.20410272729315,30.492186661293093
0.76,31.222168919896475,131.0104300139759,13.562936980708988,4.556767958444067,-2.566282660879256,32.675312099255365,0.3957330155903807,2.636350350056465,349.27032420986166,28.9149344877538,12.02383843855276,69.95883792957953,-0.0351789447467027,113.66258083750144,511.4326288080758,15.288,0.0,1.3754996858504087,0.0849835811974472,1.2649476165555982e-08,-0.0039864815435792,-0.0019154117906757,0.0003055646251971,5.228388650073269,15.372376669169729,28.51195852004333,32.783882756190046
0.77,31.222168483803543,131.01043117464923,13.826982318320512,4.561848178297817,-2.540959793447983,30.57140697381034,0.4026675160176321,2.617187817881517,331.7687666960708,29.21283773351064,12.151395321712108,69.95651034588919,-0.0382509911123965,113.65931135342616,522.012000448259,15.288,0.0,1.3799314262505142,0.0858594012867817,1.2968335554887616e-08,-0.0041575385025869,-0.002011662371293,0.0003219512521596,5.22046788047316,15.240260922552569,28.81383552246895,30.68587195373243
0.78,31.22216804276312,131.01043234782142,14.09382788510781,4.563510430301905,-2.5143393902550035,25.160286507074023,0.4099475088474824,2.597196969287048,286.8734378128899,29.529631745658023,12.285343494201047,69.95408334709361,-0.041474460428739,113.65588064235271,533.3814739166513,15.288,0.0,1.3843321699503484,0.0867907513216312,1.3293484164533628e-08,-0.0043336495874779,-0.0021096733643304,0.0003392194815537,5.209045425689215,15.10172241292139,29.13480698934441,25.29730234976321
0.79,31.22216759686015,131.01043353325306,14.36340943628934,4.563075678481641,-2.487188795957049,35.63806576375755,0.4174704058799091,2.5765568921725537,373.6203323159534,29.85737711727708,12.422953336391986,69.95155407427504,-0.0448520374299231,113.65228583333015,545.2729187028216,15.288,0.0,1.388708915819631,0.087754296989756,1.3625731226868057e-08,-0.0045148565344152,-0.002209431467642,0.0003573167109553,5.195640656032205,14.960885268163205,29.466813104672,35.7335228929404
0.8,31.22216714587553,131.0104347315334,14.63589856976914,4.568122398770819,-2.46360285412655,36.10584551616487,0.4245237928235827,2.556600604631058,377.42502064505743,30.146524279525423,12.547163534557608,69.94891946250944,-0.0483864574895067,113.64852401000748,555.8706606971961,15.288,0.0,1.3930667479589656,0.0886044064641011,1.3965880292727065e-08,-0.0047014488546697,-0.0023110584950462,0.0003756776152824,5.188854782975394,14.840760550065388,29.759661680812435,36.19873626992296
0.81,31.22216668990855,131.0104359423844,14.911220044288134,4.569059853135588,-2.438359676310155,23.61344971732804,0.4320052873515641,2.535646491222334,273.9374926939919,30.45969861470097,12.679533212889268,69.94617641677743,-0.0520804331329665,113.644592279302,567.4648656807811,15.288,0.0,1.397403444501592,0.0895251431116496,1.4314812794207697e-08,-0.0048934343845712,-0.002414520371382,0.000395070173365,5.177769377965015,14.71198014560964,30.07679757759696,23.753129041234285
0.82,31.222166229143102,131.01043716529756,15.18923304483253,4.568102027974892,-2.4126623184144806,30.23837007552556,0.4397215040059046,2.514042832440232,328.72500443277005,30.78286982158016,12.815237792096196,69.94332190782258,-0.0559366974902982,113.6404877170404,579.554643704292,15.288,0.0,1.4017141479705169,0.0904752704670307,1.4673422101347053e-08,-0.0050907752403279,-0.0025197601472944,0.0004153519994253,5.164896424782474,14.581298850965725,30.404001699595877,30.345885902192226
0.83,31.222165763561165,131.01043840031477,15.469953382331584,4.573890320706705,-2.3910194267823166,38.338651877114415,0.4468123456714791,2.493438529520072,395.68750322465047,31.057832820491107,12.934233437292798,69.94035273779716,-0.0599579770621674,113.6362074142422,589.9385358293752,15.288,0.0,1.4059970434566544,0.0912837152887367,1.5042605987764223e-08,-0.005293610288783,-0.0026268157832395,0.0004357472769445,5.159970516438095,14.474349641761894,30.68236136930135,38.42224752311229
0.84,31.22216529305684,131.0104396477184,15.75346509181964,4.57792376754676,-2.3689313709545097,23.811395004669247,0.4541064505347257,2.47225485241207,275.4593748256452,31.34135095861098,13.056062086182692,69.93726571005104,-0.0641469291016173,113.63174853511596,600.7421032619648,15.288,0.0,1.4102587006259426,0.0921173130744645,1.5423276333283788e-08,-0.0055021124631183,-0.0027357408093507,0.000457032326275,5.153374958056853,14.36557119039077,30.969346098248234,23.94370039889574
0.85,31.22216481791988,131.01044090671175,16.03954538629814,4.575831907465868,-2.344169604349413,25.932712107801542,0.4620687979678557,2.449569017334252,292.96093233939376,31.66386731049009,13.191217940037086,69.93405769958055,-0.0685062194929116,113.62710822506818,613.1526749448132,15.288,0.0,1.4144957119358144,0.0930655413325435,1.5816410943382038e-08,-0.0057161302698347,-0.002846419977573,0.000479682512628,5.140202289713604,14.242170343178708,31.295748729886075,26.05224468660726
0.86,31.222164337977105,131.01044217776095,16.328330598785357,4.577741368195382,-2.321934624043512,32.38185644655834,0.4696639739554006,2.427399413436638,346.2265619465587,31.95605308385801,13.315817636991689,69.9307253187542,-0.0730385776479564,113.62228357314312,624.5035857586231,15.288,0.0,1.4187109863319736,0.0939246315151147,1.6222952980490807e-08,-0.0059359475812257,-0.0029589644701811,0.0005027116589422,5.13182407888745,14.133830480085448,31.59142427062673,32.47610627963728
0.87,31.222163853251097,131.01044346079829,16.619805207546634,4.581379758675595,-2.301010526646726,30.17884232705249,0.4771118409900861,2.405325606107529,327.964078366998,32.233058674532245,13.43507747126818,69.92726530142578,-0.0777467349855605,113.61727165371174,635.3595305656468,15.288,0.0,1.4229043172372748,0.0947391127184836,1.664388345599767e-08,-0.0061616509236168,-0.0030733815397995,0.0005263349613832,5.125660923931884,14.0336639310242,31.871713936517114,30.278304958853038
0.88,31.222163363775948,131.01044475572496,16.91394483899522,4.581810179568285,-2.278902251574761,26.132395394381543,0.4849388951936779,2.382295839904069,294.4828134710418,32.529457281736434,13.560911052474028,69.92367419430583,-0.0826333703161047,113.61206960800726,647.0798530591909,15.288,0.0,1.4270724585570036,0.0956106021202316,1.708023426329796e-08,-0.0063932934964345,-0.0031896613155538,0.0005511284120583,5.116180588440874,13.927342989759827,32.17158253013214,26.24523934448283
0.89,31.222162869631138,131.01044606231852,17.210689988577837,4.579099997445722,-2.255670094695189,28.625240498592618,0.4931539675570398,2.358274110755524,315.028134248087,32.84535956321635,13.69336144648616,69.91994859433288,-0.0877012020373059,113.6066745255929,659.6900091815202,15.288,0.0,1.4312134590621208,0.0965394255482262,1.7533044357487135e-08,-0.0066309243317888,-0.0033077922493502,0.0005771478157031,5.103466050127552,13.815147376547207,32.491131253388204,28.726452116811153
0.9,31.222162370741263,131.0104473807792,17.51010129181803,4.583303410955195,-2.2362430032213125,31.580317821333026,0.5006463019125423,2.3355110513411703,339.37814235421445,33.1088558907947,13.807640461715875,69.91608499040868,-0.0929530247966872,113.60108341418196,670.297692704996,15.288,0.0,1.435333175421181,0.0973142254791861,1.8003350867850643e-08,-0.0068747426274197,-0.0034278370785043,0.0006031524452689,5.098703818160067,13.725589930821045,32.75767683711864,31.67051834572588
0.91,31.22216186717512,131.0104487109144,17.812127605861843,4.584343362610114,-2.21565317415265,24.11953177353745,0.50852413708605,2.3117632958363865,277.7421810230789,33.39184638059228,13.928531634879263,69.9120797967453,-0.0983914858002726,113.59529344608151,681.7853222301068,15.288,0.0,1.4394303948479763,0.0981463313755804,1.849225724508653e-08,-0.0071247761338123,-0.0035497722508583,0.0006304135432084,5.090662200352091,13.629900329868464,33.04389912921967,24.235400952091922
0.92,31.222161359130634,131.01045005217847,18.11661762537796,4.582310461899107,-2.1939700920958347,28.64259362775915,0.5167944604902777,2.28699809977769,315.02813424806214,33.694260657058095,14.05601955201346,69.90792947616717,-0.1040192671613165,113.58930174683896,694.1701614629536,15.288,0.0,1.4435031928835482,0.0990355368772466,1.90008971797924e-08,-0.0073809248040925,-0.0036735137521374,0.0006589734077285,5.079449359875737,13.5283978452866,33.34971685475296,28.73839951263343
0.93,31.222160846517816,131.01045140481267,18.42364345430884,4.5866024125467,-2.175668715534214,33.998400515780325,0.524367246783351,2.263470621750233,359.1625070654728,33.94720163158016,14.166341396420602,69.90363039676215,-0.1098390493832945,113.58310544593172,704.6106983006028,15.288,0.0,1.4475536618869829,0.0997793369108216,1.9530363991674527e-08,-0.0076434229631426,-0.0037991394970716,0.0006875119380659,5.075464470586611,13.447261207959023,33.60553051296048,34.07769795476856
0.94,31.222160329227844,131.01045276911083,18.73329182113144,4.58468466106509,-2.154780050117557,24.778710466680128,0.5326993465911625,2.238155166706689,283.0687504837787,34.24271568150397,14.291240930116915,69.89917892144467,-0.1158534477778703,113.57670174131638,716.9101961287972,15.288,0.0,1.4515817589313365,0.1006482784535933,2.0081784627033945e-08,-0.0079124508717595,-0.0039266985767217,0.0007178846739144,5.064829285367524,13.35153073636522,33.90432340409597,24.885288817606234
0.95,31.22215980754485,131.01045414429169,19.045344703096443,4.583370329484183,-2.134532551030933,31.982460620120623,0.5410020497147,2.212683819809996,342.4218736174873,34.53087987967455,14.413507561246604,69.89457128350128,-0.1220651709231596,113.57008773007148,729.0052074992875,15.288,0.0,1.455585877606898,0.1014956256153799,2.065638273985452e-08,-0.0081878466862391,-0.0040560791621383,0.000749099980853,5.055075570606404,13.260097802363696,34.19566584414613,32.063475173814375
0.96,31.222159281179568,131.01045553114264,19.36002885295605,4.585117229959928,-2.1160421592394583,31.34290110029492,0.5489694502750652,2.187710939798412,337.09533515678345,34.792827560758695,14.526621396256898,69.88980368370346,-0.1284768892521648,113.56326054997716,740.0851063539203,15.288,0.0,1.4595691509006323,0.1022659240532782,2.1255283979263904e-08,-0.00847004218155,-0.0041874475494423,0.0007807726843418,5.048898011355265,13.179608298850535,34.46051599125686,31.423954175060743
0.97,31.22215875015096,131.01045692960855,19.67733201053238,4.585024183000996,-2.0970236630272208,20.17530088966676,0.5571949508196758,2.1619797269319694,245.02188719299323,35.065331968633906,14.64327214456833,69.88487223297574,-0.1350913223439307,113.55621728436456,751.7005870350586,15.288,0.0,1.463531196169302,0.1030672603135922,2.1879715279686e-08,-0.0087591286420901,-0.0043208082970811,0.0008137199004841,5.040889130749077,13.09655909450162,34.73600579864745,20.298457787267292
0.98,31.22215821474152,131.0104583389128,19.997037498472704,4.5790300530095065,-2.075649059099925,29.231272836875743,0.5662065255795143,2.134338076505951,319.5937466429581,35.380017139855816,14.77438977558681,69.87977300086443,-0.1419111528402988,113.5489550550137,765.2295320344499,15.288,0.0,1.4674693500113745,0.1039925871693119,2.2530989610324367e-08,-0.0090548820509415,-0.0044560222357722,0.0008487183238538,5.026595072260515,12.999975799412946,35.05404625910021,29.314557825733985
0.99,31.22215767480508,131.01045975945223,20.3192612338186,4.582483361192265,-2.0588583171951487,31.91668053939324,0.5740516064331608,2.10899426051844,341.6609485517054,35.618866325734565,14.879221337750884,69.87450196011139,-0.1489391188974583,113.54147092335452,775.5724770430949,15.288,0.0,1.4713865988377215,0.1046950179414746,2.3210326635620752e-08,-0.0093576416114481,-0.0045932087777346,0.0008829900346375,5.022848630202599,12.93128427486625,35.29553121199635,31.99143461446253
1.0,31.222157130339887,131.01046119122952,20.64400709033276,4.580193603476934,-2.039782025525891,28.595900999584423,0.5826675341987129,2.0817625314883506,314.2672081822764,35.89879201568394,14.998137062184712,69.86905511496018,-0.156177777013121,113.53376214634744,787.7861245776146,15.288,0.0,1.4752817699028231,0.1055181939918182,2.391902317978525e-08,-0.0096674696055262,-0.0047323584011136,0.0009193659300808,5.012984827164152,12.84945166947892,35.578451482306605,28.6774962413205
1.01,31.22215658152213,131.0104626337593,20.97114098879248,4.5786652687648886,-2.021338794657729,29.89579980319736,0.5912191026748921,2.054446581531248,324.9203161036979,36.16963904238282,15.113821971445171,69.8634284338539,-0.163629815959937,113.52582582959506,799.6931224404469,15.288,0.0,1.479153732488041,0.1063146937075491,2.4658417886264326e-08,-0.0099842994519666,-0.0048734054246725,0.0009566297489284,5.004126730937855,12.771930250475384,35.85219374577536,29.972139340670836
1.02,31.222156028276608,131.01046408724557,21.300723843514422,4.578417285226378,-2.003738856935367,25.000361631462475,0.5996298285296642,2.027219389939896,284.59063161540416,36.4270673647413,15.224772464885543,69.8576177751197,-0.1712978144720491,113.51765920383583,811.0911846820525,15.288,0.0,1.483003988653342,0.1070717600482596,2.542982427342009e-08,-0.0103083364093025,-0.0050164049088342,0.0009946748877357,4.996831419166727,12.700019103635944,36.11238495458015,25.089584613741852
1.03,31.222155470669748,131.01046555150475,21.632706780625146,4.574195628814332,-1.984685106933568,20.472110694486386,0.6086130376808288,1.9984962391811587,247.30469339049705,36.71281178133776,15.345416254361748,69.85161897390256,-0.179184303521287,113.509259548936,823.8396895236946,15.288,0.0,1.486832300060744,0.1079120660562489,2.6234616246931336e-08,-0.0106395985946714,-0.0051613282242016,0.0010346593922147,4.985365375338977,12.619779011953865,36.40112051452286,20.578428349486753
1.04,31.22215490876112,131.0104670263715,21.96704624893476,4.573446203812388,-1.967407308459528,32.41174633670119,0.6171565763198164,1.970523255878039,345.46563688072297,36.96757988494958,15.455259406067404,69.84542780211912,-0.1872919141003555,113.50062403100712,835.2865891394475,15.288,0.0,1.4906392118636165,0.1086613304628219,2.7074178824508924e-08,-0.0109781582239178,-0.0053081713718202,0.0010749569512797,4.977838572076651,12.550816627496593,36.65860099443418,32.47745594618387
1.05,31.222154342273942,131.0104685126044,22.30395963178769,4.569458562696792,-1.949007484031906,19.6456518850737,0.6261823415982751,1.9412390418981689,240.45625879819983,37.245047896841726,15.572853483985163,69.83904002270847,-0.1956232032562635,113.49174989413883,847.8450495164356,15.288,0.0,1.4944267931210673,0.1094773273457445,2.7949832465614552e-08,-0.0113244833779363,-0.0054570990398907,0.0011171550376079,4.966943133639761,12.475486833664077,36.93895755612815,19.751256955753956
1.06,31.222153771438023,131.01047000957155,22.64327141082539,4.562701308203221,-1.9297069591082507,27.888313240700768,0.6356499855745519,1.9107124785580387,308.17968365593924,37.542059371559176,15.697120758832956,69.83245111330822,-0.2041808222077164,113.4826342884575,861.3932109745872,15.288,0.0,1.4981932050662388,0.1103507792923971,2.8863101616815885e-08,-0.0116783922115494,-0.0056079955516941,0.0011612173257723,4.953194595504552,12.395046981683294,37.23899901364438,27.96091716112553
1.07,31.222153196140848,131.01047151758058,22.985071611008475,4.561818113291153,-1.91314310764758,32.80181654182488,0.6443074281080106,1.8817877973463983,348.5093681440308,37.787631264866114,15.8034961128428,69.82565655486933,-0.2129674901526314,113.4732742816758,872.6705893010046,15.288,0.0,1.5019397847658051,0.111073039443624,2.9815411208914126e-08,-0.0120402134125678,-0.0057609636451811,0.0012049858682533,4.945964334849887,12.331922417127062,37.48717128775391,32.8620666699417
1.08,31.222152616284905,131.01047303689947,23.3294386793679,4.559499584799481,-1.8962159696128864,22.15579149168943,0.6532002452153476,1.8520942933574929,261.00157857466235,38.041381549521,15.912603050689375,69.81865180241459,-0.2219858039025177,113.46366707393388,884.4009456583171,15.288,0.0,1.505667468251939,0.1118193480798778,3.080823239057196e-08,-0.0124101756431262,-0.0059160601024013,0.00125031068784,4.937314824699573,12.267059451298406,37.74357901198945,22.242662171040916
1.09,31.222152032136435,131.0104745667963,23.67616887653698,4.550549040285059,-1.8767924428235865,20.39859314598865,0.663119033496944,1.8197903850888448,246.54375332474407,38.34721956359762,16.039661007399864,69.81143224165444,-0.2312383601411611,113.45380986277338,898.6486634797235,15.288,0.0,1.5093740704842296,0.1127187734909337,3.184317915498616e-08,-0.0127880062438335,-0.0060731324767845,0.0012986914766842,4.921629468758503,12.187098516263102,38.0524664128342,20.490338363087684
1.1,31.22215144376889,131.0104761070685,24.02520805099876,4.544788476012728,-1.8589398227803045,40.70003685842167,0.6726072504669666,1.7882234087838071,413.1890617385841,38.62337649085751,16.156361682823757,69.80399315392798,-0.2407277454041338,113.44369985728736,911.6079146057292,15.288,0.0,1.5130603190665823,0.11353096323231,3.2921810569563014e-08,-0.0131737723457873,-0.0062321722641773,0.0013474575796696,4.909532406648508,12.11729970504796,38.33142613303574,40.744854199640784
1.11,31.222150850794275,131.01047765878414,24.37686008787941,4.545581606555434,-1.8439835396613056,29.861417621661065,0.6811110377908905,1.7587107116042673,324.1593910376397,38.84025632309056,16.252427109303834,69.79632982092673,-0.2504565930758509,113.43333420750356,921.8433287122303,15.288,0.0,1.516729721614125,0.1141689207960639,3.4045554478626015e-08,-0.0135682006049578,-0.0063934392110631,0.0013955467307984,4.904635568312406,12.066144257595424,38.55065406624215,29.92091639619619
1.12,31.22215025327327,131.01047922177798,24.73108077037911,4.533692234911048,-1.824130572017404,11.412286718918017,0.691628497598003,1.7242272068583475,172.73281794065943,39.161861055625714,16.3846975541604,69.78843737908578,-0.2604273910009357,113.42271022858516,937.140722199661,15.288,0.0,1.520380690201148,0.1151147214011169,3.521606320890165e-08,-0.0139712767146986,-0.0065568851124348,0.0014488541866981,4.886191729850718,11.984596861299968,38.8753756980614,11.562508274347428
1.13,31.222149651775844,131.01048079447972,25.087430868380945,4.528464773921807,-1.8071941489968857,35.16022035714214,0.7011421342719076,1.6918378037334134,367.5328077900705,39.42331773745172,16.496050015863602,69.7803108169912,-0.2706429144142839,113.4118249136529,949.66326797088,15.288,0.0,1.5240108201665252,0.1158837288625409,3.6435180250228256e-08,-0.0143823169195512,-0.0067221968292328,0.0015013862089003,4.875052825351988,11.921811940599166,39.13949141131169,35.20788279646172
1.14,31.222149045663947,131.01048237864944,25.44640828577096,4.527877784726858,-1.7923105800453307,19.579300292816583,0.7099271172070247,1.6609307608708577,239.69531773195544,39.64055068604763,16.591967784705556,69.7719451962304,-0.281105544725992,113.40067568842906,960.124788069416,15.288,0.0,1.5276249065822427,0.1165227510284414,3.770430564597648e-08,-0.0148024554149712,-0.006889789843502,0.0015537060713881,4.869020840850597,11.87256342004114,39.35906111214702,19.662443578061207
1.15,31.222148435406467,131.010483972997,25.807652203365382,4.514428778158381,-1.7725693922326244,19.30309076852759,0.7208492915949793,1.6246608239059703,237.41251153546767,39.96691111335378,16.725675566783405,69.76333569282836,-0.291817662531995,113.38925996292316,975.9654041461656,15.288,0.0,1.53121859214418,0.1174825611188913,3.9025302759159695e-08,-0.0152309966995282,-0.007059346184124,0.0016117929821921,4.849284932544995,11.79268707213178,39.6885209775486,19.38474812093113
1.16,31.22214782113609,131.01048557715663,26.17106266870829,4.514702661334527,-1.758414802544598,50.12853803182916,0.7295307345145743,1.5934960001489644,490.0437743845894,40.16896343403752,16.816170140678736,69.75447701363755,-0.3027818518540451,113.37757494063156,985.8238999637672,15.288,0.0,1.5347934043712357,0.1180769772965762,4.0399925971289415e-08,-0.0156679693503596,-0.0072308415356859,0.0016663588381499,4.844394735890661,11.749011556743657,39.89279564052214,50.15916436508522
1.17,31.22214720201563,131.01048719344314,26.537292136382977,4.508122811642592,-1.7417885525620211,9.094480927651166,0.7393726360684503,1.559283249852038,153.70937929486794,40.42757329386188,16.926199003393346,69.74536424389414,-0.3140003947117304,113.3656181344172,998.523202552708,15.288,0.0,1.5383540403587557,0.118837654136237,4.1829538973054056e-08,-0.0161148597737767,-0.0074048145054091,0.0017248610551973,4.832259831377492,11.689928676774322,40.15401592734063,9.256760745079607
1.18,31.222146579150635,131.010488818806,26.90548593024382,4.492453967763384,-1.7218842040063236,24.513039696579945,0.7508256287716993,1.520867911864605,280.02501822196746,40.764849069477165,17.06350802215775,69.73599210375843,-0.3254757073449783,113.35338691804256,1015.2175845003696,15.288,0.0,1.5418928693294962,0.1198295808989198,4.3316419881103604e-08,-0.0165698552307639,-0.0075805204258283,0.00178829476353,4.810504041686173,11.609867280068569,40.49441684255199,24.57164816401749
1.19,31.2221459520441,131.01049045461968,27.276032667826648,4.496242155631944,-1.7096120345348702,42.635640699873846,0.7589216032388076,1.4903716101574047,428.4078130529292,40.92266276186023,17.13837746664339,69.72635514482356,-0.3372102664153334,113.34087860155412,1023.056843170673,15.288,0.0,1.5454160646624913,0.1202939823616343,4.486209663644694e-08,-0.0170341281774113,-0.0077583751798811,0.0018454525741579,4.809674035899448,11.579900238374917,40.65415737855177,42.66843127447932
1.2,31.22214532026969,131.0104921020691,27.64926607011856,4.484029516738024,-1.6914474255650376,4.633067798928069,0.7698431342711756,1.4526817288915568,117.1843741360236,41.22161618867638,17.262221148820696,69.7164483671835,-0.3492061614036935,113.32809089455088,1038.0217531594858,15.288,0.0,1.548922399765638,0.1211732796295096,4.646818853078357e-08,-0.0175084262656031,-0.0079386185011046,0.0019106258490408,4.791833821436813,11.511900071867164,40.95596283883124,4.916122444193595
1.21,31.22214468493404,131.01049375809475,28.02433074154112,4.472459332173311,-1.6737296350441306,34.287005391694,0.7807016518417502,1.4148368759558043,359.92343213200894,41.51197122563052,17.383041386991454,69.70626614893308,-0.3614658392790722,113.31502113145667,1052.6584717091152,15.288,0.0,1.5524030265344833,0.1220273112678329,4.813710424516304e-08,-0.0179909007761904,-0.0081205110441342,0.0019770340067825,4.774784909775836,11.447109066130308,41.24909977980792,34.32506368799345
1.22,31.22214404519632,131.01049542502787,28.401881985795207,4.474290871763,-1.6611865611652508,24.90228999153637,0.7891263065966928,1.3827598610568053,283.0687504825761,41.67420132963138,17.45919578780598,69.69580304380219,-0.3739914528874352,113.3016669613622,1060.8637170304996,15.288,0.0,1.5558693467071527,0.1225047198778464,4.9870232558349465e-08,-0.018483361251324,-0.0083046951142742,0.0020390147171858,4.772128201376995,11.417007011771732,41.41329931093174,24.953131907311462
