Time,Latitude,Longitude,Altitude,Angle of Attack,Angle of Sideslip,X-Acceleration,Y-Acceleration,Z-Acceleration,Thrust,True Velocity,Ground Velocity,Pitch,Roll,Yaw,Dynamic Pressure,cp,cg,parachute_deploy_gain,Wind Speed,Wind Direction,Mach,omega_x,omega_y,omega_z,Cmq,Angle of Attack(total),Angle of Attack(gust),True Velocity(gust),Acceleration
0.0,31.222216000000007,131.010392,3.000000004412624,0.0,0.0,0.0,0.0,0.0,2.2828121974499247,0.0,0.0,69.99999999623412,0.0,119.9999999935444,0.0,1.274,1.0271675151847728,0.0,0.0,0.0,0.0,0.0,0.0,0.0,-0.0,0.0,90.0,0.0,0.0
0.01,31.22221599999084,131.01039200000497,3.000002745347096,0.0,0.0,0.0,0.0,0.0,34.242186961749226,3.465174813755316e-14,2.8705476994166025e-14,69.9999999962611,-2.1713911667908447e-11,119.99999999352175,7.352495975525499e-28,1.274,1.0271659134330349,0.0,0.0,0.0,1.0183245502395064e-16,-3.3305335486039093e-18,7.169286865560398e-18,5.624298769768554e-18,-7.715917190115602e-34,0.0,89.99999999999979,3.465174813755316e-14,0.0
0.02,31.222215999994315,131.0103920000094,3.0000030495639742,0.0,0.0,0.0,0.0,0.0,25.871876237766216,3.8197434737535036e-11,2.4171837235633357e-11,69.99999999628672,-1.1921727947863515e-11,119.99999999353136,8.93414285188691e-22,1.274,1.027164492361118,0.0,0.0,0.0,1.1225230367947217e-13,-6.657678965418802e-18,1.4338573731120796e-17,1.1241821275959074e-17,-1.7010872994127372e-30,0.0,89.99999999975682,3.8197434737535036e-11,0.0
0.03,31.222215999994315,131.0103920000094,3.0000030495639742,0.0,0.0,9.81877837424427,-2.5122800045972096e-05,3.3498614629347925,180.34219359854663,1.2659015405517447e-10,1.1364406173918436e-10,69.99999999631459,-1.6431898037347223e-11,119.99999999352724,9.812605835254651e-21,1.274,1.0271551940870716,0.0,0.0,0.0,3.720154642239108e-13,-9.991600645811728e-18,2.150108433310316e-17,1.6859343782149594e-17,-8.453698244545225e-30,0.0,89.99999999919412,1.2659015405517447e-10,10.374487003414373
0.04,31.222215999994315,131.0103920000094,3.0000030495639742,18.83801224594347,-0.0001111777826462,48.68248476615645,-1.016330065874988e-05,3.3497854396877287,548.635972453808,0.1556173050466994,0.0975908358443652,69.99999999633813,-2.0932768807056278e-11,119.99999999352085,0.0148286043323172,1.274,1.027133720825283,0.0,0.0,0.0,0.0004573186944143,-1.3322134194415637e-17,-1.04744143520903e-11,1.336824254131964e-11,5.0626055458604615e-15,18.83801224625964,89.06236267790787,0.1555998412814392,48.79759610369246
0.05,31.22221599164764,131.01039201704114,3.002326315126219,5.772385609593056,-4.395076213712875e-06,71.20344550265034,4.905512691849684e-05,3.349217396035405,761.6984298824663,0.8326471944351852,0.3620326097059287,70.00000001316391,-1.0866255162484559e-10,120.00000000231074,0.4245281043148827,1.274,1.027093426565204,0.0,0.0,0.0,0.0024469331205246,-5.0245994431125096e-18,-7.32924164976824e-07,2.217344936947165e-11,1.895424184525467e-09,5.772385609594774,84.74112356985832,0.8326465040582279,71.28217104309611
0.06,31.22221596664444,131.01039206837547,3.015081730143309,4.056581213689704,3.169093567502233e-05,53.16249142470188,0.0001203825427859,3.3481235983850643,590.4875390737236,1.657216205300742,0.6755452977614796,69.99999964391398,-3.9285905645317736e-10,120.0000000287861,1.6816755551786196,1.274,1.027050317124926,0.0,0.0,0.0,0.0048701272653724,3.095757869075056e-13,-7.483541766772344e-06,3.074135420506017e-11,3.8518749565858254e-08,4.056581213813337,79.59316473687034,1.657221183301277,53.26781792157489
0.07,31.22221592883117,131.0103921460222,3.034593611434361,4.115662018628709,6.450869598349036e-05,81.18203554989698,0.0001593212642178,3.347059402768047,855.2937749779172,2.099899704220947,0.8579771146174259,69.99999543281565,-8.233801910783518e-10,120.00000006883089,2.700101932075157,1.274,1.027003201295312,0.0,0.0,0.0,0.006171060252819,3.4704292086287e-12,-2.6327204536316785e-05,1.9541142932033486e-10,1.7170712165327165e-07,4.115662019133419,76.90111966094352,2.099909837223217,81.2510043180746
0.08,31.22221588914193,131.01039222747755,3.0542761843835606,3.459696193892355,8.037433511260004e-05,16.298214211652088,0.0002413456836072,3.344878926597744,241.2171988638792,3.051964775152957,1.2149999716613011,69.99998042886442,-1.0128995578004475e-09,120.00000011111383,5.703497661025892,1.274,1.0269597189470347,0.0,0.0,0.0,0.0089689344021769,1.458982438104473e-11,-5.702803872814215e-05,7.043261397829576e-10,5.405702492731987e-07,3.459696194824858,71.30331929508368,3.051977400323993,16.63790856991177
0.09,31.2222158241468,131.01039236098703,3.0886872184095737,4.313676956300389,0.0001337561018991,50.35975918308536,0.0002293282821279,3.344215841840564,563.0937377043203,2.893161298572128,1.191209213966114,69.99994788602814,-7.098432023887522e-10,120.00000018106356,5.125380275808925,1.274,1.026918932011013,0.0,0.0,0.0,0.0085022553945842,3.8672912027154325e-11,-0.0001115933708951,2.016054215232918e-09,1.0027525988343615e-06,4.313676958370176,72.2316578138625,2.893182308931483,50.47067588835877
0.1,31.2222157788302,131.01039245392113,3.109877853389092,4.035124630954496,0.0001457499816535,47.804664812504015,0.0002878217657545,3.341734392237128,538.7437595981891,3.5677148583138303,1.4531247507621967,69.99988403958329,1.9248461973355822e-09,120.0000002323013,7.7939962029572305,1.274,1.0268846934974103,0.0,0.0,0.0,0.0104845969583028,8.579678749070606e-11,-0.0001726817043215,3.984565639703107e-09,1.913455350430327e-06,4.0351246335824245,68.43243098813296,3.567737752667411,47.92132267234452
0.11,31.222215703308,131.01039260899836,3.148841432727305,4.043401107254707,0.0001752764476999,37.67622367577205,0.0003286462930162,3.3392563999062723,442.86563930529127,4.034183355956686,1.6436552022667772,69.99978525353545,7.302513231814865e-09,120.00000031883242,9.96528118825134,1.274,1.026848594915519,0.0,0.0,0.0,0.0118554331868328,1.5870341853361987e-10,-0.0002596204409236,7.232030302688121e-09,3.252930323390323e-06,4.04340111104746,65.92012987243639,4.034210888316708,37.82391391539392
0.12,31.222215627491828,131.01039276462643,3.186995101203875,4.17874459224363,0.0002066711490009,41.15991989399172,0.0003576945202315,3.336766085769504,475.58594813540793,4.361857560629481,1.7865750500940407,69.99963665601238,1.781774420198147e-08,120.00000041104812,11.649831899889556,1.274,1.0268114448194128,0.0,0.0,0.0,0.0128183893919737,2.682972478760441e-10,-0.0003710216542429,1.2215991071490164e-08,5.026311388647148e-06,4.178744597345269,64.21681651392016,4.361890024457652,41.29495143136631
0.13,31.22221554594398,131.01039293200228,3.2277173449026786,4.202734874672792,0.0002327160860324,45.44886120763352,0.0003953741266062,3.333578629398489,515.9156326236897,4.792165672014363,1.9646716520715424,69.99942424225341,3.613383418913551e-08,120.00000051758742,14.061726603124043,1.274,1.026779572895131,0.0,0.0,0.0,0.0140829618979635,4.248908088871395e-10,-0.0005056103199642,1.908859219307828e-08,7.5253154423526356e-06,4.202734881104192,62.048594618540655,4.792202226971676,45.570952718869485
0.14,31.222215454191247,131.01039312033683,3.2737880595608355,4.184830647080848,0.000257138757548,42.32232525579263,0.0004369426767266,3.329727443445437,486.2390860568421,5.269261304374574,2.158791628597544,69.99913473613935,6.515851355725497e-08,120.00000064630268,17.000925061330125,1.274,1.0267449573927567,0.0,0.0,0.0,0.0154850332441425,6.382432869666793e-10,-0.0006690086306358,2.8426433029675884e-08,1.0948547100483978e-05,4.184830654966803,59.74181173116622,5.269301695636157,42.45310707234106
0.15,31.222215353826755,131.0103933263496,3.3242182719560263,4.21963947489699,0.0002846467688673,40.886944113003565,0.0004726792395108,3.325585650885676,472.5421858721398,5.6781946837482895,2.329510773545807,69.99875162806286,1.0876776246115984e-07,120.00000079954532,19.742017654108928,1.274,1.0267115958081523,0.0,0.0,0.0,0.0166867950518804,9.204756288136623e-10,-0.000865746478554,4.08948221429571e-08,1.526771148078443e-05,4.219639484480408,57.84996018384879,5.678239395958187,41.02196629910223
0.16,31.222215247130432,131.01039354534575,3.3775922280208457,4.253495568077899,0.0003118339050386,32.26872905470846,0.0005078415214353,3.32090791922544,391.1218908297597,6.081244877834229,2.4981889727471702,69.99825581174558,1.7187028096464329e-07,120.0000009800088,22.644030778355887,1.274,1.026675762255412,0.0,0.0,0.0,0.0178712695992133,1.2856146928958252e-09,-0.0010961187242953,5.6923362293832417e-08,2.0702404729358337e-05,4.253495579487569,56.06022383757386,6.081293860589489,32.43916312841722
0.17,31.22221513260033,131.01039378041813,3.4348437275053194,4.364838523348639,0.0003448792023946,40.840448242802736,0.0005326487904353,3.3162727284953744,471.78125980632416,6.362544479165355,2.6250789114832647,69.99762801982864,2.5997588617291615e-07,120.00000119506798,24.78723182122683,1.274,1.0266409836796937,0.0,0.0,0.0,0.0186979513961862,1.747791994374917e-09,-0.0013624931601664,7.706724512977917e-08,2.6923621797558364e-05,4.364838536947241,54.85936171416122,6.362598652663785,40.97486885600156
0.18,31.222215014088988,131.01039402363364,3.4935801365785646,4.353948305387995,0.0003681615230806,33.992183768165326,0.0005718025428208,3.310131992647221,407.1015672119096,6.81502088160835,2.810667639293692,69.99684761766231,3.794979223522764e-07,120.00000144728236,28.437950785509614,1.274,1.0266048342046536,0.0,0.0,0.0,0.020027681385988,2.3221419748804155e-09,-0.0016616990447559,1.0147209890543081e-07,3.517105786247627e-05,4.353948320923495,52.99157233768714,6.815078712285162,34.152972512863755
0.19,31.22221488419521,131.01039429023237,3.558399965607869,4.432620772533925,0.0003996774584738,38.45149959021069,0.0005986099513107,3.304145139297767,448.95313283182486,7.1223367465208405,2.946425726785696,69.99589577323147,5.440084577183829e-07,120.00000176148238,31.060341085698347,1.274,1.026566130444714,0.0,0.0,0.0,0.0209308229359413,3.022391489754689e-09,-0.0020041563310821,1.3135864879722746e-07,4.433199397898183e-05,4.432620790516937,51.77883352025967,7.122399527709208,38.59320142454953
0.2,31.222214751373183,131.01039456280608,3.624052454705669,4.443889400961181,0.0004246617145652,35.23432408779927,0.0006337972852267,3.2968110145188256,418.5156301991588,7.530482904611057,3.1167566004785483,69.99474776398331,7.478025600151903e-07,120.00000211715036,34.72195181863731,1.274,1.026529240027363,0.0,0.0,0.0,0.0221302820454282,3.866698391504749e-09,-0.0023849544920781,1.668144671071589e-07,5.57780533277244e-05,4.443889421210987,50.22448880200342,7.530549610317194,35.38822625098952
0.21,31.222214608673173,131.01039485566503,3.6948551453492566,4.493351735844891,0.0004538195602194,33.79371564104691,0.0006629296043866,3.2891790438445727,404.8187610144608,7.868284042829251,3.2629204975089228,69.99338155599101,1.0150082652278477e-06,120.00000255293388,37.906665490338085,1.274,1.0264923657015164,0.0,0.0,0.0,0.0231230169900677,4.871073773182836e-09,-0.0028117605859743,2.089322918608601e-07,6.870935089180403e-05,4.493351758715364,48.992529909481824,7.868355328639073,33.95340801819282
0.22,31.22221446109996,131.01039515850383,3.767700382407304,4.5412639153933885,0.000482649303782,41.008966751568416,0.0006914639179131,3.2808061382386606,472.5421858721387,8.20057841132235,3.4071691679735228,69.9917708347139,1.3454961520984431e-06,120.00000305929996,41.175744234065135,1.274,1.0264494137127138,0.0,0.0,0.0,0.0240995709751246,6.054779813287368e-09,-0.0032829112061357,2.580881224843564e-07,8.3609968899004e-05,4.54126394098788,47.82515604752711,8.2006542256977,41.13999323561041
0.23,31.22221430675399,131.0103954752338,3.843768625625224,4.52371495179584,0.0005047555656171,33.98493478127787,0.0007294889663961,3.2705214710765107,406.340642146096,8.647938096586296,3.5908865300848416,69.98989017772566,1.7539876018835507e-06,120.00000365514876,45.79040229326471,1.274,1.0264133390858623,0.0,0.0,0.0,0.0254142776666487,7.436335125872812e-09,-0.0038001790077148,3.1489825108822685e-07,0.0001020628978177,4.523714979897577,46.31461705147579,8.648017383405135,34.14194053232237
0.24,31.222214142622448,131.0103958120587,3.92493179063287,4.57837522350066,0.0005351929930195,35.051650311058864,0.0007555049947555,3.26053011385611,416.2328240017099,8.954297884844461,3.72617527247482,69.98771316795013,2.25257161141768e-06,120.0000043564586,49.09180568115741,1.274,1.0263750048312463,0.0,0.0,0.0,0.0263146218848643,9.034877387788232e-09,-0.0043732521010013,3.809642748985157e-07,0.00012161410144,4.578375254714954,45.32798984252032,8.954381952763216,35.20297212911011
0.25,31.22221397517227,131.0103961556623,4.0071748888306855,4.6034117733065,0.0005618935542827,36.03738579534623,0.000785606492708,3.249069743648399,425.3640807915084,9.311611941121669,3.8789349536029696,69.98520781816889,2.8559738498748624e-06,120.00000517181904,53.08749562138344,1.274,1.0263373768840591,0.0,0.0,0.0,0.0273647110956883,1.0873791100894836e-08,-0.0049950711786164,4.5609738277273444e-07,0.0001444478241125,4.603411807525074,44.2165428352526,9.311700203154778,36.183554686886296
0.26,31.22221379934012,131.01039651647062,4.09364247475714,4.621386912291471,0.0005881033207375,39.29107511182762,0.0008162761165496,3.236407051295005,455.80158342417656,9.67833954512075,4.034902068846398,69.98234620927953,3.5784678110229355e-06,120.00000612171208,57.350948423913096,1.274,1.0263006300381676,0.0,0.0,0.0,0.0284424679130479,1.2973286442992724e-08,-0.0056712051373577,5.414206381221602e-07,0.0001704578711045,4.621386949630312,43.12063533194282,9.678431924174348,39.42414126789902
0.27,31.222213616776543,131.01039689108487,4.183310605341074,4.617158109135719,0.0006115457810536,35.90419462403674,0.0008503454714941,3.221982799915672,423.8421996598744,10.088790784535757,4.205862468567124,69.97909721779352,4.436165972465058e-06,120.000007221354,62.31798301949865,1.274,1.026260090595354,0.0,0.0,0.0,0.0296487219805601,1.5355910600537293e-08,-0.0064045199323113,6.379142666348734e-07,0.0002006609239367,4.617158149547818,41.94410287616451,10.08888684592241,36.048472443180565
0.28,31.22221342607797,131.0103972823952,4.277051150896916,4.642105655370123,0.0006389739579882,41.51133203546672,0.0008785747638736,3.2071101123224945,476.3468732012228,10.432377224420517,4.35383399240675,69.97542808435722,5.446665372087172e-06,120.00000849080963,66.63429581008447,1.274,1.0262212716723291,0.0,0.0,0.0,0.0306584788590473,1.8045308789081613e-08,-0.0072006835403936,7.469524967369969e-07,0.0002332868227611,4.642105699250441,41.0023231023774,10.432477594215127,41.63503624837164
0.29,31.22221323001776,131.01039768469093,4.373143569786686,4.62134615173668,0.0006600657405645,33.17552944492765,0.0009148746278066,3.1894209319791806,397.9703104221098,10.876662296046485,4.536381530986506,69.9713027936179,6.629751536885327e-06,120.00000994797426,72.43000748232016,1.274,1.026183007522519,0.0,0.0,0.0,0.0319641703260467,2.1067646517035105e-08,-0.0080566154554079,8.688043379161898e-07,0.000272130659453,4.621346198772975,39.83162628795024,10.876765978930557,33.32848872465723
0.3,31.22221302403368,131.01039810736614,4.4744193758467325,4.664362353358112,0.0006905183788532,31.08096762732793,0.0009381960428197,3.172549142946348,378.1859457108735,11.168362145070317,4.66647911311536,69.96668711012893,8.005507138509574e-06,120.00001161892672,76.36634300732833,1.274,1.0261430389738484,0.0,0.0,0.0,0.0328214509167604,2.4447409007156216e-08,-0.0089829108229115,1.0056222251461646e-06,0.0003115527202986,4.664362404357781,39.09908960432563,11.168470611443622,31.242464973103964
0.31,31.22221281503337,131.01039853619727,4.576593712520673,4.700143580504286,0.0007196683316923,32.79732593144512,0.0009620705970519,3.154230688182399,394.1656220930229,11.470279728974068,4.800072153432283,69.96154070456518,9.597499105113692e-06,120.00001352112182,80.55022837857167,1.274,1.0261054058068628,0.0,0.0,0.0,0.0337087616009043,2.8214060606649844e-08,-0.0099686353219717,1.1565909895184251e-06,0.0003550834484269,4.700143635477137,38.36463422765983,11.47039277421126,32.94865339301887
0.32,31.222212598991007,131.01039897947376,4.68216432480395,4.718667719113184,0.0007464384342556,35.7316568886908,0.0009885845337584,3.133859770838664,421.5593934624264,11.808280530415894,4.946054328851105,69.95582953472353,1.14278227255889e-05,120.00001568218067,85.36654007972253,1.274,1.026068246703101,0.0,0.0,0.0,0.0347021168382987,3.2392058795580455e-08,-0.0110163301561155,1.3226102501723267e-06,0.0004039614423012,4.718667778018562,37.5686120062341,11.808397780690962,35.8688218659563
0.33,31.222212376029034,131.0103994369436,4.791055524254013,4.72141404831576,0.0007708346814671,35.42013590291081,0.0010176135371143,3.1111955852784385,418.5156301991632,12.181577273013426,5.104163223586657,69.94951809396906,1.351997394754887e-05,120.00001812674968,90.84831229869296,1.274,1.0260310883392356,0.0,0.0,0.0,0.0357992034445943,3.700677535501642e-08,-0.0121310534481307,1.5051409581878843e-06,0.0004588955105349,4.721414111097893,36.7208578211118,12.181698355442045,35.55651229220977
0.34,31.222212145785647,131.0103999093516,4.903491659547144,4.73024573449122,0.0007962944975467,27.63851074646407,0.0010446307681611,3.0871492806781062,345.4656368807584,12.53557620048282,5.2556261014174765,69.94256797855994,1.5899658158227497e-05,120.000020882338,96.20413272674828,1.274,1.0259901535019136,0.0,0.0,0.0,0.0368395817555172,4.208561016221623e-08,-0.0133180771902383,1.7057647550599631e-06,0.0005184333231541,4.730245801363397,35.94841996438923,12.535701282129995,27.810389570354005
0.35,31.222211909310875,131.01040039453565,5.018822212845608,4.780248518778662,0.0008286678570753,30.332092807652543,0.0010618579815451,3.063967690608957,370.5765700527057,12.774786382148209,5.367579971644358,69.93493776125636,1.8594985713558667e-05,120.00002397748868,99.9096898192772,1.274,1.025950003202184,0.0,0.0,0.0,0.0375426220587071,4.7658312175989686e-08,-0.0145774693288123,1.9252724355785177e-06,0.0005782798420984,4.780248590437683,35.44790728185619,12.774916548990808,30.486451961956565
0.36,31.22221166933814,131.0104008868675,5.135354490370708,4.798132156899578,0.0008554457330409,34.32674769697476,0.0010851169437774,3.0374319611165923,407.8625232777224,13.09301701329486,5.506730645516068,69.92658597246795,2.163521613217148e-05,120.0000274401514,104.94818266210537,1.274,1.0259105142325406,0.0,0.0,0.0,0.0384778908056978,5.3755109608570216e-08,-0.0158991451700967,2.162609490834569e-06,0.0006464142451675,4.798132232978766,34.796094028187134,13.09315138639638,34.46087058603792
0.37,31.222211421355144,131.01040139563804,5.255882891363927,4.797392186816851,0.0008791822061288,32.551601855236584,0.00111162791192,3.0078619428913056,391.1218908297639,13.457513730739372,5.661815946371007,69.91747693543164,2.5047738471809164e-05,120.0000313040604,110.87154396328836,1.274,1.025872170958032,0.0,0.0,0.0,0.0395491312153729,6.040098808671168e-08,-0.0172926678053148,2.420031948898497e-06,0.0007226353721561,4.797392267189059,34.07332166419882,13.457651832357364,32.69027405888565
0.38,31.22221116634284,131.01040191882743,5.379799334000849,4.811698494594017,0.0009057112478668,34.02947987649063,0.0011338447913587,2.9774881690446744,404.81876101445977,13.77554886562956,5.800899861213392,69.90756948297444,2.886339581486796e-05,120.00003560072224,116.17243393848278,1.274,1.02583050512925,0.0,0.0,0.0,0.0404838339452728,6.762496638941508e-08,-0.0187646375218858,2.69955777313946e-06,0.0008026686661094,4.8116985796350695,33.46655348088405,13.775691134419684,34.15949264475229
0.39,31.222210906095896,131.01040245274032,5.505993307722699,4.813508003664984,0.000929862892873,29.00025983045028,0.0011579891265804,2.9442136901860865,357.6406249338268,14.124492165837273,5.950648592462506,69.8968186645841,3.311602501056718e-05,120.00004036395212,122.13093644173792,1.274,1.02579027384009,0.0,0.0,0.0,0.0415093739609825,7.545934774906889e-08,-0.020311592409804,3.0013532510753577e-06,0.0008908380763632,4.813508093268025,32.821616487639595,14.124638228358922,29.149330452482886
0.4,31.222210638473225,131.0104030017851,5.635788650457906,4.841647069358873,0.0009592124397379,27.71178845184976,0.0011749448424961,2.91135549588368,345.4656368807565,14.390874239274588,6.07193451174791,69.8851815212744,3.783947407715338e-05,120.00004563180136,126.77947425345651,1.274,1.0257493418632293,0.0,0.0,0.0,0.0422922854866381,8.39343718693383e-08,-0.021938519432511,3.3271332720311508e-06,0.0009803271643914,4.841647164150728,32.348088166612904,14.391024912012275,27.864299944624147
0.41,31.22221036681104,131.01040355909262,5.767123077463226,4.86553909860892,0.0009876699832274,31.306062598221665,0.0011918093836199,2.876450850006428,378.9468707766882,14.663028799871563,6.195223154320929,69.87261222561014,4.307011032901644e-05,120.0000514391194,131.6183642808765,1.274,1.025708445186429,0.0,0.0,0.0,0.0430921644173401,9.308325447883581e-08,-0.0236371933433427,3.6760977501392174e-06,0.0010761942383903,4.865539198612839,31.87689439156756,14.663183942709727,31.437931330109585
0.42,31.22221008906472,131.01040412887247,5.901259531771367,4.867510642114694,0.0010118258958528,35.308283402190774,0.0012128114559048,2.8374461227958245,416.23282400171047,14.9952917972178,6.33928625560071,69.85906967380902,4.884273094936628e-05,120.00005782486392,137.64909586091787,1.274,1.0256701057426505,0.0,0.0,0.0,0.0440686959134695,1.0293499639582845e-07,-0.0254093547296826,4.049238334851429e-06,0.0011830797791891,4.867510747027452,31.315270489291198,14.995450734457847,35.422111438762386
0.43,31.222209804115888,131.01040471342728,6.038886819939341,4.854590670645608,0.0010330089741511,31.00586934514032,0.0012363751872706,2.794478603999558,375.90313951343126,15.369430568701889,6.497852263156962,69.8445117629242,5.519340856908871e-05,120.00006482835984,144.60167924299955,1.274,1.0256308158337524,0.0,0.0,0.0,0.0451682983415116,1.135186446762958e-07,-0.0272634397889413,4.449073329427772e-06,0.0013010625065656,4.854590780289497,30.70250814963406,15.369592833372094,31.13154422839874
0.44,31.22220951192321,131.01040531284193,6.180028459770617,4.866912332640401,0.0010595850174406,28.57707721036899,0.0012525768202179,2.752165534925872,353.07501253892326,15.659290812546615,6.627318538707029,69.82889155423543,6.216182865383864e-05,120.00007249162944,150.1053167542629,1.274,1.025586171750536,0.0,0.0,0.0,0.0460202245100907,1.2486676023179565e-07,-0.0292060158163984,4.8779154055816594e-06,0.001420032405556,4.866912447705031,30.24619499837236,15.659457251771938,28.709297424144207
0.45,31.222209215425703,131.01040592106523,6.322872201489905,4.881836476567178,0.0010866574689855,33.31904824532484,0.0012669045761511,2.7082028218433374,397.2093853562887,15.934249290371609,6.751662050993672,69.81215834018458,6.97909417564726e-05,120.00008085697964,155.42080512416243,1.274,1.0255397023523487,0.0,0.0,0.0,0.0468283602442113,1.3701614206272197e-07,-0.0312276295846745,5.334643585560923e-06,0.0015449645531859,4.8818365972149325,29.82567893138932,15.934419982127675,33.428929688274074
0.46,31.22220891307435,131.0104065412864,6.468371919199588,4.869610441729251,0.0011078049156487,38.95909776354321,0.0012868374716666,2.6582856015412624,449.7140588976424,16.292139278621757,6.904766425053949,69.79426683863348,7.812149592850748e-05,120.00008996920153,162.4785746623087,1.274,1.02549635315424,0.0,0.0,0.0,0.0478802236363867,1.499987870203256e-07,-0.0333272350234362,5.819761874615242e-06,0.0016858511402973,4.869610567434908,29.29014635640275,16.292313292210977,39.04968351401366
0.47,31.22220860266524,131.01040717804253,6.6178810515614845,4.838450928223533,0.0011247917292402,26.253747818137555,0.0013104398935566,2.6026193242279367,331.0078106302504,16.710658191447514,7.078951441335346,69.77517236812905,8.719457259907165e-05,120.0000998741591,170.9309671061642,1.274,1.025453319323251,0.0,0.0,0.0,0.0491102725711187,1.6384464803343264e-07,-0.0355167087264168,6.3368207228363735e-06,0.0018427306558807,4.838451058652396,28.68386015667837,16.710834873319172,26.382435512333956
0.48,31.222208284201663,131.0104078313267,6.771393590864176,4.869339340099417,0.0011561785713505,25.860860976019296,0.0013165328518772,2.5543454292827983,327.20312230115803,16.911139899671,7.177575416403102,69.75482343794755,9.70562828082882e-05,120.00011062072316,175.0543877818846,1.274,1.0254092882449153,0.0,0.0,0.0,0.0496995461609974,1.7858865391586845e-07,-0.0378054080201581,6.88909442277235e-06,0.0019849793891693,4.869339477030596,28.40887970825325,16.911321511776286,25.986704537635287
0.49,31.22220796480208,131.01040848648364,6.924537656029012,4.881367714530694,0.0011829003785372,32.565703383222065,0.0013261973190012,2.5011623511055703,389.6000096981238,17.169005224738054,7.296160258358563,69.73316318155707,0.0001077573203115,120.000122255028,180.4309832312717,1.274,1.025367445590036,0.0,0.0,0.0,0.05045746454003,1.942747077649401e-07,-0.0401641298712614,7.47069711110948e-06,0.002140948887153,4.881367857509675,28.058569663954906,17.169191034294997,32.66161128464712
0.5,31.222207637929923,131.01040915697027,7.081324512896956,4.862566137860805,0.001202418260511,33.47759680712428,0.0013425340759632,2.4399894027711366,397.970310422106,17.52898693231981,7.450304424940405,69.71015149227495,0.0001193385310595,120.0001348274002,188.0736471953394,1.274,1.0253278572281015,0.0,0.0,0.0,0.0515154948878309,2.109295159784217e-07,-0.0426011733481599,8.084173008518589e-06,0.0023184335011768,4.862566286171007,27.57768313050809,17.529175807738486,33.56639745442473
0.51,31.22220730314019,131.01040984370235,7.24202048914867,4.8479762258125,0.001223054804074,25.49162310288008,0.0013562860883156,2.3767006597692686,323.39843497208153,17.86914397471067,7.597652147346554,69.68574349602717,0.0001318441288964,120.00014838524436,195.4407439266201,1.274,1.025286455263166,0.0,0.0,0.0,0.0525152689856776,2.2858192086249162e-07,-0.0451315948093539,8.734206149830708e-06,0.002503767471626,4.847976379721193,27.13799345359824,17.86933609171003,25.602178740977283
0.52,31.222206962738102,131.01041054193402,7.405210501673173,4.865306299521403,0.0012516517170965,30.733671928447727,0.0013599291289974,2.317711624364424,372.098451184342,18.08534843773428,7.701914987606457,69.65988568649581,0.0001453248538387,120.00016298000436,200.19561780583155,1.274,1.0252426840672306,0.0,0.0,0.0,0.0531507657929359,2.4726951523704535e-07,-0.0477531686556663,9.421346966092632e-06,0.0026812161964639,4.865306460134566,26.8699055233151,18.085545046726228,30.820940596104087
0.53,31.222206619320115,131.01041124632013,7.569307468221277,4.848802699234936,0.0012715119568563,32.301199055744725,0.0013711327835325,2.2490252325653923,386.55624643486095,18.41963113311156,7.8474319110539055,69.6325258319474,0.0001598315062727,120.0001786629144,207.6614205945027,1.274,1.0251993415311351,0.0,0.0,0.0,0.0541332845214831,2.67031759303889e-07,-0.0504479325599339,1.0141887756417996e-05,0.0028848299490111,4.848802865552398,26.45837260670532,18.419830861742675,32.37940050117613
0.54,31.22220626697288,131.01041196903336,7.737918664599091,4.831496690588052,0.0012913635058467,28.31291960103712,0.0013809098107221,2.177242866245296,349.2703242098436,18.75116898748492,7.992112829440902,69.60362200959217,0.0001754082864028,120.00019548734956,215.20067397992847,1.274,1.0251561018460285,0.0,0.0,0.0,0.0551077428911958,2.878941684235108e-07,-0.0532336286085667,1.090122304443916e-05,0.003098869611663,4.831496862756785,26.061835558272342,18.751371834390056,28.396510432451375
0.55,31.222205908994248,131.01041270328463,7.909026079894722,18.22227304405061,23.92206346522504,31.14972295702412,-1.799328987810296,1.1733806144452297,365.2500005919912,24.089588654520423,8.113323699629928,69.57312211246325,0.0001921068626005,120.00021350480982,355.171872308874,1.274,1.025112921033824,0.0,11.278816046756331,0.0,0.0707969418468491,3.0989272306468813e-07,-0.0561100530405476,1.1700476995263424e-05,0.0041961578129615,29.74335228186028,46.321371547591774,27.739031214257945,31.223703290482472
0.56,31.222205546564343,131.01041344664463,8.081909946161325,-30.43269303814026,-0.085676541234243,28.70679189751464,-0.4146060978615588,3.242961885869669,346.22656194657776,17.764072325944138,8.243352958320413,69.54097415464405,0.0002099796112633,120.00023276987916,193.1335183846463,1.274,1.0250709539098009,0.0,11.31996503450294,120.00005142262596,0.0522069706637359,3.328942889008732e-07,-0.0703538438275002,0.021798850319368,0.0038797603767673,30.43280207901889,39.662400584041926,17.750614291333253,28.892362330844456
0.57,31.222205181621927,131.01041420618407,8.258620404968442,-30.00040796709773,-0.066541359316465,28.36778270272552,-0.4182805011030765,3.525905171220161,343.1828296833045,17.978333544841153,8.393201157229678,69.50066143418694,0.0336209205219168,120.03589793637576,197.81721562528773,1.274,1.0250279191823897,0.0,11.360792541650731,120.00005142262596,0.0528367699585153,3.738646337650282e-07,-0.0560808482859675,0.0217440662912008,0.0031299051654644,30.000474891377596,39.20165772965305,17.96788125491135,28.5891248785809
0.58,31.22220480516962,131.0104149778898,8.436859685467793,-29.59071039274508,-0.076204110041635,37.27310079803113,-0.4209607698278911,3.821006319032681,426.12500585731766,18.20589544833836,8.535154910566206,69.46851932791301,0.06684014878572,120.07136682467232,202.85320492365145,1.274,1.024981594484354,0.0,11.401752964356744,120.00005142262596,0.0535056623287884,4.086689028965735e-07,-0.0416102756299322,0.0216986553975699,0.002351648320592,29.59079963256518,38.72884330423323,18.193925338253408,37.47080650800047
0.59,31.22220442490377,131.01041576231654,8.617928665808158,-28.977642221914284,-0.0852150096201136,30.219857481794147,-0.4263595785709657,4.132973579766154,360.68438819710633,18.552710184638133,8.724982244384847,69.44466110261267,0.0999231405083612,120.10669670258604,210.6516934719496,1.274,1.0249386802161349,0.0,11.442348455371835,120.00005142262596,0.0545250343179341,4.372319309585385e-07,-0.0269180206732272,0.0216467108081747,0.0015502533203465,28.977756648383945,38.02568467522247,18.53932464716305,30.504147903543117
0.6,31.22220403378812,131.01041656810503,8.803852116771381,-28.595638851996465,-0.0945656457747875,26.84686492076309,-0.4283523406601694,4.453725021055541,329.4859594986072,18.769528890292765,8.86260499289852,69.42921384059933,0.1329012291879814,120.1419190787622,215.60023248043936,1.274,1.024891335813742,0.0,11.482872889223154,120.00005142262596,0.0551623640540516,4.594566549666079e-07,-0.0118925663266692,0.0215876242379711,0.0006929045104647,28.59578201202464,37.58760120594015,18.75467456013445,27.217150996469577
0.61,31.222203639523208,131.01041738023488,8.990288492125265,-28.236255849215613,-0.1038310647923669,31.41312320092656,-0.4298347179190314,4.783969557105126,372.0984511843332,18.973913919966,8.995091345233222,69.42236848519363,0.1658057568000897,120.17706544542528,220.31727824497213,1.274,1.0248423929069768,0.0,11.523755877630652,120.00005142262596,0.0557631549850445,4.752120639499048e-07,0.0033347260095229,0.0215216096440901,-0.000196405543779,28.23643104273164,37.17707223638351,18.95760418337469,31.7782226036106
0.62,31.222203238571467,131.01041820595623,9.179370602994032,-27.754617639382023,-0.1125504880582879,39.007160462455566,-0.4329250928286432,5.131559613820904,442.86563930529206,19.254646382301008,9.15782801276212,69.42424072812085,0.198668644757803,120.21216790679036,226.8808887967516,1.274,1.0247996097896497,0.0,11.564039080013083,120.00005142262596,0.0565883309688304,4.844202802582619e-07,0.0187478996299749,0.0214485329190575,-0.0011205131070133,27.754827710446765,36.62800842678353,19.236967004349044,39.345633754585215
0.63,31.22220282900713,131.01041904917818,9.372236617847152,-27.15464125350545,-0.1206343514335643,22.102278103598263,-0.4376983988374396,5.502715814189585,286.11251274707456,19.617837474925206,9.35286756151644,69.4349371062461,0.2315221199073808,120.24725887441566,235.5163392516824,1.274,1.024756158874558,0.0,11.604169186191132,120.00005142262596,0.0576558547630678,4.870078634529144e-07,0.0344142711879749,0.0213678772433593,-0.0020956098933744,27.154888841397497,35.942188157441244,19.59888828931376,22.78117992091007
0.64,31.222202409952267,131.0104199116589,9.5693976844169,-26.94565278937548,-0.1300313338331291,21.663215444690096,-0.4361272961806911,5.857476045776767,282.3078244179702,19.72297668622962,9.44577375522596,69.45460271535718,0.2643987863176875,120.28237113248947,238.04303472015607,1.274,1.024708534665538,0.0,11.644404031658432,120.00005142262596,0.0579649826360085,4.828744402311482e-07,0.0504064652883743,0.0212789985273127,-0.0030858244397258,26.94594305410145,35.714937884097914,19.702551429607738,22.44538117404964
0.65,31.22220199147985,131.0104207728433,9.764820860418949,-26.628870177889308,-0.1388884418366261,38.271646820603685,-0.4359914507779457,6.227025758205546,436.7781447787504,19.89835612052403,9.566043538157023,69.4834242317067,0.2973319197144689,120.31753812355332,242.29073321656887,1.274,1.0246641738210605,0.0,11.684831988619562,120.00005142262596,0.0584805442000039,4.719091844149997e-07,0.0664719837650738,0.0211829532476954,-0.0041054446221733,26.629205914334328,35.3644077111738,19.876539596462827,38.777375990382986
0.66,31.222201564584086,131.0104216510879,9.96390471920472,-25.989807078481405,-0.146092234447095,32.49415120224769,-0.4408164404417527,6.642781411885315,383.5125151715984,20.300022436050504,9.774498818336705,69.521443688269,0.3303556631152743,120.35279419153042,252.16635408297344,1.274,1.0246195561629028,0.0,11.724224450475695,120.00005142262596,0.0596611608731214,4.540943197642853e-07,0.0826725366043129,0.0210792709505926,-0.0052089937688838,25.99018912194497,34.63750522909234,20.277074346392155,33.16912308721453
0.67,31.22220112522855,131.01042255454863,10.169053487875848,-25.56775849349801,-0.1541212292480438,22.282476550734327,-0.4418473825902293,7.050688791486053,289.15624401033847,20.551106798127847,9.923659977972012,69.5687384561066,0.3635047764432725,120.3881742911996,258.4377673112808,1.274,1.024572383541697,0.0,11.763687446757164,120.00005142262596,0.0603992301154496,4.293805226484206e-07,0.0992137344966302,0.0209664728091239,-0.0063284086416379,25.568191756901463,34.16861541413561,20.5268975212446,23.37554711184134
0.68,31.222200683223832,131.01042346326676,10.37439047624676,-25.29328691212873,-0.1628003238307249,27.81730466380607,-0.4400860628697657,7.447732977556387,340.89999248584934,20.69123055051061,10.029380534907512,69.62550367734778,0.3968150768195256,120.4237144206491,261.96883245872755,1.274,1.0245245285832842,0.0,11.803662330051088,120.00005142262596,0.0608111914694993,3.9765253231320043e-07,0.1159453886322246,0.0208451808099079,-0.0074459263944471,25.29377635474682,33.87787506712381,20.66565796985352,28.800431264248807
0.69,31.222200237120664,131.01042438019883,10.58078976314916,-24.854957725205768,-0.1704265565505179,34.251203132213114,-0.4408026768054414,7.877340211008726,401.0140726853658,20.9536703677707,10.18175134115982,69.69184845374654,0.4303236699671152,120.45945187955436,268.65108096147395,1.274,1.024479631064582,0.0,11.842993078428744,120.00005142262596,0.0615826412369038,3.5885933130330226e-07,0.1327573150329386,0.020715932629529,-0.0086335398643199,24.85550489362756,33.39525601270027,20.92689986634508,35.14813952123183
0.7,31.22219978142072,131.01042531646073,10.791556388284842,-24.33844116503623,-0.1773764326203816,28.61382738247441,-0.4426003821702628,8.334414944072766,349.270324209851,21.280232916722955,10.357902525398668,69.76781875267405,0.4640688295685961,120.49542513762722,277.0845698817953,1.274,1.0244351749185203,0.0,11.8819117835402,120.00005142262596,0.0625425542263425,3.1298932851055975e-07,0.1497544802144486,0.0205777798567827,-0.0098904884960397,24.3390481569804,32.821263832535195,21.25237073634616,29.80619876858374
0.71,31.222199317665154,131.01042626889415,11.005773259163895,-23.95266041712314,-0.1849858510703563,23.381172641904698,-0.4417445617256009,8.780060080387603,301.3312640634036,21.502107978265222,10.493446337279758,69.85352065950177,0.4980902998061675,120.53167413290824,282.8868311119842,1.274,1.0243880468141104,0.0,11.921035271328336,120.00005142262596,0.0631947972313375,2.599924357417974e-07,0.1669858171454896,0.0204300594593066,-0.0111432848388357,23.953332621857683,32.40762138645953,21.473050519210435,24.979267951314803
0.72,31.2221988498918,131.01042722933033,11.221011917025049,-23.616689964132327,-0.1928141264227178,28.656897824692248,-0.4396078257940876,9.222741300419042,350.7922053414578,21.67926431393755,10.611461533638527,69.94908828099416,0.5324296542987925,120.5682406346798,287.56151179463114,1.274,1.024337302174265,0.0,11.960076513686737,120.00005142262596,0.0637156152589112,1.998066375296586e-07,0.1843459703717304,0.0202733270796754,-0.0124028593864438,23.61743196108361,32.058265197603745,21.6489771989499,30.10764031055582
0.73,31.22219837673257,131.010428200528,11.43810414454228,-23.164878738944367,-0.1996499352731693,36.31026487382313,-0.4392417923910178,9.700610984509373,422.3203185282354,21.95427852563341,10.765397557933824,70.05459535705414,0.5671302982266019,120.60516824229629,294.8974132573789,1.274,1.024292465384646,0.0,11.998700678550549,120.00005142262596,0.0645240433235944,1.3241491831050608e-07,0.2017853779631465,0.0201077858492194,-0.0137481239666325,23.165691683659944,31.571295737922878,21.92291765060068,37.58630231922476
0.74,31.222197894793503,131.0104291893,11.65912741850772,-22.623720412657928,-0.2055835593566212,22.425757802299582,-0.4402287196287686,10.216185950583542,294.4828134710563,22.312528687852623,10.94912480908086,70.17008722115987,0.6022376010791392,120.6425025170045,304.5937514529979,1.274,1.0242470321640116,0.0,12.037062018422484,120.00005142262596,0.0655771109022561,5.782141229149694e-08,0.2193811931674443,0.0199325147644119,-0.0151905516466187,22.6246054152705,30.97708715958276,22.28023576715676,24.647086434503514
0.75,31.22219740397584,131.010430195809,11.884169401618594,-22.32545153677603,-0.2133505466978828,26.208480458216343,-0.436115399701924,10.673720077931984,330.24688556441737,22.44501842924104,11.048648781200436,70.29565339409764,0.6377994065782085,120.68029149931354,308.21512960636886,1.274,1.0241984712898409,0.0,12.075514550336203,120.00005142262596,0.0659666692321164,-2.3997276292962407e-08,0.2371951855819372,0.0197465990620182,-0.016521208434221,22.32641882250775,30.68685481826809,22.41150548118072,28.301995422100777
0.76,31.22219691266205,131.010431203208,12.108100311540946,-21.89932218333813,-0.2198914014575704,28.17555197946168,-0.4341025787185379,11.175180580934484,349.2703242098581,22.69560482196952,11.190511075653648,70.43141875875283,0.6738664791077849,120.71858614877532,315.1288782576889,1.274,1.0241522053390697,0.0,12.113983722868184,120.00005142262596,0.0667033196430553,-1.130860378017581e-07,0.255015851252364,0.0195518368922152,-0.0179603821138322,21.900371834558072,30.24162190351636,22.6610644461898,30.313937972699826
0.77,31.2221964115714,131.01043223011695,12.336643894061048,-21.458800301330808,-0.2261427948748299,26.188063960197795,-0.4319257196388504,11.690085631647303,331.76876669606884,22.95775082010028,11.335431364404675,70.57738702961217,0.7104920975518795,120.7574399288587,322.443648000884,1.274,1.0241065975906936,0.0,12.151687813482452,120.00005142262596,0.0674739515312686,-2.093982582782448e-07,0.2729359330572859,0.0193470617641527,-0.0194440691780692,21.459935626727173,29.78302865581511,22.92222848517803,28.68203890740585
0.78,31.222195904556106,131.0104332687777,12.567454762882766,-21.05190509559649,-0.2325484313301964,21.231469064077498,-0.4286434979651636,12.201144711996353,286.8734378128874,23.18480138871447,11.466580858354158,70.73361501862938,0.74773297432836,120.79690973594477,328.84578834122215,1.274,1.0240588105546735,0.0,12.189592567473,120.00005142262596,0.0681414416886955,-3.129226646858376e-07,0.29095114068206,0.0191320242501251,-0.0209320094336673,21.053131148849232,29.37037625015007,23.148272866832222,24.49136472617041
0.79,31.22219539219243,131.01043431802765,12.800190889687128,-20.696435408712286,-0.2393469206783689,30.50606082698309,-0.4238375303340594,12.69587287366308,373.6203323159581,23.3534019199412,11.575942058660136,70.900157068221,0.7856495203971244,120.83705616602528,333.6384733938667,1.274,1.0240083170932772,0.0,12.227301228655543,120.00005142262596,0.0686371484029362,-4.2364395240161457e-07,0.309018620308822,0.0189069356554304,-0.02239301516601,20.697758622970017,29.02784275325697,23.315805502904983,33.045189868662064
0.8,31.22219487547789,131.0104353758652,13.03424009029636,-20.1945993796661,-0.2444334050865836,30.80070473926367,-0.4216272581283878,13.258649325487248,377.42502064505805,23.6771680362662,11.738511667852404,71.07704294549124,0.8243061604630526,120.87794382053843,342.94586383259707,1.274,1.0239625010683884,0.0,12.264726774539325,120.00005142262596,0.0695889015712506,-5.415274829974841e-07,0.327075878636223,0.0186723016676118,-0.0240295857038939,20.19601685756136,28.50275358000517,23.63877264324807,33.535845954982854
0.81,31.22219434873105,131.01043645360025,13.273239167593674,-19.72663062346548,-0.2497029367022856,19.47681069296312,-0.4182216761443719,13.816758720266012,273.9374926939922,23.96383024500268,11.886508607457689,71.2642666007778,0.8637716270160283,120.91964160288867,351.29224121952893,1.274,1.0239149950770308,0.0,12.30176768460117,120.00005142262596,0.0704316123559406,-6.664984412513537e-07,0.3452381869718164,0.018426406859792,-0.0256704276704607,19.72814801047273,28.02527951536093,23.924607123589983,23.883548431377747
0.82,31.222193816832583,131.01043754147724,13.514127304345887,-19.393182746562264,-0.2564045477478302,25.27653528498392,-0.4114247901921156,14.311641784327673,328.725004432774,24.09123055746183,11.978600503937688,71.46188799034195,0.90412018615371,120.9622239596372,355.02914801451624,1.274,1.0238644186635044,0.0,12.339037163004283,120.00005142262596,0.0708062444908282,-7.985353936253196e-07,0.3634574667423514,0.0181694949900169,-0.0271681818201073,19.39481245877489,27.72705144562594,24.05095475971546,29.04988118622752
0.83,31.222193282758244,131.01043863358163,13.75498491152274,-18.93944113720947,-0.2615132327500401,32.38656501659832,-0.4067601864619229,14.870271167657238,395.6875032246518,24.35592401240913,12.116008526617897,71.66993949973313,0.9454317869656867,121.00577100873689,362.865114831802,1.274,1.0238188483711983,0.0,12.37605235061525,120.00005142262596,0.0715843963499116,-9.376049996661774e-07,0.381589244932242,0.0179032592271695,-0.0288362436625778,18.9411802833989,27.27710457465685,24.31484575249564,35.639584902511125
0.84,31.22219273944873,131.01043974392076,14.00043397183606,-18.42379999107869,-0.2656379749717691,19.21508432538396,-0.4029524763685827,15.47209281175996,275.45937482564227,24.6964438648227,12.276866364001648,71.88837072142368,0.9877921636530616,121.05036863047746,373.0736741921736,1.274,1.0237739661568126,0.0,12.412526782669111,120.00005142262596,0.0725854178581451,-1.0835861887236255e-06,0.3997288716126696,0.0176261029394737,-0.0306286357678943,18.425648446166083,26.750231535906533,24.654717698771957,24.673214065166746
0.85,31.222192188651054,131.01044086898628,14.24941701131515,-18.076795865572727,-0.2718614641489752,20.95505339840365,-0.3948229436594021,15.973503282986307,292.9609323393965,24.818204190386083,12.363940019006929,72.11718583496203,1.0312945335733263,121.09611019747553,376.75244778330926,1.274,1.0237227741398531,0.0,12.4491624281186,120.00005142262596,0.0729434890305376,-1.2363959920334074e-06,0.4179171100402628,0.0173370272914445,-0.0321793920377886,18.078771769653542,26.45278271444256,24.77550045169597,26.351906102184763
0.86,31.22219163736487,131.0104419949156,14.497292656733396,-17.65641088851071,-0.2769468461112677,26.56140776831836,-0.3878598247481721,16.51850759302418,346.2265619465616,25.02935528152424,12.478873319707512,72.3564123327365,1.076040487474045,121.14309745435042,383.1813504265616,1.274,1.023674789281455,0.0,12.485775522845048,120.00005142262596,0.0735642915321583,-1.396001120554209e-06,0.4359662100585294,0.0170386095799709,-0.0338539605910008,17.658513572845262,26.063010810145872,24.98585274206484,31.28130289772685
0.87,31.222191078229628,131.01044313626187,14.749014704442468,-17.177894665328324,-0.2810269118335527,24.406412148690528,-0.3816788958019772,17.104549639190356,327.9640783669946,25.314720325035488,12.615749259641987,72.60597011095697,1.1221397934656172,121.19144028922013,391.9591493027543,1.274,1.0236288969245204,0.0,12.521669101992329,120.00005142262596,0.0744032250953976,-1.5622500391279113e-06,0.453929460765469,0.0167297672720516,-0.0356498737542253,17.180124000007346,25.60073280084364,25.27057689794889,29.8057754656841
0.88,31.222190512409007,131.01044429068705,15.003893881369782,-16.736777305939725,-0.2854943567098288,20.592613179841138,-0.3740909460000633,17.66453197399575,294.4828134710421,25.545008085706066,12.73325940587075,72.86580953987657,1.1697125360632488,121.2412589075095,399.113113609114,1.274,1.0235805388426191,0.0,12.557606307776064,120.00005142262596,0.0750802864076396,-1.7350087207069292e-06,0.4718429654780811,0.0164095381067774,-0.0373929209347772,16.739142451233747,25.19487241960012,25.500162922595283,27.13358346165807
0.89,31.22218994239846,131.0104454532573,15.260256515486915,-16.32035920965867,-0.2902127330606826,22.62876115479084,-0.3653805180380197,18.201223305238376,315.02813424808807,25.733299136325343,12.836039519627832,73.13590162573279,1.2188905202386373,121.29268523631256,405.0085142581506,1.274,1.0235293752791452,0.0,12.593483326045392,120.00005142262596,0.0756339184280201,-1.9141755786164366e-06,0.4896465067522086,0.0160786098871713,-0.039088886459211,16.322869168381164,24.8295706540426,25.68771282174435,29.042707589525556
0.9,31.222189367888184,131.01044662457625,15.518341218089736,-15.866747777789325,-0.294167681111788,25.06778746940759,-0.3570115122437176,18.764837644311456,339.3781423542166,25.971695510323563,12.952318418100669,73.41618281693128,1.2698183320953624,121.3458639655984,412.5371436332577,1.274,1.0234837388140003,0.0,12.62906588602672,120.00005142262596,0.0763348224123377,-2.0996210624154016e-06,0.5072911535742499,0.0157375586203184,-0.0408716336568883,15.869404405972302,24.419007935514063,25.925487962033777,31.315180945487622
0.91,31.222188787157243,131.0104478080044,15.779432889708763,-15.392855306749576,-0.2975944975399979,18.167965709188696,-0.3485748204639665,19.344723362593527,277.7421810230785,26.2382239208872,13.074870606224453,73.70656146047585,1.3226550119396965,121.40095422204072,421.0371628062515,1.274,1.023436404813438,0.0,12.664391837917892,120.00005142262596,0.0771184177346988,-2.291173962488073e-06,0.524792699929674,0.0153857526246807,-0.042714540130015,15.395662244788443,23.98603331677442,26.191478096709123,26.540813936105835
0.92,31.222188200751265,131.0104490024451,16.043225265090335,-14.981641139420296,-0.3020071513533393,21.995284413044384,-0.3380602825537264,19.85728320053999,315.0281342480675,26.3960134917851,13.163504750996488,74.00695487658254,1.3775764798133494,121.45813200687228,426.1056013799566,1.274,1.0233859136578225,0.0,12.699637868031193,120.00005142262596,0.0775824179194968,-2.488669339334721e-06,0.5421495707901657,0.015022825279143,-0.0443915156518991,14.98461515466986,23.650094518397363,26.348574539055807,29.634751851024518
0.93,31.222187611775567,131.01045020181076,16.307477316841652,-14.512698057794353,-0.3051750681561584,26.5564042783336,-0.328433474836595,20.421138603211247,359.16250706547066,26.64526299134968,13.276624335007908,74.31727939489404,1.4347779222952464,121.51759257639677,434.17974629020887,1.274,1.0233407575091376,0.0,12.734760858747656,120.00005142262596,0.0783152385145037,-2.6919745281628943e-06,0.55926737728715,0.0146503774432087,-0.0462243688518729,14.515837435215438,23.23751435345276,26.59732643039817,33.50184142093167
0.94,31.222187015871828,131.0104514146037,16.57549232741073,-14.013416991716465,-0.3075508749910028,18.0538310176548,-0.3189873719214499,21.01486903690136,283.06875048378083,26.945251948290835,13.40152466979526,74.63739717222154,1.4944758518240868,121.57955248648372,443.999884509615,1.274,1.0232914783978162,0.0,12.769466642114656,120.00005142262596,0.0791971997130875,-2.9008636274517548e-06,0.5761867426398584,0.0142671921305476,-0.0481577095741999,14.016723928800152,22.78700571544433,26.896942201809328,27.70680941565801
0.95,31.2221864141402,131.01045263864134,16.846570234832566,-13.588622772006008,-0.3112956423706627,24.25367326177009,-0.3071205882221805,21.512455734476426,342.421873617488,27.10250307229777,13.484710986064496,74.96719352480898,1.5569123064653074,121.6442538160198,449.1856337029719,1.274,1.0232418269359267,0.0,12.804192683911117,120.00005142262596,0.0796596342010105,-3.1151320873806787e-06,0.5929169382956772,0.0138725774750591,-0.0498439287139974,13.592120881816486,22.45561615879743,27.05360510770967,32.42099229623022
0.96,31.22218581051425,131.01045386625964,17.11769852397195,-13.091120841729804,-0.3132985175121963,23.41691963430876,-0.2965645468568922,22.0917445192834,337.09533515678265,27.39440719478404,13.602113053718764,75.30655895085174,1.6223587035305915,121.71196801078044,458.90158559236255,1.274,1.0231951201821403,0.0,12.838843698676047,120.00005142262596,0.0805178446551082,-3.3346399616718706e-06,0.6093451633703892,0.0134687718444211,-0.0517753416215039,13.094803809657886,22.021097749314617,27.345194623977825,32.19449101314409
0.97,31.222185199172657,131.01045510875278,17.393541929789315,-12.611212774423729,-0.3155078961473331,13.143980380305155,-0.2849808139054215,22.639753889107634,245.0218871929888,27.6472213842934,13.706437596267849,75.6553191732399,1.6911194104422524,121.78299943442178,467.398397837216,1.274,1.0231476260761452,0.0,12.87303791102431,120.00005142262596,0.0812611709118712,-3.5591077001820726e-06,0.6255322175516272,0.0130538603455433,-0.0536398266032932,12.615094930011413,21.62176457754969,27.59766177032776,26.180219450216708
0.98,31.22218458416989,131.0104563582235,17.6709802494012,-12.195374725914895,-0.3190794464805949,20.97729076481695,-0.2712421520745357,23.079908430507647,319.593746642963,27.756969542438306,13.771893461016028,76.01333456948579,1.7635386493241112,121.85769230060312,471.1039708274093,1.274,1.0230935628253934,0.0,12.907367792524342,120.00005142262596,0.0815839999074289,-3.7883375571689136e-06,0.6414288042163798,0.0126285625578505,-0.0552198379753498,12.199484997703676,21.33276733766504,27.706848919260786,31.18978155257511
0.99,31.22218396748756,131.0104576108432,17.948367165884946,-11.699464513906731,-0.3205120150641719,23.09231487696501,-0.2590785347203137,23.6261294735882,341.66094855170127,28.03484328434551,13.877420627527,76.38043706783915,1.8400063314515689,121.93643648495184,480.57078182471264,1.274,1.0230490803133316,0.0,12.941439155572034,120.00005142262596,0.0824009914708656,-4.022156175830408e-06,0.6569315172638239,0.0121952928254016,-0.0571190902426876,11.70379280917915,20.923999904301773,27.98449763732623,33.03810106478284
1.0,31.222183343411967,131.010458877618,18.230632556741927,-11.204081288346451,-0.3217433253423713,19.821632135586995,-0.2463493546513952,24.16125059141687,314.2672081822764,28.30895581589632,13.978952717169603,76.75639910578927,1.920965366804316,122.0196748300234,490.0010660662988,1.274,1.022999484445133,0.0,12.975054951705369,120.00005142262596,0.0832069376139057,-4.26022145606399e-06,0.6721122635760459,0.011751605551471,-0.0590088223602988,11.208641015645991,20.524435722993,28.25841675814868,31.25258099204471
1.01,31.222182715513263,131.01046015162908,18.51488736365925,-10.730235207728692,-0.3233426724362278,20.681700874399723,-0.2325512207822136,24.645870122497488,324.92031610370094,28.5280838890396,14.064659931049343,77.14103403721435,2.006923026124894,122.1079145356997,497.6026368183087,1.274,1.0229507481225095,0.0,13.00882033778704,120.00005142262596,0.0838512775019726,-4.502287301731029e-06,0.686942552715036,0.0112977310094865,-0.0607760461509913,10.735048808752342,20.16947457130894,28.477293610418656,32.17461336556273
1.02,31.222182084175248,131.01046143213244,18.800831722960936,-10.241827948073206,-0.3243336933250935,15.986076486283592,-0.2186374865044389,25.141630614429182,284.59063161543185,28.77942974360192,14.15513240504328,77.53413856015537,2.098462229267698,122.20173842847974,506.3955827048509,1.274,1.0229039803623294,0.0,13.04238824845517,120.00005142262596,0.0845903196753902,-4.748121899960017e-06,0.7013689585653959,0.0108347792967376,-0.0625973889901036,10.246907302577046,19.798875779950357,28.72848379827024,29.794362448762296
1.03,31.222181448061075,131.01046272166923,19.089790175761728,-9.77690599207857,-0.325843297076695,11.6148740969526,-0.2036240816556774,25.57074222271516,247.3046933904342,28.960821146224788,14.227347172478243,77.93547835232326,2.196256051817912,122.30181946229165,512.7849028028105,1.274,1.022853416101322,0.0,13.075727277468808,120.00005142262596,0.085123754301871,-4.997431015357333e-06,0.7153825396991452,0.0103624602980783,-0.0642487449406463,9.782281539083492,19.4804944712154,28.90963807670721,28.085754767768634
1.04,31.222180809399127,131.0104640159603,19.37977952328212,-9.321978269954933,-0.3275051227100637,21.98259051153915,-0.187940822993432,25.9535396810346,345.4656368807608,29.10423134634481,14.28918561649746,78.34481347874296,2.3010864206841304,122.40893941765064,517.86154075513,1.274,1.0228049544826707,0.0,13.10899243722695,120.00005142262596,0.0855455559228793,-5.249970904767347e-06,0.7289255117839947,0.0098821984923424,-0.0657873857953716,9.327678723574683,19.19205560268788,29.052787242110035,34.0125833968253
1.05,31.22218016788616,131.0104653155767,19.671136697254816,-8.8064646968813,-0.326929192527366,10.221172713854514,-0.1734213516995471,26.457753404063315,240.4562587980608,29.426205740808395,14.385439423283728,78.76187029876563,2.4138665401768784,122.52401132220092,529.3681067894008,1.274,1.022755494436122,0.0,13.14195654796804,120.00005142262596,0.0864922139571647,-5.50546363396503e-06,0.7419593475269364,0.0093949518663289,-0.06770263462795,8.812483199961994,18.79911026857605,29.374852101999853,28.36397648077387
1.06,31.22217952012867,131.01046662692428,19.96747161572928,-8.358644550968304,-0.3285201620160614,17.269850346240332,-0.1566949370386021,26.77102797932843,308.1796836557233,29.52647454050969,14.434077334968032,79.18635237223482,2.5356700014603986,122.64810856837744,532.9666915977456,1.274,1.0227013895379469,0.0,13.174657046574492,120.00005142262596,0.0867872234467965,-5.763489466396402e-06,0.7545380503527575,0.0088979956564963,-0.0690830608918854,8.365052150936855,18.54990882061064,29.474870996886384,31.858440378568698
1.07,31.222178872756835,131.01046793742893,20.262048635826503,-7.860353560228637,-0.3280169813393643,21.328592375667697,-0.14095932931015,27.195960055576887,348.5093681440431,29.79302479589037,14.512580282229484,79.61799332418182,2.667769144041993,122.78250327705344,542.6174874160973,1.274,1.0226540159946436,0.0,13.207505794024636,120.00005142262596,0.0875709862102499,-6.02389172369195e-06,0.7665450857816248,0.0083954482278447,-0.0708139541108218,7.867151795393548,18.20909704419504,29.741500290405675,34.562247693175905
1.08,31.222178219418257,131.0104692590725,20.56170401905204,-7.354336599162589,-0.3269398188633265,11.453099436252575,-0.124989767138569,27.6262410876476,261.0015785751465,30.088818959066423,14.592856902442715,80.0564588853599,2.811681077532642,122.92871230822584,553.4295864804426,1.274,1.0226061614050743,0.0,13.239756515387308,120.00005142262596,0.088440716499092,-6.286232153256265e-06,0.7780250826295411,0.0078848248540788,-0.0725859864819564,7.361560214215925,17.86182410215049,30.0374636511041,29.90649270261237
1.09,31.222177562742846,131.0104705868478,20.86387775448413,-6.890004986279132,-0.3273463458104371,9.53781903420932,-0.1075987846477797,27.90335945342571,246.54375332456465,30.22140996438652,14.641017045856724,80.50143898406343,2.9692318605379104,123.08856145017852,558.3016744693452,1.274,1.0225512795791307,0.0,13.272166404233268,120.00005142262596,0.0888307470003364,-6.550174205888376e-06,0.7889605504931669,0.0073659757009147,-0.0739284242972053,6.897739290580804,17.61733769645157,30.16999080036157,29.488625573513346
1.1,31.2221769051636,131.0104719162002,21.165765808056182,-6.417696088093321,-0.3272099229334784,27.366388639583136,-0.0901677729303717,28.176204183129368,413.1890617384087,30.37811171897999,14.691146851788613,80.95261177627332,3.142638589089613,123.26426749616012,564.0900548520585,1.274,1.0224981043155532,0.0,13.304452879327856,120.00005142262596,0.0892916496048165,-6.815514131223057e-06,0.7992718031241458,0.0068421223873216,-0.0752807805799005,6.425997298277437,17.368314924212257,30.32671398386085,39.27882176910831
1.11,31.222176244435712,131.01047325130963,21.47010937736164,-5.88546375492396,-0.3238608707692856,17.308959035015953,-0.0738974222221632,28.65824278557873,324.1593910379213,30.813788432865767,14.782829791040664,81.40960746866409,3.334619569896249,123.4585484219572,580.3692455554143,1.274,1.0224548851875197,0.0,13.336321926406928,120.00005142262596,0.0905725633760595,-7.081895242151904e-06,0.8089477172001197,0.0063132756138294,-0.0772825958960458,5.894336290958254,16.980351230036142,30.76291675713927,33.479850705492204
1.12,31.22217557750756,131.01047459776024,21.781228444268816,-5.403892798184176,-0.3227173595756169,0.4470299486581539,-0.055986211423175,28.922691939377,172.7328179403806,31.0147538475658,14.833801003857536,81.87204695796095,3.548544799707683,123.67477387039064,587.9466188996627,1.274,1.0223979224661404,0.0,13.368070820023648,120.00005142262596,0.0911635914760137,-7.3487617060742675e-06,0.8180444633495689,0.005774986999162,-0.0786590001287127,5.4134919298299,16.730564399338327,30.964061791298224,28.926200567149674
1.13,31.222174910689496,131.0104759438636,22.09105815002816,-4.957384817445099,-0.3233280624407137,21.36185951439664,-0.0371155160863944,28.993070970830807,367.5328077894322,31.017629341516223,14.854014261147986,82.33957951225356,3.788644123804744,123.91717328953068,588.0381455585662,1.274,1.0223460397860296,0.0,13.400144020368984,120.00005142262596,0.0911723623542038,-7.615975670029116e-06,0.8264678046532611,0.0052318038126881,-0.0794739485797652,4.96789132957952,16.59359049751109,30.966841357791463,36.01289468779183
1.14,31.22217424339504,131.0104772907496,22.40008900520971,-4.443070445679774,-0.3195523255214723,7.063889904487944,-0.0196527279358052,29.375472768605302,239.6953177322812,31.420524185916094,14.926825215617097,82.81179514993934,4.060300100470632,124.19112881199004,603.3957634863319,1.274,1.0223022138470996,0.0,13.43170918381635,120.00005142262596,0.0923569423952923,-7.883359998886931e-06,0.8341524059527184,0.0046877267071676,-0.0812523986744954,4.454523982146198,16.265697160868275,31.370329284226077,30.212866914470624
1.15,31.22217356959869,131.01047864933395,22.717601713748905,-3.9787386694340463,-0.3186878678887517,6.478973581110044,-0.000847435433209,29.46358762697876,237.4125115347709,31.509208841167084,14.954706316643012,83.28823927736597,4.370468872362438,124.50359614443848,606.788242311419,1.274,1.0222426194541194,0.0,13.462831478561975,120.00005142262596,0.0926179523775263,-8.150215932268653e-06,0.8411688325452545,0.0041362082755307,-0.0821646073634226,3.991460892095352,16.107761068472396,31.459149726058296,30.16753379438771
1.16,31.222172897436327,131.0104800048127,23.031481502099403,-3.505877653637572,-0.3168639425041672,33.73086699213081,0.0177790720746161,29.57908178473224,490.043774385954,31.663885074125627,14.98863309723938,83.7684879464053,4.728295220011884,124.86371956766642,612.7417423143967,1.274,1.02219674531104,0.0,13.494440883759836,120.00005142262596,0.0930729363016347,-8.41648614391523e-06,0.8474295405352942,0.0035832865422702,-0.0831799814178452,3.5201499318308564,15.930146183566206,31.614112456139782,44.86305588526156
