Time,Latitude,Longitude,Altitude,Angle of Attack,Angle of Sideslip,X-Acceleration,Y-Acceleration,Z-Acceleration,Thrust,True Velocity,Ground Velocity,Pitch,Roll,Yaw,Dynamic Pressure,cp,cg,parachute_deploy_gain,Wind Speed,Wind Direction,Mach,omega_x,omega_y,omega_z,Cmq,Angle of Attack(total),Angle of Attack(gust),True Velocity(gust),Acceleration
0.0,31.222216000000007,131.010392,3.000000004412624,0.0,0.0,0.0,0.0,0.0,2.2828121974499247,0.0,0.0,69.99999999623412,0.0,119.9999999935444,0.0,1.274,1.0271675151847728,0,0.0,0.0,0.0,0.0,0.0,0.0,-0.0,0.0,90.0,0.0,0.0
0.01,31.22221599999084,131.01039200000497,3.000002745347096,0.0,0.0,0.0,0.0,0.0,34.242186961749226,3.465174813755316e-14,2.8705476994166025e-14,69.9999999962611,-2.1713911667908447e-11,119.99999999352175,7.352495975525499e-28,1.274,1.0271659134330349,0,0.0,0.0,1.0183245502395064e-16,-3.3305335486039093e-18,7.169286865560398e-18,5.624298769768554e-18,-7.715917190115602e-34,0.0,89.99999999999979,3.465174813755316e-14,0.0
0.02,31.222215999994315,131.0103920000094,3.0000030495639742,0.0,0.0,0.0,0.0,0.0,25.871876237766216,3.8197434737535036e-11,2.4171837235633357e-11,69.99999999628672,-1.1921727947863515e-11,119.99999999353136,8.93414285188691e-22,1.274,1.027164492361118,0,0.0,0.0,1.1225230367947217e-13,-6.657678965418802e-18,1.4338573731120796e-17,1.1241821275959074e-17,-1.7010872994127372e-30,0.0,89.99999999975682,3.8197434737535036e-11,0.0
0.03,31.222215999994315,131.0103920000094,3.0000030495639742,0.0,0.0,9.81877837424427,-2.5122800045972096e-05,3.3498614629347925,180.34219359854663,1.2659015405517447e-10,1.1364406173918436e-10,69.99999999631459,-1.6431898037347223e-11,119.99999999352724,9.812605835254651e-21,1.274,1.0271551940870716,0,0.0,0.0,3.720154642239108e-13,-9.991600645811728e-18,2.150108433310316e-17,1.6859343782149594e-17,-8.453698244545225e-30,0.0,89.99999999919412,1.2659015405517447e-10,10.374487003414373
0.04,31.222215999994315,131.0103920000094,3.0000030495639742,18.83801224594347,-0.0001111777826462,48.68248476615645,-1.016330065874988e-05,3.3497854396877287,548.635972453808,0.1556173050466994,0.0975908358443652,69.99999999633813,-2.0932768807056278e-11,119.99999999352085,0.0148286043323172,1.274,1.027133720825283,0,0.0,0.0,0.0004573186944143,-1.3322134194415637e-17,-1.04744143520903e-11,1.336824254131964e-11,5.0626055458604615e-15,18.83801224625964,89.06236267790787,0.1555998412814392,48.79759610369246
0.05,31.22221599164764,131.01039201704114,3.002326315126219,5.772385609593056,-4.395076213712875e-06,71.20344550265034,4.905512691849684e-05,3.349217396035405,761.6984298824663,0.8326471944351852,0.3620326097059287,70.00000001316391,-1.0866255162484559e-10,120.00000000231074,0.4245281043148827,1.274,1.027093426565204,0,0.0,0.0,0.0024469331205246,-5.0245994431125096e-18,-7.32924164976824e-07,2.217344936947165e-11,1.895424184525467e-09,5.772385609594774,84.74112356985832,0.8326465040582279,71.28217104309611
0.06,31.22221596664444,131.01039206837547,3.015081730143309,4.056581213689704,3.169093567502233e-05,53.16249142470188,0.0001203825427859,3.3481235983850643,590.4875390737236,1.657216205300742,0.6755452977614796,69.99999964391398,-3.9285905645317736e-10,120.0000000287861,1.6816755551786196,1.274,1.027050317124926,0,0.0,0.0,0.0048701272653724,3.095757869075056e-13,-7.483541766772344e-06,3.074135420506017e-11,3.8518749565858254e-08,4.056581213813337,79.59316473687034,1.657221183301277,53.26781792157489
0.07,31.22221592883117,131.0103921460222,3.034593611434361,4.115662018628709,6.450869598349036e-05,81.18203554989698,0.0001593212642178,3.347059402768047,855.2937749779172,2.099899704220947,0.8579771146174259,69.99999543281565,-8.233801910783518e-10,120.00000006883089,2.700101932075157,1.274,1.027003201295312,0,0.0,0.0,0.006171060252819,3.4704292086287e-12,-2.6327204536316785e-05,1.9541142932033486e-10,1.7170712165327165e-07,4.115662019133419,76.90111966094352,2.099909837223217,81.2510043180746
0.08,31.22221588914193,131.01039222747755,3.0542761843835606,3.459696193892355,8.037433511260004e-05,16.298214211652088,0.0002413456836072,3.344878926597744,241.2171988638792,3.051964775152957,1.2149999716613011,69.99998042886442,-1.0128995578004475e-09,120.00000011111383,5.703497661025892,1.274,1.0269597189470347,0,0.0,0.0,0.0089689344021769,1.458982438104473e-11,-5.702803872814215e-05,7.043261397829576e-10,5.405702492731987e-07,3.459696194824858,71.30331929508368,3.051977400323993,16.63790856991177
0.09,31.2222158241468,131.01039236098703,3.0886872184095737,4.313676956300389,0.0001337561018991,50.35975918308536,0.0002293282821279,3.344215841840564,563.0937377043203,2.893161298572128,1.191209213966114,69.99994788602814,-7.098432023887522e-10,120.00000018106356,5.125380275808925,1.274,1.026918932011013,0,0.0,0.0,0.0085022553945842,3.8672912027154325e-11,-0.0001115933708951,2.016054215232918e-09,1.0027525988343615e-06,4.313676958370176,72.2316578138625,2.893182308931483,50.47067588835877
0.1,31.2222157788302,131.01039245392113,3.109877853389092,4.035124630954496,0.0001457499816535,47.804664812504015,0.0002878217657545,3.341734392237128,538.7437595981891,3.5677148583138303,1.4531247507621967,69.99988403958329,1.9248461973355822e-09,120.0000002323013,7.7939962029572305,1.274,1.0268846934974103,0,0.0,0.0,0.0104845969583028,8.579678749070606e-11,-0.0001726817043215,3.984565639703107e-09,1.913455350430327e-06,4.0351246335824245,68.43243098813296,3.567737752667411,47.92132267234452
0.11,31.222215703308,131.01039260899836,3.148841432727305,4.043401107254707,0.0001752764476999,37.67622367577205,0.0003286462930162,3.3392563999062723,442.86563930529127,4.034183355956686,1.6436552022667772,69.99978525353545,7.302513231814865e-09,120.00000031883242,9.96528118825134,1.274,1.026848594915519,0,0.0,0.0,0.0118554331868328,1.5870341853361987e-10,-0.0002596204409236,7.232030302688121e-09,3.252930323390323e-06,4.04340111104746,65.92012987243639,4.034210888316708,37.82391391539392
0.12,31.222215627491828,131.01039276462643,3.186995101203875,4.17874459224363,0.0002066711490009,41.15991989399172,0.0003576945202315,3.336766085769504,475.58594813540793,4.361857560629481,1.7865750500940407,69.99963665601238,1.781774420198147e-08,120.00000041104812,11.649831899889556,1.274,1.0268114448194128,0,0.0,0.0,0.0128183893919737,2.682972478760441e-10,-0.0003710216542429,1.2215991071490164e-08,5.026311388647148e-06,4.178744597345269,64.21681651392016,4.361890024457652,41.29495143136631
0.13,31.22221554594398,131.01039293200228,3.2277173449026786,4.202734874672792,0.0002327160860324,45.44886120763352,0.0003953741266062,3.333578629398489,515.9156326236897,4.792165672014363,1.9646716520715424,69.99942424225341,3.613383418913551e-08,120.00000051758742,14.061726603124043,1.274,1.026779572895131,0,0.0,0.0,0.0140829618979635,4.248908088871395e-10,-0.0005056103199642,1.908859219307828e-08,7.5253154423526356e-06,4.202734881104192,62.048594618540655,4.792202226971676,45.570952718869485
0.14,31.222215454191247,131.01039312033683,3.2737880595608355,4.184830647080848,0.000257138757548,42.32232525579263,0.0004369426767266,3.329727443445437,486.2390860568421,5.269261304374574,2.158791628597544,69.99913473613935,6.515851355725497e-08,120.00000064630268,17.000925061330125,1.274,1.0267449573927567,0,0.0,0.0,0.0154850332441425,6.382432869666793e-10,-0.0006690086306358,2.8426433029675884e-08,1.0948547100483978e-05,4.184830654966803,59.74181173116622,5.269301695636157,42.45310707234106
0.15,31.222215353826755,131.0103933263496,3.3242182719560263,4.21963947489699,0.0002846467688673,40.886944113003565,0.0004726792395108,3.325585650885676,472.5421858721398,5.6781946837482895,2.329510773545807,69.99875162806286,1.0876776246115984e-07,120.00000079954532,19.742017654108928,1.274,1.0267115958081523,0,0.0,0.0,0.0166867950518804,9.204756288136623e-10,-0.000865746478554,4.08948221429571e-08,1.526771148078443e-05,4.219639484480408,57.84996018384879,5.678239395958187,41.02196629910223
0.16,31.222215247130432,131.01039354534575,3.3775922280208457,4.253495568077899,0.0003118339050386,32.26872905470846,0.0005078415214353,3.32090791922544,391.1218908297597,6.081244877834229,2.4981889727471702,69.99825581174558,1.7187028096464329e-07,120.0000009800088,22.644030778355887,1.274,1.026675762255412,0,0.0,0.0,0.0178712695992133,1.2856146928958252e-09,-0.0010961187242953,5.6923362293832417e-08,2.0702404729358337e-05,4.253495579487569,56.06022383757386,6.081293860589489,32.43916312841722
0.17,31.22221513260033,131.01039378041813,3.4348437275053194,4.364838523348639,0.0003448792023946,40.840448242802736,0.0005326487904353,3.3162727284953744,471.78125980632416,6.362544479165355,2.6250789114832647,69.99762801982864,2.5997588617291615e-07,120.00000119506798,24.78723182122683,1.274,1.0266409836796937,0,0.0,0.0,0.0186979513961862,1.747791994374917e-09,-0.0013624931601664,7.706724512977917e-08,2.6923621797558364e-05,4.364838536947241,54.85936171416122,6.362598652663785,40.97486885600156
0.18,31.222215014088988,131.01039402363364,3.4935801365785646,4.353948305387995,0.0003681615230806,33.992183768165326,0.0005718025428208,3.310131992647221,407.1015672119096,6.81502088160835,2.810667639293692,69.99684761766231,3.794979223522764e-07,120.00000144728236,28.437950785509614,1.274,1.0266048342046536,0,0.0,0.0,0.020027681385988,2.3221419748804155e-09,-0.0016616990447559,1.0147209890543081e-07,3.517105786247627e-05,4.353948320923495,52.99157233768714,6.815078712285162,34.152972512863755
0.19,31.22221488419521,131.01039429023237,3.558399965607869,4.432620772533925,0.0003996774584738,38.45149959021069,0.0005986099513107,3.304145139297767,448.95313283182486,7.1223367465208405,2.946425726785696,69.99589577323147,5.440084577183829e-07,120.00000176148238,31.060341085698347,1.274,1.026566130444714,0,0.0,0.0,0.0209308229359413,3.022391489754689e-09,-0.0020041563310821,1.3135864879722746e-07,4.433199397898183e-05,4.432620790516937,51.77883352025967,7.122399527709208,38.59320142454953
0.2,31.222214751373183,131.01039456280608,3.624052454705669,4.443889400961181,0.0004246617145652,35.23432408779927,0.0006337972852267,3.2968110145188256,418.5156301991588,7.530482904611057,3.1167566004785483,69.99474776398331,7.478025600151903e-07,120.00000211715036,34.72195181863731,1.274,1.026529240027363,0,0.0,0.0,0.0221302820454282,3.866698391504749e-09,-0.0023849544920781,1.668144671071589e-07,5.57780533277244e-05,4.443889421210987,50.22448880200342,7.530549610317194,35.38822625098952
0.21,31.222214608673173,131.01039485566503,3.6948551453492566,4.493351735844891,0.0004538195602194,33.79371564104691,0.0006629296043866,3.2891790438445727,404.8187610144608,7.868284042829251,3.2629204975089228,69.99338155599101,1.0150082652278477e-06,120.00000255293388,37.906665490338085,1.274,1.0264923657015164,0,0.0,0.0,0.0231230169900677,4.871073773182836e-09,-0.0028117605859743,2.089322918608601e-07,6.870935089180403e-05,4.493351758715364,48.992529909481824,7.868355328639073,33.95340801819282
0.22,31.22221446109996,131.01039515850383,3.767700382407304,4.5412639153933885,0.000482649303782,41.008966751568416,0.0006914639179131,3.2808061382386606,472.5421858721387,8.20057841132235,3.4071691679735228,69.9917708347139,1.3454961520984431e-06,120.00000305929996,41.175744234065135,1.274,1.0264494137127138,0,0.0,0.0,0.0240995709751246,6.054779813287368e-09,-0.0032829112061357,2.580881224843564e-07,8.3609968899004e-05,4.54126394098788,47.82515604752711,8.2006542256977,41.13999323561041
0.23,31.22221430675399,131.0103954752338,3.843768625625224,4.52371495179584,0.0005047555656171,33.98493478127787,0.0007294889663961,3.2705214710765107,406.340642146096,8.647938096586296,3.5908865300848416,69.98989017772566,1.7539876018835507e-06,120.00000365514876,45.79040229326471,1.274,1.0264133390858623,0,0.0,0.0,0.0254142776666487,7.436335125872812e-09,-0.0038001790077148,3.1489825108822685e-07,0.0001020628978177,4.523714979897577,46.31461705147579,8.648017383405135,34.14194053232237
0.24,31.222214142622448,131.0103958120587,3.92493179063287,4.57837522350066,0.0005351929930195,35.051650311058864,0.0007555049947555,3.26053011385611,416.2328240017099,8.954297884844461,3.72617527247482,69.98771316795013,2.25257161141768e-06,120.0000043564586,49.09180568115741,1.274,1.0263750048312463,0,0.0,0.0,0.0263146218848643,9.034877387788232e-09,-0.0043732521010013,3.809642748985157e-07,0.00012161410144,4.578375254714954,45.32798984252032,8.954381952763216,35.20297212911011
0.25,31.22221397517227,131.0103961556623,4.0071748888306855,4.6034117733065,0.0005618935542827,36.03738579534623,0.000785606492708,3.249069743648399,425.3640807915084,9.311611941121669,3.8789349536029696,69.98520781816889,2.8559738498748624e-06,120.00000517181904,53.08749562138344,1.274,1.0263373768840591,0,0.0,0.0,0.0273647110956883,1.0873791100894836e-08,-0.0049950711786164,4.5609738277273444e-07,0.0001444478241125,4.603411807525074,44.2165428352526,9.311700203154778,36.183554686886296
0.26,31.22221379934012,131.01039651647062,4.09364247475714,4.621386912291471,0.0005881033207375,39.29107511182762,0.0008162761165496,3.236407051295005,455.80158342417656,9.67833954512075,4.034902068846398,69.98234620927953,3.5784678110229355e-06,120.00000612171208,57.350948423913096,1.274,1.0263006300381676,0,0.0,0.0,0.0284424679130479,1.2973286442992724e-08,-0.0056712051373577,5.414206381221602e-07,0.0001704578711045,4.621386949630312,43.12063533194282,9.678431924174348,39.42414126789902
0.27,31.222213616776543,131.01039689108487,4.183310605341074,4.617158109135719,0.0006115457810536,35.90419462403674,0.0008503454714941,3.221982799915672,423.8421996598744,10.088790784535757,4.205862468567124,69.97909721779352,4.436165972465058e-06,120.000007221354,62.31798301949865,1.274,1.026260090595354,0,0.0,0.0,0.0296487219805601,1.5355910600537293e-08,-0.0064045199323113,6.379142666348734e-07,0.0002006609239367,4.617158149547818,41.94410287616451,10.08888684592241,36.048472443180565
0.28,31.22221342607797,131.0103972823952,4.277051150896916,4.642105655370123,0.0006389739579882,41.51133203546672,0.0008785747638736,3.2071101123224945,476.3468732012228,10.432377224420517,4.35383399240675,69.97542808435722,5.446665372087172e-06,120.00000849080963,66.63429581008447,1.274,1.0262212716723291,0,0.0,0.0,0.0306584788590473,1.8045308789081613e-08,-0.0072006835403936,7.469524967369969e-07,0.0002332868227611,4.642105699250441,41.0023231023774,10.432477594215127,41.63503624837164
0.29,31.22221323001776,131.01039768469093,4.373143569786686,4.62134615173668,0.0006600657405645,33.17552944492765,0.0009148746278066,3.1894209319791806,397.9703104221098,10.876662296046485,4.536381530986506,69.9713027936179,6.629751536885327e-06,120.00000994797426,72.43000748232016,1.274,1.026183007522519,0,0.0,0.0,0.0319641703260467,2.1067646517035105e-08,-0.0080566154554079,8.688043379161898e-07,0.000272130659453,4.621346198772975,39.83162628795024,10.876765978930557,33.32848872465723
0.3,31.22221302403368,131.01039810736614,4.4744193758467325,4.664362353358112,0.0006905183788532,31.08096762732793,0.0009381960428197,3.172549142946348,378.1859457108735,11.168362145070317,4.66647911311536,69.96668711012893,8.005507138509574e-06,120.00001161892672,76.36634300732833,1.274,1.0261430389738484,0,0.0,0.0,0.0328214509167604,2.4447409007156216e-08,-0.0089829108229115,1.0056222251461646e-06,0.0003115527202986,4.664362404357781,39.09908960432563,11.168470611443622,31.242464973103964
0.31,31.22221281503337,131.01039853619727,4.576593712520673,4.700143580504286,0.0007196683316923,32.79732593144512,0.0009620705970519,3.154230688182399,394.1656220930229,11.470279728974068,4.800072153432283,69.96154070456518,9.597499105113692e-06,120.00001352112182,80.55022837857167,1.274,1.0261054058068628,0,0.0,0.0,0.0337087616009043,2.8214060606649844e-08,-0.0099686353219717,1.1565909895184251e-06,0.0003550834484269,4.700143635477137,38.36463422765983,11.47039277421126,32.94865339301887
0.32,31.222212598991007,131.01039897947376,4.68216432480395,4.718667719113184,0.0007464384342556,35.7316568886908,0.0009885845337584,3.133859770838664,421.5593934624264,11.808280530415894,4.946054328851105,69.95582953472353,1.14278227255889e-05,120.00001568218067,85.36654007972253,1.274,1.026068246703101,0,0.0,0.0,0.0347021168382987,3.2392058795580455e-08,-0.0110163301561155,1.3226102501723267e-06,0.0004039614423012,4.718667778018562,37.5686120062341,11.808397780690962,35.8688218659563
0.33,31.222212376029034,131.0103994369436,4.791055524254013,4.72141404831576,0.0007708346814671,35.42013590291081,0.0010176135371143,3.1111955852784385,418.5156301991632,12.181577273013426,5.104163223586657,69.94951809396906,1.351997394754887e-05,120.00001812674968,90.84831229869296,1.274,1.0260310883392356,0,0.0,0.0,0.0357992034445943,3.700677535501642e-08,-0.0121310534481307,1.5051409581878843e-06,0.0004588955105349,4.721414111097893,36.7208578211118,12.181698355442045,35.55651229220977
0.34,31.222212145785647,131.0103999093516,4.903491659547144,4.73024573449122,0.0007962944975467,27.63851074646407,0.0010446307681611,3.0871492806781062,345.4656368807584,12.53557620048282,5.2556261014174765,69.94256797855994,1.5899658158227497e-05,120.000020882338,96.20413272674828,1.274,1.0259901535019136,0,0.0,0.0,0.0368395817555172,4.208561016221623e-08,-0.0133180771902383,1.7057647550599631e-06,0.0005184333231541,4.730245801363397,35.94841996438923,12.535701282129995,27.810389570354005
0.35,31.222211909310875,131.01040039453565,5.018822212845608,4.780248518778662,0.0008286678570753,30.332092807652543,0.0010618579815451,3.063967690608957,370.5765700527057,12.774786382148209,5.367579971644358,69.93493776125636,1.8594985713558667e-05,120.00002397748868,99.9096898192772,1.274,1.025950003202184,0,0.0,0.0,0.0375426220587071,4.7658312175989686e-08,-0.0145774693288123,1.9252724355785177e-06,0.0005782798420984,4.780248590437683,35.44790728185619,12.774916548990808,30.486451961956565
0.36,31.22221166933814,131.0104008868675,5.135354490370708,4.798132156899578,0.0008554457330409,34.32674769697476,0.0010851169437774,3.0374319611165923,407.8625232777224,13.09301701329486,5.506730645516068,69.92658597246795,2.163521613217148e-05,120.0000274401514,104.94818266210537,1.274,1.0259105142325406,0,0.0,0.0,0.0384778908056978,5.3755109608570216e-08,-0.0158991451700967,2.162609490834569e-06,0.0006464142451675,4.798132232978766,34.796094028187134,13.09315138639638,34.46087058603792
0.37,31.222211421355144,131.01040139563804,5.255882891363927,4.797392186816851,0.0008791822061288,32.551601855236584,0.00111162791192,3.0078619428913056,391.1218908297639,13.457513730739372,5.661815946371007,69.91747693543164,2.5047738471809164e-05,120.0000313040604,110.87154396328836,1.274,1.025872170958032,0,0.0,0.0,0.0395491312153729,6.040098808671168e-08,-0.0172926678053148,2.420031948898497e-06,0.0007226353721561,4.797392267189059,34.07332166419882,13.457651832357364,32.69027405888565
0.38,31.22221116634284,131.01040191882743,5.379799334000849,4.811698494594017,0.0009057112478668,34.02947987649063,0.0011338447913587,2.9774881690446744,404.81876101445977,13.77554886562956,5.800899861213392,69.90756948297444,2.886339581486796e-05,120.00003560072224,116.17243393848278,1.274,1.02583050512925,0,0.0,0.0,0.0404838339452728,6.762496638941508e-08,-0.0187646375218858,2.69955777313946e-06,0.0008026686661094,4.8116985796350695,33.46655348088405,13.775691134419684,34.15949264475229
0.39,31.222210906095896,131.01040245274032,5.505993307722699,4.813508003664984,0.000929862892873,29.00025983045028,0.0011579891265804,2.9442136901860865,357.6406249338268,14.124492165837273,5.950648592462506,69.8968186645841,3.311602501056718e-05,120.00004036395212,122.13093644173792,1.274,1.02579027384009,0,0.0,0.0,0.0415093739609825,7.545934774906889e-08,-0.020311592409804,3.0013532510753577e-06,0.0008908380763632,4.813508093268025,32.821616487639595,14.124638228358922,29.149330452482886
0.4,31.222210638473225,131.0104030017851,5.635788650457906,4.841647069358873,0.0009592124397379,27.71178845184976,0.0011749448424961,2.91135549588368,345.4656368807565,14.390874239274588,6.07193451174791,69.8851815212744,3.783947407715338e-05,120.00004563180136,126.77947425345651,1.274,1.0257493418632293,0,0.0,0.0,0.0422922854866381,8.39343718693383e-08,-0.021938519432511,3.3271332720311508e-06,0.0009803271643914,4.841647164150728,32.348088166612904,14.391024912012275,27.864299944624147
0.41,31.22221036681104,131.01040355909262,5.767123077463226,4.86553909860892,0.0009876699832274,31.306062598221665,0.0011918093836199,2.876450850006428,378.9468707766882,14.663028799871563,6.195223154320929,69.87261222561014,4.307011032901644e-05,120.0000514391194,131.6183642808765,1.274,1.025708445186429,0,0.0,0.0,0.0430921644173401,9.308325447883581e-08,-0.0236371933433427,3.6760977501392174e-06,0.0010761942383903,4.865539198612839,31.87689439156756,14.663183942709727,31.437931330109585
0.42,31.22221008906472,131.01040412887247,5.901259531771367,4.867510642114694,0.0010118258958528,35.308283402190774,0.0012128114559048,2.8374461227958245,416.23282400171047,14.9952917972178,6.33928625560071,69.85906967380902,4.884273094936628e-05,120.00005782486392,137.64909586091787,1.274,1.0256701057426505,0,0.0,0.0,0.0440686959134695,1.0293499639582845e-07,-0.0254093547296826,4.049238334851429e-06,0.0011830797791891,4.867510747027452,31.315270489291198,14.995450734457847,35.422111438762386
0.43,31.222209804115888,131.01040471342728,6.038886819939341,4.854590670645608,0.0010330089741511,31.00586934514032,0.0012363751872706,2.794478603999558,375.90313951343126,15.369430568701889,6.497852263156962,69.8445117629242,5.519340856908871e-05,120.00006482835984,144.60167924299955,1.274,1.0256308158337524,0,0.0,0.0,0.0451682983415116,1.135186446762958e-07,-0.0272634397889413,4.449073329427772e-06,0.0013010625065656,4.854590780289497,30.70250814963406,15.369592833372094,31.13154422839874
0.44,31.22220951192321,131.01040531284193,6.180028459770617,4.866912332640401,0.0010595850174406,28.57707721036899,0.0012525768202179,2.752165534925872,353.07501253892326,15.659290812546615,6.627318538707029,69.82889155423543,6.216182865383864e-05,120.00007249162944,150.1053167542629,1.274,1.025586171750536,0,0.0,0.0,0.0460202245100907,1.2486676023179565e-07,-0.0292060158163984,4.8779154055816594e-06,0.001420032405556,4.866912447705031,30.24619499837236,15.659457251771938,28.709297424144207
0.45,31.222209215425703,131.01040592106523,6.322872201489905,4.881836476567178,0.0010866574689855,33.31904824532484,0.0012669045761511,2.7082028218433374,397.2093853562887,15.934249290371609,6.751662050993672,69.81215834018458,6.97909417564726e-05,120.00008085697964,155.42080512416243,1.274,1.0255397023523487,0,0.0,0.0,0.0468283602442113,1.3701614206272197e-07,-0.0312276295846745,5.334643585560923e-06,0.0015449645531859,4.8818365972149325,29.82567893138932,15.934419982127675,33.428929688274074
0.46,31.22220891307435,131.0104065412864,6.468371919199588,4.869610441729251,0.0011078049156487,38.95909776354321,0.0012868374716666,2.6582856015412624,449.7140588976424,16.292139278621757,6.904766425053949,69.79426683863348,7.812149592850748e-05,120.00008996920153,162.4785746623087,1.274,1.02549635315424,0,0.0,0.0,0.0478802236363867,1.499987870203256e-07,-0.0333272350234362,5.819761874615242e-06,0.0016858511402973,4.869610567434908,29.29014635640275,16.292313292210977,39.04968351401366
0.47,31.22220860266524,131.01040717804253,6.6178810515614845,4.838450928223533,0.0011247917292402,26.253747818137555,0.0013104398935566,2.6026193242279367,331.0078106302504,16.710658191447514,7.078951441335346,69.77517236812905,8.719457259907165e-05,120.0000998741591,170.9309671061642,1.274,1.025453319323251,0,0.0,0.0,0.0491102725711187,1.6384464803343264e-07,-0.0355167087264168,6.3368207228363735e-06,0.0018427306558807,4.838451058652396,28.68386015667837,16.710834873319172,26.382435512333956
0.48,31.222208284201663,131.0104078313267,6.771393590864176,4.869339340099417,0.0011561785713505,25.860860976019296,0.0013165328518772,2.5543454292827983,327.20312230115803,16.911139899671,7.177575416403102,69.75482343794755,9.70562828082882e-05,120.00011062072316,175.0543877818846,1.274,1.0254092882449153,0,0.0,0.0,0.0496995461609974,1.7858865391586845e-07,-0.0378054080201581,6.88909442277235e-06,0.0019849793891693,4.869339477030596,28.40887970825325,16.911321511776286,25.986704537635287
0.49,31.22220796480208,131.01040848648364,6.924537656029012,4.881367714530694,0.0011829003785372,32.565703383222065,0.0013261973190012,2.5011623511055703,389.6000096981238,17.169005224738054,7.296160258358563,69.73316318155707,0.0001077573203115,120.000122255028,180.4309832312717,1.274,1.025367445590036,0,0.0,0.0,0.05045746454003,1.942747077649401e-07,-0.0401641298712614,7.47069711110948e-06,0.002140948887153,4.881367857509675,28.058569663954906,17.169191034294997,32.66161128464712
0.5,31.222207637929923,131.01040915697027,7.081324512896956,4.862566137860805,0.001202418260511,33.47759680712428,0.0013425340759632,2.4399894027711366,397.970310422106,17.52898693231981,7.450304424940405,69.71015149227495,0.0001193385310595,120.0001348274002,188.0736471953394,1.274,1.0253278572281015,0,0.0,0.0,0.0515154948878309,2.109295159784217e-07,-0.0426011733481599,8.084173008518589e-06,0.0023184335011768,4.862566286171007,27.57768313050809,17.529175807738486,33.56639745442473
0.51,31.22220730314019,131.01040984370235,7.24202048914867,4.8479762258125,0.001223054804074,25.49162310288008,0.0013562860883156,2.3767006597692686,323.39843497208153,17.86914397471067,7.597652147346554,69.68574349602717,0.0001318441288964,120.00014838524436,195.4407439266201,1.274,1.025286455263166,0,0.0,0.0,0.0525152689856776,2.2858192086249162e-07,-0.0451315948093539,8.734206149830708e-06,0.002503767471626,4.847976379721193,27.13799345359824,17.86933609171003,25.602178740977283
0.52,31.222206962738102,131.01041054193402,7.405210501673173,4.865306299521403,0.0012516517170965,30.733671928447727,0.0013599291289974,2.317711624364424,372.098451184342,18.08534843773428,7.701914987606457,69.65988568649581,0.0001453248538387,120.00016298000436,200.19561780583155,1.274,1.0252426840672306,0,0.0,0.0,0.0531507657929359,2.4726951523704535e-07,-0.0477531686556663,9.421346966092632e-06,0.0026812161964639,4.865306460134566,26.8699055233151,18.085545046726228,30.820940596104087
0.53,31.222206619320115,131.01041124632013,7.569307468221277,4.848802699234936,0.0012715119568563,32.301199055744725,0.0013711327835325,2.2490252325653923,386.55624643486095,18.41963113311156,7.8474319110539055,69.6325258319474,0.0001598315062727,120.0001786629144,207.6614205945027,1.274,1.0251993415311351,0,0.0,0.0,0.0541332845214831,2.67031759303889e-07,-0.0504479325599339,1.0141887756417996e-05,0.0028848299490111,4.848802865552398,26.45837260670532,18.419830861742675,32.37940050117613
0.54,31.22220626697288,131.01041196903336,7.737918664599091,4.831496690588052,0.0012913635058467,28.31291960103712,0.0013809098107221,2.177242866245296,349.2703242098436,18.75116898748492,7.992112829440902,69.60362200959217,0.0001754082864028,120.00019548734956,215.20067397992847,1.274,1.0251561018460285,0,0.0,0.0,0.0551077428911958,2.878941684235108e-07,-0.0532336286085667,1.090122304443916e-05,0.003098869611663,4.831496862756785,26.061835558272342,18.751371834390056,28.396510432451375
0.55,31.222205908994248,131.01041270328463,7.909026079894722,9.733191319765169,9.297818225662493,30.185670857136675,-0.5263022773373187,1.815646682234368,365.2500005919912,20.15488583947672,8.113323699629928,69.57312211246325,0.0001921068626005,120.00021350480982,248.62252994758688,1.274,1.025112921033824,0,3.7596053489187766,0.0,0.0592332356177263,3.0989272306468813e-07,-0.0561100530405476,1.1700476995263424e-05,0.0035107731766435,13.429437566264813,34.42032336603195,21.608982020748854,30.244806034379348
0.56,31.222205546564343,131.01041344664463,8.081909946161325,4.801191905292232,11.02605744438579,28.13080246079157,-0.7158485123586347,1.962878570655808,346.22656194657776,19.690197921926007,8.247294810559758,69.54097415464405,0.0002099796112633,120.00023276987916,237.28634675780657,1.274,1.0250709539098009,0,3.773321678167647,30.000012855656493,0.0578676761956107,3.3302698971832e-07,-0.0625881051614596,0.0063968696062511,0.0038257485776774,12.014157907884732,35.50032444230982,21.41149659471312,28.2082856349666
0.57,31.222205178420328,131.01041420495483,8.258296221886255,4.795976857986633,10.89388814385882,27.81997509553505,-0.8667568148905321,1.885383101529836,343.1828296833045,19.95842906004132,8.372781666580646,69.50511423405666,0.0100165048196521,120.01070091644786,243.791152636643,1.274,1.0250279191823897,0,3.786930847216913,30.000012855656493,0.0586560994928705,3.623271136080861e-07,-0.065623628637177,0.0135846301450537,0.0040658727307698,11.8911824189024,35.092714841435495,21.65934530965574,27.897257053909147
0.58,31.22220480538729,131.01041497357463,8.436536574213646,4.783054854621874,10.758835999007502,36.754648705054606,-1.0232209709603524,1.804680594702828,426.12500585731766,20.232140164692343,8.499005314618074,69.46751265499176,0.030783506049169,120.0328741090504,250.51944937656071,1.274,1.024981594484354,0,3.800559440921576,30.0000128556565,0.0594606323521273,3.967275572486677e-07,-0.0687415286050969,0.0208826232079036,0.0043173848395732,11.762674753312028,34.68192551457709,21.912220066214957,36.813150566560886
0.59,31.222204427069727,131.01041575441187,8.61746474774494,4.73603978688626,10.553483095908463,29.73301005846485,-1.1929508163493947,1.709382216424017,360.68438819710633,20.638658744707342,8.672922216793129,69.42811769272177,0.0626109701381835,120.06686514592585,260.6832901126549,1.274,1.0249386802161349,0,3.814091843716509,30.000012855656493,0.0606554815572832,4.363116921587984e-07,-0.0719395289930252,0.0282909223790386,0.004608942255575,11.556458178484048,34.075001775458574,22.28703818616496,29.80598943750781
0.6,31.222204039591016,131.01041655535877,8.803269886876638,4.72272112944923,10.42499975134938,26.394114734923257,-1.361175391184683,1.623013170736414,329.4859594986072,20.898310614845418,8.794376707920822,69.38687641994048,0.1055920071890732,120.11278001092532,267.2790165543748,1.274,1.024891335813742,0,3.8275900688193287,30.000012855656493,0.0614187078118477,4.811557618365116e-07,-0.0752388741933391,0.0358560032331015,0.0048808777120071,11.43406864104956,33.69883087445264,22.52684520504109,26.478977752893776
0.61,31.22220365020493,131.01041736150017,8.989589545126707,4.7106723366039,10.302673469339748,30.99683582327236,-1.5333711066180635,1.535078221814685,372.0984511843332,21.14332723434248,8.910702894131827,69.34372103529076,0.1598829794478398,120.17079281807813,273.57814330128974,1.274,1.0248423929069768,0,3.8412098130845926,30.000012855656493,0.0621389255345462,5.31382677072314e-07,-0.0786147295137608,0.0435196498987388,0.0051595751729209,11.3179381661126,33.34763030475987,22.752960348780167,31.072681299697994
0.62,31.22220325535845,131.01041818010998,9.178555608059163,4.677206048056836,10.137568572980836,38.62993877255409,-1.7171832622403596,1.436106380272784,442.86563930529206,21.47242164415804,9.057421132798288,69.29859530366427,0.2255437017618633,120.24097514219253,282.15575181947224,1.274,1.0247996097896497,0,3.8546297870036175,30.000012855656493,0.0631062480922591,5.87067761458848e-07,-0.08206375268081,0.0512733023278516,0.0054696710407655,11.154267837031288,32.87976052444808,23.056531646201755,38.69474498511208
0.63,31.22220285312348,131.01041901511405,9.371305860401543,4.622226593180505,9.930967589610724,21.76690537765169,-1.915798749287856,1.3242695994723126,286.11251274707456,21.891391025708703,9.236710596017726,69.25144215216439,0.3026132519493294,120.32337697118273,293.26857801613613,1.274,1.024756158874558,0,3.8679990163942826,30.000012855656493,0.0643377156070429,6.482742562512825e-07,-0.0855989906388442,0.0591440324668028,0.0058165139232181,10.944159196046328,32.2967941421283,23.44354464571882,21.891143061510093
0.64,31.222202442604267,131.01041986829836,9.568350447778016,4.628299158366665,9.855023240730969,21.37294532650644,-2.0948898465077583,1.2377389797293674,282.3078244179702,22.02464909651165,9.313194351933356,69.20219411123374,0.3911634594412992,120.41808391894712,296.8442185707897,1.274,1.024708534665538,0,3.881403651826852,30.000012855656493,0.0647294983749666,7.150834270384361e-07,-0.0892346547366618,0.0671610854515497,0.0061003548503112,10.877999788184065,32.107617311997245,23.56505079177401,21.51100539679111
0.65,31.22220203396332,131.01042071897416,9.763662658281278,4.615095915023052,9.741162932081584,38.029185822521086,-2.2840926479868937,1.141203118442198,436.7781447787504,22.234907255181334,9.417588248036632,69.150772427615,0.4913011632114939,120.52521971514176,302.53324016495907,1.274,1.0246641738210605,0,3.894872849244624,30.000012855656493,0.0653475820642517,7.876255184455745e-07,-0.0929206566877769,0.0752137978630854,0.0064128635645455,10.76957112300738,31.81392428318763,23.757684698288813,38.114805497417514
0.66,31.222201618069068,131.01042158566344,9.962633562361896,4.547263389651282,9.517236564045632,32.30250878861719,-2.505418770814736,1.014243461443344,383.5125151715984,22.692591999535985,9.611769184070075,69.09712456517835,0.6029581397540054,120.64472149040098,315.1101309147563,1.274,1.0246195561629028,0,3.9079974783615614,30.000012855656493,0.0666928505504064,8.659249606970983e-07,-0.0966686216487298,0.0833266793114669,0.0068087241743493,10.538728104076853,31.201249382342723,24.180690766259776,32.415395833691775
0.67,31.22220119074896,131.0104224766816,10.167659780837832,4.512861724354408,9.36496836834884,22.145473579691945,-2.7158314215987773,0.9013765822839556,289.15624401033847,22.984129684232247,9.74603211520752,69.04118838811628,0.726094877538272,120.77655768090295,323.2523814665509,1.274,1.024572383541697,0,3.921145692330684,30.000012855656493,0.0675498273455822,9.500065366868608e-07,-0.1005198227113894,0.0915857678444837,0.0071707954965371,10.386856663956255,30.809986442989544,24.44863420427572,22.329581727441003
0.68,31.222200762011337,131.01042337182452,10.372876681648048,4.500945502038097,9.260831537476642,27.73853909955087,-2.915703640573391,0.79980322793623,340.89999248584934,23.15406076341728,9.836308611908253,68.98287448732574,0.8607907808991696,120.92082471734244,328.0434610962087,1.274,1.0245245285832842,0,3.9344647277257216,30.000012855656493,0.0680494084147022,1.0399953352239715e-06,-0.1044436231840858,0.099924133444001,0.007505646381631,10.288086006720016,30.57103030680359,24.602423117355787,27.902823590102535
0.69,31.222200330377326,131.01042427408342,10.579156960752735,4.460100890680264,9.10017856329046,34.23410455100694,-3.1364587579382963,0.6797245343352193,401.0140726853658,23.45651487171619,9.9750250734336,68.92210834409367,1.0070156664632364,121.07750245343668,336.66302170214004,1.274,1.024479631064582,0,3.9475685137452654,30.000012855656493,0.068938476555691,1.1359666004536105e-06,-0.1084167835905123,0.1082921811579956,0.0078927873773449,10.126111237158003,30.17016476179932,24.879965172629905,34.384201508717624
0.7,31.222199890077743,131.01042519486722,10.789791122314067,4.404157036133729,8.911854849803474,28.662301631960418,-3.372883420227857,0.5472878126620164,349.270324209851,23.82746142034596,10.139045968938047,68.85882630997453,1.164657003437947,121.2464831941156,347.38831909471924,1.274,1.0244351749185203,0,3.9605351989710846,30.000012855656493,0.0700288513810861,1.2379310912742088e-06,-0.1124603840044906,0.1167323737475131,0.0083164685927973,9.932825416245064,29.69286999158703,25.221694602074745,28.86526288392013
0.71,31.22219944262418,131.0104261310351,11.00386119701579,4.368281209804088,8.76590828404424,23.49958190824593,-3.598532818828749,0.4257060303419238,301.3312640634036,24.08424872846677,10.261648021632968,68.79294937740026,1.3336557988181508,121.4277172863824,354.9089414917949,1.274,1.0243880468141104,0,3.97357033938376,30.000012855656493,0.0707837196042178,1.345935988105989e-06,-0.1165841411887404,0.1252629128705083,0.0087141547601442,9.786411716929614,29.352621068358392,25.4558289357435,23.777321420522046
0.72,31.22219899225104,131.01042707420376,11.21894989742683,4.339231754389099,8.63518012168443,28.849489061986063,-3.8202401081850654,0.3079056149388622,350.7922053414578,24.29225697038288,10.366612569731847,68.72438974017518,1.513969658751446,121.62117363543504,361.0584360355685,1.274,1.024337302174265,0,3.9865771678347417,30.000012855656493,0.0713952300444953,1.460066809281326e-06,-0.1207654189412615,0.1338360541803416,0.0091044596560223,9.656730082937951,29.067774196220608,25.643538754788864,29.102956198461182
0.73,31.22219853748153,131.0104280272425,11.435883664639356,4.28871287167363,8.464310382799017,36.58123327134712,-4.062814007667562,0.1730312717391766,422.3203185282354,24.60489735181008,10.510289759763344,68.65307030518943,1.705476603950236,121.82673653479868,370.4041394818024,1.274,1.024292465384646,0,3.99944445188752,30.000012855656493,0.0723142607977788,1.5803670679474472e-06,-0.124993039695197,0.1424279811974251,0.0095442555060936,9.481748731837136,28.666887833362207,25.929637260595246,36.806562256404945
0.74,31.222198074544828,131.01042899733963,11.65672067794936,4.220819435470183,8.262218174904664,22.77972286546272,-4.326635238893999,0.0217523981518605,294.4828134710563,25.00571264350788,10.686839158730772,68.57891814508683,1.9080110914013528,122.0442442030927,382.562131701173,1.274,1.0242470321640116,0,4.012223837325926,30.000012855656493,0.0734924476570594,1.7068382047225977e-06,-0.1292825687633803,0.1510686243897964,0.010032396055124,9.271238486869514,28.17557041781707,26.29904557714464,23.186979524822757
0.75,31.222197603178376,131.01042998480818,11.881540819855536,4.193327528841364,8.139672082014053,26.65087307671648,-4.551514028780958,-0.0977496590297778,330.24688556441737,25.164262413941973,10.774299625899705,68.50184834398767,2.121441600511896,122.27357207611765,387.4204499596967,1.274,1.0241984712898409,0,4.025034004599044,30.000012855656493,0.0739586171932077,1.839503299288172e-06,-0.1336464223013098,0.1597810239393476,0.0104365660622851,9.149850338173742,27.943028053536388,26.438542703639264,27.03691681204204
0.76,31.22219713266005,131.01043097190242,12.105261672476331,4.1418714880531375,7.973135231936963,28.71087777067624,-4.802282520950723,-0.2380968235991212,349.2703242098581,25.448371574810004,10.908486283413712,68.42176571162736,2.345659494889189,122.51462094286728,396.2094181955607,1.274,1.0241522053390697,0,4.037846302274349,30.000012855656493,0.074793812392426,1.9784657698955967e-06,-0.1380385182887907,0.1684725984772421,0.0109010175754728,8.978589430230446,27.57899690964396,26.696750505872277,29.11070438637904
0.77,31.222196652518544,131.01043197841764,12.333545730893915,4.086498905058374,7.800541974434003,26.82160040708932,-5.059261973201305,-0.3832765791902426,331.76876669606884,25.74402429865689,11.047357661002335,68.33860110623259,2.580415006050876,122.7671406158722,405.4601277463089,1.274,1.0241065975906936,0,4.0504045256071874,30.000012855656493,0.0756629427962324,2.1236901151051e-06,-0.1424776720593976,0.1771794975640658,0.011382049767965,8.800260683531336,27.20444471826697,26.96554879599056,27.29727607376257
0.78,31.222196166947896,131.0104329962441,12.564066184605016,4.035300102727267,7.637710165500736,21.96865244378115,-5.3119609931383405,-0.5253162575011725,286.8734378128874,26.00169784705981,11.172467921438455,68.25227175139973,2.825501554517861,123.03092794387068,413.6081426934255,1.274,1.0240588105546735,0,4.063027191474005,30.000012855656493,0.0764204566694739,2.2751892667577134e-06,-0.1469622646321581,0.1858966453462179,0.011857555387641,8.63259318944755,26.868933707672703,27.19787656534649,22.607843261989185
0.79,31.222195676544487,131.01043402419347,12.796482797794132,3.991813920669556,7.490525060575769,31.352469888516943,-5.553344439329799,-0.6593531963938688,373.6203323159581,26.19691620197071,11.27458582883182,68.16269392732863,3.08069683629822,123.30576351441644,419.8327505880289,1.274,1.0240083170932772,0,4.075583154593562,30.000012855656493,0.0769944163165215,2.4329842619708258e-06,-0.1514818500534075,0.1946028173492907,0.0123137036508217,8.48243063054085,26.593314146430085,27.370176328674766,31.847319341033895
0.8,31.22219518242474,131.01043506014372,13.030190166435522,3.9206668725630776,7.293845462481194,31.761622310155207,-5.833582788805332,-0.8230994270303019,377.42502064505805,26.55552864825156,11.43831010065808,68.06978873202183,3.345740916793128,123.59138800913898,431.39601447714296,1.274,1.0239625010683884,0,4.088046095101545,30.000012855656493,0.0780486070803681,2.5970883717578543e-06,-0.1560217385384823,0.2032687289337035,0.0128560704414917,8.275787493844113,26.162348195667715,27.698151202643075,32.303387323832965
0.81,31.222194677579648,131.01043611666984,13.26875839792642,3.8540025125682353,7.107076978322466,20.558494383189664,-6.108804211798639,-0.9833785907476184,273.9374926939922,26.874054183331868,11.587510534905672,67.97348522111217,3.6203264339939074,123.88749153601978,441.7968883412,1.274,1.0239149950770308,0,4.100377714072391,30.000012855656493,0.0789849891121525,2.767431852284756e-06,-0.160606131572905,0.211938958012626,0.0133922497353529,8.080074109895456,25.771946725118283,27.98757059046842,21.469425089053285
0.82,31.222194167749567,131.01043718317948,13.509171348270629,3.8100332812619726,6.963043832676611,26.485379628740283,-6.345495906832982,-1.1161399603898952,328.725004432774,27.024454190783416,11.673702997340913,67.87369580235304,3.904200499112539,124.19382344059709,446.7454229915878,1.274,1.0238644186635044,0,4.112781356343053,30.000012855656493,0.0794272421704378,2.9440321056599246e-06,-0.1652234268086024,0.220589828757659,0.0138540502729158,7.932766050899962,25.53395351456709,28.11551626252875,27.257777253351087
0.83,31.222193656672967,131.01043825303108,13.74954867352858,3.742912518748608,6.778488094416145,33.72820633697334,-6.6180125807007935,-1.2761880644588504,395.6875032246518,27.31858247057385,11.814617323407733,67.77033912825166,4.19707073648383,124.51009102666104,456.5123646686658,1.274,1.0238188483711983,0,4.125098510129317,30.000012855656493,0.0802919287460409,3.1269317960415845e-06,-0.1698402695407948,0.2291583130389593,0.0143958399032609,7.738982773805955,25.16626288789013,28.380862798201505,34.39503814801824
0.84,31.222193135217527,131.01043934219,13.99440884968782,3.663081789066633,6.57270972506375,20.69592367580132,-6.913411029707805,-1.453567709713286,275.45937482564227,27.691287931150825,11.985953343740452,67.66335478816748,4.49855449489258,124.83590452202888,469.0426364220265,1.274,1.0237739661568126,0,4.137235735118614,30.000012855656493,0.0813875706105722,3.3160279288504823e-06,-0.1744766132437939,0.2376801901434915,0.0149902316048842,7.520621932059229,24.73255886711592,28.721463831318587,21.86845600281374
0.85,31.222192605281087,131.01044044698767,14.242703320464948,3.6126167775502354,6.420378334939381,22.582207983133703,-7.149758006083696,-1.5895664554270457,292.9609323393965,27.83465728002928,12.070402844636437,67.55266917115928,4.808313239785316,125.1709220843818,473.90076805319086,1.274,1.0237227741398531,0,4.149421884732831,30.000012855656493,0.0818091771912927,3.5112603527702104e-06,-0.1791404841906666,0.2461682082394152,0.0154702464166857,7.363258234343796,24.494222587225916,28.841058678708183,23.740300723775263
0.86,31.22219207616108,131.01044155139448,14.489906472285588,3.5473504975185506,6.243155197066619,28.340906855216648,-7.409946761302538,-1.7441291233756653,346.2265619465616,28.07096880366053,12.19072070430706,67.43820311778383,5.126020704448967,125.51481547840103,481.97015783875946,1.274,1.023674789281455,0,4.161600529074895,30.000012855656493,0.0825039533518717,3.712692245359472e-06,-0.183788369480389,0.2545424212790457,0.0160059967942969,7.177104418684314,24.17613330554786,29.049701881709584,29.345464705477255
0.87,31.22219153779616,131.0104426724965,14.740838318184924,3.470220752076137,6.046262646490946,26.34483111343152,-7.691808120062234,-1.915445046406136,327.9640783669946,28.383928997138938,12.341016136474124,67.3199063857232,5.451242679553848,125.8671398647336,492.7650570361747,1.274,1.0236288969245204,0,4.173537091625938,30.000012855656493,0.0834240171856346,3.920207903726497e-06,-0.1884308207667265,0.2628210236918582,0.0165928613813845,6.968140244346764,23.79538071161608,29.331911969670685,27.511506107025234
0.88,31.222190991396847,131.01044380789574,14.99481339983197,3.3985839472624426,5.860296452941031,22.69698638210877,-7.9574628947458175,-2.0766896429937014,294.4828134710421,28.638984256143463,12.469586605289637,67.19772252293505,5.783568175550797,126.2274755270229,501.6484893428108,1.274,1.0235805388426191,0,4.185483414629894,30.000012855656493,0.0841738985897442,4.1337067607914336e-06,-0.1930749314898493,0.2710147240500666,0.0171541712329732,6.771494055324317,23.46177895577048,29.55791328352642,24.140982714550056
0.89,31.22219044035522,131.01044495181293,15.250203625971368,3.33026152969173,5.681128868147985,24.905967048990497,-8.208929433022334,-2.2295977615924487,315.02813424808807,28.84998955042444,12.581600971567184,67.07159122391164,6.122599280320893,126.59541692533844,509.0552911997109,1.274,1.0235293752791452,0,4.197405268412762,30.000012855656493,0.0847943163933587,4.353152318437432e-06,-0.1977055834603421,0.2790956394349862,0.0176945769465643,6.582513867671394,23.16175157014733,29.740917635854828,26.3185262364791
0.9,31.22218988413151,131.01044610506122,15.507237267922608,3.2538003883474924,5.489232934613846,27.52452304258836,-8.474142853649683,-2.3938961823624902,339.3781423542166,29.11239626144417,12.714093899152743,66.94146348834617,6.467902760962075,126.97052012048148,518.3448919769672,1.274,1.0234837388140003,0,4.20922684165843,30.000012855656493,0.0855658160367399,4.578483137412833e-06,-0.2023101888886158,0.2870407460611539,0.0182709268206202,6.378595168337768,22.82152078961227,29.97332451857734,28.89880974638868
0.91,31.22218931987525,131.0104472720435,15.76714502064656,3.1722879312691736,5.290095307727116,20.81118872951535,-8.746894245659531,-2.565215810433456,277.7421810230785,29.40328047320565,12.858324502045066,66.80730047348239,6.819018572263257,127.35231179329196,528.7418034945857,1.274,1.023436404813438,0,4.22096038263868,30.000012855656493,0.0864210229611598,4.809575044488956e-06,-0.2068909814787484,0.2948525330581998,0.0188708461860114,6.166027972483331,22.460417771501884,30.2330665740099,22.719904652844747
0.92,31.222188748096126,131.0104484516862,16.02962040340256,3.101420630075807,5.109616743154858,24.83217965119457,-8.981632812790325,-2.712005292048227,315.0281342480675,29.58149091989784,12.958974498596632,66.66906378522239,7.175493251626515,127.74032539129844,535.157042583164,1.274,1.0233859136578225,0,4.232662475402143,30.000012855656493,0.0869450699309002,5.046313531051503e-06,-0.2114462116118508,0.3025264460695623,0.0194027392868986,5.975071145415321,22.1811303047599,30.383044194557037,26.545467539998068
0.93,31.22218817363433,131.010449636286,16.29250827802511,3.0184432938528287,4.910391614928822,29.59351653149532,-9.243284453090864,-2.8795360718442264,359.16250706547066,29.853494706176296,13.09705527940782,66.52671839763343,7.536871883956322,128.1340923220576,545.0301385739051,1.274,1.0233407575091376,0,4.244318943099433,30.0000128556565,0.0877447959245048,5.288656203428517e-06,-0.2159527234728954,0.3100223108607622,0.0199979730751569,5.761998278321382,21.83372193641169,30.62387334720243,31.13689541636562
0.94,31.22218758909277,131.0104508371553,16.558965439180493,2.928554970492776,4.701170067318154,21.29815291967529,-9.51962740378363,-3.0592921468896104,283.06875048378083,30.17703527236054,13.256253975810164,66.38024786792711,7.902656698242055,128.53309668474682,556.8935526233637,1.274,1.0232914783978162,0,4.25583567803579,30.000012855656493,0.0886960065595169,5.53641737027752e-06,-0.2204183705879126,0.3173519595672675,0.0206321915175991,5.536982545280844,21.45137299549133,30.9146650255944,23.528576075418627
0.95,31.22218699582464,131.01045205186534,16.828306119036636,2.851721567383599,4.513924013779784,27.7124540623204,-9.74301085662667,-3.204622114975369,342.421873617488,30.353574261293083,13.35773676195407,66.2296332499262,8.272371785539091,128.93684560801222,563.4138150251292,1.274,1.0232418269359267,0,4.267352242866969,30.000012855656493,0.0892151591170249,5.789438182003243e-06,-0.2248439431282856,0.3245147132096965,0.0211690222687029,5.337695299847462,21.16948825994315,31.061886538597744,29.549551157477044
0.96,31.22218640062581,131.0104532700994,17.09765729968547,2.759758081367056,4.304020232639652,27.09653841218173,-10.009061245185288,-3.3817204768844293,337.09533515678265,30.667691484201377,13.51471067265136,66.07485811686101,8.64554830472884,129.3448530887038,575.1203721568622,1.274,1.0231951201821403,0,4.278837774995273,30.000012855656493,0.0901386857148831,6.047681567456341e-06,-0.2292017138257908,0.3314644204586255,0.021802057471756,5.111410886623198,20.795524180022863,31.343129743064196,29.083323990157822
0.97,31.22218579265975,131.01045450778147,17.371443951356166,2.670165359276253,4.098874812029502,17.051451956671038,-10.257032772313735,-3.548729078871687,245.0218871929888,30.94122065752581,13.65623061120684,65.91592895300185,9.021673312588746,129.75658389296046,585.4098786514321,1.274,1.0231476260761452,0,4.290171133803532,30.000012855656493,0.0909429254466749,6.310895385355345e-06,-0.2335041936950136,0.3382196028117339,0.0224088331019772,4.890642994931073,20.44916147953284,31.584521364609365,20.212674568156682
0.98,31.2221851789844,131.01045575422938,17.64669212458605,2.591901311148117,3.91203609741872,25.11921290331956,-10.447037432322745,-3.678286416247164,319.593746642963,31.068273983333995,13.739319407888123,65.75284717826361,9.400266656128668,130.17153743110887,590.2118611784653,1.274,1.0230935628253934,0,4.301539900510078,30.000012855656493,0.0913166461949374,6.578954249367016e-06,-0.2377385305027781,0.3447579303175067,0.0229082721553051,4.691645207317459,20.195206820526963,31.68229783340012,27.452599857838543
0.99,31.222184563510808,131.0104570038297,17.921848545193626,2.497133919626973,3.7012604897837504,27.4743941558042,-10.692134787201104,-3.848404177578399,341.66094855170127,31.36651265901205,13.892288825425176,65.58562725680613,9.780834780993644,130.589197131602,601.5817822559458,1.274,1.0230490803133316,0,4.312819426434452,30.000012855656493,0.0921935229848502,6.851793421609899e-06,-0.2418789745598606,0.3510386545987247,0.023530356759462,4.463891751961836,19.833775474927727,31.94750101771844,29.731705219347358
1.0,31.2221839342839,131.01045827334409,18.201548239215352,2.4015458837073607,3.490380208843288,24.450208650499903,-10.930021646258506,-4.016245107358254,314.2672081822764,31.660362517874884,14.044384011705928,65.41430629699359,10.162853114961912,131.00901083460596,612.8896727376953,1.274,1.022999484445133,0,4.32394877531778,30.000012855656493,0.093057510191004,7.129088721146741e-06,-0.2459408747765282,0.3570834563621632,0.024148996415775,4.2359225180713365,19.476580595359856,32.208291111146416,27.081512162415134
1.01,31.222183298053498,131.01045955291022,18.483055624005686,2.309058376953124,3.2853140989779086,25.56283441112951,-11.140355134811044,-4.167860796392625,324.92031610370094,31.897870575950545,14.174240762369289,65.23891502708905,10.545836631279812,131.4304680746642,622.1028316143128,1.274,1.0229507481225095,0,4.335117030095791,30.0000128556565,0.0937559019776,7.410654906132883e-06,-0.2499162266576267,0.3628779913615546,0.0247227567071265,4.0148716191330935,19.15386488468153,32.4136437708455,28.19462855365618
1.02,31.2221826555072,131.0104608414995,18.766086644033017,2.2127536068253866,3.0758989876679244,21.125319607347844,-11.355359124626524,-4.325570763641685,284.59063161543185,32.16772548986326,14.3181633198009,65.05949455494488,10.929300472676616,131.85305680435914,632.656096394572,1.274,1.0229039803623294,0,4.34621352059572,30.000012855656493,0.0945493757124915,7.696337896594838e-06,-0.2537907435985738,0.3683997522029797,0.0253177481294276,3.7884994378681895,18.813053976418548,32.65065452545581,24.37075853955116
1.03,31.222182003210783,131.01046214358345,19.051869406526496,2.1202412670550848,2.872734517450597,17.017537109266048,-11.534952795659548,-4.461787851611906,247.3046933904342,32.36625733933695,14.43337213225826,64.87610105860523,11.312753153269528,132.27625571230192,640.4718326675844,1.274,1.022853416101322,0,4.3572284820660645,30.000012855656493,0.0951332196220987,7.985894165223325e-06,-0.2575607756507495,0.3736414567066468,0.0258517072703761,3.5699101764791057,18.512915632013826,32.81731638145223,21.03709238692773
1.04,31.222181346050217,131.01046345242472,19.33854703509852,2.0289156222113185,2.672018000796205,27.653202304580287,-11.690128356523044,-4.584098246117832,345.4656368807608,32.526075922346855,14.533099736028648,64.68879838469766,11.695714082554524,132.6995533604656,646.7947022003476,1.274,1.0228049544826707,0,4.368210746996875,30.0000128556565,0.0956032790934986,8.279161133511902e-06,-0.2612112876054599,0.3785802121770198,0.026346848613359,3.3545780408304093,18.233683413874957,32.94564340563782,30.37058865778023
1.05,31.222180683112256,131.0104647691531,19.62642953262737,1.924721998195561,2.4553591144904323,16.16381059499082,-11.906243713505576,-4.7517379861455735,240.4562587980608,32.866284148709404,14.709025717961993,64.49766640372533,12.077698881094566,133.1224318244919,660.3775708654895,1.274,1.022755494436122,0,4.379089835254445,30.000012855656493,0.0966035604986251,8.57593382868755e-06,-0.2647317590786538,0.3832003268380311,0.0269804822270976,3.119467090769862,17.858095667465673,33.25185301668862,20.630230881042202
1.06,31.222180004769005,131.01046610592783,19.91884136471865,1.8333870979734423,2.256206222778516,23.488738640790167,-12.024291748533948,-4.85455457561852,308.1796836557233,32.98201407813785,14.791518246159974,64.30279790433195,12.45822854438236,133.5443766309745,665.0177717129218,1.274,1.0227013895379469,0,4.389879945544617,30.000012855656493,0.0969440442636437,8.875789389312884e-06,-0.2681335546496748,0.3875140301553209,0.0274226359230074,2.906894747690961,17.60172079598269,33.33632653749872,26.830414367222684
1.07,31.22217932865104,131.01046744000877,20.209556076776863,1.7310400545893454,2.044494344834616,27.826664619977823,-12.197983671959214,-4.999252644274431,348.5093681440431,33.2654941215313,14.945543717517626,64.10428292189782,12.836857126017856,133.9649073495018,676.4796507834806,1.274,1.0226540159946436,0,4.400705973109807,30.000012855656493,0.0977775979933054,9.178694211774132e-06,-0.2713878803177172,0.3914827247752906,0.0279932395571607,2.678653544075805,17.259497283987873,33.58657439418005,30.791339635283716
1.08,31.222178636455247,131.01046879441873,20.50486330215651,1.6264959455723211,1.8313780457679167,18.233544042988505,-12.372834077417547,-5.148274603356863,261.0015785751465,33.578061816067446,15.113042878234168,63.902237605345945,13.213123554720356,134.3835240815108,689.2324398638293,1.274,1.0226061614050743,0,4.4113382981616684,30.000012855656493,0.0986966602104947,9.4842063611995e-06,-0.2745036539049628,0.3951151870465098,0.0285798647277239,2.4491903883878066,16.90530596538757,33.865685024943566,22.62860762102865
1.09,31.2221779347604,131.01047016049864,20.80238799326264,1.5296002408188505,1.6283312356327186,16.603150433350784,-12.469904521045356,-5.246388784932384,246.54375332456465,33.72591178492647,15.211023336293378,63.69677720687094,13.58659768182786,134.799758432508,695.2955506368584,1.274,1.0225512795791307,0,4.422009490384233,30.000012855656493,0.0991315713570143,9.792019655639137e-06,-0.2774755465475193,0.3984012720220193,0.0290156577180449,2.233944838411615,16.633198852972534,33.98165502753311,21.416996016228047
1.1,31.22217723126052,131.0104715288222,21.099566074196204,1.430477292445548,1.4237203467531845,34.71788980729455,-12.564170289104384,-5.345877998590506,413.1890617384087,33.897913361941825,15.319985178558948,63.48802638561504,13.956862177215868,135.21315339338983,702.3855773313072,1.274,1.0224981043155532,0,4.432632533222144,30.000012855656493,0.0996374748106621,1.0102024461191088e-05,-0.2802831167531869,0.4013161732078701,0.0294578815503217,2.018123811209489,16.349891282031706,34.121527817476284,37.306415792740985
1.11,31.22217651829177,131.0104729085818,21.39889535359313,1.3183894793741655,1.2073417539302111,24.947911978361308,-12.760171495262592,-5.520745492374728,324.1593910379213,34.35026312679487,15.551345579374118,63.27612969653544,14.323501067604326,135.62325043869296,721.2358482872743,1.274,1.0224548851875197,0,4.443118176834696,30.000012855656493,0.1009674253675402,1.0413894943535356e-05,-0.2829224432746337,0.4038536238067552,0.0301312112261533,1.787615072663235,15.939586513730214,34.539897891280546,28.56044326441996
1.12,31.22217578325644,131.0104743142107,21.704273143656017,1.2160181135356067,1.0021056113607885,8.37454084544678,-12.846970651395612,-5.622587056858862,172.7328179403806,34.56632966828414,15.681286412118537,63.06123989265252,14.686116795248628,136.0296084572385,730.3162518703293,1.274,1.0223979224661404,0,4.453557088393024,30.000012855656493,0.1016028705475947,1.0727004407460471e-05,-0.2854053959832585,0.4060192882672156,0.0305859398990136,1.5756791939573342,15.64036407207897,34.723732024398046,16.333740370834644
1.13,31.22217504901019,131.01047571868187,22.00837730528807,1.1202942804470115,0.8036171714109895,29.57713449122349,-12.838187382272803,-5.660091693613312,367.5328077894322,34.583406366934426,15.72459817910746,62.8435072465868,15.044338459712982,136.43181299068155,731.0166691473319,1.274,1.0223460397860296,0,4.464083295990377,30.000012855656493,0.1016534139407172,1.1041313249991569e-05,-0.2877081892573284,0.4077878737275384,0.0308470536996719,1.378686886320906,15.429247106631353,34.70963411830822,32.736257848972
1.14,31.222174314379505,131.0104771236568,22.31166981951544,1.0099484587486016,0.5949047817269141,15.565624554820152,-12.97987781547368,-5.808459716369288,239.6953177322812,35.001874280020154,15.9454593475265,62.623103786446,15.39779812560298,136.82944968343608,748.7928589651942,1.274,1.0223022138470996,0,4.474445294923131,30.000012855656493,0.1028837979287755,1.1356738491588176e-05,-0.2898139232379418,0.4091455592055143,0.031447895877002,1.1721224053690225,15.047431687855685,35.09532002556398,21.083265879908897
1.15,31.22217355175501,131.01047856010365,22.62248407987232,0.9097748382671936,0.3947555725666535,15.265315295080764,-12.977332000349527,-5.8578381208685455,237.4125115347709,35.104890735229326,16.02781991911604,62.40021781387561,15.746142212153948,137.22211695832132,753.1845080107267,1.274,1.0222426194541194,0,4.484663746360763,30.000012855656493,0.1031869643205518,1.1672449615865295e-05,-0.2917380667968667,0.4100954937707849,0.0317489090820443,0.991720283938946,14.801313861591268,35.166898304989324,20.874751839382988
1.16,31.2221727968838,131.0104799875589,22.929922798592468,0.8071431726953465,0.1946369838254315,42.79862156420716,-12.986949613860803,-5.91952536149172,490.043774385954,35.274087934851885,16.140226856781133,62.17503317542469,16.08903981084746,137.60943535279233,760.4398876338194,1.274,1.02219674531104,0,4.495017402396305,30.000012855656493,0.103684660590453,1.198850321277411e-05,-0.2934591621567061,0.4106232246633383,0.0320891876187512,0.8302777551163234,14.529872182919656,35.304661381974064,45.11566965672261
1.17,31.2221720286042,131.01048142966073,23.240342583072973,0.6942899855396069,-0.0069278403211541,6.007872638330402,-13.15114555976882,-6.097569205378579,153.70937929500428,35.85831520854178,16.440361640032393,61.94775234647516,16.42617448612254,137.99103838495307,785.8146377021388,1.274,1.022149394360584,0,4.505132746136808,30.000012855656493,0.1054023075694943,1.2304470752616868e-05,-0.2949753602097647,0.4107247996229641,0.032788226566744,0.6943245470550268,14.09932941850554,35.857226985931526,15.691638327052003
