Time,Latitude,Longitude,Altitude,Angle of Attack,Angle of Sideslip,X-Acceleration,Y-Acceleration,Z-Acceleration,Thrust,True Velocity,Ground Velocity,Pitch,Roll,Yaw,Dynamic Pressure,cp,parachute_deploy_gain,Wind Speed,Mach,omega_x,omega_y,omega_z,Cmq,Angle of Attack(total),Angle of Attack(gust),True Velocity(gust),Acceleration
0.0,31.222216000000007,131.010392,3.000000004412624,0.0,0.0,0.0,0.0,0.0,2.2828121974499247,0.0,0.0,71.99999999612658,-1.0292491154817412e-14,119.99999999354436,0.0,15.288,0,0.0,0.0,0.0,0.0,0.0,-0.0,0.0,90.0,0.0,0.0
0.01,31.22221599999862,131.01039200000284,3.0000009727369523,0.0,0.0,0.0,0.0,0.0,34.24218696174923,5.916279387578309e-11,5.734623670548936e-11,71.99999999613168,-5.86671995824671e-13,119.9999999935449,2.1432944861733093e-21,15.288,0,0.0,1.7386402909615473e-13,-3.4220131069073734e-19,7.115076756936125e-19,5.488773498207866e-19,-1.1574302492039043e-31,0.0,89.99999999962336,5.916279387578309e-11,0.0
0.02,31.22221599999738,131.01039200000537,3.0000018317022668,0.0,0.0,0.0,0.0,0.0,25.871876237766408,1.2265415415436536e-10,1.1895038237325684e-10,71.9999999961369,-1.1836364828043265e-12,119.99999999354544,9.211895886571454e-21,15.288,0,0.0,3.6044858651615574e-13,-6.979551485375437e-19,1.4162390878091906e-18,1.0909784360635388e-18,-4.776231873571785e-31,0.0,89.99999999921916,1.2265415415436536e-10,0.0
0.03,31.22221599921969,131.01039200159065,3.0001883335529382,18.80143492628821,-0.0001350810307892,10.931161642028636,-1.75114298675875e-05,3.026590975169265,180.34219359854663,0.0798232026864394,0.0478175828508887,71.99999999765336,-5.341802909786072e-12,119.99999999436793,0.0039016003969354,15.288,0,0.0,0.0002345795854893,3.788270153300133e-17,-7.771883375645477e-10,1.1422790048099072e-11,1.7057759223764537e-13,18.80143492675591,89.51882325913425,0.079801984207741,11.342422482672777
0.04,31.222215995131297,131.01039200995308,3.001692634342189,9.19442604083399,-4.49173898918486e-05,52.29595764159784,6.445392950801871e-06,3.026413589912948,548.6359724538078,0.3504174083926908,0.1601447499964056,72.00000000319055,-3.111420077280171e-11,119.99999999870242,0.0751892535633216,15.288,0,0.0,0.0010297854387864,2.0082066977226968e-15,-1.520937588847922e-08,2.5623342884322286e-11,1.4654248781413086e-11,9.19442604094277,87.798916624545,0.3504103527855857,52.383455068075136
0.05,31.222215983575865,131.01039203366796,3.0074067499493786,5.158590039700252,1.707592688632746e-06,76.26884281015512,5.843947534199429e-05,3.0258124765658088,761.6984298824644,0.9592973585397016,0.3772700771701255,72.0000000004862,-1.3608731808076822e-10,120.0000000109612,0.5634958029902841,15.288,0,0.0,0.0028191251099456,2.086299069701397e-14,-1.0551247853743037e-07,3.973493515691201e-11,2.783064866637575e-10,5.158590039700515,83.94063169874748,0.959297626767734,76.32884071402438
0.06,31.222215961742712,131.0103920785344,3.019291017943491,4.109521257467909,3.140103977270004e-05,57.06876634333886,0.0001151069734147,3.024834864051463,590.4875390737208,1.6257536642597354,0.6118982818704327,71.99999992547217,-3.5903296759057166e-10,120.00000003412836,1.6184272268450337,15.288,0,0.0,0.0047776672697797,1.0694899894620088e-13,-3.741090980393931e-07,5.521401959501359e-11,1.6723176417636091e-09,4.109521257587776,79.78719176344794,1.6257585967235286,57.148873286519276
0.07,31.222215929936205,131.01039214392435,3.0371334573469446,3.649087515174788,5.707077112564807e-05,86.89643797254193,0.0001728541558773,3.0234947746384675,855.2937749779139,2.3057260079826607,0.8506307413593818,71.99999965378231,-6.907496536790437e-10,120.00000006788592,3.255354923652711,15.288,0,0.0,0.0067759305364855,3.495199904512709e-13,-9.036515915819006e-07,7.594816279105379e-11,5.728932851326001e-09,3.6490875156204896,75.6601668283889,2.305734972638426,86.94902215090157
0.08,31.222215886364623,131.01039223353447,3.0621840248716574,3.4254446680114707,8.413075603463509e-05,17.831756866644035,0.0002285946601282,3.021841001032126,241.2171988638848,2.961944911520492,1.0819695676346892,71.99999900671328,-1.141745983122182e-09,120.00000011415082,5.371998197385977,15.288,0,0.0,0.0087043901031071,8.800530155962314e-13,-1.829098470920821e-06,1.0943386634701918e-10,1.4896287129277132e-08,3.4254446690434226,71.81713637501419,2.9619581267487467,18.085991154451033
0.09,31.22221583454733,131.01039234010327,3.0919888289029,3.389560809024919,0.0001118726864415,54.09031716446879,0.0002748660999733,3.020060228038602,563.0937377043176,3.504225426410036,1.2780161667917422,71.99999774508822,-1.634190085504106e-09,120.00000016921716,7.519080503822694,15.288,0,0.0,0.0102980157586766,1.865782139518716e-12,-3.1503298654458527e-06,1.6284478329871028e-10,3.03536411425607e-08,3.389560810868955,68.76526501308032,3.504242999330529,54.17456206384468
0.1,31.22221577423132,131.0103924641528,3.1267248829165366,3.4447939461814814,0.0001419149103147,51.372195336549765,0.0003131602029306,3.0182021883815127,538.7437595981919,3.950569597142709,1.4443465951180965,71.99999562056465,-2.1287748602259068e-09,120.00000023339832,9.55649523509932,15.288,0,0.0,0.0116097108366932,3.485956000178229e-12,-4.949356763187612e-06,2.4573266549165286e-10,5.3761299442583966e-08,3.444793949101151,66.34639928474206,3.9505918890846927,51.460781166288626
0.11,31.222215706113143,131.01039260424562,3.165907002780892,3.4691423802630394,0.0001702373452339,40.591037561894986,0.0003534470100582,3.016051659024047,442.8656393052949,4.421478635995476,1.6182620895289603,71.99999235067894,-2.5564479031457968e-09,120.00000030601664,11.970509656144712,15.288,0,0.0,0.0129935974697161,5.942887149865172e-12,-7.273722517324353e-06,3.67769289312894e-10,8.842679949465076e-08,3.4691423844348632,63.88798785789768,4.421505376815134,40.70293476011277
0.12,31.222215630588888,131.0103927595646,3.2092596514826863,3.4852659299808075,0.0001974376474727,44.30042894095728,0.000394069215595,3.013641598889868,475.58594813540446,4.896982486381051,1.793579340340896,71.99998761802138,-2.8337988279882726e-09,120.00000038673312,14.683611096353944,15.288,0,0.0,0.0143909889875706,9.464337642181618e-12,-1.017558359402848e-05,5.395790443954697e-10,1.3700793350599625e-07,3.4852659355662303,61.5068242157714,4.897013499814194,44.40281567867803
0.13,31.222215548046687,131.0103929293088,3.256512891171917,3.5606043721293616,0.0002276507019012,48.86766833507025,0.0004268800875964,3.0112558910133567,515.9156326236895,5.278566579338586,1.939796541405244,71.99998107389406,-2.8573058577484587e-09,120.00000047523812,17.061052093156064,15.288,0,0.0,0.0155123760833565,1.4300406003001044e-11,-1.3705268062305584e-05,7.724776992181392e-10,1.989112774124932e-07,3.560604379397528,59.67313531776262,5.27860233862722,48.960358155653
0.14,31.222215458587108,131.01039311327068,3.30759734332425,3.6000732663755977,0.0002555702913645,45.540290862247225,0.0004629468001456,3.0085404980032777,486.2390860568404,5.70011779273801,2.098362647205908,71.99997235012626,-2.508533681468686e-09,120.00000057154703,19.894788765881632,15.288,0,0.0,0.0167512184495524,2.071534240530911e-11,-1.7917736259613292e-05,1.0787346240473087e-09,2.8081526258393346e-07,3.6000732754351943,57.72385750323359,5.700157937625502,45.639559681930805
0.15,31.222215362317904,131.01039331122794,3.3624387479639086,3.651605404442164,0.0002842753491325,44.01308509501,0.0004965057129938,3.005703619811542,472.54218587214,6.091938849578711,2.2476968067377374,71.99996103728932,-1.6446954747148112e-09,120.00000067569304,22.723773683610247,15.288,0,0.0,0.0179026934683374,2.9002783512213203e-11,-2.287326399669318e-05,1.47199345427166e-09,3.831202693354572e-07,3.651605415492516,55.98561718911576,6.091983503446133,44.115597174664394
0.16,31.22221525912812,131.01039352340948,3.421115382839859,3.67540086436193,0.0003108411545024,34.83804992586084,0.0005330990866742,3.002517946501868,391.1218908297564,6.521183188362317,2.4085903880902046,71.99994669525161,-1.0153513453738144e-10,120.00000078796704,26.03872642002185,15.288,0,0.0,0.019164148528834,3.9478358970291335e-11,-2.864207894220033e-05,1.9677461746207517e-09,5.135466997084602e-07,3.6754008774883777,54.15946979122355,6.521232015176687,34.96719658394182
0.17,31.2222151493826,131.01039374906244,3.4833737923187487,3.7139589864597298,0.0003384978477213,43.96471427482637,0.0005668629535037,2.999235483723449,471.78125980632376,6.916861975403744,2.559060925010733,71.99992884100092,2.3206494032971838e-09,120.0000009081849,29.29426197817256,15.288,0,0.0,0.0203269651395979,5.248754693205839e-11,-3.5267097947693114e-05,2.580363454062817e-09,6.706952682968329e-07,3.713959001863866,52.549031795895466,6.916915146521327,44.06689817851128
0.18,31.22221503253009,131.01039398932429,3.549599475912623,3.7380363034619775,0.0003650282082698,36.67395661481795,0.0006021794701355,2.9956556354306425,407.10156721191447,7.332140201215607,2.71556808256092,71.99990696207136,5.837017536380516e-09,120.00000103716444,32.917216366714264,15.288,0,0.0,0.0215473823438242,6.839750892601699e-11,-4.285557247677198e-05,3.331016495775474e-09,8.639362741436378e-07,3.738036321259578,50.93050624815799,7.332197539712479,36.796100973258795
0.19,31.22221490871209,131.01039424390297,3.619694897703461,3.747799769666444,0.0003901520189829,41.42208371271829,0.0006393759928961,2.991742733214697,448.9531328318269,7.771071983754382,2.879366399937307,71.99988049019642,1.0709144790974043e-08,120.00000117502664,36.97605053227239,15.288,0,0.0,0.0228373144884866,8.761416506509219e-11,-5.146771415177372e-05,4.238406957677133e-09,1.0996552116864756e-06,3.747799789945131,49.29705748437159,7.771133268690212,41.529983675580546
0.2,31.22221477769685,131.01039451327668,3.693822889232993,3.7700519460961166,0.0004166800650969,37.99697972290605,0.0006740224661302,2.987733789228414,418.51563019916136,8.179966026035371,3.0338260708461373,71.99984881140107,1.723179577184912e-08,120.0000013223286,40.969302182777255,15.288,0,0.0,0.024038975990988,1.1057590044953188e-10,-6.120032215177249e-05,5.3263847350253015e-09,1.376394225587184e-06,3.7700519690893857,47.8457752505109,8.180031477986942,38.11426270718793
0.21,31.222214639876928,131.01039479663547,3.771710975053407,3.7926098867321474,0.0004432924407074,36.46301043881366,0.0007080907240332,2.983530483977461,404.8187610144644,8.582757448615462,3.1863584283669346,71.99981127559042,2.5745201416596626e-08,120.00000147900325,45.103059028532826,15.288,0,0.0,0.0252227064089584,1.3774582723633048e-10,-7.20875523136271e-05,6.61341033873124e-09,1.7010673350603349e-06,3.792609912601061,46.47936953648762,8.582827080829217,36.584868250565684
0.22,31.22221449507626,131.01039509434258,3.8534832466471007,3.782921298925821,0.0004660920499522,44.14577847155813,0.0007479176313898,2.978724032883548,472.5421858721365,9.056569122268344,3.360845972992861,71.99976720416048,3.661811567390422e-08,120.00000164562512,50.21995530074818,15.288,0,0.0,0.0266151520780326,1.6960703048385348e-10,-8.421592474264931e-05,8.124635526119773e-09,2.0969540034515424e-06,3.7829213275976334,44.9464484092354,9.056642335836344,44.24615863872642
0.23,31.22221434283448,131.01039540734791,3.9394622486964206,3.813874679301352,0.0004940771488601,36.66675459308932,0.000779455230549,2.974212905336642,406.3406421461021,9.430647902846331,3.5044030163419806,71.99971583979395,5.0272885112871524e-08,120.00000182313076,54.45382429059888,15.288,0,0.0,0.0277145095638672,2.0669790509245914e-10,-9.77285871729516e-05,9.894576563683824e-09,2.5339062472561444e-06,3.813874711257219,43.79476959007253,9.430725512303388,36.78718303164376
0.24,31.222214184153326,131.01039573358457,4.028950821673608,3.829256049377765,0.0005200487408944,37.802126339316736,0.0008136255607606,2.9692962675112065,416.2328240017114,9.837806876534357,3.658163422426286,71.9996564062533,6.718950080713476e-08,120.0000020109434,59.25679777340223,15.288,0,0.0,0.0289110855155543,2.4956955046738006e-10,-0.0001125744417092,1.1934277804843484e-08,3.0448209172448607e-06,3.829256084638984,42.59361542722471,9.83788856559955,37.91856374864305
0.25,31.22221401888584,131.01039607335582,4.122052964664892,3.851417709838087,0.0005469594058717,38.85163035360012,0.0008459008130282,2.964283881833675,425.36408079150686,10.22297576958679,3.8050691648373967,71.99958811418384,8.786880969336211e-08,120.00000220974424,63.98709205399403,15.288,0,0.0,0.0300430411774988,2.987811646313829e-10,-0.0001288461362054,1.4273117985167728e-08,3.621333387698252e-06,3.8514177486178034,41.50703126619192,10.223061685769354,38.96455005232871
0.26,31.222213847358866,131.0103964259872,4.218542267117083,3.8780574625554745,0.0005745172425185,42.3164797140743,0.0008766626387865,2.959162938653076,455.8015834241788,10.590779679138215,3.946551912391076,71.99951013710364,1.1286401474734325e-07,120.00000241975916,68.67355887153568,15.288,0,0.0,0.0311239685467471,3.5491769188178554e-10,-0.0001465721578858,1.6932703957058654e-08,4.267712643344226e-06,3.8780575050466,40.51245375834074,10.590869924095635,42.41981967733593
0.27,31.22221366913008,131.0103967923915,4.318728802515264,3.886188503202341,0.0005994342651313,38.70936050721014,0.0009111181036949,2.953518013741325,423.84219965987256,11.004860953238978,4.102320296019413,71.99942161756776,1.4276417094868828e-07,120.0000026420792,74.14786134434608,15.288,0,0.0,0.0323408987462391,4.1858405402174807e-10,-0.0001658847815307,1.995072923688136e-08,5.018832267232506e-06,3.886188549362022,39.43841359495857,11.00495511215316,38.8218734782956
0.28,31.22221348431185,131.01039717233687,4.422535913956003,3.90556090261878,0.0006261175699806,44.68030766832924,0.0009425767186621,2.947879457547137,476.3468732012221,11.38358114165448,4.247086834352694,71.999321619057,1.7823531611327881e-07,120.000002877279,79.33831935330025,15.288,0,0.0,0.033453914386159,4.904408325040897e-10,-0.0001868529238516,2.3357766479368094e-08,5.847713054408178e-06,3.9055609527288775,38.49894431917428,11.383679491972384,44.77744842575601
0.29,31.222213292835256,131.0103975659655,4.530013412817602,3.9242599519377537,0.0006528240665589,35.802573724660256,0.0009737210635801,2.942037024315898,397.97031042211177,11.759725774384751,4.391004157029451,71.99920917567837,2.1999186079018322e-07,120.00000312617878,84.66717879828003,15.288,0,0.0,0.0345593650464213,5.711677680739745e-10,-0.0002095620322847,2.7188189988316943e-08,6.77505090435382e-06,3.9242600061534456,37.60352534239979,11.759828319749328,35.92324968749781
0.3,31.222213095024976,131.0103979726075,4.64093665799555,3.936939025755682,0.0006785438093183,33.570228713727204,0.0010059102294455,2.93586442972183,378.1859457108711,12.149968255527943,4.539237002744259,71.99908328532703,2.6880857935396905e-07,120.00000338923812,90.3787563598417,15.288,0,0.0,0.0357062504417728,6.614698865958865e-10,-0.0002340353597042,3.1467140861055e-08,7.817263716758327e-06,3.9369390841381695,36.71173884615234,12.150074840940263,33.698361337808635
0.31,31.22221289105846,131.01039839189684,4.755183729044857,3.9598342215431432,0.0007060286581592,35.396825578217346,0.0010350810412898,2.9297385597941448,394.1656220930212,12.504537499407316,4.6763673222047455,71.99894291513503,3.255120771695107e-07,120.00000366712923,95.72967338626896,15.288,0,0.0,0.0367483036680869,7.620720834468404e-10,-0.0002603234137215,3.622454560346964e-08,8.948994505138873e-06,3.9598342843844345,35.934338386209795,12.504648402129598,35.5178635353378
0.32,31.222212681031937,131.01039882363492,4.872689374180126,3.985461429033668,0.0007340760463279,38.52097867048992,0.0010630242168685,2.9235095146848846,421.55939346242695,12.84534566718622,4.809181081594425,71.99878701464397,3.909756427278764e-07,120.0000039606604,101.01782231644016,15.288,0,0.0,0.0377499198995686,8.737098716736534e-10,-0.0002884807530145,4.1491545539590986e-08,1.0187112828155184e-05,3.98546149652875,35.21473736963424,12.845460975581933,38.631757748577954
0.33,31.22221246496604,131.01039926777932,4.9934410812554,4.010606629086,0.0007621365968788,38.18822026147908,0.0010905599149574,2.917102431053817,418.5156301991682,13.18247167592885,4.940798912752974,71.99861449732019,4.661299779655886e-07,120.000004270781,106.38859400029033,15.288,0,0.0,0.0387407190563976,9.971421990244511e-10,-0.0003185760672934,4.7302669734505256e-08,1.154498667827874e-05,4.010606701382261,34.52805863348922,13.182591392065536,38.299473293007864
0.34,31.222212242662028,131.01039972474007,5.117579377337869,4.019339771238816,0.0007871574969313,29.898022638335373,0.0011220389395318,2.910051232417875,345.46563688075645,13.569536737955724,5.0878303926024735,71.99842423285973,5.519675040347761e-07,120.0000045987411,112.72655675097128,15.288,0,0.0,0.0398782837956187,1.1331556132162459e-09,-0.0003507224668667,5.37022358302301e-08,1.308298593306914e-05,4.019339848191799,33.76700548046532,13.5696603843662,30.039310197084795
0.35,31.22221201433324,131.01040019407705,5.2449575244483055,4.033762873683395,0.000813261106463,32.76415525156106,0.0011515840876071,2.902959820469776,370.5765700527033,13.934300103976534,5.227895396154902,71.99821502296155,6.495674834876441e-07,120.000004945438,118.8669740701126,15.288,0,0.0,0.040950312688979,1.2825853697215452e-09,-0.0003849609961885,6.072234695821837e-08,1.4746020857580124e-05,4.033762955530055,33.07785186209504,13.934427850732408,32.89250745069162
0.36,31.22221177990305,131.01040067594835,5.375631006350063,4.051723629010647,0.0008401329464575,37.01692984301412,0.0011797030485285,2.8957873473716007,407.8625232777193,14.282998147928636,5.362923567977223,71.9979856440668,7.600645476620651e-07,120.00000531213882,124.88900300695136,15.288,0,0.0,0.0419751331662584,1.4462801652534363e-09,-0.0004213876232777,6.84067806399068e-08,1.654507199147348e-05,4.051723715967022,32.44322602189087,14.283130115703262,37.13002398000203
0.37,31.222211539445663,131.01040117020102,5.509550188388412,4.071639898917391,0.0008674922629137,35.12417761390579,0.0012067983861697,2.88849906286036,391.1218908297666,14.620581431527652,5.494447309446232,71.99773482653193,8.846681943540367e-07,120.00000570002652,130.86067091914967,15.288,0,0.0,0.0429672939311924,1.6251202388969355e-09,-0.0004600660652957,7.679415042686734e-08,1.849041957573993e-05,4.071639991174516,31.85023865502424,14.620717696893658,35.24274792557624
0.38,31.222211292895075,131.01040167697127,5.646763233102716,4.08264881385344,0.0008930259828975,36.695642158537446,0.0012360471443664,2.880711738179021,404.8187610144602,14.986392916850402,5.634654729559426,71.99746126698146,1.0246533537040716e-06,120.0000061105033,137.4891296153862,15.288,0,0.0,0.0440424171304414,1.8200057922063743e-09,-0.0005010869196581,8.592980519823866e-08,2.0642694281337543e-05,4.082648911356968,31.228847973200924,14.986533193043764,36.808540518115166
0.39,31.22221104018777,131.0104021963902,5.787316652586672,4.096641430700089,0.0009192713382325,31.335681548387896,0.0012640110027448,2.872831219844713,357.64062493382744,15.337978856701952,5.770390286512262,71.99716358743511,1.1813915463769678e-06,120.00000654506955,144.01394309468844,15.288,0,0.0,0.0450757388736732,2.031886352449547e-09,-0.00054455673306,9.586443829735616e-08,2.295945663566148e-05,4.096641533664766,30.65298398882095,15.338123255506089,31.4670954954126
0.4,31.222210781536543,131.01040272801887,5.931064331106764,4.109028969993624,0.0009451871856381,29.95928076777898,0.0012920492774571,2.8646905607053603,345.465636880754,15.692185018814769,5.906873567965718,71.99684037970908,1.3563276523471372e-06,120.00000700500496,150.74021066990193,15.288,0,0.0,0.0461167659598875,2.2617341782092324e-09,-0.0005905037520737,1.0663253249436129e-07,2.5471259834659164e-05,4.1090290785164525,30.09246700352443,15.692333488470696,30.095929256306363
0.41,31.222210517064383,131.01040327160345,6.077922766619747,4.122888296344507,0.0009714525997821,33.78425365340317,0.0013192264430821,2.85640971467756,378.94687077668647,16.03742529732769,6.0405139809190125,71.99649020751959,1.5509747261474075e-06,120.0000074917568,157.44375780268788,15.288,0,0.0,0.0471314487675864,2.5105374204052982e-09,-0.0006389770219162,1.1827345344180344e-07,2.816813594418537e-05,4.122888410595805,29.56469007160549,16.037577892745222,33.904791300285986
0.42,31.22221024682894,131.0104038270252,6.227854084363214,4.14444025865494,0.0009995884754813,38.04468161607466,0.0013435485656724,2.8482703202464488,416.2328240017114,16.348862540904037,6.163613566771559,71.99611159893284,1.766920641656551e-06,120.00000800692096,163.6157044470786,15.288,0,0.0,0.0480467946810589,2.779304965995011e-09,-0.0006900467934588,1.308321832549104e-07,3.100973487310896e-05,4.144440378988911,29.104646754454564,16.34901955589459,38.15115260238947
0.43,31.222209970843565,131.0104043942566,6.380851271439565,4.1618082623168045,0.0010268052928652,33.45815353250911,0.0013687230309017,2.8397750580998298,375.9031395134336,16.67263197205097,6.290467308135904,71.99570306121484,2.005818691215035e-06,120.00000855220898,170.15779512382937,15.288,0,0.0,0.0489983878509763,3.0690566816849196e-09,-0.0007437862329608,1.443552931671376e-07,3.4086145072160934e-05,4.161808388761201,28.640125213458976,16.672793262249197,33.57845085853367
0.44,31.22220968892116,131.01040497368373,6.537047157143216,4.164954087655709,0.0010505545842624,30.86574023822051,0.0013980747538988,2.830419582421933,353.0750125389216,17.050421620730056,6.433992917638883,71.99526304125902,2.269416145406482e-06,120.00000912964636,177.9537948947602,15.288,0,0.0,0.050108743779844,3.380847125286677e-09,-0.0008003278134917,1.589055036683518e-07,3.750784460406397e-05,4.164954219916419,28.113519280259386,17.050586641458253,30.99524475496968
0.45,31.22220940081287,131.01040556582012,6.696617751072218,4.165241899529329,0.0010735835484822,35.912216710755274,0.0014280646808282,2.820677244966047,397.2093853562869,17.438293672974723,6.580571293039616,71.99478987454265,2.5595995397253085e-06,120.00000974147088,186.13940823302417,15.288,0,0.0,0.0512487363629523,3.7158016249566814e-09,-0.000859850913876,1.745604864109677e-07,4.121350642664912e-05,4.1652420376426775,27.591357195572936,17.43846231108416,36.02281959036367
0.46,31.222209106468902,131.0104061707686,6.859600379555308,4.174585124444534,0.0010989881252456,41.916816790010685,0.0014546917035209,2.811153314474766,449.7140588976434,17.786187321601275,6.714685486378061,71.99428180697711,2.8783880229668832e-06,120.0000103898448,193.6374175079873,15.288,0,0.0,0.0522712438446989,4.0751091178509895e-09,-0.0009224765531151,1.9138630415982226e-07,4.50966024037632e-05,4.1745852688465686,27.13985967570823,17.786359950252297,42.01097612387663
0.47,31.22220880579083,131.01040678873238,7.026066274755745,4.1823089530633855,0.0011240727220223,28.37640408484148,0.0014814747534716,2.801325368441072,331.0078106302534,18.138167428286582,6.849989708801916,71.99373704967608,3.2278903746588286e-06,120.00001107707628,201.37401505997488,15.288,0,0.0,0.0533057667609836,4.459978104761035e-09,-0.0009883252835099,2.094509673354327e-07,4.927107017839778e-05,4.182309103852639,26.69716826759888,18.13834399721685,28.514342615617974
0.48,31.222208499300592,131.0104074186346,7.195654207463586,4.189479568102716,0.0011490100608361,27.95074823096412,0.0015080719422187,2.7912412472910484,327.2031223011574,18.48995085190441,6.98515976370584,71.99315377257649,3.6103201777021456e-06,120.00001180491516,209.25751230436188,15.288,0,0.0,0.0543397174489847,4.8716620260348906e-09,-0.0010573190976925,2.2877013380347535e-07,5.373205427420879e-05,4.189479725385959,26.268461765425428,18.4901313379827,28.089773168283216
0.49,31.222208187201936,131.01040806005494,7.368224738812109,4.202723284133339,0.001175611380853,35.08821363242469,0.0015321405723077,2.781292092003844,389.60000969812296,18.812014261754847,7.111044804193205,71.99253015042137,4.027946338669921e-06,120.0000125755114,216.60722913930897,15.288,0,0.0,0.0552863302793499,5.311396446020465e-09,-0.0011294854492155,2.4938633613154685e-07,5.8398320167141767e-05,4.202723448262914,25.88860807032205,18.81219892635871,35.1982716047702
0.5,31.22220786953184,131.01040871291724,7.5437546994244835,4.220815778795054,0.0012036252596423,36.05491615971072,0.0015540388599792,2.7714444106710974,397.97031042210494,19.10875420627192,7.229005658018125,71.99186435180009,4.483102820610566e-06,120.00001339126192,223.4908652241728,15.288,0,0.0,0.0561585257949344,5.7804122391526605e-09,-0.0012048912160576,2.713531252030471e-07,6.327866493526626e-05,4.220815950099865,25.54902500917784,19.108943271285572,36.161276053538906
0.51,31.222207546379583,131.0104093770373,7.722184419225251,4.232567510615346,0.0012298790840397,27.54004661432325,0.0015777580800203,2.761017323676155,323.3984349720841,19.430597746636646,7.354673636736509,71.99115452520388,4.978202222778502e-06,120.00001425458936,231.07869697977367,15.288,0,0.0,0.0571045034845869,6.2799518101633574e-09,-0.0012835871653678,2.947201005874635e-07,6.854585242460463e-05,4.232567688976395,25.189423168613605,19.430790935591396,27.678103017910345
0.52,31.22220721787282,131.01041005252048,7.903528663081532,4.240708379538537,10.792629633416556,33.23348645466678,-0.648095402625307,2.749927852204733,372.0984511843415,20.11754357858702,7.4828380426544445,71.99039506674161,8.294059969243528e-05,120.0000965817729,247.7022360654704,15.288,0,3.771436163680064,0.0591234867034922,6.837385326366099e-09,-0.0013764106541356,0.0001494629702491,7.610007219118124e-05,11.586681200043172,34.76424761338521,21.802838168093395,33.35336194112605
0.53,31.2222068841988,131.0104107399507,8.087902432134957,4.249870887281511,10.642448258318948,34.897698622530925,-0.6647182270456705,2.738900008726948,386.5562464348624,20.44113384519589,7.610211890639961,71.98958520354299,0.0005207051556886,120.00055725488704,255.73036634341287,15.288,0,3.785945547510895,0.060074611696588,7.539547069638732e-09,-0.0014620644777122,0.0003703421181794,8.213455552885974e-05,11.450538735705544,34.294335704416724,22.10324951964387,35.011323778574386
0.54,31.22220654527432,131.01041143956573,8.275380192343569,4.258827403803028,10.497372635870525,30.641527433094048,-0.6815320582742959,2.7276382698106905,349.2703242098436,20.762914656339746,7.736907031295264,71.98872532740714,0.001352194017371,120.00143194756645,263.8403148291749,15.288,0,3.800421926460529,0.0610204249489481,8.396163209605448e-09,-0.0015514052114219,0.0005969577315563,8.85238208236768e-05,11.319406780580143,33.8394247287546,22.402628589442376,30.770240491592627
0.55,31.222206201407666,131.01041215075514,8.465756358336781,4.2687828861842085,10.359918476682823,32.47992180540216,-0.6983389301061599,2.7162299243740167,365.2500005919907,21.077194650479985,7.86113445161675,71.98781332483877,0.0025872823764901,120.00273104776691,271.88308708790333,15.288,0,3.8148474452778416,0.0619441999233229,9.41138308769646e-09,-0.0016444033233613,0.0008290749812174,9.524886270493185e-05,11.19604047521516,33.40704008047463,22.69567400361319,32.60078070765185
0.56,31.222205852611783,131.01041287351703,8.659030959284383,4.2806003237731165,10.231707252265805,30.311071065805265,-0.7149804898481678,2.7047498255147824,346.2265619465787,21.37959091639385,7.981516256922544,71.98684706417335,0.0042356744673869,120.00446476453791,279.7353181916288,15.288,0,3.829221168710328,0.0628330555125545,1.0589273487852756e-08,-0.0017411556281685,0.0010667771416192,0.0001022981002931,11.082242885851098,33.00211440631885,22.97825518373781,30.4399063381572
0.57,31.22220549897541,131.0104136076924,8.855151069372532,4.290207282435226,10.102894704434254,29.97124264835298,-0.732132835791024,2.692888379622102,343.1828296833023,21.68966872226202,8.104220859498286,71.98582437453864,0.0063070623353526,120.00664329461064,287.9029925364251,15.288,0,3.8435361736172937,0.0637444925582044,1.1933908100887992e-08,-0.0018417170048562,0.0013100433236475,0.0001097736803857,10.96736681793362,32.59603005686413,23.268416907794407,30.100881252893572
0.58,31.22220514048701,131.010414353329,9.054133574699712,4.2949448143553,9.967418842101798,39.48372365159842,-0.7502913502004632,2.6804063788818424,426.1250058573153,22.02101164853588,8.233523323093529,71.98474303315801,0.0088112186532815,120.00927692023016,296.7608297113737,15.288,0,3.857791926826069,0.0647184326386163,1.344938875456295e-08,-0.0019461889148156,0.0015589642719848,0.000117770460002,10.844789408008692,32.17093942246756,23.578804910248515,39.58171230330907
0.59,31.222204776732127,131.0104151113068,9.25627651147822,4.304755393761504,9.847820303454077,31.99472020393097,-0.767735118674332,2.668109687091963,360.68438819711065,22.324514286009588,8.35395420495834,71.9836006891332,0.011758541935928,120.012376582852,304.9914403711215,15.288,0,3.8720099213438814,0.0656105583082441,1.5140022700258012e-08,-0.0020548854902407,0.0018141228750423,0.0001260594258129,10.739067787824697,31.79304863835508,23.86380122982801,32.11495519913781
0.6,31.22220440794704,131.01041588116303,9.46142443778876,4.306369328459145,9.714065923657625,28.42734037532762,-0.7868351672063763,2.654870525515428,329.4859594986058,22.66678397006441,8.486485897783686,71.98239492831365,0.015159559781178,120.01595335969756,314.40892767412333,15.288,0,3.886176180413381,0.066616624850049,1.7010245351337203e-08,-0.0021677956994514,0.0020753310111645,0.0001350222625291,10.617428950976212,31.374000689819937,24.185366222795302,28.561882429250616
0.61,31.22220403409236,131.01041666300378,9.669614065819934,4.306439879097213,9.581178185777778,33.323073743516616,-0.8064533205156033,2.641218147485177,372.0984511843297,23.015161817451965,8.620832363193475,71.98112325699448,0.0190250416413884,120.0200185833936,324.14135384919945,15.288,0,3.9002926570331526,0.0676406500197605,1.9064560918254585e-08,-0.0022850518932049,0.0023427353911583,0.0001445102136432,10.496244401753431,30.95795095103963,24.51316533634767,33.43730916172266
0.62,31.22220365530081,131.01041745658023,9.880762316589784,4.318249810149849,9.477649173011176,41.45101311634456,-0.8240513224989257,2.628394561356723,442.86563930529206,23.3001896859012,8.735149040304128,71.97978310051477,0.0233659910498639,120.02458383337648,332.2128936325004,15.288,0,3.9143588861570335,0.0684784987666092,2.1307590422650723e-08,-0.0024067222442427,0.0026163351422372,0.000154086668773,10.406856454882073,30.62955502909216,24.78215531534824,41.54243621796453
0.63,31.22220327138981,131.01041826229172,10.095005070385298,4.325958946048231,9.36864971432677,23.47371640824733,-0.8425852941913116,2.614963438707045,286.11251274707894,23.603619746595992,8.855155157975426,71.97837185808407,0.0281930034919208,120.02966026376332,340.91479984423063,15.288,0,3.928364961392539,0.0693704374997945,2.3743756327447048e-08,-0.0025329935789605,0.0028963853562046,0.000164279510993,10.311080154383037,30.285775538774438,25.06869482088725,23.633944778191008
0.64,31.22220288298561,131.01041907887023,10.311915208200412,4.327302712324655,9.249612210779466,23.043250271337232,-0.8625628061630848,2.6006572490018818,282.30782441796754,23.938474765409143,8.984946878380725,71.97688698721602,0.0335167411695973,120.03525909129334,350.64894959642544,15.288,0,3.942315627103973,0.0703547400371455,2.6377655469484332e-08,-0.0026636285767371,0.0031822144936912,0.0001751990708813,10.203815807716664,29.91274577659582,25.3850977341227,23.205577256100426
0.65,31.22220249007845,131.01041990635787,10.531508055118003,4.3373160934210455,9.15192290557117,40.78721087838878,-0.8809852175619602,2.5869736615725234,436.7781447787475,24.224200968196268,9.099201912819431,71.97532581928597,0.0393476197720383,120.04139128278187,359.061924392268,15.288,0,3.956175627136575,0.0711946605007778,2.9213674557230704e-08,-0.0027987583057898,0.0034739680173462,0.0001862804831113,10.11976666454923,29.604293554120925,25.65567636544833,40.87866361462161
0.66,31.22220209214625,131.01042074585166,10.754155171027165,4.344779613493505,9.05192530617984,34.68010941050683,-0.9000913110226274,2.5727955541648635,383.51251517160017,24.520741439116247,9.216757616666946,71.97368566443289,0.0456961424420796,120.04806789608902,367.89877615483135,15.288,0,3.969990208317372,0.0720663707035536,3.2256123885249245e-08,-0.002938782283256,0.0037723482377322,0.0001979904419304,10.032800458519857,29.289756002656794,25.93670703430656,34.78705837026801
0.67,31.22220168939417,131.01042159695115,10.979722572105691,4.346592691138705,8.943408776064325,23.8479995145416,-0.9205750328723132,2.557755055137201,289.1562440103425,24.84581302188179,9.343180299106912,71.97196363132957,0.0525735405652052,120.0553007578495,377.7097237708,15.288,0,3.983760066420409,0.0730219407371849,3.550978214754132e-08,-0.0030836963271932,0.0040771920052041,0.0002105031616966,9.9359790906677,28.950392458651216,26.24494263564095,24.00243008861403
0.68,31.22220128200941,131.01042245929287,11.208088720564096,4.349551716406904,8.840102131772209,29.80147599649583,-0.9410294235766192,2.542563215499512,340.8999924858462,25.16227576549064,9.466803190736204,71.9701569061335,0.0599909745740569,120.06310161357364,387.3843323492303,15.288,0,3.997435396458168,0.0739522164937001,3.8979395883019855e-08,-0.0032335170774717,0.0043883864068861,0.0002235369700332,9.844571607317128,28.62755361233226,26.54537303030536,29.92454069239101
0.69,31.22220087008513,131.0104233327058,11.439197227728918,4.357243979382776,8.748958943611008,36.72057118709272,-0.9606379128358344,2.5276570493436545,401.0140726853634,25.449426706806783,9.581125231758726,71.96826252984056,0.0679594477336982,120.07148205263908,396.2676188840656,15.288,0,4.011055750982292,0.0747963514138529,4.2669646811730127e-08,-0.003388298603956,0.0047058980996756,0.0002369050537846,9.766371418277744,28.342086231386624,26.818375556762565,36.819997605445586
0.7,31.22220045348657,131.0104242174872,11.673149761538795,4.3642274611803575,8.658926861480412,30.779299172290983,-0.980573713215154,2.5124264499726494,349.27032420985284,25.73766551958906,9.695694590765092,71.96627751479845,0.0764898200424529,120.08045351535505,405.2855563343238,15.288,0,4.024625374720805,0.075643690446815,4.6585088545046026e-08,-0.003548238333897,0.0050299815994745,0.0002508920062222,9.689077138304222,28.060793228837326,27.092635033663125,30.89723400259258
0.71,31.222200032278703,131.0104251135232,11.909909228728123,4.367425667939965,8.563923035987521,25.272362687049927,-1.0015556789424436,2.496477113954972,301.33126406340574,26.044982485584374,9.81616214267103,71.96419889981404,0.0855931862140506,120.09002768237698,415.0124131363056,15.288,0,4.038103849055535,0.0765471077301664,5.07304404447572e-08,-0.0037134065457867,0.0053606303042018,0.0002657000171852,9.605876928412751,27.765444407132765,27.385197070998576,25.415110220975166
0.72,31.22219960647212,131.01042602081176,12.149476402343428,4.366173061132815,8.462893322056692,30.97064891706095,-1.0238073787474506,2.4796781158067502,350.79220534145287,26.376032290789365,9.943984895560456,71.96202347001699,0.0952808923127275,120.10021651067694,425.6198632297984,15.288,0,4.051524524534742,0.0775202841205342,5.51105169204192e-08,-0.0038839255014456,0.0056979408461454,0.0002814267529019,9.51552100391722,27.45257613529558,27.70055203231121,31.086622194291827
0.73,31.222199176072127,131.01042693936233,12.391855894793732,4.374025504932348,8.381585818180206,39.21199793485604,-1.0441104139722903,2.463774030280944,422.320318528234,26.65088222122428,10.05407017018902,71.95974805349077,0.1055646515051718,120.11103233436933,434.52626013101246,15.288,0,4.064894053307346,0.0783282939813874,5.973026752348185e-08,-0.0040599350783912,0.0060420430012725,0.0002972388644114,9.447029081170331,27.20028288246418,27.962767947219483,39.30319492193996
0.74,31.222198741019383,131.01042786931504,12.637096517419742,4.378357419773337,8.295748441523315,24.50214456551298,-1.065436746680125,2.4471517380269074,294.48281347105944,26.94374306655944,10.169715232454248,71.95736932786417,0.116455766307793,120.12248706815004,444.1181036131062,15.288,0,4.078193963618581,0.0791892459548128,6.459448897366829e-08,-0.0042415737871363,0.0063930550662211,0.000313942159672,9.373113614783044,26.93514065082549,28.2422880337744,24.64708492701321
0.75,31.22219830170325,131.01042880988825,12.884935965753773,4.380288034604982,8.207535614858708,28.62725124269607,-1.0875616472791618,2.429921040905888,330.24688556441487,27.24850398375722,10.289006486464912,71.95488402637874,0.1279655904363944,120.13459267380956,454.2109607776405,15.288,0,4.091407483723212,0.0800851801492131,6.970821729849528e-08,-0.0044286822349877,0.0067505278734077,0.0003314908412072,9.296187059339308,26.66365102996696,28.533335965825447,28.750770777739394
0.76,31.22219785801329,131.01042976132635,13.135458306896147,4.385175296051712,8.126834705901745,30.82582399357144,-1.1091432447066478,2.4128280481323374,349.27032420986166,27.532645132893794,10.40173551716244,71.95228879977606,0.1401053732479829,120.14736100858995,463.7220100060393,15.288,0,4.104560529689137,0.080920518753667,7.507619093519526e-08,-0.0046214755387415,0.0071147303534515,0.0003495203752329,9.227460248684585,26.415865841479988,28.804929214706256,30.93999616693217
0.77,31.22219740989513,131.0104307237577,13.388708510773588,4.390485790593385,8.04881724658939,28.816149802927,-1.1308018761011187,2.39553087088304,331.7687666960708,27.81128458057403,10.512646661186723,71.94958021861486,0.1528864723693783,120.16080404564671,473.1440371664663,15.288,0,4.11765452158078,0.081739694635635,8.070323792003758e-08,-0.0048201187858151,0.0074858284976323,0.0003682240327423,9.161484972885974,26.17711439277828,29.07143560246885,28.937653161600323
0.78,31.222196957424003,131.0104316970444,13.644641665107669,4.392462116462593,7.9666306706576995,23.647390286866063,-1.1535279010083987,2.377462263604259,286.8734378128899,28.107842212062167,10.62909033681608,71.94675479085811,0.1663202687255308,120.17493378443235,483.2764281394521,15.288,0,4.130671565093348,0.0826115408934319,8.659429807057945e-08,-0.0050246651498579,0.0078637769579895,0.0003879335118044,9.09045554407682,25.92648094978538,29.355209277869125,23.794579651942467
0.79,31.22219650070013,131.01043268099707,13.903195580357508,4.392390212272815,7.882650283247283,33.65604667589696,-1.17702812469155,2.358776591657109,373.6203323159534,28.414804501676755,10.748709854033851,71.94380894013966,0.1804182649668791,120.18976235461795,493.87740831142327,15.288,0,4.143606835427075,0.0835139749944877,9.275438645780068e-08,-0.0052351639000537,0.0082485256536519,0.0004085891574949,9.017058324648476,25.67118209553943,29.649105936642854,33.759127655581075
0.8,31.22219603949417,131.01043367610188,14.164536054143156,4.397655650103768,7.809896874895382,34.10282729636621,-1.1992837587021832,2.340637658446912,377.42502064505743,28.68523326216168,10.856774400667945,71.94073896379705,0.1951922804513676,120.2053022220018,503.3101488167283,15.288,0,4.156487473638673,0.0843090409734839,9.918839467705957e-08,-0.0054519554906071,0.0086405495048248,0.0004295479693448,8.956220955077645,25.45115943324492,29.9082136099303,34.2040888752764
0.81,31.222195573921304,131.01043468213777,14.428590268286744,4.398910908924573,7.731803016859051,22.170203650881064,-1.2228482554385816,2.321571497014628,273.9374926939919,28.978453399365183,10.971898717624128,71.93754112161031,0.2106540246219247,120.2215657382811,513.639375624152,15.288,0,4.169306857630483,0.0851711007984156,1.0590149249957668e-07,-0.0056750493212433,0.0090397176113605,0.0004516841107762,8.888956488776484,25.215516385055142,30.18927944393345,22.324940806038434
0.82,31.222195104188604,131.01043569869574,14.69522200199348,4.398312392644486,7.652200623092787,28.498267826048835,-1.2471749064526971,2.301882499476753,328.72500443277005,29.28117759719704,11.089917196175945,71.9342115993545,0.2268151886754091,120.2385652390962,524.4134960801251,15.288,0,4.1820592030288015,0.0860611019044542,1.1289891662262101e-07,-0.0059044009932898,0.0094458097700046,0.0004748355570513,8.819644148060094,24.975981968040543,30.47961223954168,28.618269992679377
0.83,31.222194630283862,131.01043672581537,14.964446440299804,4.40428301066281,7.5854094714017455,36.23529941461823,-1.2698015702042311,2.28301875253373,395.68750322465047,29.53823782866973,11.19352333471639,71.93074646867063,0.243687532854164,120.25631313780696,533.6477955093343,15.288,0,4.194734371303506,0.0868168983019725,1.201857409023735e-07,-0.0061401738275546,0.0098589749588478,0.0004981187272348,8.76485249642449,24.776875906929007,30.72627356042359,36.32934756253058
0.84,31.222194152098293,131.01043776373152,15.236344745661883,4.408536390699072,7.51710867265012,22.35942460993315,-1.2930963044696062,2.26359015850583,275.4593748256452,29.80342583320364,11.299590568429135,71.92714187386999,0.2612824890656347,120.27482150001306,543.2585744965925,15.288,0,4.207336752028975,0.0875965906375021,1.2776687502771754e-07,-0.0063825711391888,0.0102794225068572,0.0005224180004022,8.708067019919113,24.573994253053822,30.98082594350322,22.510881976182134
0.85,31.22219366995332,131.01043881180013,15.510701449152275,4.406810083321828,7.440228154122133,24.38561620782855,-1.3183995256584051,2.242782915043411,292.96093233939376,30.10560852152337,11.417180194479752,71.92339389126076,0.2796114171878369,120.2941023187549,554.316224918222,15.288,0,4.219867371569752,0.0884850232862297,1.356476420796455e-07,-0.006631414782006,0.010706704794359,0.0005482749961394,8.641044293404402,24.34529603931252,31.27103499804541,24.52399906925413
0.86,31.22219318366683,131.0104398704057,15.7876482575981,4.408976278663974,7.371307908369466,30.54531047502557,-1.3427378475642926,2.2223735808643945,346.2265619465587,30.379061357020824,11.525670257481172,71.91949833281211,0.2986860985620615,120.31416804139096,564.4167864862811,15.288,0,4.232334874832742,0.0892890223188199,1.4383298764133917e-07,-0.0068870384300532,0.0111412552001813,0.0005745662922728,8.58299721225817,24.14207114825376,31.533752175447223,30.655470658202468
0.87,31.222192693269232,131.01044093949753,16.067170074166334,4.412819428408626,7.306486669893809,28.441019202308468,-1.3667404382232389,2.201991319793453,327.964078366998,30.638140681601463,11.629564790209656,71.91545108741795,0.3185181480489282,120.33503093524776,574.06936721994,15.288,0,4.244738636178363,0.0900507827653371,1.523280674306041e-07,-0.0071495436803792,0.011583102583896,0.0006015370170446,8.529478911412186,23.95240693307261,31.782732816462104,28.558857093098098
0.88,31.222192198803054,131.01044201899964,16.349243235481104,4.4135250792540495,7.237835421597007,24.576116069047767,-1.391931862543284,2.1807041742354234,294.4828134710418,30.91563208730884,11.739151032619942,71.9112479365408,0.3391190860603742,120.35670317499078,584.4993827869808,15.288,0,4.25707568720426,0.090866667087955,1.6113808160083816e-07,-0.007418992860269,0.0120322090994903,0.0006298439274568,8.471227718646272,23.751604154673704,32.04952725344182,24.711908587658684
0.89,31.22219170036023,131.0104431087353,16.63381013714484,4.411157724827884,7.16555035417381,26.956917328840888,-1.4183452378724404,2.1584767867117187,315.028134248087,31.211647154368425,11.85446645147714,71.90688454914944,0.360500491009316,120.37919700132764,595.7297714756318,15.288,0,4.269345013018109,0.0917370037699538,1.7026828980966645e-07,-0.007695443330695,0.0124885302315227,0.0006595509147587,8.408438128658128,23.540189323916035,32.33427738517915,27.080364050849298
0.9,31.222191197863715,131.0104442088717,16.920929289701544,4.415521506062984,7.105293559911694,29.77902711425797,-1.4427472430297827,2.137305897484603,339.37814235421445,31.45797114763782,11.95410656015428,71.9023565647914,0.3826742340526082,120.40252495952906,605.153251635506,15.288,0,4.281540415696743,0.092461296660581,1.797238443858242e-07,-0.0079791290184858,0.0129523105143862,0.0006892427645151,8.359541825890112,23.367222951559068,32.57120956792609,29.890467577112336
0.91,31.222190691392825,131.01044531925584,17.210551161171164,4.416788956192472,7.041252632315144,22.65324905144592,-1.46836020536707,2.115198111273106,277.7421810230789,31.72280584897281,12.059472037563388,71.89765947372653,0.4056516652220015,120.42669906186076,615.3682118527454,15.288,0,4.293665580539876,0.0932400037437961,1.895100094428583e-07,-0.0082700820732084,0.0134234581451693,0.0007203695571511,8.30595674984353,23.18321508103248,32.82606130255009,22.79911922266898
0.92,31.22219018116857,131.01044643944775,17.502529406217153,4.415047084293252,6.973653585147608,26.97285110105104,-1.4952091544758537,2.092122530527013,315.02813424806214,32.006090877769424,12.170549814520747,71.89278886749247,0.4294441292486886,120.45173130669228,626.3902098254274,15.288,0,4.305719557852769,0.0940729479918404,1.9963228140714868e-07,-0.0085681842726168,0.013901645629352,0.0007529795686296,8.247914676695352,22.98877069678436,33.098807215074864,27.095153138851927
0.93,31.22218966709641,131.01044756964728,17.796933622068373,4.419461216062318,6.916770346809774,32.08755224760323,-1.5201077495872193,2.070088224186428,359.1625070654728,32.24244935452784,12.266819856577492,71.88774008473317,0.4540630086862689,120.47763374738328,635.6579254981217,15.288,0,4.317708561912007,0.0947679724003863,2.1009562121587405e-07,-0.0088737105984151,0.0143871759977391,0.0007855661609536,8.202337392379842,22.828815938128542,33.32629605841478,32.1901693389292
0.94,31.22218914905985,131.0104487100962,18.093847534450983,4.417805458248122,6.851563543463012,23.28206418522987,-1.54733393559913,2.046385373446584,283.0687504837787,32.5192265317223,12.375694540435935,71.88250850880227,0.4795193686832499,120.50441810344245,646.5996182575024,15.288,0,4.329632453797287,0.0955818043832054,2.2090501472713845e-07,-0.0091868731762978,0.0148802414040488,0.0008202477057971,8.146641750389211,22.64339297511337,33.592904419876845,23.42298973508882
0.95,31.22218862737451,131.01044986016305,18.393060308371343,4.416723887106636,6.7883315946463165,30.16137833052423,-1.5745681271695156,2.0224763993601265,342.4218736174873,32.78904779483252,12.48231134081033,71.87708943055647,0.5058246479216516,120.53209648641392,657.3552840949184,15.288,0,4.3414864432383125,0.0963751991520978,2.3206622141118125e-07,-0.0095074830007292,0.0153804086494079,0.0008558920214074,8.093052414729389,22.46491985713053,33.85286351197942,30.270091152325318
0.96,31.222188101725216,131.01045102049048,18.694791001697688,4.418613832300393,6.730640541254767,29.550065187043018,-1.6009074207991636,1.9989471132841248,337.09533515678345,33.034001175755584,12.58103981253568,71.87147797305711,0.5329901245576751,120.56068085176324,667.1942933730489,15.288,0,4.353279839104482,0.097095508875716,2.4358387836509137e-07,-0.009836047541788,0.0158883255040966,0.0008920595134691,8.045852555052738,22.304745173456176,34.0888177945406,29.660833546786385
0.97,31.222187572135123,131.0104521910364,18.999027645966503,4.41869382235177,6.671195303618612,18.884542609574435,-1.6281013968059872,1.9746686517567968,245.02188719299323,33.2889909271815,12.682838743103035,71.8656691133586,0.5610272612235216,120.59018335446424,677.5144070431737,15.288,0,4.365011491658941,0.0978453258718294,2.554633972516082e-07,-0.0101726731753106,0.0164040086289557,0.0009296833702666,7.996333822969375,22.13977479506449,34.33453369773406,19.057176601357952
0.98,31.222187038917905,131.010453371173,19.305560704836367,4.413001058601725,6.6041528628654,27.53241630051372,-1.6577146091176396,1.948603845846316,319.5937466429581,33.58404595145878,12.797147963463638,71.85965793069954,0.5899473100515124,120.62061592261476,689.5575501860925,15.288,0,4.376673465841944,0.0987129136260399,2.67710774469249e-07,-0.0105170949640426,0.0169269138375108,0.0009696508105114,7.937446534245709,21.95133246076236,34.619128310205305,27.651022079086385
0.99,31.222186501914745,131.01045456122512,19.61450210250407,4.416507520771153,6.551688566860749,30.096269740316263,-1.683962273257782,1.9245386535772104,341.6609485517054,33.80711343078172,12.888771448626942,71.85343916152736,0.6197617668309964,120.65199075927718,698.7274129836271,15.288,0,4.388274634479134,0.0993689178025486,2.803309598028143e-07,-0.0108697110418071,0.0174575052679735,0.001008787651052,7.895887441229663,21.810063251674645,34.83400896858356,30.20471867521273
1.0,31.22218596112442,131.01045576119677,19.92585546464885,4.414394235139381,6.4918524873566685,26.92443273362685,-1.712589017690077,1.898702258240576,314.2672081822764,34.069199122844246,12.992575197610805,71.84700776586345,0.6504813196631611,120.684319213316,709.581791381181,15.288,0,4.399811497216498,0.1001396155302228,2.9332924986888377e-07,-0.0112305930606471,0.0179957437904328,0.0010503288524325,7.845223449537618,21.646017503894512,35.08675645495792,27.04557467380861
1.01,31.222185416743248,131.0104569706965,20.239491088464483,4.413005500823972,6.433974808661029,28.165201727380808,-1.7411072650093866,1.872725474674796,324.9203161036979,34.32268022878127,13.093605147404457,71.84035842499543,0.6821171074022099,120.71761311847706,720.1582151411159,15.288,0,4.411282431934895,0.1008850297190277,3.067114005025564e-07,-0.0115996588916855,0.0185413678065002,0.0010928838545948,7.796710215013896,21.48894359850204,35.33120393335769,28.281038586936994
1.02,31.222184868688604,131.01045818989164,20.55546774246209,4.412847010229914,6.378726690123256,23.48975088813552,-1.769296678488665,1.8467573685389955,284.59063161540416,34.56343254150653,13.190562659052798,71.83348582764913,0.7146798535936748,120.75188387647864,730.2744112120976,15.288,0,4.422690260676388,0.1015930378552844,3.2048246263475453e-07,-0.0119771469746013,0.0190945876424303,0.0011363304974525,7.751181985417115,21.34103420391634,35.563332083732995,23.62857000119617
1.03,31.22218431703409,131.01045941863472,20.87373808012081,4.408792486541334,6.31875838834103,19.165057472784607,-1.799288183126824,1.819362214014884,247.30469339049705,34.83109658492732,13.295909735346674,71.82638461197257,0.7481800363534267,120.78714263675144,741.6062301974284,15.288,0,4.434032926724974,0.102380156200155,3.346478705812937e-07,-0.0123630765532227,0.0196552888447555,0.0011819928442886,7.699692325782088,21.17864921706618,35.8216340981032,19.335122052029103
1.04,31.222183761846395,131.01046065679367,21.194259899655524,4.4081049637265775,6.2644020898558415,30.56573234960677,-1.8280521614101208,1.792575502944148,345.46563688072297,35.06935266352495,13.391944580516448,71.81904922920776,0.7826284631501185,120.82340090178415,751.7634438526976,15.288,0,4.445312060540136,0.1030808427369439,3.492130895889424e-07,-0.0127575304651208,0.0202234527117142,0.001228010654532,7.654841794433207,21.035041906147743,36.05140333500216,30.672774502910386
1.05,31.22218320281653,131.01046190498388,21.517243175953908,4.404237681512676,6.206385998717104,18.374663303290205,-1.8583595911874864,1.7645197004071655,240.45625879819983,35.32918928685217,13.494692026038887,71.81147410142763,0.8180355840476156,120.86066980495173,762.9210098261487,15.288,0,4.456533884294004,0.1038449700721671,3.641826128010186e-07,-0.0131610568405604,0.0207997178406957,0.0012761999842553,7.60529950344476,20.88032324052065,36.30218072527126,18.55250068461293
1.06,31.222182640199936,131.01046316269495,21.842518163747265,4.397646992289896,6.145417396907545,26.24486605016859,-1.8900900059191823,1.7352575233198944,308.17968365593924,35.60761282883356,13.603221755867944,71.80365342155912,0.8544123211464595,120.89896098281928,774.9690910510934,15.288,0,4.467693642163236,0.1046637394056626,3.795627176786715e-07,-0.0135734391839643,0.0213836294252356,0.0013265190478986,7.551900872813786,20.71667783831831,36.57108292372765,26.369993418543086
1.07,31.2221820738706,131.01046443017728,22.170171760077835,4.396763974151972,6.093145278107138,30.93582411421794,-1.9194750922439208,1.707375807694243,348.5093681440308,35.83717825578716,13.696312952438417,71.7955812251636,0.8917697435359478,120.9382862343309,784.969186630203,15.288,0,4.478797757461846,0.1053389052613927,3.953585256155735e-07,-0.0139950614070508,0.0219755839659446,0.0013764982940338,7.508994176150352,20.58194619245269,36.79248425032056,31.042305494345495
1.08,31.222181503717263,131.01046570764805,22.500279648906403,4.394457703353003,6.039643295175114,20.769413264779743,-1.9496636673379253,1.678713670492822,261.00157857466235,36.07452872318981,13.791781346969232,71.78725155175253,0.9301183885030936,120.97865680612334,795.3761376912083,15.288,0,4.489846941209107,0.1060369622857611,4.115752959853631e-07,-0.0144261892983394,0.0225757983516593,0.001428254446242,7.464378215719506,20.443949951134726,37.0214777081604,20.92815795445088
1.09,31.222180930036,131.01046699451578,22.83264482620276,4.385658512134251,5.978078122173792,19.09081652103597,-1.9830512645618208,1.647586446874912,246.54375332474407,36.361396287753,13.902776261359428,71.77865832669902,0.96946874049855,121.0200838965263,808.050427378018,15.288,0,4.50083468295799,0.1068805776358584,4.282196230033909e-07,-0.0148664988002596,0.0231836732280803,0.0014835038555507,7.409557704537958,20.280271849339243,37.29872777161696,19.264119727038295
1.1,31.222180352907685,131.01046829061755,23.16721484871708,4.379946297045542,5.921475636133168,38.47461201590959,-2.015227821555377,1.6170536208759414,413.1890617385841,36.62007566307962,14.004841337695073,71.76979536091133,1.0098312179120303,121.06257864256196,819.5621223498342,15.288,0,4.511763136081836,0.10764134540537,4.452971709781634e-07,-0.0153160654887842,0.0237991702799388,0.0015391888994861,7.360667524680231,20.133424377916604,37.548563944698,38.56127299973814
1.11,31.222179771893583,131.01046959681668,23.50428324876344,4.380600533648344,5.874084569501171,28.12441886854258,-2.044509045461545,1.5883195135497004,324.1593910376397,36.82242871677584,14.089095194328385,71.76065631664463,1.0512162966460243,121.10615225065204,828.6176945079843,15.288,0,4.52264272243348,0.1082365553039308,4.628119879037168e-07,-0.0157757401151148,0.0244232964879357,0.0015940927368725,7.323061139158239,20.01754029482184,37.743512230761496,28.243330412813055
1.12,31.22217918705713,131.0104709129789,23.843807174898348,4.368859691296258,5.81093657195087,10.507957937060375,-2.0800180856981774,1.5549367138519887,172.73281794065943,37.12434222998841,14.204650280391297,71.75123485377276,1.093633917984046,121.15081537240393,842.23389347608,15.288,0,4.533468707811744,0.1091244237990347,4.807701057878914e-07,-0.0162455013421426,0.0250558575017095,0.0016549662139728,7.265563005264126,19.850468779177397,38.03555800626514,10.824115826613575
1.13,31.222178599039736,131.01047223783695,24.185362077898453,4.363588809457044,5.757065337357696,33.18171520919162,-2.1125553711911644,1.5233993335434053,367.5328077900705,37.36909921200196,14.302149399575224,71.74152422487514,1.1370950589000608,121.1965797582694,853.3480285505946,15.288,0,4.544233929409995,0.1098442933222768,4.991796629152889e-07,-0.0167245411798434,0.0256956262713648,0.001714943589965,7.219457080848055,19.714566024432663,38.27189599620702,33.28377772954398
1.14,31.222178007115737,131.01047357281075,24.52942895697749,4.362814973006696,5.709705598298927,18.30389002498097,-2.142960077099669,1.493139885168494,239.69531773195544,37.571827212009225,14.386328974047553,71.73151795042719,1.1816090869321532,121.24345547464794,862.6034893208687,15.288,0,4.554952637913456,0.1104406293033501,5.180432415946116e-07,-0.0172141883512199,0.0263442152937351,0.0017746696065868,7.181352143203845,19.600960143126677,38.46722196064595,18.489297841057184
1.15,31.2221774118102,131.0104749168581,24.87565903258201,4.349471394633764,5.646708860714922,18.039238082129742,-2.1800006360039847,1.457851935738909,237.41251153546767,37.87832413680395,14.503184597123736,71.72120946207221,1.2271851532970368,121.29145236820064,876.7053290442885,15.288,0,4.565611863014418,0.1113419977217971,5.37368736544955e-07,-0.0177136197887958,0.0270003773205875,0.0018409935871821,7.123335624813984,19.4360559705014,38.76387193605772,18.22887395379307
1.16,31.222176813271258,131.01047626968435,25.22395561224201,4.349477917713688,5.601550899103209,47.46923416572516,-2.2102495392712527,1.4271992167191454,490.0437743845894,38.066644552130725,14.582713281010552,71.71059178660269,1.2738333705318747,121.34058130808486,885.4148427237604,15.288,0,4.576216137150179,0.1118959987567564,5.571620975232416e-07,-0.0182228643337318,0.0276640100616604,0.0019032722251372,7.087665049589397,19.33116988881955,38.94513310162742,47.54208969860813
1.17,31.22217621053954,131.010477633153,25.574948991362625,4.342771963618162,5.548380285382695,8.290079325049348,-2.244163078318077,1.3936311037411222,153.70937929486794,38.30875491360232,14.679143000724432,71.699658197183,1.321562338272991,121.39085158132816,896.6832058012784,15.288,0,4.586765024787888,0.1126081224680166,5.774248736426105e-07,-0.0187436627022547,0.0283372037027317,0.0019700512577503,7.041674551342783,19.200351344534667,39.17893094846469,8.700798284698445
1.18,31.22217560486851,131.01047900480515,25.927813228642457,4.327176123855084,5.4846297048362205,23.00997070886014,-2.283124002143529,1.3560894809432225,280.02501822196746,38.62569268711694,14.799171826655428,71.68840164259487,1.3703812784928469,121.44227313844524,911.5506450278624,15.288,0,4.597247918026715,0.1135402093651594,5.981685523764357e-07,-0.0192738783412761,0.0290170474222406,0.0020424700740285,6.982003097815573,19.03457323245373,39.48590118370648,23.16269383970894
1.19,31.222174995687286,131.01048038574723,26.28292369719903,4.330512452810422,5.445277206976817,40.3107637195756,-2.3118086765330674,1.325809687408963,428.4078130529292,38.771975646243966,14.86524849653542,71.67681485148432,1.420299612107785,121.49485615210834,918.4368260078604,15.288,0,4.607684486154118,0.113970664815351,6.193955450818656e-07,-0.0198148832365427,0.0297051526875352,0.0021076812987714,6.953262903620893,18.951489863096747,39.62603076408614,40.39876114857451
1.2,31.22217438249772,131.01048177692928,26.640602697789088,4.3182212693653925,5.386971293884583,4.027240034058592,-2.349329913196444,1.2887498930270571,117.1843741360236,39.052504585094965,14.973678202479356,71.66489090037341,1.4713248858158432,121.54860883162928,931.7433221380968,15.288,0,4.618076002123026,0.1147957462158256,6.411095161149973e-07,-0.0203675477711719,0.0304024421860105,0.0021820676320098,6.900108397960041,18.805246243534167,39.89744192134695,4.83723987618364
1.21,31.22217376656328,131.0104831758893,27.000023639098,4.30652397511956,5.330049704049704,32.33709243590571,-2.386739752100847,1.2514672732697936,359.92343213200894,39.324876246927445,15.079515165896026,71.65262225407922,1.523466244194292,121.60354107902032,944.752912233944,15.288,0,4.628405076708356,0.1155968579492793,6.633223678022829e-07,-0.0209296933087545,0.0311060253639498,0.0022578537420982,6.848505535950619,18.66414892155375,40.160911435605165,32.4491948157213
1.22,31.222173146911107,131.01048458449955,27.361819526631617,4.307848920093279,5.289649141737273,23.375707684355312,-2.4166816651249072,1.2194690993110775,283.0687504825761,39.475388858687175,15.14675527801547,71.64000157411593,1.5767314908828207,121.65966139756628,951.9655886200192,15.288,0,4.638692730924832,0.1160397688738504,6.860340691687237e-07,-0.0215034379050959,0.0318183925370657,0.0023285458785415,6.81800385415361,18.579899646714832,40.30510517438691,23.531918002983808
1.23,31.22217252391886,131.01048600201003,27.72574013203961,4.294497600715063,5.231872509612404,8.992747324967667,-2.455346885185437,1.1806577663669209,159.79687382222795,39.755014241428256,15.254805874332584,71.62702172125557,1.6311271109888064,121.71697691170688,965.46616967846,15.288,0,4.648927064081562,0.1168622208539277,7.092524759949916e-07,-0.0220880021571497,0.0325384040407128,0.0024087051989699,6.7649015235668015,18.437131338223534,40.57569325399714,9.39639215542782
