Time,Latitude,Longitude,Altitude,Angle of Attack,Angle of Sideslip,X-Acceleration,Y-Acceleration,Z-Acceleration,Thrust,True Velocity,Ground Velocity,Pitch,Roll,Yaw,Dynamic Pressure,cp,cg,parachute_deploy_gain,Wind Speed,Wind Direction,Mach,omega_x,omega_y,omega_z,Cmq,Angle of Attack(total),Angle of Attack(gust),True Velocity(gust),Acceleration
0.0,31.222216000000007,131.010392,3.000000004412624,0.0,0.0,0.0,0.0,0.0,2.2828121974499247,0.0,0.0,69.99999999623412,0.0,119.9999999935444,0.0,1.274,1.0271675151847728,0.0,0.0,0.0,0.0,0.0,0.0,0.0,-0.0,0.0,90.0,0.0,0.0
0.01,31.22221599999084,131.01039200000497,3.000002745347096,0.0,0.0,0.0,0.0,0.0,34.242186961749226,3.465174813755316e-14,2.8705476994166025e-14,69.9999999962611,-2.1713911667908447e-11,119.99999999352175,7.352495975525499e-28,1.274,1.0271659134330349,0.0,0.0,0.0,1.0183245502395064e-16,-3.3305335486039093e-18,7.169286865560398e-18,5.624298769768554e-18,-7.715917190115602e-34,0.0,89.99999999999979,3.465174813755316e-14,0.0
0.02,31.222215999994315,131.0103920000094,3.0000030495639742,0.0,0.0,0.0,0.0,0.0,25.871876237766216,3.8197434737535036e-11,2.4171837235633357e-11,69.99999999628672,-1.1921727947863515e-11,119.99999999353136,8.93414285188691e-22,1.274,1.027164492361118,0.0,0.0,0.0,1.1225230367947217e-13,-6.657678965418802e-18,1.4338573731120796e-17,1.1241821275959074e-17,-1.7010872994127372e-30,0.0,89.99999999975682,3.8197434737535036e-11,0.0
0.03,31.222215999994315,131.0103920000094,3.0000030495639742,0.0,0.0,9.81877837424427,-2.5122800045972096e-05,3.3498614629347925,180.34219359854663,1.2659015405517447e-10,1.1364406173918436e-10,69.99999999631459,-1.6431898037347223e-11,119.99999999352724,9.812605835254651e-21,1.274,1.0271551940870716,0.0,0.0,0.0,3.720154642239108e-13,-9.991600645811728e-18,2.150108433310316e-17,1.6859343782149594e-17,-8.453698244545225e-30,0.0,89.99999999919412,1.2659015405517447e-10,10.374487003414373
0.04,31.222215999994315,131.0103920000094,3.0000030495639742,18.83801224594347,-0.0001111777826462,48.68248476615645,-1.016330065874988e-05,3.3497854396877287,548.635972453808,0.1556173050466994,0.0975908358443652,69.99999999633813,-2.0932768807056278e-11,119.99999999352085,0.0148286043323172,1.274,1.027133720825283,0.0,0.0,0.0,0.0004573186944143,-1.3322134194415637e-17,-1.04744143520903e-11,1.336824254131964e-11,5.0626055458604615e-15,18.83801224625964,89.06236267790787,0.1555998412814392,48.79759610369246
0.05,31.22221599164764,131.01039201704114,3.002326315126219,5.772385609593056,-4.395076213712875e-06,71.20344550265034,4.905512691849684e-05,3.349217396035405,761.6984298824663,0.8326471944351852,0.3620326097059287,70.00000001316391,-1.0866255162484559e-10,120.00000000231074,0.4245281043148827,1.274,1.027093426565204,0.0,0.0,0.0,0.0024469331205246,-5.0245994431125096e-18,-7.32924164976824e-07,2.217344936947165e-11,1.895424184525467e-09,5.772385609594774,84.74112356985832,0.8326465040582279,71.28217104309611
0.06,31.22221596664444,131.01039206837547,3.015081730143309,4.056581213689704,3.169093567502233e-05,53.16249142470188,0.0001203825427859,3.3481235983850643,590.4875390737236,1.657216205300742,0.6755452977614796,69.99999964391398,-3.9285905645317736e-10,120.0000000287861,1.6816755551786196,1.274,1.027050317124926,0.0,0.0,0.0,0.0048701272653724,3.095757869075056e-13,-7.483541766772344e-06,3.074135420506017e-11,3.8518749565858254e-08,4.056581213813337,79.59316473687034,1.657221183301277,53.26781792157489
0.07,31.22221592883117,131.0103921460222,3.034593611434361,4.115662018628709,6.450869598349036e-05,81.18203554989698,0.0001593212642178,3.347059402768047,855.2937749779172,2.099899704220947,0.8579771146174259,69.99999543281565,-8.233801910783518e-10,120.00000006883089,2.700101932075157,1.274,1.027003201295312,0.0,0.0,0.0,0.006171060252819,3.4704292086287e-12,-2.6327204536316785e-05,1.9541142932033486e-10,1.7170712165327165e-07,4.115662019133419,76.90111966094352,2.099909837223217,81.2510043180746
0.08,31.22221588914193,131.01039222747755,3.0542761843835606,3.459696193892355,8.037433511260004e-05,16.298214211652088,0.0002413456836072,3.344878926597744,241.2171988638792,3.051964775152957,1.2149999716613011,69.99998042886442,-1.0128995578004475e-09,120.00000011111383,5.703497661025892,1.274,1.0269597189470347,0.0,0.0,0.0,0.0089689344021769,1.458982438104473e-11,-5.702803872814215e-05,7.043261397829576e-10,5.405702492731987e-07,3.459696194824858,71.30331929508368,3.051977400323993,16.63790856991177
0.09,31.2222158241468,131.01039236098703,3.0886872184095737,4.313676956300389,0.0001337561018991,50.35975918308536,0.0002293282821279,3.344215841840564,563.0937377043203,2.893161298572128,1.191209213966114,69.99994788602814,-7.098432023887522e-10,120.00000018106356,5.125380275808925,1.274,1.026918932011013,0.0,0.0,0.0,0.0085022553945842,3.8672912027154325e-11,-0.0001115933708951,2.016054215232918e-09,1.0027525988343615e-06,4.313676958370176,72.2316578138625,2.893182308931483,50.47067588835877
0.1,31.2222157788302,131.01039245392113,3.109877853389092,4.035124630954496,0.0001457499816535,47.804664812504015,0.0002878217657545,3.341734392237128,538.7437595981891,3.5677148583138303,1.4531247507621967,69.99988403958329,1.9248461973355822e-09,120.0000002323013,7.7939962029572305,1.274,1.0268846934974103,0.0,0.0,0.0,0.0104845969583028,8.579678749070606e-11,-0.0001726817043215,3.984565639703107e-09,1.913455350430327e-06,4.0351246335824245,68.43243098813296,3.567737752667411,47.92132267234452
0.11,31.222215703308,131.01039260899836,3.148841432727305,4.043401107254707,0.0001752764476999,37.67622367577205,0.0003286462930162,3.3392563999062723,442.86563930529127,4.034183355956686,1.6436552022667772,69.99978525353545,7.302513231814865e-09,120.00000031883242,9.96528118825134,1.274,1.026848594915519,0.0,0.0,0.0,0.0118554331868328,1.5870341853361987e-10,-0.0002596204409236,7.232030302688121e-09,3.252930323390323e-06,4.04340111104746,65.92012987243639,4.034210888316708,37.82391391539392
0.12,31.222215627491828,131.01039276462643,3.186995101203875,4.17874459224363,0.0002066711490009,41.15991989399172,0.0003576945202315,3.336766085769504,475.58594813540793,4.361857560629481,1.7865750500940407,69.99963665601238,1.781774420198147e-08,120.00000041104812,11.649831899889556,1.274,1.0268114448194128,0.0,0.0,0.0,0.0128183893919737,2.682972478760441e-10,-0.0003710216542429,1.2215991071490164e-08,5.026311388647148e-06,4.178744597345269,64.21681651392016,4.361890024457652,41.29495143136631
0.13,31.22221554594398,131.01039293200228,3.2277173449026786,4.202734874672792,0.0002327160860324,45.44886120763352,0.0003953741266062,3.333578629398489,515.9156326236897,4.792165672014363,1.9646716520715424,69.99942424225341,3.613383418913551e-08,120.00000051758742,14.061726603124043,1.274,1.026779572895131,0.0,0.0,0.0,0.0140829618979635,4.248908088871395e-10,-0.0005056103199642,1.908859219307828e-08,7.5253154423526356e-06,4.202734881104192,62.048594618540655,4.792202226971676,45.570952718869485
0.14,31.222215454191247,131.01039312033683,3.2737880595608355,4.184830647080848,0.000257138757548,42.32232525579263,0.0004369426767266,3.329727443445437,486.2390860568421,5.269261304374574,2.158791628597544,69.99913473613935,6.515851355725497e-08,120.00000064630268,17.000925061330125,1.274,1.0267449573927567,0.0,0.0,0.0,0.0154850332441425,6.382432869666793e-10,-0.0006690086306358,2.8426433029675884e-08,1.0948547100483978e-05,4.184830654966803,59.74181173116622,5.269301695636157,42.45310707234106
0.15,31.222215353826755,131.0103933263496,3.3242182719560263,4.21963947489699,0.0002846467688673,40.886944113003565,0.0004726792395108,3.325585650885676,472.5421858721398,5.6781946837482895,2.329510773545807,69.99875162806286,1.0876776246115984e-07,120.00000079954532,19.742017654108928,1.274,1.0267115958081523,0.0,0.0,0.0,0.0166867950518804,9.204756288136623e-10,-0.000865746478554,4.08948221429571e-08,1.526771148078443e-05,4.219639484480408,57.84996018384879,5.678239395958187,41.02196629910223
0.16,31.222215247130432,131.01039354534575,3.3775922280208457,4.253495568077899,0.0003118339050386,32.26872905470846,0.0005078415214353,3.32090791922544,391.1218908297597,6.081244877834229,2.4981889727471702,69.99825581174558,1.7187028096464329e-07,120.0000009800088,22.644030778355887,1.274,1.026675762255412,0.0,0.0,0.0,0.0178712695992133,1.2856146928958252e-09,-0.0010961187242953,5.6923362293832417e-08,2.0702404729358337e-05,4.253495579487569,56.06022383757386,6.081293860589489,32.43916312841722
0.17,31.22221513260033,131.01039378041813,3.4348437275053194,4.364838523348639,0.0003448792023946,40.840448242802736,0.0005326487904353,3.3162727284953744,471.78125980632416,6.362544479165355,2.6250789114832647,69.99762801982864,2.5997588617291615e-07,120.00000119506798,24.78723182122683,1.274,1.0266409836796937,0.0,0.0,0.0,0.0186979513961862,1.747791994374917e-09,-0.0013624931601664,7.706724512977917e-08,2.6923621797558364e-05,4.364838536947241,54.85936171416122,6.362598652663785,40.97486885600156
0.18,31.222215014088988,131.01039402363364,3.4935801365785646,4.353948305387995,0.0003681615230806,33.992183768165326,0.0005718025428208,3.310131992647221,407.1015672119096,6.81502088160835,2.810667639293692,69.99684761766231,3.794979223522764e-07,120.00000144728236,28.437950785509614,1.274,1.0266048342046536,0.0,0.0,0.0,0.020027681385988,2.3221419748804155e-09,-0.0016616990447559,1.0147209890543081e-07,3.517105786247627e-05,4.353948320923495,52.99157233768714,6.815078712285162,34.152972512863755
0.19,31.22221488419521,131.01039429023237,3.558399965607869,4.432620772533925,0.0003996774584738,38.45149959021069,0.0005986099513107,3.304145139297767,448.95313283182486,7.1223367465208405,2.946425726785696,69.99589577323147,5.440084577183829e-07,120.00000176148238,31.060341085698347,1.274,1.026566130444714,0.0,0.0,0.0,0.0209308229359413,3.022391489754689e-09,-0.0020041563310821,1.3135864879722746e-07,4.433199397898183e-05,4.432620790516937,51.77883352025967,7.122399527709208,38.59320142454953
0.2,31.222214751373183,131.01039456280608,3.624052454705669,4.443889400961181,0.0004246617145652,35.23432408779927,0.0006337972852267,3.2968110145188256,418.5156301991588,7.530482904611057,3.1167566004785483,69.99474776398331,7.478025600151903e-07,120.00000211715036,34.72195181863731,1.274,1.026529240027363,0.0,0.0,0.0,0.0221302820454282,3.866698391504749e-09,-0.0023849544920781,1.668144671071589e-07,5.57780533277244e-05,4.443889421210987,50.22448880200342,7.530549610317194,35.38822625098952
0.21,31.222214608673173,131.01039485566503,3.6948551453492566,4.493351735844891,0.0004538195602194,33.79371564104691,0.0006629296043866,3.2891790438445727,404.8187610144608,7.868284042829251,3.2629204975089228,69.99338155599101,1.0150082652278477e-06,120.00000255293388,37.906665490338085,1.274,1.0264923657015164,0.0,0.0,0.0,0.0231230169900677,4.871073773182836e-09,-0.0028117605859743,2.089322918608601e-07,6.870935089180403e-05,4.493351758715364,48.992529909481824,7.868355328639073,33.95340801819282
0.22,31.22221446109996,131.01039515850383,3.767700382407304,4.5412639153933885,0.000482649303782,41.008966751568416,0.0006914639179131,3.2808061382386606,472.5421858721387,8.20057841132235,3.4071691679735228,69.9917708347139,1.3454961520984431e-06,120.00000305929996,41.175744234065135,1.274,1.0264494137127138,0.0,0.0,0.0,0.0240995709751246,6.054779813287368e-09,-0.0032829112061357,2.580881224843564e-07,8.3609968899004e-05,4.54126394098788,47.82515604752711,8.2006542256977,41.13999323561041
0.23,31.22221430675399,131.0103954752338,3.843768625625224,4.52371495179584,0.0005047555656171,33.98493478127787,0.0007294889663961,3.2705214710765107,406.340642146096,8.647938096586296,3.5908865300848416,69.98989017772566,1.7539876018835507e-06,120.00000365514876,45.79040229326471,1.274,1.0264133390858623,0.0,0.0,0.0,0.0254142776666487,7.436335125872812e-09,-0.0038001790077148,3.1489825108822685e-07,0.0001020628978177,4.523714979897577,46.31461705147579,8.648017383405135,34.14194053232237
0.24,31.222214142622448,131.0103958120587,3.92493179063287,4.57837522350066,0.0005351929930195,35.051650311058864,0.0007555049947555,3.26053011385611,416.2328240017099,8.954297884844461,3.72617527247482,69.98771316795013,2.25257161141768e-06,120.0000043564586,49.09180568115741,1.274,1.0263750048312463,0.0,0.0,0.0,0.0263146218848643,9.034877387788232e-09,-0.0043732521010013,3.809642748985157e-07,0.00012161410144,4.578375254714954,45.32798984252032,8.954381952763216,35.20297212911011
0.25,31.22221397517227,131.0103961556623,4.0071748888306855,4.6034117733065,0.0005618935542827,36.03738579534623,0.000785606492708,3.249069743648399,425.3640807915084,9.311611941121669,3.8789349536029696,69.98520781816889,2.8559738498748624e-06,120.00000517181904,53.08749562138344,1.274,1.0263373768840591,0.0,0.0,0.0,0.0273647110956883,1.0873791100894836e-08,-0.0049950711786164,4.5609738277273444e-07,0.0001444478241125,4.603411807525074,44.2165428352526,9.311700203154778,36.183554686886296
0.26,31.22221379934012,131.01039651647062,4.09364247475714,4.621386912291471,0.0005881033207375,39.29107511182762,0.0008162761165496,3.236407051295005,455.80158342417656,9.67833954512075,4.034902068846398,69.98234620927953,3.5784678110229355e-06,120.00000612171208,57.350948423913096,1.274,1.0263006300381676,0.0,0.0,0.0,0.0284424679130479,1.2973286442992724e-08,-0.0056712051373577,5.414206381221602e-07,0.0001704578711045,4.621386949630312,43.12063533194282,9.678431924174348,39.42414126789902
0.27,31.222213616776543,131.01039689108487,4.183310605341074,4.617158109135719,0.0006115457810536,35.90419462403674,0.0008503454714941,3.221982799915672,423.8421996598744,10.088790784535757,4.205862468567124,69.97909721779352,4.436165972465058e-06,120.000007221354,62.31798301949865,1.274,1.026260090595354,0.0,0.0,0.0,0.0296487219805601,1.5355910600537293e-08,-0.0064045199323113,6.379142666348734e-07,0.0002006609239367,4.617158149547818,41.94410287616451,10.08888684592241,36.048472443180565
0.28,31.22221342607797,131.0103972823952,4.277051150896916,4.642105655370123,0.0006389739579882,41.51133203546672,0.0008785747638736,3.2071101123224945,476.3468732012228,10.432377224420517,4.35383399240675,69.97542808435722,5.446665372087172e-06,120.00000849080963,66.63429581008447,1.274,1.0262212716723291,0.0,0.0,0.0,0.0306584788590473,1.8045308789081613e-08,-0.0072006835403936,7.469524967369969e-07,0.0002332868227611,4.642105699250441,41.0023231023774,10.432477594215127,41.63503624837164
0.29,31.22221323001776,131.01039768469093,4.373143569786686,4.62134615173668,0.0006600657405645,33.17552944492765,0.0009148746278066,3.1894209319791806,397.9703104221098,10.876662296046485,4.536381530986506,69.9713027936179,6.629751536885327e-06,120.00000994797426,72.43000748232016,1.274,1.026183007522519,0.0,0.0,0.0,0.0319641703260467,2.1067646517035105e-08,-0.0080566154554079,8.688043379161898e-07,0.000272130659453,4.621346198772975,39.83162628795024,10.876765978930557,33.32848872465723
0.3,31.22221302403368,131.01039810736614,4.4744193758467325,4.664362353358112,0.0006905183788532,31.08096762732793,0.0009381960428197,3.172549142946348,378.1859457108735,11.168362145070317,4.66647911311536,69.96668711012893,8.005507138509574e-06,120.00001161892672,76.36634300732833,1.274,1.0261430389738484,0.0,0.0,0.0,0.0328214509167604,2.4447409007156216e-08,-0.0089829108229115,1.0056222251461646e-06,0.0003115527202986,4.664362404357781,39.09908960432563,11.168470611443622,31.242464973103964
0.31,31.22221281503337,131.01039853619727,4.576593712520673,4.700143580504286,0.0007196683316923,32.79732593144512,0.0009620705970519,3.154230688182399,394.1656220930229,11.470279728974068,4.800072153432283,69.96154070456518,9.597499105113692e-06,120.00001352112182,80.55022837857167,1.274,1.0261054058068628,0.0,0.0,0.0,0.0337087616009043,2.8214060606649844e-08,-0.0099686353219717,1.1565909895184251e-06,0.0003550834484269,4.700143635477137,38.36463422765983,11.47039277421126,32.94865339301887
0.32,31.222212598991007,131.01039897947376,4.68216432480395,4.718667719113184,0.0007464384342556,35.7316568886908,0.0009885845337584,3.133859770838664,421.5593934624264,11.808280530415894,4.946054328851105,69.95582953472353,1.14278227255889e-05,120.00001568218067,85.36654007972253,1.274,1.026068246703101,0.0,0.0,0.0,0.0347021168382987,3.2392058795580455e-08,-0.0110163301561155,1.3226102501723267e-06,0.0004039614423012,4.718667778018562,37.5686120062341,11.808397780690962,35.8688218659563
0.33,31.222212376029034,131.0103994369436,4.791055524254013,4.72141404831576,0.0007708346814671,35.42013590291081,0.0010176135371143,3.1111955852784385,418.5156301991632,12.181577273013426,5.104163223586657,69.94951809396906,1.351997394754887e-05,120.00001812674968,90.84831229869296,1.274,1.0260310883392356,0.0,0.0,0.0,0.0357992034445943,3.700677535501642e-08,-0.0121310534481307,1.5051409581878843e-06,0.0004588955105349,4.721414111097893,36.7208578211118,12.181698355442045,35.55651229220977
0.34,31.222212145785647,131.0103999093516,4.903491659547144,4.73024573449122,0.0007962944975467,27.63851074646407,0.0010446307681611,3.0871492806781062,345.4656368807584,12.53557620048282,5.2556261014174765,69.94256797855994,1.5899658158227497e-05,120.000020882338,96.20413272674828,1.274,1.0259901535019136,0.0,0.0,0.0,0.0368395817555172,4.208561016221623e-08,-0.0133180771902383,1.7057647550599631e-06,0.0005184333231541,4.730245801363397,35.94841996438923,12.535701282129995,27.810389570354005
0.35,31.222211909310875,131.01040039453565,5.018822212845608,4.780248518778662,0.0008286678570753,30.332092807652543,0.0010618579815451,3.063967690608957,370.5765700527057,12.774786382148209,5.367579971644358,69.93493776125636,1.8594985713558667e-05,120.00002397748868,99.9096898192772,1.274,1.025950003202184,0.0,0.0,0.0,0.0375426220587071,4.7658312175989686e-08,-0.0145774693288123,1.9252724355785177e-06,0.0005782798420984,4.780248590437683,35.44790728185619,12.774916548990808,30.486451961956565
0.36,31.22221166933814,131.0104008868675,5.135354490370708,4.798132156899578,0.0008554457330409,34.32674769697476,0.0010851169437774,3.0374319611165923,407.8625232777224,13.09301701329486,5.506730645516068,69.92658597246795,2.163521613217148e-05,120.0000274401514,104.94818266210537,1.274,1.0259105142325406,0.0,0.0,0.0,0.0384778908056978,5.3755109608570216e-08,-0.0158991451700967,2.162609490834569e-06,0.0006464142451675,4.798132232978766,34.796094028187134,13.09315138639638,34.46087058603792
0.37,31.222211421355144,131.01040139563804,5.255882891363927,4.797392186816851,0.0008791822061288,32.551601855236584,0.00111162791192,3.0078619428913056,391.1218908297639,13.457513730739372,5.661815946371007,69.91747693543164,2.5047738471809164e-05,120.0000313040604,110.87154396328836,1.274,1.025872170958032,0.0,0.0,0.0,0.0395491312153729,6.040098808671168e-08,-0.0172926678053148,2.420031948898497e-06,0.0007226353721561,4.797392267189059,34.07332166419882,13.457651832357364,32.69027405888565
0.38,31.22221116634284,131.01040191882743,5.379799334000849,4.811698494594017,0.0009057112478668,34.02947987649063,0.0011338447913587,2.9774881690446744,404.81876101445977,13.77554886562956,5.800899861213392,69.90756948297444,2.886339581486796e-05,120.00003560072224,116.17243393848278,1.274,1.02583050512925,0.0,0.0,0.0,0.0404838339452728,6.762496638941508e-08,-0.0187646375218858,2.69955777313946e-06,0.0008026686661094,4.8116985796350695,33.46655348088405,13.775691134419684,34.15949264475229
0.39,31.222210906095896,131.01040245274032,5.505993307722699,4.813508003664984,0.000929862892873,29.00025983045028,0.0011579891265804,2.9442136901860865,357.6406249338268,14.124492165837273,5.950648592462506,69.8968186645841,3.311602501056718e-05,120.00004036395212,122.13093644173792,1.274,1.02579027384009,0.0,0.0,0.0,0.0415093739609825,7.545934774906889e-08,-0.020311592409804,3.0013532510753577e-06,0.0008908380763632,4.813508093268025,32.821616487639595,14.124638228358922,29.149330452482886
0.4,31.222210638473225,131.0104030017851,5.635788650457906,4.841647069358873,0.0009592124397379,27.71178845184976,0.0011749448424961,2.91135549588368,345.4656368807565,14.390874239274588,6.07193451174791,69.8851815212744,3.783947407715338e-05,120.00004563180136,126.77947425345651,1.274,1.0257493418632293,0.0,0.0,0.0,0.0422922854866381,8.39343718693383e-08,-0.021938519432511,3.3271332720311508e-06,0.0009803271643914,4.841647164150728,32.348088166612904,14.391024912012275,27.864299944624147
0.41,31.22221036681104,131.01040355909262,5.767123077463226,4.86553909860892,0.0009876699832274,31.306062598221665,0.0011918093836199,2.876450850006428,378.9468707766882,14.663028799871563,6.195223154320929,69.87261222561014,4.307011032901644e-05,120.0000514391194,131.6183642808765,1.274,1.025708445186429,0.0,0.0,0.0,0.0430921644173401,9.308325447883581e-08,-0.0236371933433427,3.6760977501392174e-06,0.0010761942383903,4.865539198612839,31.87689439156756,14.663183942709727,31.437931330109585
0.42,31.22221008906472,131.01040412887247,5.901259531771367,4.867510642114694,0.0010118258958528,35.308283402190774,0.0012128114559048,2.8374461227958245,416.23282400171047,14.9952917972178,6.33928625560071,69.85906967380902,4.884273094936628e-05,120.00005782486392,137.64909586091787,1.274,1.0256701057426505,0.0,0.0,0.0,0.0440686959134695,1.0293499639582845e-07,-0.0254093547296826,4.049238334851429e-06,0.0011830797791891,4.867510747027452,31.315270489291198,14.995450734457847,35.422111438762386
0.43,31.222209804115888,131.01040471342728,6.038886819939341,4.854590670645608,0.0010330089741511,31.00586934514032,0.0012363751872706,2.794478603999558,375.90313951343126,15.369430568701889,6.497852263156962,69.8445117629242,5.519340856908871e-05,120.00006482835984,144.60167924299955,1.274,1.0256308158337524,0.0,0.0,0.0,0.0451682983415116,1.135186446762958e-07,-0.0272634397889413,4.449073329427772e-06,0.0013010625065656,4.854590780289497,30.70250814963406,15.369592833372094,31.13154422839874
0.44,31.22220951192321,131.01040531284193,6.180028459770617,4.866912332640401,0.0010595850174406,28.57707721036899,0.0012525768202179,2.752165534925872,353.07501253892326,15.659290812546615,6.627318538707029,69.82889155423543,6.216182865383864e-05,120.00007249162944,150.1053167542629,1.274,1.025586171750536,0.0,0.0,0.0,0.0460202245100907,1.2486676023179565e-07,-0.0292060158163984,4.8779154055816594e-06,0.001420032405556,4.866912447705031,30.24619499837236,15.659457251771938,28.709297424144207
0.45,31.222209215425703,131.01040592106523,6.322872201489905,4.881836476567178,0.0010866574689855,33.31904824532484,0.0012669045761511,2.7082028218433374,397.2093853562887,15.934249290371609,6.751662050993672,69.81215834018458,6.97909417564726e-05,120.00008085697964,155.42080512416243,1.274,1.0255397023523487,0.0,0.0,0.0,0.0468283602442113,1.3701614206272197e-07,-0.0312276295846745,5.334643585560923e-06,0.0015449645531859,4.8818365972149325,29.82567893138932,15.934419982127675,33.428929688274074
0.46,31.22220891307435,131.0104065412864,6.468371919199588,4.869610441729251,0.0011078049156487,38.95909776354321,0.0012868374716666,2.6582856015412624,449.7140588976424,16.292139278621757,6.904766425053949,69.79426683863348,7.812149592850748e-05,120.00008996920153,162.4785746623087,1.274,1.02549635315424,0.0,0.0,0.0,0.0478802236363867,1.499987870203256e-07,-0.0333272350234362,5.819761874615242e-06,0.0016858511402973,4.869610567434908,29.29014635640275,16.292313292210977,39.04968351401366
0.47,31.22220860266524,131.01040717804253,6.6178810515614845,4.838450928223533,0.0011247917292402,26.253747818137555,0.0013104398935566,2.6026193242279367,331.0078106302504,16.710658191447514,7.078951441335346,69.77517236812905,8.719457259907165e-05,120.0000998741591,170.9309671061642,1.274,1.025453319323251,0.0,0.0,0.0,0.0491102725711187,1.6384464803343264e-07,-0.0355167087264168,6.3368207228363735e-06,0.0018427306558807,4.838451058652396,28.68386015667837,16.710834873319172,26.382435512333956
0.48,31.222208284201663,131.0104078313267,6.771393590864176,4.869339340099417,0.0011561785713505,25.860860976019296,0.0013165328518772,2.5543454292827983,327.20312230115803,16.911139899671,7.177575416403102,69.75482343794755,9.70562828082882e-05,120.00011062072316,175.0543877818846,1.274,1.0254092882449153,0.0,0.0,0.0,0.0496995461609974,1.7858865391586845e-07,-0.0378054080201581,6.88909442277235e-06,0.0019849793891693,4.869339477030596,28.40887970825325,16.911321511776286,25.986704537635287
0.49,31.22220796480208,131.01040848648364,6.924537656029012,4.881367714530694,0.0011829003785372,32.565703383222065,0.0013261973190012,2.5011623511055703,389.6000096981238,17.169005224738054,7.296160258358563,69.73316318155707,0.0001077573203115,120.000122255028,180.4309832312717,1.274,1.025367445590036,0.0,0.0,0.0,0.05045746454003,1.942747077649401e-07,-0.0401641298712614,7.47069711110948e-06,0.002140948887153,4.881367857509675,28.058569663954906,17.169191034294997,32.66161128464712
0.5,31.222207637929923,131.01040915697027,7.081324512896956,4.862566137860805,0.001202418260511,33.47759680712428,0.0013425340759632,2.4399894027711366,397.970310422106,17.52898693231981,7.450304424940405,69.71015149227495,0.0001193385310595,120.0001348274002,188.0736471953394,1.274,1.0253278572281015,0.0,0.0,0.0,0.0515154948878309,2.109295159784217e-07,-0.0426011733481599,8.084173008518589e-06,0.0023184335011768,4.862566286171007,27.57768313050809,17.529175807738486,33.56639745442473
0.51,31.22220730314019,131.01040984370235,7.24202048914867,4.8479762258125,0.001223054804074,25.49162310288008,0.0013562860883156,2.3767006597692686,323.39843497208153,17.86914397471067,7.597652147346554,69.68574349602717,0.0001318441288964,120.00014838524436,195.4407439266201,1.274,1.025286455263166,0.0,0.0,0.0,0.0525152689856776,2.2858192086249162e-07,-0.0451315948093539,8.734206149830708e-06,0.002503767471626,4.847976379721193,27.13799345359824,17.86933609171003,25.602178740977283
0.52,31.222206962738102,131.01041054193402,7.405210501673173,4.865306299521403,0.0012516517170965,30.733671928447727,0.0013599291289974,2.317711624364424,372.098451184342,18.08534843773428,7.701914987606457,69.65988568649581,0.0001453248538387,120.00016298000436,200.19561780583155,1.274,1.0252426840672306,0.0,0.0,0.0,0.0531507657929359,2.4726951523704535e-07,-0.0477531686556663,9.421346966092632e-06,0.0026812161964639,4.865306460134566,26.8699055233151,18.085545046726228,30.820940596104087
0.53,31.222206619320115,131.01041124632013,7.569307468221277,4.848802699234936,0.0012715119568563,32.301199055744725,0.0013711327835325,2.2490252325653923,386.55624643486095,18.41963113311156,7.8474319110539055,69.6325258319474,0.0001598315062727,120.0001786629144,207.6614205945027,1.274,1.0251993415311351,0.0,0.0,0.0,0.0541332845214831,2.67031759303889e-07,-0.0504479325599339,1.0141887756417996e-05,0.0028848299490111,4.848802865552398,26.45837260670532,18.419830861742675,32.37940050117613
0.54,31.22220626697288,131.01041196903336,7.737918664599091,4.831496690588052,0.0012913635058467,28.31291960103712,0.0013809098107221,2.177242866245296,349.2703242098436,18.75116898748492,7.992112829440902,69.60362200959217,0.0001754082864028,120.00019548734956,215.20067397992847,1.274,1.0251561018460285,0.0,0.0,0.0,0.0551077428911958,2.878941684235108e-07,-0.0532336286085667,1.090122304443916e-05,0.003098869611663,4.831496862756785,26.061835558272342,18.751371834390056,28.396510432451375
0.55,31.222205908994248,131.01041270328463,7.909026079894722,8.147849966218669,6.326266384276886,30.11508519815417,-0.3440850018762378,1.915160648435697,365.2500005919912,19.702746418726875,8.113323699629928,69.57312211246325,0.0001921068626005,120.00021350480982,237.59283081976648,1.274,1.025112921033824,0.0,2.506403565945852,0.0,0.0579044421403214,3.0989272306468813e-07,-0.0561100530405476,1.1700476995263424e-05,0.0034320151542407,10.302365719164625,31.75367225909729,20.69445611203908,30.177882485189663
0.56,31.222205546564343,131.01041344664463,8.081909946161325,9.38492085017381,5.031600990659076,28.0986194063566,-0.3693921710214839,1.7068086398810436,346.22656194657776,20.22723116647548,8.24832211386639,69.54097415464405,0.0002099796112633,120.00023276987916,250.40642184091269,1.274,1.0250709539098009,0.0,2.5155477854450985,345.0001478400497,0.0594459673852214,3.330422384609979e-07,-0.0613846721018575,0.0041922756448518,0.0038545254579233,10.637989001348764,30.34813610587063,21.01657771462047,28.15283393998665
0.57,31.22220517792294,131.01041420485907,8.258267219218348,9.32083595016842,4.972638773238916,27.79324894316248,-0.4431956733074011,1.559421225845754,343.1828296833045,20.50060778017208,8.369375307027028,69.50580393392642,0.0066369969333632,120.00709344978245,257.216429858044,1.274,1.0250279191823897,0.0,2.5246205648112747,345.0001478400497,0.0602495159116579,3.606235102098799e-07,-0.0677991048728501,0.0077032229475145,0.0043147723074223,10.553979982938548,30.006171683639423,21.280727838948444,27.840490365312515
0.58,31.222204804576258,131.01041497230935,8.436528305778166,9.252890704036403,4.911049448244924,36.73387479027063,-0.519608208624822,1.4060691569211767,426.12500585731766,20.77934159560304,8.492804250417421,69.46695770329194,0.0184107480956992,120.01966450296368,264.25387463048463,1.274,1.024981594484354,0.0,2.5337048099779813,345.0001478400497,0.0610688133317867,3.927592891468178e-07,-0.0743441590657836,0.0112669547230504,0.0047955496095087,10.46538365446034,29.66146693618316,21.549823189542906,36.764447231963054
0.59,31.222204425727394,131.01041575195083,8.617464149262096,9.12329951302427,4.818205192351053,29.7184982248679,-0.6025003164289146,1.232586469734433,360.68438819710633,21.19137686045933,8.663896892538245,69.42435937243823,0.0355736742773863,120.0379944648204,274.83282574646927,1.274,1.0249386802161349,0.0,2.542727480996581,345.0001478400497,0.0622798789506599,4.295247006543297e-07,-0.0810206495656131,0.0148824535555549,0.005329753241877,10.30791281912064,29.15236791421184,21.947327048066025,29.750149794213574
0.6,31.222204037615096,131.01041655120525,8.803287855329783,9.05701786792132,4.759211402299276,26.386330189804703,-0.6845116173233508,1.0680482901622033,329.4859594986072,21.45584469812361,8.782485209377743,69.3779317909903,0.0581600531283255,120.06212363363504,281.7304170540652,1.274,1.024891335813742,0.0,2.551726683113653,345.0001478400497,0.0630572624229938,4.709885609304017e-07,-0.0878701769964798,0.0185712743353414,0.0058523673103432,10.222064711033807,28.83773190620248,22.20256051032961,26.416807229295674
0.61,31.222203647475745,131.0104173552241,8.989633696758522,8.994161535852204,4.702792879328402,30.99615187318136,-0.7683929308400343,0.9000312129587118,372.0984511843332,21.70557991941522,8.89594914894215,69.32757331614404,0.0862299978650964,120.09212040386043,288.32182637950785,1.274,1.0248423929069768,0.0,2.5608074091398727,345.0001478400497,0.0637913512863641,5.172614832133289e-07,-0.0948418148911995,0.022305909462842,0.0063901041441242,10.14047134874206,28.54443018489174,22.44346372547493,31.018734900472477
0.62,31.22220325176068,131.01041817129067,9.178633426879443,8.892992276034722,4.627283568409084,38.63669597279953,-0.8579147123609399,0.7159757849498039,442.86563930529206,22.039641999789808,9.03983920551515,69.2732108766021,0.119794620894344,120.12800135119824,297.2596232348586,1.274,1.0247996097896497,0.0,2.5697553021992845,345.0001478400497,0.0647732770981004,5.684120122739097e-07,-0.1019281539119765,0.0260821292700978,0.0069731257823063,10.016225425183046,28.153563267938964,22.765704124919417,38.652851313620616
0.63,31.2222028485464,131.0104190033393,9.3714246892392,8.753894460430017,4.533236129085704,21.781462448290075,-0.9546130858761616,0.5126090402086654,286.11251274707456,22.46381847291382,9.21636479754955,69.21477500394126,0.1588515921620572,120.16976919345348,308.80617320708507,1.274,1.024756158874558,0.0,2.578669663390123,345.0001478400497,0.0660200516540358,6.244973930459735e-07,-0.1091539225218996,0.02991234678459,0.0076110345426295,9.849907642838437,27.666271801327078,23.175154840582724,21.80839656091434
0.64,31.222202436943064,131.01041985316965,9.568517365005343,8.726445564224612,4.496896543044759,21.3958553119822,-1.0415637597814011,0.3423378921024322,282.3078244179702,22.60122983852274,9.289956848939749,69.15218138618359,0.203410037534599,120.21743942714168,312.5897519407801,1.274,1.024708534665538,0.0,2.587607912238192,345.0001478400497,0.0664240445534014,6.855901250700306e-07,-0.1165459640166135,0.0338099800186616,0.0081760183218383,9.808988805090795,27.51076839354208,23.30687571192776,21.423927623788686
0.65,31.22220202708792,131.01042070003857,9.763885924316874,8.664699578217324,4.4436157723495535,38.06076412567097,-1.1334218809844316,0.1577177907202123,436.7781447787504,22.81588405717165,9.391567897827247,69.08532959722145,0.2534914742954088,120.27104136410463,318.54958771719726,1.274,1.0246641738210605,0.0,2.59658945946571,345.0001478400497,0.0670550518802994,7.518076192424243e-07,-0.1240048133065622,0.0377229804102935,0.0087817332771374,9.729949799262718,27.267684577521027,23.513186067059166,38.077963258186045
0.66,31.22220160987868,131.01042156253655,9.96292000701814,8.50521275283209,4.341443138413304,32.34302532362116,-1.2409649774048397,-0.0711121419010306,383.5125151715984,23.27866986733395,9.583298292303764,69.01417568181392,0.3090323472817081,120.33051384206684,331.59690406983304,1.274,1.0246195561629028,0.0,2.605341591234232,345.0001478400497,0.0684153161314962,8.231728790641751e-07,-0.1315526173328789,0.0416625635444029,0.0095050357003096,9.541911367697097,26.75669895304147,23.959969780213974,32.36690189215321
0.67,31.222201181170632,131.01042244905008,10.16801462536844,8.406778795131812,4.2708468202538645,22.195450446257297,-1.3429930916848325,-0.2814752136479459,289.15624401033847,23.57472014706809,9.71499928355019,68.93866233773235,0.369979105438827,120.3958068925567,340.07811395398085,1.274,1.024572383541697,0.0,2.6141096657233773,345.0001478400497,0.069285559379795,8.997074742227898e-07,-0.1392683454250029,0.0456686428516764,0.0101902891394896,9.422469496828851,26.432528099213947,24.244962120900496,22.237825416449212
0.68,31.22220075092981,131.01042333927398,10.37330741397981,8.349310073780265,4.221416682127728,27.798429319968086,-1.4397377425718128,-0.4761561452029277,340.89999248584934,23.748787130680057,9.802608109173017,68.85868619461337,0.4363296889518814,120.4669262423932,345.1118720858852,1.274,1.0245245285832842,0.0,2.6229916565860267,345.0001478400497,0.0697972998851222,9.815229099126154e-07,-0.1470913250188199,0.0497096233062088,0.0108419519550649,9.349062711892978,26.236975694043775,24.41128594883148,27.839760094139848
0.69,31.2222003176828,131.01042423621357,10.57967081827388,8.240635722106274,4.146811582658397,34.304217782173914,-1.5466243477850627,-0.6984274699691239,401.0140726853658,24.055693841757364,9.939021204610212,68.77417810474802,0.508027959706957,120.54382025929752,354.08228533053966,1.274,1.024479631064582,0.0,2.631730523703205,345.0001478400497,0.0706994583220995,1.0686870310233947e-06,-0.1549759862035188,0.0537620539780417,0.0115705145802699,9.218749694287624,25.90558164592495,24.70650495308197,34.346167259983844
0.7,31.22219987570777,131.0104251514042,10.790392436480552,8.105816760520264,4.059806261379038,28.743013031970463,-1.6610516326410885,-0.9399815066566428,349.270324209851,24.43120311011716,10.101056461066724,68.6850945405374,0.5849769781659568,120.62639406396228,365.2156207320344,1.274,1.0244351749185203,0.0,2.6403782126048325,345.0001478400497,0.0718032472315708,1.1612092666626749e-06,-0.1629617472453444,0.0578454428185523,0.0123564044788824,9.059588721851018,25.51025587623692,25.0683824915133,28.806309307427426
0.71,31.222199426518223,131.0104260817159,11.004554016936282,8.007293703184777,3.991415545330212,23.591367336790423,-1.7700573160785824,-1.16611156014108,301.3312640634036,24.69221585984792,10.22152184632311,68.59136869917246,0.6671017150064421,120.71457675579714,373.0532557292794,1.274,1.0243880468141104,0.0,2.6490716310202327,345.0001478400497,0.0725705384127495,1.259130785742075e-06,-0.1710658925093858,0.0619679371093295,0.0131091988329322,8.94115555293185,25.23086261253423,25.318678958256573,23.68639972415141
0.72,31.22219897431408,131.01042701867553,11.219740391744704,7.921242229459175,3.9296124321868167,28.952759799638816,-1.8770137104484976,-1.38678783310277,350.7922053414578,24.90429532632831,10.324334794807802,68.49292321977946,0.7543320538657308,120.80830322834132,379.48118323652176,1.274,1.024337302174265,0.0,2.657745892197109,345.0001478400497,0.0731940186514539,1.362527490084508e-06,-0.1792442316042378,0.0661069331117053,0.0138536155027799,8.836820305186569,24.998685930916896,25.521073598723067,29.04666350854836
0.73,31.222198517635448,131.01042796520028,11.436776911399496,7.797833726388951,3.849903570707709,36.69631302767021,-1.9940473820810145,-1.6337163536990067,422.3203185282354,25.22119821711951,10.466426048969058,68.3897056594272,0.8465592765876278,120.90746740883328,389.19218392825695,1.274,1.024292465384646,0.0,2.666327593852652,345.0001478400497,0.0741255814973282,1.4714379997585291e-06,-0.1874746072394362,0.0702510022042805,0.014673806923062,8.691163041678111,24.669140188241148,25.82548469411855,36.78674549224334
0.74,31.222198052768583,131.01042892864095,11.657717913772936,7.644641933378207,3.756241750000177,22.90696796113212,-2.121300136374167,-1.9064498742196696,294.4828134710563,25.626402341133943,10.642016449737207,68.28167588009156,0.9436531542804766,121.01194051937992,401.7896504399103,1.274,1.0242470321640116,0.0,2.6748508008647924,345.0001478400497,0.0753166718634741,1.585862482862794e-06,-0.1957852620489709,0.0744137283225935,0.0155701592839792,8.512699570764374,24.26371481270396,26.216008853285203,23.083839510874846
0.75,31.222197579472663,131.01042990937793,11.88264164597653,7.562500687701821,3.697619361290504,26.790821677491778,-2.229381606617055,-2.130275165385164,330.24688556441737,25.78879963643044,10.727559820387407,68.16877698679208,1.0454973960391627,121.12160917130144,406.8893666490309,1.274,1.0241984712898409,0.0,2.68339398865143,345.0001478400497,0.0757941541260484,1.7058195540304869e-06,-0.2041981956279422,0.0786054447242909,0.0163417689586853,8.413340204341749,24.077334126278384,26.369217239806044,26.967690683173867
0.76,31.222197106889272,131.01043088928355,12.1064748164642,7.439034431887033,3.619408382719429,28.86380708647556,-2.3499686654228205,-2.38635467813359,349.2703242098581,26.076978955132592,10.860705816972647,68.05093889318056,1.1519846013736283,121.2363699722254,416.02487865205205,1.274,1.0241522053390697,0.0,2.6919389314936426,345.0001478400497,0.0766413164273476,1.8314011058744023e-06,-0.2126260525048501,0.0827827285901061,0.0172060212890221,8.268351534050447,23.780351038038443,26.64513624420736,29.05746721418775
0.77,31.222196624722866,131.01043188865495,12.334867957652971,7.309026721410403,3.538385793696984,26.98788259588436,-2.47342486559018,-2.6500004422687486,331.76876669606884,26.376656905325003,10.998871702344768,67.92814167119349,1.2629432593074288,121.35605083109346,425.6324441486706,1.274,1.0241065975906936,0.0,2.700314722260979,345.0001478400497,0.0775222820333775,1.962573841304863e-06,-0.2211029895264892,0.0869620220585024,0.0180972065349922,8.11628240372263,23.47513634494149,26.932112017288084,27.230243111639354
0.78,31.22219613711388,131.0104328992362,12.56549771770314,7.186717131951491,3.4615431446635982,22.148671135354927,-2.594633894206999,-2.9085747319823296,286.8734378128874,26.63825974894596,11.123289917836605,67.80034532224299,1.3782210279488056,121.48050056836428,434.10751554572704,1.274,1.0240588105546735,0.0,2.708733256694622,345.0001478400497,0.0782913492705914,2.0993474308525724e-06,-0.2296245501403946,0.091140563255344,0.0189806782452871,7.972970783833119,23.203430377783963,27.181666960028004,22.489009873238047
0.79,31.22219564465412,131.01043391982927,12.798024111324528,7.077906987370917,3.391471108333961,31.546603413716927,-2.71018345944588,-3.1540584441704413,373.6203323159581,26.837269358468884,11.224489028818905,67.66751216546211,1.4976585682837509,121.60956072283744,440.60818280410894,1.274,1.0240083170932772,0.0,2.717107235946885,345.0001478400497,0.0788764566709165,2.2417388622531805e-06,-0.2381703890448355,0.0953081251837792,0.0198337097247944,7.844760149066527,22.983039957449275,27.36968935770302,31.81951234691433
0.8,31.22219514844181,131.0104349482627,13.031842943379065,6.922025131748681,3.2994425262775926,31.970105689404672,-2.84447310671249,-3.446463087000683,377.42502064505805,27.19989028755633,11.388954944151516,67.52961610297841,1.6210803842106247,121.74305558760756,452.5853179908521,1.274,1.0239625010683884,0.0,2.725418421770577,345.0001478400497,0.079942433735289,2.3897584406281016e-06,-0.2467124032630212,0.0994507623279931,0.020822182383755,7.664706491355115,22.631682516857555,27.717879107603785,32.280904461563246
0.81,31.222194641651203,131.01043599765123,13.270511243197925,6.774208105765741,3.2116645968647006,20.78170513112313,-2.976122781174872,-3.733091517109292,273.9374926939922,27.522306399601828,11.53891956212026,67.38664724210048,1.748291191412888,121.8807881824165,463.3678029520019,1.274,1.0239149950770308,0.0,2.7336426888192022,345.0001478400497,0.0808902556895254,2.543340760384312e-06,-0.2552936162270808,0.1035886899942354,0.0218013273897316,7.493768547506899,22.315326732413062,28.02652934776521,21.323052015147614
0.82,31.222194129899936,131.01043705705007,13.511021364805078,6.665323479325882,3.1425828002926166,26.72373020571599,-3.088879657669122,-3.97491617638198,328.725004432774,27.676343875759702,11.624499121332528,67.2385706084616,1.8791208584032288,122.02258882968016,468.55827050833017,1.274,1.0238644186635044,0.0,2.741914489391052,345.0001478400497,0.0813432048535081,2.7024984717803715e-06,-0.2638913891457274,0.1077105138189286,0.0226611561152248,7.365986994794094,22.12885732368734,28.169732160164425,27.19372891415818
0.83,31.222193616821407,131.01043811951052,13.75150047308244,6.517408223833416,3.0555463538972467,33.981887106249005,-3.218867465153428,-4.259890193179218,395.6875032246518,27.974270352356022,11.7666417096877,67.08536432516455,2.0133835053003235,122.16827088194182,478.6892536211193,1.274,1.0238188483711983,0.0,2.750128454382694,345.0001478400497,0.0822190600019096,2.867267925568681e-06,-0.2724442775436082,0.1117867432649566,0.0236469184654555,7.195322298941855,21.833016087461,28.45400697911048,34.39878520410306
0.84,31.222193093563423,131.01043920182883,13.996446819026252,6.348383741510185,2.959075281921707,20.96518904479796,-3.3597425928470326,-4.572282028521836,275.45937482564227,28.350814000159588,11.940569811511688,66.92704234868859,2.1508564282411915,122.317607705698,491.6510737472602,1.274,1.0237739661568126,0.0,2.7582225472483324,345.0001478400497,0.0833259881265452,3.0375537458070727e-06,-0.2809871043035535,0.1158334662881142,0.0247160919037355,7.001588024748566,21.481805502977288,28.815417857007716,21.719410326310673
0.85,31.222192561998927,131.01044030027117,14.244813354503492,6.2290120503388415,2.885964959149334,22.86747307179672,-3.471788041009144,-4.816741179563839,292.9609323393965,28.49773449452677,12.025085824507284,66.7635984951024,2.2913385872903897,122.47039603416545,496.74812874273977,1.274,1.0237227741398531,0.0,2.766348663067412,345.0001478400497,0.0837580374301074,3.21329807983583e-06,-0.2895326444113172,0.119856073461406,0.0255991411039556,6.862691880102593,21.297424867842427,28.950869145846244,23.62574088747162
0.86,31.2221920311168,131.01044139789468,14.492096816412417,6.085041771731068,2.801817309731468,28.642332628334007,-3.595214493931476,-5.090253983169621,346.2265619465616,28.737683993583303,12.1470229165011,66.59501926532084,2.434636764648704,122.6264409814705,505.13653880265525,1.274,1.023674789281455,0.0,2.7744683742090066,345.0001478400497,0.0844635115668411,3.3945551080996524e-06,-0.2980020870892521,0.1238173966868889,0.0265691877911871,6.696892701873097,21.04595996260212,29.177617043064878,29.312445671807666
0.87,31.222191491213945,131.01044251285452,14.743091080627291,5.921459289881716,2.708956331051948,26.662601655887663,-3.728921990495152,-5.390025837247571,327.9640783669946,29.054308256881924,12.300490182723063,66.42133741408756,2.5805150632118465,122.78550098046844,516.3163357999665,1.274,1.0236288969245204,0.0,2.782427770977716,345.0001478400497,0.0853943502039329,3.5812178357997e-06,-0.3064131374596637,0.1277253860210295,0.0276194267993005,6.509683148058104,20.742002700378883,29.47967160348765,27.456357456843
0.88,31.22219094349045,131.01044364272929,14.997111179957011,5.767325458147545,2.620785214199641,23.03135152707156,-3.8545646594153857,-5.6722598716139965,294.4828134710421,29.31294841412725,12.431785728720577,66.24257570767361,2.728751158235608,122.94734885474612,525.5368806266742,1.274,1.0235805388426191,0.0,2.7903930584346366,345.0001478400497,0.0861547738242509,3.773192005370244e-06,-0.3147767020620124,0.1315844799626043,0.0286251802183687,6.333035721245738,20.47903284513932,29.724476853144694,24.030716883361556
0.89,31.22219039121844,131.01044478138593,15.252537704066436,5.618867019557582,2.5354869245361984,25.257130240692863,-3.973139516663064,-5.939578045566789,315.02813424808807,29.52747949068696,12.546182163214922,66.05875091436691,2.879131891839346,123.11176704079205,533.2443852240056,1.274,1.0235293752791452,0.0,2.7983414547670384,345.0001478400497,0.0867855601746986,3.970441008199456e-06,-0.3230648991562352,0.1353814716433522,0.0295931804861211,6.1627701374686845,20.245620640886496,29.92562286891918,26.24856287444268
0.9,31.222189833886905,131.01044592972727,15.50959673418562,5.457228569405468,2.444549042126054,27.892603615151167,-4.098138133112487,-6.224197324543519,339.3781423542166,29.79342619275688,12.682387667576387,65.86989654442489,3.031433286488906,123.27852570173138,542.8798410787915,1.274,1.0234837388140003,0.0,2.8062227062501,345.0001478400497,0.0875674702173407,4.172906014760713e-06,-0.3312545190396943,0.1391054217737773,0.0306159000299611,5.978217111937997,19.97879491469666,30.17729857065393,28.870966470225227
0.91,31.222189268789453,131.01044709259358,15.769508171855442,5.287612355748912,2.350385003873276,21.19630673981117,-4.22653258870932,-6.518942064595692,277.7421810230785,30.08784157099552,12.831364396144314,65.67606021942514,3.185424547728453,123.44738696540448,553.6483927917789,1.274,1.023436404813438,0.0,2.8140449228267874,345.0001478400497,0.088433061710858,4.38047136906548e-06,-0.3393480436201985,0.1427570086747162,0.0316730811226338,5.785106772197612,19.69504270445493,30.456935645088727,22.575287435006036
0.92,31.22218869643729,131.0104482689216,16.03196523315981,5.135465918396252,2.264247126485524,25.23451096397688,-4.336364940207696,-6.771848886991188,315.0281342480675,30.26948515534154,12.934941302811428,65.47728867882292,3.340881993876384,123.61812009677426,560.3393190769201,1.274,1.0233859136578225,0.0,2.8218455182166635,345.0001478400497,0.088967205214836,4.593029622144226e-06,-0.3473409254385965,0.146333678881318,0.0326139930490011,5.61124651051819,19.48244366628116,30.625059694255945,26.48476055836593
0.93,31.22218812144608,131.0104494503368,16.29482934440668,4.963993546747665,2.1699119640946005,30.013068833715327,-4.458932526640478,-7.057246368920615,359.16250706547066,30.544965847331003,13.078376264898214,65.27363192902807,3.4975857478970167,123.79049783547843,570.5705523347274,1.274,1.0233407575091376,0.0,2.829615057329056,345.0001478400497,0.0897771564556599,4.810538646486735e-06,-0.3551921998230812,0.1498167902290428,0.0336538754445478,5.416452888616312,19.21241452877356,30.88573334768771,31.152385244249114
0.94,31.222187536805546,131.01045064932052,16.561228424371798,4.781730198957384,2.0712059200406148,21.734954234298527,-4.588295922088305,-7.36110277873959,283.06875048378083,30.871978769989614,13.244660366880096,65.06516471881797,3.655303231727002,123.96427816088855,582.8380390749002,1.274,1.0232914783978162,0.0,2.837291308119108,345.0001478400497,0.0907385790781179,5.032826929298205e-06,-0.3629138491261186,0.1532112248871923,0.0347527292180951,5.210074123713645,18.913397159757523,31.197252181039964,23.401848840526924
0.95,31.222186943832742,131.0104518633413,16.83047916579089,4.620520882322189,1.9819215202784868,28.166620215893506,-4.691923591630482,-7.606477945573072,342.421873617488,31.051896534346884,13.350249048704596,64.85195547767758,3.8138153456582575,124.13923298710009,589.635991534384,1.274,1.0232418269359267,0.0,2.844966488714193,345.0001478400497,0.0912676686532456,5.259746373913854e-06,-0.3705054191647779,0.1565161425104766,0.0356855481922971,5.026798851477832,18.702036766219432,31.363153958032623,29.550484735661595
0.96,31.22218634895884,131.0104530809865,17.09973565909257,4.435671541435991,1.8828484394431368,27.567962628398416,-4.815787972359201,-7.902334721660267,337.09533515678265,31.369447214712288,13.515247988606284,64.63407363530237,3.9729102828408966,124.3151413552361,601.7418614454193,1.274,1.0231951201821403,0.0,2.8526201311742363,345.0001478400497,0.0922012930546787,5.491259018275272e-06,-0.3779190620046843,0.159710359067024,0.0367708873970622,4.818009390566695,18.412363855969662,31.66515112725393,29.07973987725215
0.97,31.22218574197938,131.0104543200916,17.37337554441474,4.254822922706953,1.785787096322804,17.540128478025913,-4.93066887319248,-8.179599156979261,245.0218871929888,31.64635852887965,13.664333873134725,64.41161759760438,4.132363478481122,124.49176720221588,612.3963142797352,1.274,1.0231476260761452,0.0,2.8601722675089327,345.0001478400497,0.0930154798652384,5.727132817586391e-06,-0.385174009122584,0.1628016407736211,0.0378066112518152,4.613749991743175,18.147772852192407,31.926823895851378,19.97181626521686
0.98,31.22218512957008,131.01045556882627,17.648453233254482,4.091826602996309,1.6964987330190675,25.62514595792705,-5.017482377787441,-8.393101880585393,319.593746642963,31.776732301080607,13.751405231688729,64.18467526233069,4.291967781395843,124.6688926167278,617.4361843673106,1.274,1.0230935628253934,0.0,2.867746647408316,345.0001478400497,0.0933989664178541,5.967249453540488e-06,-0.3922471937698369,0.1657794839171148,0.0386584681224127,4.429024492175344,17.96456695206905,32.04317876168428,27.427493395393583
0.99,31.222184515399192,131.01045682084722,17.923433570680466,3.9035567634227126,1.5970006209568306,27.99735152251652,-5.130421353740031,-8.671338035566189,341.66094855170127,32.07833970929618,13.91376126396118,63.95334897683416,4.451515229612841,124.84629765416967,629.1959256531592,1.274,1.0230490803133316,0.0,2.875260999280428,345.0001478400497,0.0942857509965159,6.211545910398062e-06,-0.399095369212283,0.1686253964275655,0.0397056821331641,4.217133966806324,17.689382687957153,32.32916349979675,29.755083916354977
1.0,31.222183888290576,131.01045809527247,18.202893092519044,3.714371330352508,1.4974658154863176,24.99005692117516,-5.239573620298904,-8.943578758084593,314.2672081822764,32.37552771236376,14.075768532270132,63.71776751523032,4.610790560818477,125.0237529978154,640.8910294800983,1.274,1.022999484445133,0.0,2.882675209634963,345.0001478400497,0.0951595561816243,6.459725133342304e-06,-0.4057416860798575,0.1713484182744326,0.0407398025527102,4.004474480266284,17.41919238124607,32.610722314539984,27.054457629902114
1.01,31.222183254592903,131.01045938103331,18.484126070251147,3.530295969675905,1.400389100171153,26.11942723750237,-5.335219923627997,-9.186792913288487,324.92031610370094,32.616354806010406,14.214349996582058,63.47804690647492,4.769597894657864,125.20104955814368,650.4435267009918,1.274,1.0229507481225095,0.0,2.890113781812885,345.0001478400497,0.0958677098433036,6.711614384388891e-06,-0.4121712725030434,0.1739416547955923,0.0416921071833432,3.79757775642854,17.180409270425976,32.83630551084632,28.197273181644807
1.02,31.222182614954555,131.01046067698627,18.76685129562472,3.3408292863696905,1.301501267428377,21.698415078898726,-5.432765856345132,-9.437645246477386,284.59063161543185,32.889523967042145,14.368619337636463,63.23431289327672,4.927745442052816,125.37798148231808,661.3664085243394,1.274,1.0229039803623294,0.0,2.897503782216603,345.0001478400497,0.0966709314395002,6.967069122286208e-06,-0.4183598355081633,0.1763947347272779,0.0426713597553005,3.585125615362181,16.927234012631235,33.09394572696577,24.277671008241427
1.03,31.222181966199468,131.01046198838597,19.052277374922383,3.157275349459552,1.2052314019623551,17.606919149867338,-5.513081161490038,-9.65069056477878,247.3046933904342,33.091340195282505,14.492286449056367,62.98670650814629,5.085042948279924,125.55434322334445,669.4894917874337,1.274,1.022853416101322,0.0,2.9048388059406927,345.0001478400497,0.0972644354851942,7.225864211978109e-06,-0.4242997466310488,0.1787039048517673,0.043541574982484,3.379275032626285,16.71129146889945,33.28064353992194,20.821467148600544
1.04,31.22218131288216,131.01046330749867,19.33857216599143,2.9756878243940488,1.1099832982865228,28.258587363763528,-5.581450770541808,-9.838429661527083,345.4656368807608,33.254432079920704,14.599550034019716,62.73537424108924,5.241307978944027,125.72993651016172,676.0863704133801,1.274,1.0228049544826707,0.0,2.9121509366424423,345.0001478400497,0.0977441225841106,7.487847407806125e-06,-0.4299660506026993,0.1808587878492051,0.0443392930825438,3.175794857266593,16.515388726095047,33.42877694271975,30.43838121031165
1.05,31.22218065416348,131.0104646356812,19.62604001114848,2.77593007644616,1.0082637488426271,16.78475051731555,-5.678477775224906,-10.09793764605696,240.4562587980608,33.59793320836694,14.79027215783894,62.480478300985055,5.396360486328136,125.90456421936236,690.1067004572119,1.274,1.022755494436122,0.0,2.9193938583083807,345.0001478400497,0.0987540892779923,7.75282864013865e-06,-0.4353412983743907,0.1828522358191035,0.045356079029585,2.953233484060303,16.23588959280265,33.75630273359519,20.394639111195428
1.06,31.22217998118055,131.0104659874023,19.917947839459405,2.5947974693582294,0.9137040113819777,24.12499929057421,-5.728499488657721,-10.24849225345964,308.1796836557233,33.71690830518743,14.879547874279428,62.22219219293873,5.550026063432802,126.07803397324751,694.9834024522213,1.274,1.0227013895379469,0.0,2.926576916220532,345.0001478400497,0.0991041180951374,8.020421061703043e-06,-0.4404401308546849,0.1846886688223831,0.0460485038809925,2.750864969854726,16.06369587520549,33.86042651244033,26.83026072610887
1.07,31.22217931020873,131.01046733584107,20.20817072852421,2.398695202490457,0.8141803542363618,28.47772237871869,-5.804607074356669,-10.464930461117453,348.5093681440431,34.00366516086395,15.047505542182073,61.9606817156777,5.702145117403196,126.25016846924676,706.8354119758044,1.274,1.0226540159946436,0.0,2.9337819829436915,345.0001478400497,0.0999473099145065,8.290588060608977e-06,-0.4452186194770783,0.1863515549491394,0.0469426756917308,2.533030002467223,15.816732902547516,34.131552007757314,30.889948279708573
1.08,31.222178624410823,131.01046870843825,20.50288830373928,2.200120555521761,0.7142329192588389,18.899044357872576,-5.880829126219437,-10.685440271354755,261.0015785751465,34.31948898802896,15.23084511274502,61.69613961097134,5.8525562649553615,126.42078676330787,720.0060888491763,1.274,1.0226061614050743,0.0,2.94085852563618,345.0001478400497,0.1008759494909571,8.562925933768278e-06,-0.4496875436866919,0.18784378842044,0.0478528895916383,2.313094975268864,15.56061671435386,34.431677527008645,22.49303586991574
1.09,31.222177929877287,131.01047009506584,20.79976198651436,2.0123380830342708,0.6183182758737544,17.28264759352729,-5.919792495417325,-10.81996187975798,246.54375332456465,34.4705872592941,15.33823996182572,61.428753181800495,6.001111564031428,126.58972143344393,726.3392697059949,1.274,1.0225512795791307,0.0,2.947958933648541,345.0001478400497,0.101320415031253,8.837152132009356e-06,-0.4538364193182746,0.1891603616265834,0.0485056289438309,2.1051519740928475,15.37975148006798,34.56771058174888,21.23217902407263
1.1,31.22217723365791,131.01047148436476,21.096275884715272,1.8219793795904704,0.5219031130756248,35.41084339818787,-5.957073405331048,-10.953923708177184,413.1890617384087,34.64584055035544,15.458096939024628,61.15871687413704,6.147669989423818,126.75681124126535,733.7227690377003,1.274,1.0224981043155532,0.0,2.9550261438822782,345.0001478400497,0.1018358829379204,9.113161165339706e-06,-0.4576354733862131,0.1902909553156101,0.0491589421496055,1.8952308303317589,15.190635573083371,34.72781976596971,37.542016439345055
1.11,31.222176528749458,131.01047288751496,21.394878240562804,1.6158861074983644,0.4213745221805434,25.653584503740777,-6.041954050590136,-11.207148393904172,324.1593910379213,35.10145158054267,15.713757988124527,60.88624360697967,6.2920940768279765,126.9218973024646,753.1257369027646,1.274,1.0224548851875197,0.0,2.9620018320792534,345.0001478400497,0.1031754260226124,9.390653775646851e-06,-0.4610776222241576,0.1912325379189607,0.0501785850603801,1.6699093755512529,14.887968999489743,35.167640339047175,28.63933975780518
1.12,31.22217580371272,131.01047432242356,21.69937967712865,1.42265754013782,0.3251116334119104,9.092413617107852,-6.074764977056472,-11.338426209902751,172.7328179403806,35.320761308212184,15.857769328829276,60.61155137574208,6.434255007127546,127.08482886677264,762.5437147812909,1.274,1.0223979224661404,0.0,2.968945303019344,345.0001478400497,0.1038204106456687,9.669059193840617e-06,-0.4641737590557996,0.1919855739223283,0.0508296627721226,1.4593252988211554,14.687744907793304,35.37182945012442,15.752290748600657
1.13,31.2221750793875,131.01047575602152,22.00260863066659,1.2376719572623152,0.2312708887249997,30.30666507551874,-6.062169854807597,-11.362723911985334,367.5328077894322,35.341089689498645,15.905924997215935,60.33485269803568,6.574033710010353,127.24546460322505,763.3994760772927,1.274,1.0223460397860296,0.0,2.975943980568899,345.0001478400497,0.1038805185164396,9.948333620540448e-06,-0.4668916334139172,0.1925402233320146,0.0511552211305893,1.2590908538315215,14.57005849441159,35.377417537101564,32.92955125792346
1.14,31.222174354673367,131.0104771901979,22.30502143752568,1.0368241667893747,0.1345254149386513,16.30591333535242,-6.119941541330753,-11.562813077803511,239.6953177322812,35.76281949444347,16.151946703034266,60.05637990346855,6.711315072337803,127.40366602648616,781.7049671348626,1.274,1.0223022138470996,0.0,2.9828337058838685,345.0001478400497,0.1051204969411235,1.0228396029449072e-05,-0.4692107823566689,0.1928918792054685,0.0520212828660282,1.0455139715329609,14.296990815751244,35.783950677793136,20.905385441114298
1.15,31.22217360457564,131.01047866373483,22.614756532545112,0.8477402513849153,0.0405970115512587,16.01581140672393,-6.109427463571153,-11.59997710675719,237.4125115347709,35.86907270067618,16.24417825065596,59.77637806642869,6.845991862599339,127.5593020085957,786.3334458038803,1.274,1.0222426194541194,0.0,2.989628117155154,345.0001478400497,0.1054331839440085,1.0508493619398725e-05,-0.4711429694772518,0.1930387637757779,0.0523891397559789,0.8487116889122255,14.150937940279812,35.87544966380495,20.697603431935708
1.16,31.222172861492627,131.01048012616658,22.92116602245028,0.6569021687706063,-0.0528886375495231,43.55853833766798,-6.104217712598288,-11.653893333083674,490.043774385954,36.041537750462815,16.37025411057779,59.495086310855456,6.977963433222102,127.71224726233451,793.8899286923448,1.274,1.02219674531104,0.0,2.9965087671964605,345.0001478400497,0.105940492251457,1.0788669192351935e-05,-0.4726645509211152,0.1929770492691269,0.0528094890730383,0.6590277268469057,13.98293886733058,36.03323002388343,45.50187870644225
