Time,Latitude,Longitude,Altitude,Angle of Attack,Angle of Sideslip,X-Acceleration,Y-Acceleration,Z-Acceleration,Thrust,True Velocity,Ground Velocity,Pitch,Roll,Yaw,Dynamic Pressure,cp,cg,parachute_deploy_gain,Wind Speed,Wind Direction,Mach,omega_x,omega_y,omega_z,Cmq,Angle of Attack(total),Angle of Attack(gust),True Velocity(gust),Acceleration
0.0,31.222216000000007,131.010392,3.000000004412624,0.0,0.0,0.0,0.0,0.0,2.2828121974499247,0.0,0.0,69.99999999623412,0.0,119.9999999935444,0.0,1.274,1.0271675151847728,0.0,0.0,0.0,0.0,0.0,0.0,0.0,-0.0,0.0,90.0,0.0,0.0
0.01,31.22221599999084,131.01039200000497,3.000002745347096,0.0,0.0,0.0,0.0,0.0,34.242186961749226,3.465174813755316e-14,2.8705476994166025e-14,69.9999999962611,-2.1713911667908447e-11,119.99999999352175,7.352495975525499e-28,1.274,1.0271659134330349,0.0,0.0,0.0,1.0183245502395064e-16,-3.3305335486039093e-18,7.169286865560398e-18,5.624298769768554e-18,-7.715917190115602e-34,0.0,89.99999999999979,3.465174813755316e-14,0.0
0.02,31.222215999994315,131.0103920000094,3.0000030495639742,0.0,0.0,0.0,0.0,0.0,25.871876237766216,3.8197434737535036e-11,2.4171837235633357e-11,69.99999999628672,-1.1921727947863515e-11,119.99999999353136,8.93414285188691e-22,1.274,1.027164492361118,0.0,0.0,0.0,1.1225230367947217e-13,-6.657678965418802e-18,1.4338573731120796e-17,1.1241821275959074e-17,-1.7010872994127372e-30,0.0,89.99999999975682,3.8197434737535036e-11,0.0
0.03,31.222215999994315,131.0103920000094,3.0000030495639742,0.0,0.0,9.81877837424427,-2.5122800045972096e-05,3.3498614629347925,180.34219359854663,1.2659015405517447e-10,1.1364406173918436e-10,69.99999999631459,-1.6431898037347223e-11,119.99999999352724,9.812605835254651e-21,1.274,1.0271551940870716,0.0,0.0,0.0,3.720154642239108e-13,-9.991600645811728e-18,2.150108433310316e-17,1.6859343782149594e-17,-8.453698244545225e-30,0.0,89.99999999919412,1.2659015405517447e-10,10.374487003414373
0.04,31.222215999994315,131.0103920000094,3.0000030495639742,18.83801224594347,-0.0001111777826462,48.68248476615645,-1.016330065874988e-05,3.3497854396877287,548.635972453808,0.1556173050466994,0.0975908358443652,69.99999999633813,-2.0932768807056278e-11,119.99999999352085,0.0148286043323172,1.274,1.027133720825283,0.0,0.0,0.0,0.0004573186944143,-1.3322134194415637e-17,-1.04744143520903e-11,1.336824254131964e-11,5.0626055458604615e-15,18.83801224625964,89.06236267790787,0.1555998412814392,48.79759610369246
0.05,31.22221599164764,131.01039201704114,3.002326315126219,5.772385609593056,-4.395076213712875e-06,71.20344550265034,4.905512691849684e-05,3.349217396035405,761.6984298824663,0.8326471944351852,0.3620326097059287,70.00000001316391,-1.0866255162484559e-10,120.00000000231074,0.4245281043148827,1.274,1.027093426565204,0.0,0.0,0.0,0.0024469331205246,-5.0245994431125096e-18,-7.32924164976824e-07,2.217344936947165e-11,1.895424184525467e-09,5.772385609594774,84.74112356985832,0.8326465040582279,71.28217104309611
0.06,31.22221596664444,131.01039206837547,3.015081730143309,4.056581213689704,3.169093567502233e-05,53.16249142470188,0.0001203825427859,3.3481235983850643,590.4875390737236,1.657216205300742,0.6755452977614796,69.99999964391398,-3.9285905645317736e-10,120.0000000287861,1.6816755551786196,1.274,1.027050317124926,0.0,0.0,0.0,0.0048701272653724,3.095757869075056e-13,-7.483541766772344e-06,3.074135420506017e-11,3.8518749565858254e-08,4.056581213813337,79.59316473687034,1.657221183301277,53.26781792157489
0.07,31.22221592883117,131.0103921460222,3.034593611434361,4.115662018628709,6.450869598349036e-05,81.18203554989698,0.0001593212642178,3.347059402768047,855.2937749779172,2.099899704220947,0.8579771146174259,69.99999543281565,-8.233801910783518e-10,120.00000006883089,2.700101932075157,1.274,1.027003201295312,0.0,0.0,0.0,0.006171060252819,3.4704292086287e-12,-2.6327204536316785e-05,1.9541142932033486e-10,1.7170712165327165e-07,4.115662019133419,76.90111966094352,2.099909837223217,81.2510043180746
0.08,31.22221588914193,131.01039222747755,3.0542761843835606,3.459696193892355,8.037433511260004e-05,16.298214211652088,0.0002413456836072,3.344878926597744,241.2171988638792,3.051964775152957,1.2149999716613011,69.99998042886442,-1.0128995578004475e-09,120.00000011111383,5.703497661025892,1.274,1.0269597189470347,0.0,0.0,0.0,0.0089689344021769,1.458982438104473e-11,-5.702803872814215e-05,7.043261397829576e-10,5.405702492731987e-07,3.459696194824858,71.30331929508368,3.051977400323993,16.63790856991177
0.09,31.2222158241468,131.01039236098703,3.0886872184095737,4.313676956300389,0.0001337561018991,50.35975918308536,0.0002293282821279,3.344215841840564,563.0937377043203,2.893161298572128,1.191209213966114,69.99994788602814,-7.098432023887522e-10,120.00000018106356,5.125380275808925,1.274,1.026918932011013,0.0,0.0,0.0,0.0085022553945842,3.8672912027154325e-11,-0.0001115933708951,2.016054215232918e-09,1.0027525988343615e-06,4.313676958370176,72.2316578138625,2.893182308931483,50.47067588835877
0.1,31.2222157788302,131.01039245392113,3.109877853389092,4.035124630954496,0.0001457499816535,47.804664812504015,0.0002878217657545,3.341734392237128,538.7437595981891,3.5677148583138303,1.4531247507621967,69.99988403958329,1.9248461973355822e-09,120.0000002323013,7.7939962029572305,1.274,1.0268846934974103,0.0,0.0,0.0,0.0104845969583028,8.579678749070606e-11,-0.0001726817043215,3.984565639703107e-09,1.913455350430327e-06,4.0351246335824245,68.43243098813296,3.567737752667411,47.92132267234452
0.11,31.222215703308,131.01039260899836,3.148841432727305,4.043401107254707,0.0001752764476999,37.67622367577205,0.0003286462930162,3.3392563999062723,442.86563930529127,4.034183355956686,1.6436552022667772,69.99978525353545,7.302513231814865e-09,120.00000031883242,9.96528118825134,1.274,1.026848594915519,0.0,0.0,0.0,0.0118554331868328,1.5870341853361987e-10,-0.0002596204409236,7.232030302688121e-09,3.252930323390323e-06,4.04340111104746,65.92012987243639,4.034210888316708,37.82391391539392
0.12,31.222215627491828,131.01039276462643,3.186995101203875,4.17874459224363,0.0002066711490009,41.15991989399172,0.0003576945202315,3.336766085769504,475.58594813540793,4.361857560629481,1.7865750500940407,69.99963665601238,1.781774420198147e-08,120.00000041104812,11.649831899889556,1.274,1.0268114448194128,0.0,0.0,0.0,0.0128183893919737,2.682972478760441e-10,-0.0003710216542429,1.2215991071490164e-08,5.026311388647148e-06,4.178744597345269,64.21681651392016,4.361890024457652,41.29495143136631
0.13,31.22221554594398,131.01039293200228,3.2277173449026786,4.202734874672792,0.0002327160860324,45.44886120763352,0.0003953741266062,3.333578629398489,515.9156326236897,4.792165672014363,1.9646716520715424,69.99942424225341,3.613383418913551e-08,120.00000051758742,14.061726603124043,1.274,1.026779572895131,0.0,0.0,0.0,0.0140829618979635,4.248908088871395e-10,-0.0005056103199642,1.908859219307828e-08,7.5253154423526356e-06,4.202734881104192,62.048594618540655,4.792202226971676,45.570952718869485
0.14,31.222215454191247,131.01039312033683,3.2737880595608355,4.184830647080848,0.000257138757548,42.32232525579263,0.0004369426767266,3.329727443445437,486.2390860568421,5.269261304374574,2.158791628597544,69.99913473613935,6.515851355725497e-08,120.00000064630268,17.000925061330125,1.274,1.0267449573927567,0.0,0.0,0.0,0.0154850332441425,6.382432869666793e-10,-0.0006690086306358,2.8426433029675884e-08,1.0948547100483978e-05,4.184830654966803,59.74181173116622,5.269301695636157,42.45310707234106
0.15,31.222215353826755,131.0103933263496,3.3242182719560263,4.21963947489699,0.0002846467688673,40.886944113003565,0.0004726792395108,3.325585650885676,472.5421858721398,5.6781946837482895,2.329510773545807,69.99875162806286,1.0876776246115984e-07,120.00000079954532,19.742017654108928,1.274,1.0267115958081523,0.0,0.0,0.0,0.0166867950518804,9.204756288136623e-10,-0.000865746478554,4.08948221429571e-08,1.526771148078443e-05,4.219639484480408,57.84996018384879,5.678239395958187,41.02196629910223
0.16,31.222215247130432,131.01039354534575,3.3775922280208457,4.253495568077899,0.0003118339050386,32.26872905470846,0.0005078415214353,3.32090791922544,391.1218908297597,6.081244877834229,2.4981889727471702,69.99825581174558,1.7187028096464329e-07,120.0000009800088,22.644030778355887,1.274,1.026675762255412,0.0,0.0,0.0,0.0178712695992133,1.2856146928958252e-09,-0.0010961187242953,5.6923362293832417e-08,2.0702404729358337e-05,4.253495579487569,56.06022383757386,6.081293860589489,32.43916312841722
0.17,31.22221513260033,131.01039378041813,3.4348437275053194,4.364838523348639,0.0003448792023946,40.840448242802736,0.0005326487904353,3.3162727284953744,471.78125980632416,6.362544479165355,2.6250789114832647,69.99762801982864,2.5997588617291615e-07,120.00000119506798,24.78723182122683,1.274,1.0266409836796937,0.0,0.0,0.0,0.0186979513961862,1.747791994374917e-09,-0.0013624931601664,7.706724512977917e-08,2.6923621797558364e-05,4.364838536947241,54.85936171416122,6.362598652663785,40.97486885600156
0.18,31.222215014088988,131.01039402363364,3.4935801365785646,4.353948305387995,0.0003681615230806,33.992183768165326,0.0005718025428208,3.310131992647221,407.1015672119096,6.81502088160835,2.810667639293692,69.99684761766231,3.794979223522764e-07,120.00000144728236,28.437950785509614,1.274,1.0266048342046536,0.0,0.0,0.0,0.020027681385988,2.3221419748804155e-09,-0.0016616990447559,1.0147209890543081e-07,3.517105786247627e-05,4.353948320923495,52.99157233768714,6.815078712285162,34.152972512863755
0.19,31.22221488419521,131.01039429023237,3.558399965607869,4.432620772533925,0.0003996774584738,38.45149959021069,0.0005986099513107,3.304145139297767,448.95313283182486,7.1223367465208405,2.946425726785696,69.99589577323147,5.440084577183829e-07,120.00000176148238,31.060341085698347,1.274,1.026566130444714,0.0,0.0,0.0,0.0209308229359413,3.022391489754689e-09,-0.0020041563310821,1.3135864879722746e-07,4.433199397898183e-05,4.432620790516937,51.77883352025967,7.122399527709208,38.59320142454953
0.2,31.222214751373183,131.01039456280608,3.624052454705669,4.443889400961181,0.0004246617145652,35.23432408779927,0.0006337972852267,3.2968110145188256,418.5156301991588,7.530482904611057,3.1167566004785483,69.99474776398331,7.478025600151903e-07,120.00000211715036,34.72195181863731,1.274,1.026529240027363,0.0,0.0,0.0,0.0221302820454282,3.866698391504749e-09,-0.0023849544920781,1.668144671071589e-07,5.57780533277244e-05,4.443889421210987,50.22448880200342,7.530549610317194,35.38822625098952
0.21,31.222214608673173,131.01039485566503,3.6948551453492566,4.493351735844891,0.0004538195602194,33.79371564104691,0.0006629296043866,3.2891790438445727,404.8187610144608,7.868284042829251,3.2629204975089228,69.99338155599101,1.0150082652278477e-06,120.00000255293388,37.906665490338085,1.274,1.0264923657015164,0.0,0.0,0.0,0.0231230169900677,4.871073773182836e-09,-0.0028117605859743,2.089322918608601e-07,6.870935089180403e-05,4.493351758715364,48.992529909481824,7.868355328639073,33.95340801819282
0.22,31.22221446109996,131.01039515850383,3.767700382407304,4.5412639153933885,0.000482649303782,41.008966751568416,0.0006914639179131,3.2808061382386606,472.5421858721387,8.20057841132235,3.4071691679735228,69.9917708347139,1.3454961520984431e-06,120.00000305929996,41.175744234065135,1.274,1.0264494137127138,0.0,0.0,0.0,0.0240995709751246,6.054779813287368e-09,-0.0032829112061357,2.580881224843564e-07,8.3609968899004e-05,4.54126394098788,47.82515604752711,8.2006542256977,41.13999323561041
0.23,31.22221430675399,131.0103954752338,3.843768625625224,4.52371495179584,0.0005047555656171,33.98493478127787,0.0007294889663961,3.2705214710765107,406.340642146096,8.647938096586296,3.5908865300848416,69.98989017772566,1.7539876018835507e-06,120.00000365514876,45.79040229326471,1.274,1.0264133390858623,0.0,0.0,0.0,0.0254142776666487,7.436335125872812e-09,-0.0038001790077148,3.1489825108822685e-07,0.0001020628978177,4.523714979897577,46.31461705147579,8.648017383405135,34.14194053232237
0.24,31.222214142622448,131.0103958120587,3.92493179063287,4.57837522350066,0.0005351929930195,35.051650311058864,0.0007555049947555,3.26053011385611,416.2328240017099,8.954297884844461,3.72617527247482,69.98771316795013,2.25257161141768e-06,120.0000043564586,49.09180568115741,1.274,1.0263750048312463,0.0,0.0,0.0,0.0263146218848643,9.034877387788232e-09,-0.0043732521010013,3.809642748985157e-07,0.00012161410144,4.578375254714954,45.32798984252032,8.954381952763216,35.20297212911011
0.25,31.22221397517227,131.0103961556623,4.0071748888306855,4.6034117733065,0.0005618935542827,36.03738579534623,0.000785606492708,3.249069743648399,425.3640807915084,9.311611941121669,3.8789349536029696,69.98520781816889,2.8559738498748624e-06,120.00000517181904,53.08749562138344,1.274,1.0263373768840591,0.0,0.0,0.0,0.0273647110956883,1.0873791100894836e-08,-0.0049950711786164,4.5609738277273444e-07,0.0001444478241125,4.603411807525074,44.2165428352526,9.311700203154778,36.183554686886296
0.26,31.22221379934012,131.01039651647062,4.09364247475714,4.621386912291471,0.0005881033207375,39.29107511182762,0.0008162761165496,3.236407051295005,455.80158342417656,9.67833954512075,4.034902068846398,69.98234620927953,3.5784678110229355e-06,120.00000612171208,57.350948423913096,1.274,1.0263006300381676,0.0,0.0,0.0,0.0284424679130479,1.2973286442992724e-08,-0.0056712051373577,5.414206381221602e-07,0.0001704578711045,4.621386949630312,43.12063533194282,9.678431924174348,39.42414126789902
0.27,31.222213616776543,131.01039689108487,4.183310605341074,4.617158109135719,0.0006115457810536,35.90419462403674,0.0008503454714941,3.221982799915672,423.8421996598744,10.088790784535757,4.205862468567124,69.97909721779352,4.436165972465058e-06,120.000007221354,62.31798301949865,1.274,1.026260090595354,0.0,0.0,0.0,0.0296487219805601,1.5355910600537293e-08,-0.0064045199323113,6.379142666348734e-07,0.0002006609239367,4.617158149547818,41.94410287616451,10.08888684592241,36.048472443180565
0.28,31.22221342607797,131.0103972823952,4.277051150896916,4.642105655370123,0.0006389739579882,41.51133203546672,0.0008785747638736,3.2071101123224945,476.3468732012228,10.432377224420517,4.35383399240675,69.97542808435722,5.446665372087172e-06,120.00000849080963,66.63429581008447,1.274,1.0262212716723291,0.0,0.0,0.0,0.0306584788590473,1.8045308789081613e-08,-0.0072006835403936,7.469524967369969e-07,0.0002332868227611,4.642105699250441,41.0023231023774,10.432477594215127,41.63503624837164
0.29,31.22221323001776,131.01039768469093,4.373143569786686,4.62134615173668,0.0006600657405645,33.17552944492765,0.0009148746278066,3.1894209319791806,397.9703104221098,10.876662296046485,4.536381530986506,69.9713027936179,6.629751536885327e-06,120.00000994797426,72.43000748232016,1.274,1.026183007522519,0.0,0.0,0.0,0.0319641703260467,2.1067646517035105e-08,-0.0080566154554079,8.688043379161898e-07,0.000272130659453,4.621346198772975,39.83162628795024,10.876765978930557,33.32848872465723
0.3,31.22221302403368,131.01039810736614,4.4744193758467325,4.664362353358112,0.0006905183788532,31.08096762732793,0.0009381960428197,3.172549142946348,378.1859457108735,11.168362145070317,4.66647911311536,69.96668711012893,8.005507138509574e-06,120.00001161892672,76.36634300732833,1.274,1.0261430389738484,0.0,0.0,0.0,0.0328214509167604,2.4447409007156216e-08,-0.0089829108229115,1.0056222251461646e-06,0.0003115527202986,4.664362404357781,39.09908960432563,11.168470611443622,31.242464973103964
0.31,31.22221281503337,131.01039853619727,4.576593712520673,4.700143580504286,0.0007196683316923,32.79732593144512,0.0009620705970519,3.154230688182399,394.1656220930229,11.470279728974068,4.800072153432283,69.96154070456518,9.597499105113692e-06,120.00001352112182,80.55022837857167,1.274,1.0261054058068628,0.0,0.0,0.0,0.0337087616009043,2.8214060606649844e-08,-0.0099686353219717,1.1565909895184251e-06,0.0003550834484269,4.700143635477137,38.36463422765983,11.47039277421126,32.94865339301887
0.32,31.222212598991007,131.01039897947376,4.68216432480395,4.718667719113184,0.0007464384342556,35.7316568886908,0.0009885845337584,3.133859770838664,421.5593934624264,11.808280530415894,4.946054328851105,69.95582953472353,1.14278227255889e-05,120.00001568218067,85.36654007972253,1.274,1.026068246703101,0.0,0.0,0.0,0.0347021168382987,3.2392058795580455e-08,-0.0110163301561155,1.3226102501723267e-06,0.0004039614423012,4.718667778018562,37.5686120062341,11.808397780690962,35.8688218659563
0.33,31.222212376029034,131.0103994369436,4.791055524254013,4.72141404831576,0.0007708346814671,35.42013590291081,0.0010176135371143,3.1111955852784385,418.5156301991632,12.181577273013426,5.104163223586657,69.94951809396906,1.351997394754887e-05,120.00001812674968,90.84831229869296,1.274,1.0260310883392356,0.0,0.0,0.0,0.0357992034445943,3.700677535501642e-08,-0.0121310534481307,1.5051409581878843e-06,0.0004588955105349,4.721414111097893,36.7208578211118,12.181698355442045,35.55651229220977
0.34,31.222212145785647,131.0103999093516,4.903491659547144,4.73024573449122,0.0007962944975467,27.63851074646407,0.0010446307681611,3.0871492806781062,345.4656368807584,12.53557620048282,5.2556261014174765,69.94256797855994,1.5899658158227497e-05,120.000020882338,96.20413272674828,1.274,1.0259901535019136,0.0,0.0,0.0,0.0368395817555172,4.208561016221623e-08,-0.0133180771902383,1.7057647550599631e-06,0.0005184333231541,4.730245801363397,35.94841996438923,12.535701282129995,27.810389570354005
0.35,31.222211909310875,131.01040039453565,5.018822212845608,4.780248518778662,0.0008286678570753,30.332092807652543,0.0010618579815451,3.063967690608957,370.5765700527057,12.774786382148209,5.367579971644358,69.93493776125636,1.8594985713558667e-05,120.00002397748868,99.9096898192772,1.274,1.025950003202184,0.0,0.0,0.0,0.0375426220587071,4.7658312175989686e-08,-0.0145774693288123,1.9252724355785177e-06,0.0005782798420984,4.780248590437683,35.44790728185619,12.774916548990808,30.486451961956565
0.36,31.22221166933814,131.0104008868675,5.135354490370708,4.798132156899578,0.0008554457330409,34.32674769697476,0.0010851169437774,3.0374319611165923,407.8625232777224,13.09301701329486,5.506730645516068,69.92658597246795,2.163521613217148e-05,120.0000274401514,104.94818266210537,1.274,1.0259105142325406,0.0,0.0,0.0,0.0384778908056978,5.3755109608570216e-08,-0.0158991451700967,2.162609490834569e-06,0.0006464142451675,4.798132232978766,34.796094028187134,13.09315138639638,34.46087058603792
0.37,31.222211421355144,131.01040139563804,5.255882891363927,4.797392186816851,0.0008791822061288,32.551601855236584,0.00111162791192,3.0078619428913056,391.1218908297639,13.457513730739372,5.661815946371007,69.91747693543164,2.5047738471809164e-05,120.0000313040604,110.87154396328836,1.274,1.025872170958032,0.0,0.0,0.0,0.0395491312153729,6.040098808671168e-08,-0.0172926678053148,2.420031948898497e-06,0.0007226353721561,4.797392267189059,34.07332166419882,13.457651832357364,32.69027405888565
0.38,31.22221116634284,131.01040191882743,5.379799334000849,4.811698494594017,0.0009057112478668,34.02947987649063,0.0011338447913587,2.9774881690446744,404.81876101445977,13.77554886562956,5.800899861213392,69.90756948297444,2.886339581486796e-05,120.00003560072224,116.17243393848278,1.274,1.02583050512925,0.0,0.0,0.0,0.0404838339452728,6.762496638941508e-08,-0.0187646375218858,2.69955777313946e-06,0.0008026686661094,4.8116985796350695,33.46655348088405,13.775691134419684,34.15949264475229
0.39,31.222210906095896,131.01040245274032,5.505993307722699,4.813508003664984,0.000929862892873,29.00025983045028,0.0011579891265804,2.9442136901860865,357.6406249338268,14.124492165837273,5.950648592462506,69.8968186645841,3.311602501056718e-05,120.00004036395212,122.13093644173792,1.274,1.02579027384009,0.0,0.0,0.0,0.0415093739609825,7.545934774906889e-08,-0.020311592409804,3.0013532510753577e-06,0.0008908380763632,4.813508093268025,32.821616487639595,14.124638228358922,29.149330452482886
0.4,31.222210638473225,131.0104030017851,5.635788650457906,4.841647069358873,0.0009592124397379,27.71178845184976,0.0011749448424961,2.91135549588368,345.4656368807565,14.390874239274588,6.07193451174791,69.8851815212744,3.783947407715338e-05,120.00004563180136,126.77947425345651,1.274,1.0257493418632293,0.0,0.0,0.0,0.0422922854866381,8.39343718693383e-08,-0.021938519432511,3.3271332720311508e-06,0.0009803271643914,4.841647164150728,32.348088166612904,14.391024912012275,27.864299944624147
0.41,31.22221036681104,131.01040355909262,5.767123077463226,4.86553909860892,0.0009876699832274,31.306062598221665,0.0011918093836199,2.876450850006428,378.9468707766882,14.663028799871563,6.195223154320929,69.87261222561014,4.307011032901644e-05,120.0000514391194,131.6183642808765,1.274,1.025708445186429,0.0,0.0,0.0,0.0430921644173401,9.308325447883581e-08,-0.0236371933433427,3.6760977501392174e-06,0.0010761942383903,4.865539198612839,31.87689439156756,14.663183942709727,31.437931330109585
0.42,31.22221008906472,131.01040412887247,5.901259531771367,4.867510642114694,0.0010118258958528,35.308283402190774,0.0012128114559048,2.8374461227958245,416.23282400171047,14.9952917972178,6.33928625560071,69.85906967380902,4.884273094936628e-05,120.00005782486392,137.64909586091787,1.274,1.0256701057426505,0.0,0.0,0.0,0.0440686959134695,1.0293499639582845e-07,-0.0254093547296826,4.049238334851429e-06,0.0011830797791891,4.867510747027452,31.315270489291198,14.995450734457847,35.422111438762386
0.43,31.222209804115888,131.01040471342728,6.038886819939341,4.854590670645608,0.0010330089741511,31.00586934514032,0.0012363751872706,2.794478603999558,375.90313951343126,15.369430568701889,6.497852263156962,69.8445117629242,5.519340856908871e-05,120.00006482835984,144.60167924299955,1.274,1.0256308158337524,0.0,0.0,0.0,0.0451682983415116,1.135186446762958e-07,-0.0272634397889413,4.449073329427772e-06,0.0013010625065656,4.854590780289497,30.70250814963406,15.369592833372094,31.13154422839874
0.44,31.22220951192321,131.01040531284193,6.180028459770617,4.866912332640401,0.0010595850174406,28.57707721036899,0.0012525768202179,2.752165534925872,353.07501253892326,15.659290812546615,6.627318538707029,69.82889155423543,6.216182865383864e-05,120.00007249162944,150.1053167542629,1.274,1.025586171750536,0.0,0.0,0.0,0.0460202245100907,1.2486676023179565e-07,-0.0292060158163984,4.8779154055816594e-06,0.001420032405556,4.866912447705031,30.24619499837236,15.659457251771938,28.709297424144207
0.45,31.222209215425703,131.01040592106523,6.322872201489905,4.881836476567178,0.0010866574689855,33.31904824532484,0.0012669045761511,2.7082028218433374,397.2093853562887,15.934249290371609,6.751662050993672,69.81215834018458,6.97909417564726e-05,120.00008085697964,155.42080512416243,1.274,1.0255397023523487,0.0,0.0,0.0,0.0468283602442113,1.3701614206272197e-07,-0.0312276295846745,5.334643585560923e-06,0.0015449645531859,4.8818365972149325,29.82567893138932,15.934419982127675,33.428929688274074
0.46,31.22220891307435,131.0104065412864,6.468371919199588,4.869610441729251,0.0011078049156487,38.95909776354321,0.0012868374716666,2.6582856015412624,449.7140588976424,16.292139278621757,6.904766425053949,69.79426683863348,7.812149592850748e-05,120.00008996920153,162.4785746623087,1.274,1.02549635315424,0.0,0.0,0.0,0.0478802236363867,1.499987870203256e-07,-0.0333272350234362,5.819761874615242e-06,0.0016858511402973,4.869610567434908,29.29014635640275,16.292313292210977,39.04968351401366
0.47,31.22220860266524,131.01040717804253,6.6178810515614845,4.838450928223533,0.0011247917292402,26.253747818137555,0.0013104398935566,2.6026193242279367,331.0078106302504,16.710658191447514,7.078951441335346,69.77517236812905,8.719457259907165e-05,120.0000998741591,170.9309671061642,1.274,1.025453319323251,0.0,0.0,0.0,0.0491102725711187,1.6384464803343264e-07,-0.0355167087264168,6.3368207228363735e-06,0.0018427306558807,4.838451058652396,28.68386015667837,16.710834873319172,26.382435512333956
0.48,31.222208284201663,131.0104078313267,6.771393590864176,4.869339340099417,0.0011561785713505,25.860860976019296,0.0013165328518772,2.5543454292827983,327.20312230115803,16.911139899671,7.177575416403102,69.75482343794755,9.70562828082882e-05,120.00011062072316,175.0543877818846,1.274,1.0254092882449153,0.0,0.0,0.0,0.0496995461609974,1.7858865391586845e-07,-0.0378054080201581,6.88909442277235e-06,0.0019849793891693,4.869339477030596,28.40887970825325,16.911321511776286,25.986704537635287
0.49,31.22220796480208,131.01040848648364,6.924537656029012,4.881367714530694,0.0011829003785372,32.565703383222065,0.0013261973190012,2.5011623511055703,389.6000096981238,17.169005224738054,7.296160258358563,69.73316318155707,0.0001077573203115,120.000122255028,180.4309832312717,1.274,1.025367445590036,0.0,0.0,0.0,0.05045746454003,1.942747077649401e-07,-0.0401641298712614,7.47069711110948e-06,0.002140948887153,4.881367857509675,28.058569663954906,17.169191034294997,32.66161128464712
0.5,31.222207637929923,131.01040915697027,7.081324512896956,4.862566137860805,0.001202418260511,33.47759680712428,0.0013425340759632,2.4399894027711366,397.970310422106,17.52898693231981,7.450304424940405,69.71015149227495,0.0001193385310595,120.0001348274002,188.0736471953394,1.274,1.0253278572281015,0.0,0.0,0.0,0.0515154948878309,2.109295159784217e-07,-0.0426011733481599,8.084173008518589e-06,0.0023184335011768,4.862566286171007,27.57768313050809,17.529175807738486,33.56639745442473
0.51,31.22220730314019,131.01040984370235,7.24202048914867,4.8479762258125,0.001223054804074,25.49162310288008,0.0013562860883156,2.3767006597692686,323.39843497208153,17.86914397471067,7.597652147346554,69.68574349602717,0.0001318441288964,120.00014838524436,195.4407439266201,1.274,1.025286455263166,0.0,0.0,0.0,0.0525152689856776,2.2858192086249162e-07,-0.0451315948093539,8.734206149830708e-06,0.002503767471626,4.847976379721193,27.13799345359824,17.86933609171003,25.602178740977283
0.52,31.222206962738102,131.01041054193402,7.405210501673173,4.865306299521403,0.0012516517170965,30.733671928447727,0.0013599291289974,2.317711624364424,372.098451184342,18.08534843773428,7.701914987606457,69.65988568649581,0.0001453248538387,120.00016298000436,200.19561780583155,1.274,1.0252426840672306,0.0,0.0,0.0,0.0531507657929359,2.4726951523704535e-07,-0.0477531686556663,9.421346966092632e-06,0.0026812161964639,4.865306460134566,26.8699055233151,18.085545046726228,30.820940596104087
0.53,31.222206619320115,131.01041124632013,7.569307468221277,4.848802699234936,0.0012715119568563,32.301199055744725,0.0013711327835325,2.2490252325653923,386.55624643486095,18.41963113311156,7.8474319110539055,69.6325258319474,0.0001598315062727,120.0001786629144,207.6614205945027,1.274,1.0251993415311351,0.0,0.0,0.0,0.0541332845214831,2.67031759303889e-07,-0.0504479325599339,1.0141887756417996e-05,0.0028848299490111,4.848802865552398,26.45837260670532,18.419830861742675,32.37940050117613
0.54,31.22220626697288,131.01041196903336,7.737918664599091,4.831496690588052,0.0012913635058467,28.31291960103712,0.0013809098107221,2.177242866245296,349.2703242098436,18.75116898748492,7.992112829440902,69.60362200959217,0.0001754082864028,120.00019548734956,215.20067397992847,1.274,1.0251561018460285,0.0,0.0,0.0,0.0551077428911958,2.878941684235108e-07,-0.0532336286085667,1.090122304443916e-05,0.003098869611663,4.831496862756785,26.061835558272342,18.751371834390056,28.396510432451375
0.55,31.222205908994248,131.01041270328463,7.909026079894722,8.147849966218669,6.326266384276886,30.11508519815417,-0.3440850018762378,1.915160648435697,365.2500005919912,19.702746418726875,8.113323699629928,69.57312211246325,0.0001921068626005,120.00021350480982,237.59283081976648,1.274,1.025112921033824,0.0,2.506403565945852,0.0,0.0579044421403214,3.0989272306468813e-07,-0.0561100530405476,1.1700476995263424e-05,0.0034320151542407,10.302365719164625,31.75367225909729,20.69445611203908,30.177882485189663
0.56,31.222205546564343,131.01041344664463,8.081909946161325,-0.1458790349661326,5.4377626631435225,28.032206007816846,-0.3476498112116759,2.246444969099993,346.22656194657776,18.720410736334685,8.24832211386639,69.54097415464405,0.0002099796112633,120.00023276987916,214.4881647170894,1.274,1.0250709539098009,0.0,2.5155477854450985,75.00003213914121,0.055017561074525,3.330422384609979e-07,-0.0613846721018575,0.0041922756448518,0.0035673839475162,5.439713185558785,31.01363625321769,19.573290791775197,28.124223528039188
0.57,31.22220517792294,131.01041420485907,8.258267219218348,-0.086208870643366,5.3715403064421645,27.715865007210468,-0.4162185049073896,2.234859153052545,343.1828296833045,18.98617705323863,8.376610778476522,69.50580393392642,0.0066369969333632,120.00709344978245,220.61766589701904,1.274,1.0250279191823897,0.0,2.5246205648112747,75.00003213914121,0.0557987347856598,3.606781394689058e-07,-0.0612726184272507,0.0074403227605498,0.0036113630675714,5.372230025463932,30.636501630307045,19.82870117055564,27.808937526912526
0.58,31.222204803902176,131.01041497353927,8.436456187355917,-0.0352416312625641,5.302400822890208,36.64491876419608,-0.4872700580042045,2.222589296951808,426.12500585731766,19.257623497914867,8.504973130596078,69.47069715309618,0.0180117996757772,120.0192383974254,226.96724443488648,1.274,1.024981594484354,0.0,2.5337048099779813,75.00003213914121,0.0565966062129729,3.899598517523837e-07,-0.061194262363421,0.0107402684274195,0.0036582480599698,5.302517601246398,30.25721747935433,20.08933429227827,36.7154927316369
0.59,31.22220442438907,131.0104157543941,8.617320868857417,0.0137326188601298,5.1969476896335065,29.61771622532028,-0.5646060066341608,2.2013909010007686,360.68438819710633,19.66407056988515,8.681035561893292,69.43563338474746,0.0343872154611637,120.03672645283964,236.64487727359,1.274,1.0249386802161349,0.0,2.5427238638990715,75.00003213914121,0.0577912393731844,4.209244435543496e-07,-0.0611461437625509,0.014091304290996,0.0037324561135319,5.196965783623173,29.70073792082875,20.47928630796565,29.704781033452115
0.6,31.22220403532325,131.01041655539106,8.803042267953025,0.0609507516437247,5.131904975467766,26.27316028115932,-0.6410170234762569,2.1887088946060262,329.4859594986072,19.92113253851179,8.804667988648772,69.40059367183972,0.0558144597795539,120.05961478138477,242.8681497471332,1.274,1.024891335813742,0.0,2.551719635661769,75.00003213914121,0.0585468480238316,4.536010022119194e-07,-0.0611287320856228,0.0175156483096273,0.0037801051498752,5.132265945123553,29.358306480421263,20.726172867157,26.37196049991736
0.61,31.22220364398389,131.0104173616054,8.989259270359037,0.1064959511475905,5.070364123183677,30.87026993458773,-0.7192181837597517,2.1762600628518114,372.0984511843332,20.163235701337143,8.92315664676591,69.36555820724782,0.0823781458599197,120.08799626488708,248.80276506411,1.274,1.0248423929069768,0.0,2.56079555759259,75.00003213914121,0.0592584971715138,4.880432509182678e-07,-0.0611430931506451,0.0209857985822901,0.0038268755081712,5.071479479197759,29.04097337474522,20.95864750327771,30.955241050447746
0.62,31.22220324682793,131.01041818030956,9.178103935643108,0.1500497664568716,4.986898366049505,38.49794398604397,-0.8028637193532172,2.1577903541079304,442.86563930529206,20.490741555539703,9.071985551674464,69.33050603670874,0.114120409960504,120.1219184759865,256.9462151927632,1.274,1.0247996097896497,0.0,2.569737401468477,75.00003213914121,0.06022114482654,5.242848474172772e-07,-0.0611896519610898,0.0244978325776643,0.0038919252071806,4.989149563043701,28.61954182129088,21.27309305124123,38.56672582054009
0.63,31.22220284193752,131.01041901542848,9.3707142294966,0.1908254189989701,4.882251137766853,21.62970046316873,-0.8934247531472325,2.132867525085816,286.11251274707456,20.90938919987901,9.253303860932895,69.29541538275258,0.1510769882735159,120.16142218973988,267.5478923983212,1.274,1.024756158874558,0.0,2.578644811106804,75.00003213914121,0.0614516603947268,5.623518969950561e-07,-0.0612693263244121,0.028064793412801,0.0039765390010481,4.885969948276521,28.095761362227343,21.675363675773,21.752960115706173
0.64,31.22220242843164,131.01041986874682,9.567600622661413,0.2330187650877012,4.845659719654221,21.230544259781727,-0.9746462864535048,2.125138497256676,282.3078244179702,21.03796893015622,9.331960914021764,69.26026332000913,0.1933028876684996,120.2065688279056,270.84339517516463,1.274,1.024708534665538,0.0,2.587575161531489,75.00003213914121,0.0618296871923166,6.022763787588024e-07,-0.0613832486873908,0.0317007518551231,0.0040083557851678,4.851245855032652,27.933632510597413,21.798216338289595,21.35888945106395
0.65,31.22220201641515,131.01042071958227,9.762734951775478,0.2731344187663122,4.789684458046294,37.881934051926734,-1.0606042467791748,2.1117685359768776,436.7781447787504,21.24463074399024,9.43840758029298,69.22502558169572,0.2408736975529371,120.25744187444624,276.18549542254493,1.274,1.0246641738210605,0.0,2.5965479384417267,75.00003213914121,0.0624371948353714,6.44122016044308e-07,-0.0615305635544966,0.035353346514374,0.004057369180774,4.797447837855548,27.678354852852934,21.996116643079137,37.9555710697699
0.66,31.222201596827045,131.01042158644833,9.96150997242314,0.308476178443341,4.677017424438684,32.15094038275088,-1.1616186740760874,2.081764986765263,383.5125151715984,21.702265180440484,9.634286683495272,69.18967789358166,0.2937851894351127,120.31403953757967,288.2068740562973,1.274,1.0246195561629028,0.0,2.6052903542407866,75.00003213914121,0.063782308780215,6.879018113779391e-07,-0.0617119262768331,0.039034404997891,0.0041569071619025,4.687156717109602,27.13509675568516,22.436113743704546,32.23920084151103
0.67,31.222201165566723,131.01042247765216,10.166324101899647,0.3445914053377182,4.601756004289784,21.989861741445967,-1.2574417370808046,2.061357740044144,289.15624401033847,21.991295829597103,9.770371943447236,69.15419495463193,0.3520505602608611,120.37637869076435,295.92884798622737,1.274,1.024572383541697,0.0,2.6140479494178384,75.00003213914121,0.0646319105582564,7.336212998980493e-07,-0.0619302364150718,0.042785033679306,0.0042270868801782,4.614612240091529,26.796073889194847,22.713361092236585,22.122033696351284
0.68,31.22220073253959,131.01042337300217,10.371310132294198,0.3813303347492308,4.551646795791487,27.579259508900545,-1.3482996365739517,2.0478387958270075,340.89999248584934,22.15697223882549,9.862584930282456,69.11854897041951,0.4157441553859086,120.44454167653612,300.3986249939866,1.274,1.0245245285832842,0.0,2.622919377993376,75.00003213914121,0.0651189802891277,7.81339226188106e-07,-0.0621846018497164,0.0465736770593333,0.0042763410917954,4.5675590146722005,26.59786347829844,22.87119146349239,27.688031903747888
0.69,31.22220029628072,131.0104242754878,10.577341075737928,0.4146226620436669,4.472604180101524,34.0718137673075,-1.4489057415523234,2.024838411113615,401.0140726853658,22.456920822765568,10.002871630419795,69.08271207752688,0.4848919247708726,120.51855914235996,308.5808256293517,1.274,1.024479631064582,0.0,2.6316462187146974,75.00003213914121,0.0660006776967831,8.310954246423117e-07,-0.0624738071584729,0.0503769978345173,0.0043543030833745,4.491742509499428,26.254769037432787,23.15876254414923,34.162666638204776
0.7,31.22219985114556,131.0104251965026,10.787710607791752,0.4451810776548496,4.379565641120169,28.497672936772755,-1.5568054941034406,1.9963161545148536,349.270324209851,22.826157623405443,10.168153031859484,69.04665655422545,0.5594840968372637,120.59842355832016,318.8051818136692,1.274,1.0244351749185203,0.0,2.640281128616651,75.00003213914121,0.0670860203733972,8.828951268969986e-07,-0.0627999776202185,0.0542154384970454,0.0044489139136039,4.402089874265385,25.844684698727395,23.51342847125437,28.609898363093112
0.71,31.222199398654965,131.01042613290505,11.001501049456776,0.4766091235076942,4.30867613469383,23.33320839509537,-1.659675710551177,1.974136747179572,301.3312640634036,23.079695754056093,10.292177611520072,69.01035268288953,0.6395407729496446,120.68415942148594,325.9199844714851,1.274,1.0243880468141104,0.0,2.648961300248843,75.00003213914121,0.0678313319101456,9.367594659709496e-07,-0.0631646827906863,0.0580979375276968,0.0045243603155323,4.334906911060778,25.56156847081907,23.755863295577868,23.475313701199124
0.72,31.222198942954687,131.0104270763229,11.216292862548908,0.5079607223244224,4.24590053823616,28.682090237127685,-1.7607222813984371,1.9541280876017817,350.7922053414578,23.28381252072972,10.39858861226668,68.97376907239943,0.7250944109687605,120.7758045341762,331.7035058911817,1.274,1.024337302174265,0.0,2.6576234758903445,75.00003213914121,0.0684313978493887,9.927326221090494e-07,-0.0635664802499782,0.0620020822297093,0.0045933134846259,4.276122423850458,25.33114155675371,23.95014675955476,28.802448852583737
0.73,31.22219848261417,131.0104280296198,11.432913693107212,0.5358063389534296,4.162681692444241,36.41374098389798,-1.8714901483161184,1.9261126457582456,422.3203185282354,23.59373962861644,10.543168836287869,68.93687460320815,0.8161430264432616,120.8733598882426,340.58569652747553,1.274,1.024292465384646,0.0,2.666191119528827,75.00003213914121,0.0693424467143938,1.0508407445139878e-06,-0.0640047353543887,0.0659168395150064,0.004686446702801,4.196963426515826,24.99756750425219,24.247037059711616,36.51264051998712
0.74,31.22219801401881,131.0104289999647,11.653425859131824,0.5601588984025626,4.063641905960465,22.613142821588266,-1.9921521140482508,1.8909595010994569,294.4828134710563,23.992716999546552,10.720026702376972,68.89963794528833,0.912667324980846,120.97680799195814,352.1944490566669,1.274,1.0242470321640116,0.0,2.6746998212161075,75.00003213914121,0.0705152241743296,1.111086885257056e-06,-0.0644816645351586,0.0698567717886346,0.0048011057136652,4.1020040503438535,24.5841719270659,24.630497369295345,22.779346482062518
0.75,31.222197536969208,131.010429987663,11.877911032623851,0.5892361767669516,4.005849238827154,26.485988815812675,-2.0947816360038405,1.87087631051638,330.24688556441737,24.14670055577413,10.80873885056866,68.86202570625646,1.0146686466075991,121.08615352825204,356.7219839264709,1.274,1.0241984712898409,0.0,2.683229687046865,75.00003213914121,0.0709679656162613,1.1734827347839672e-06,-0.0649994125496232,0.0738331976744352,0.0048706112023505,4.04888398053792,24.408400781031155,24.77542537434299,26.634486888677703
0.76,31.222197060375823,131.01043097501577,12.101277144445056,0.6139634549519917,3.925636363619944,28.548868928088737,-2.2094688665012767,1.8411948918896948,349.2703242098581,24.42749053532436,10.943345159854887,68.82400242210295,1.122163855320312,121.20141789861646,365.0586754534938,1.274,1.0241522053390697,0.0,2.691761036450947,75.00003213914121,0.0717933977353057,1.2380879176171975e-06,-0.0655530037592786,0.0778023875333447,0.004969107247043,3.973283522248892,24.11523680167302,25.043645715188035,28.693373248454943
0.77,31.222196574247384,131.01043198175762,12.32919949543506,0.6374149007761373,3.842549053683431,26.66364021118025,-2.3270982644306715,1.8094496026763505,331.76876669606884,24.71990928610106,11.082331889300274,68.78553530234771,1.2351040428998377,121.3225520805438,373.8429595988634,1.274,1.0241065975906936,0.0,2.700121756152088,75.00003213914121,0.0726530152718706,1.3048909076904275e-06,-0.0661451704988556,0.081781911350607,0.0050739061173174,3.8949803155433593,23.81487141194912,25.32304312025653,26.82609184186564
0.78,31.22219608263644,131.0104329997974,12.559347694152963,0.6606264914529338,3.7647309571425054,21.81592939300408,-2.4428201909892784,1.77907056021382,286.8734378128874,24.973859045842016,11.207562183597314,68.74658916782066,1.3534651811140812,121.4495337808878,381.5550226159693,1.274,1.0240588105546735,0.0,2.708525496059869,75.00003213914121,0.0733995765472612,1.3739045227239385e-06,-0.066776521334657,0.0857697546803784,0.0051748440116291,3.8221719318745375,23.55222425047734,25.56479616846109,22.024242048803035
0.79,31.22219558612922,131.0104340279485,12.791381338777535,0.6845582123273226,3.6952132266741695,31.20621184346071,-2.553389820867465,1.7518577415865928,373.6203323159581,25.16470968268476,11.310032457624088,68.70712789614154,1.477219043528883,121.58233628441108,387.4003726713518,1.274,1.0240083170932772,0.0,2.7168846996927214,75.00003213914121,0.0739606909202391,1.4451478496936736e-06,-0.0674460279227755,0.0897561857438456,0.0052665527827931,3.758000907361545,23.34640469835257,25.74475011759582,31.3594716591816
0.8,31.22219508579437,131.01043506409533,13.02469383927504,0.7027401701431509,3.600414256060704,31.623373105100928,-2.682041989592008,1.7118401983994151,377.42502064505805,25.520351391782867,11.472551403487705,68.66711549303224,1.6063218985950567,121.7209163141368,398.41873721253296,1.274,1.0239625010683884,0.0,2.725184147353651,75.00003213914121,0.0750061420805904,1.5186389052930556e-06,-0.0681519907813501,0.0937276296576546,0.0053967662097469,3.6682661248043273,23.00101563105555,26.08553101031864,31.783037498691208
0.81,31.222194575132736,131.01043612074875,13.26286948267681,0.7209355728500768,3.5109488346708013,20.42969703691885,-2.8084935909390145,1.6731950424946955,273.9374926939922,25.83545938099396,11.620546236211013,68.6265166305309,1.740709007515448,121.8652081189272,408.3089482246375,1.274,1.0239149950770308,0.0,2.733393772676639,75.00003213914121,0.0759324710896186,1.5943512851869727e-06,-0.0688988276316668,0.097705827093563,0.0055231456377888,3.5841120389895584,22.694832407747928,26.38661285784751,20.689604610066024
0.82,31.222194059549416,131.01043718735994,13.502883171640908,0.7428826874568291,3.443746045761707,26.3673692132954,-2.9172525833839726,1.645403097288978,328.725004432774,25.980950628734742,11.706854198886104,68.58529254844596,1.8803460751195384,122.01517869393037,412.9111273249966,1.274,1.0238644186635044,0.0,2.741651813312459,75.00003213914121,0.0763602882203119,1.6723039035653516e-06,-0.0696854550587292,0.1016799438449462,0.0056175331356091,3.5228676932894767,22.530076865253548,26.521567352253108,26.579237634252543
0.83,31.222193542492885,131.01043825732447,13.742846560307916,0.759545095465685,3.355850421915316,33.62271052026792,-3.042717368760578,1.6059242177375663,395.6875032246518,26.271253329507736,11.846165082004168,68.54340475389832,2.025181585308204,122.17077663173195,422.1804202718362,1.274,1.0238188483711983,0.0,2.749852281576885,75.00003213914121,0.0772137223142142,1.752533797008646e-06,-0.0705064938082588,0.1056202686518672,0.0057470948844822,3.440636706877058,22.24870767080712,26.7980877411997,33.79828078925034
0.84,31.22219301561205,131.01043934650943,13.987300254510467,0.7727835323602898,3.257202215788056,20.60472151289117,-3.1789303297538374,1.559119164943396,275.45937482564227,26.64063930183148,12.014632982017968,68.50081799970947,2.175119719983026,122.33190301269384,434.12579632743285,1.274,1.0237739661568126,0.0,2.757932618443939,75.00003213914121,0.078299598912985,1.835003642747652e-06,-0.071366059578811,0.1095444171673376,0.0058988129103756,3.347524037076852,21.908845469698782,27.152003887740698,20.906721388962996
0.85,31.22219248074058,131.01044045125565,14.235194371754051,0.7918301004846997,3.186369698260564,22.506751477517103,-3.288021172919935,1.5280684391814647,292.9609323393965,26.778932344424703,12.098614677472808,68.45749394721997,2.3300889679967938,122.49848508240954,438.63419478383366,1.274,1.0237227741398531,0.0,2.7660461371768155,75.00003213914121,0.0787062766219227,1.919696691337952e-06,-0.0722665684095193,0.113459055269805,0.0060041096258947,3.283184465978797,21.75032714663957,27.27918817076733,22.79692826806082
0.86,31.22219194631828,131.01044155564253,14.481978996445216,0.8069923077835806,3.102874497735584,28.28303021806656,-3.408316885218392,1.488848441226969,346.2265619465616,27.01073767886016,12.217022534789296,68.41339230931014,2.490025972602216,122.67045892500676,446.25034692233805,1.274,1.023674789281455,0.0,2.7741558835165145,75.00003213914121,0.0793877994636501,2.0066636519265488e-06,-0.0731999816243248,0.1173263092639663,0.006134159256378,3.205999056560898,21.520477866628145,27.497897859428868,28.526533122464688
0.87,31.222191403284928,131.01044267663056,14.732503062467911,0.8188739832403624,3.00938856891288,26.306445421670755,-3.538846328581549,1.442342653569994,327.9640783669946,27.319649223957967,12.36396842993712,68.36847802927491,2.654811730383071,122.84770087582508,456.5049229706751,1.274,1.0236288969245204,0.0,2.7821057611820628,75.00003213914121,0.0802959545262077,2.095866343032509e-06,-0.0741688488117177,0.1211554331705198,0.0062862816940539,3.1187108567476103,21.234834980237995,27.792145555672796,26.582566775820663
0.88,31.222190852826305,131.0104438118264,14.986080993166787,0.8314244975920578,2.921738531257612,22.67988934758841,-3.662117992570972,1.398881603738797,294.4828134710421,27.570183513745025,12.48962948302502,68.32271417461271,2.824339470294849,123.03010045474647,464.9047305755296,1.274,1.0235805388426191,0.0,2.790060381634784,75.00003213914121,0.0810325387864729,2.18727375693484e-06,-0.0751755854009072,0.1249521737266787,0.0064298831496029,3.037634514176068,20.994490592396613,28.028930249099403,23.01619774749177
0.89,31.22219029800244,131.01044495549368,15.241075346306824,0.8442962148564308,2.8377972180459525,24.911980274186128,-3.779074176284096,1.357590561195477,315.02813424808807,27.776331285837863,12.599077050292127,68.27606209200619,2.9985093910308653,123.2175547313344,471.87153825473007,1.274,1.0235293752791452,0.0,2.7979993047422425,75.00003213914121,0.0816386701495087,2.2808890638349986e-06,-0.0762175070008397,0.1287036661056973,0.0065675833376319,2.9606327290558965,20.787053216156043,28.22190920286174,25.233533540571425
0.9,31.22218973835628,131.010446108436,15.49771707740648,0.8545508245608897,2.7474161051348664,27.55561880358395,-3.9026523265622792,1.3109085047006197,339.3781423542166,28.03410063426247,12.72777015458912,68.22848490786076,3.1772022283628423,123.40993988381976,480.65843516793547,1.274,1.0234837388140003,0.0,2.8058716848656697,75.00003213914121,0.0823965302760852,2.376705380624918e-06,-0.0772923057766382,0.1323993650868515,0.0067218397872488,2.8771500775470957,20.54410796387098,28.46549838067304,27.861466291962234
0.91,31.22218917144296,131.0104472750072,15.757249435512335,0.8628643267848248,2.6534227334719445,20.86936080639568,-4.030011845911642,1.26049885430199,277.7421810230785,28.320410653165368,12.867244093888832,68.17994737787325,3.3602828138137304,123.60711500212672,490.5141955712014,1.274,1.023436404813438,0.0,2.813685761744233,75.00003213914121,0.083238283166902,2.4746856270720747e-06,-0.0784012214400936,0.1360410880516819,0.0068877411309849,2.7900994060248783,20.283381936447547,28.737060352405496,21.292253833434565
0.92,31.22218859777946,131.0104484541344,16.01936676797784,0.8737096855059496,2.569312825919369,24.9192095138776,-4.140090297744332,1.2180292014063117,315.0281342480675,28.49342242852212,12.964871534590031,68.13041354309478,3.5476176225981555,123.80894096542704,496.5131881871042,1.274,1.0233859136578225,0.0,2.821479622941849,75.00003213914121,0.083747040530119,2.5747985596560464e-06,-0.0795446416178495,0.1396272781059924,0.0070307078959556,2.7137106057102667,20.100609609222516,28.896873895518898,25.290135341778683
0.93,31.222188021581005,131.01044963819285,16.28189528543298,0.8805366162109993,2.475562931445239,29.711465654077283,-4.262947756877638,1.1665449164013877,359.16250706547066,28.76058022854536,13.097654933148185,68.07984736406861,3.739070004510427,124.01527530449644,505.85481962143297,1.274,1.0233407575091376,0.0,2.8292438174183205,75.00003213914121,0.0845325133781185,2.6770512826244634e-06,-0.0807172884783301,0.1431390302670213,0.0072010655866984,2.6274082316559024,19.85570441299351,29.14931976695503,30.038387805161317
0.94,31.222187436533776,131.01045083836289,16.548025472146143,0.8847268272435759,2.376704405198605,21.44908791485925,-4.39297440969322,1.1092322891671371,283.06875048378083,29.079416968546752,13.249927739123208,68.02821672019613,3.9344761908732777,124.22594633927844,517.1194762508713,1.274,1.0232914783978162,0.0,2.836915039836705,75.00003213914121,0.0854698884943549,2.781381274730733e-06,-0.0819219408808206,0.1465827660999481,0.007389369547823,2.5359448683889423,19.57940142680927,29.452641767380285,21.922408462915556
0.95,31.222186843892544,131.01045205223042,16.81706944766616,0.8924874150095339,2.289500884156466,27.89810093613354,-4.498851071103736,1.063183243248124,342.421873617488,29.25058642162117,13.347321845306997,67.97548794800181,4.133680778481425,124.44079138625844,523.21168937425,1.274,1.0232418269359267,0.0,2.844587296317015,75.00003213914121,0.0859732487696536,2.8877400842004813e-06,-0.0831598568799583,0.1499588908630483,0.0075449878993152,2.457218768841825,19.399047687384208,29.610124679700608,28.278508719721945
0.96,31.222186249437435,131.01045326960374,17.086122764166127,0.8948183522456825,2.1904977829621486,27.319025395090343,-4.624894803279625,1.0039617035331825,337.09533515678265,29.559752813945565,13.496492924164787,67.92162695669798,4.336528263192981,124.65964763868908,534.3165885318865,1.274,1.0231951201821403,0.0,2.8522399119867847,75.00003213914121,0.0868822135929746,2.996141590143957e-06,-0.0844238327066629,0.1532454694883711,0.0077404262580252,2.366134033545212,19.133038404815256,29.90375158640133,27.725921798583276
0.97,31.222185644097607,131.01045450619432,17.359666783667006,0.897450069111182,2.094098279504387,17.31264786695142,-4.742998495176387,0.9468795000964808,245.0218871929888,29.82813400565092,13.630648128104344,67.86660514652397,4.542832615599894,124.8823193386216,544.0487578638044,1.274,1.0231476260761452,0.0,2.8597912097352927,75.00003213914121,0.0876713118930706,3.106495654726352e-06,-0.0857184174120755,0.1564523499240029,0.0079302674678131,2.278224212333853,18.89435591259088,30.157000964780288,17.975549829643764
0.98,31.22218503386708,131.01045575145136,17.63469466240579,0.903592705565724,2.0074996732244563,25.42066763311865,-4.834646858008953,0.9018365269966476,319.593746642963,29.949512956138303,13.709807218995358,67.8103913970298,4.7524211026365535,125.10862500886432,548.4710498877917,1.274,1.0230935628253934,0.0,2.8673678000003284,75.00003213914121,0.0880283439488138,3.2187754517787528e-06,-0.0870407993934903,0.1595693063679249,0.0080851628018474,2.201408769935816,18.74486413847993,30.264785752048287,25.892034726466893
0.99,31.22218442198325,131.01045699984297,17.909631490648497,0.9034002475033608,1.9082783847645968,27.818110230419087,-4.95231650338862,0.8402435173631543,341.66094855170127,30.242506551488656,13.853681210471608,67.75295723942843,4.965106914882467,125.33836791793628,559.2400677946771,1.274,1.0230490803133316,0.0,2.8748856243678294,75.00003213914121,0.0888897936737996,3.3329859872969844e-06,-0.0883833568850137,0.1625768113597823,0.0082899696807108,2.1112452729923783,18.493821365007797,30.542202804583923,28.267980202164306
1.0,31.222183798660247,131.01045826787413,18.189183855704133,0.9023967645284142,1.8090498868451177,24.837917094658245,-5.067153559397407,0.7776882681771651,314.2672081822764,30.53104069611529,13.996164602262862,67.69428024662815,5.180677204362088,125.5713231236264,569.946733352782,1.274,1.022999484445133,0.0,2.882303449942369,75.00003213914121,0.0897381460095459,3.4490076184600658e-06,-0.0897521519018924,0.16548643440735,0.0084984453149568,2.0215614732485143,18.24764113984564,30.815158375737013,25.361446524953784
1.01,31.22218316953291,131.01045954581863,18.470580893726943,0.9020067600490584,1.7129837661540033,25.996088389188586,-5.169715654938304,0.719201880581107,324.92031610370094,30.76300692991418,14.11754490972576,67.63433474534271,5.3989351238427785,125.80728283928644,578.6245844750723,1.274,1.0229507481225095,0.0,2.8897492321454714,75.00003213914121,0.0904202382228155,3.566789284521164e-06,-0.0911457338544282,0.1682918611538303,0.0086957370370669,1.935894404349064,18.035418327454845,31.03204170736684,26.514898129852416
1.02,31.22218253518197,131.010460832662,18.75353545038069,0.8996029428186658,1.614617205270493,21.605723363949352,-5.274996035440777,0.6565498107677084,284.59063161543185,31.02732861077373,14.251409107630671,67.57309706042406,5.61967582793364,126.04603051623424,588.5946138299071,1.274,1.0229039803623294,0.0,2.897148188498963,75.00003213914121,0.091197437494696,3.6862966923006086e-06,-0.0925599519621401,0.1709825909950143,0.0089062928721482,1.848258621605964,17.80640846257573,31.280918521116533,22.250031975425156
1.03,31.2221818928902,131.0104621327941,19.03930063741728,0.8983621771369708,1.5196713131746775,17.54636426643881,-5.364359314526497,0.5997612619913034,247.3046933904342,31.22014852541725,14.358385830793754,67.5105473998875,5.8426813778485736,126.28733529872824,595.9166542261207,1.274,1.022853416101322,0.0,2.9044936908775423,75.00003213914121,0.0917644815692559,3.8074540554983657e-06,-0.0939946313180311,0.1735558092634599,0.0091002968738167,1.7652949440499976,17.617641538512906,31.45882995003697,18.35785835540991
1.04,31.222181246626658,131.0104634395869,19.325989259095024,0.8972902530712529,1.4261015482943824,28.23157405640045,-5.442902538847997,0.5460436670420759,345.4656368807608,31.37414469186277,14.450781735312548,67.44666725485817,6.067731175409937,126.530963269707,601.7934066604695,1.274,1.0228049544826707,0.0,2.9118188996630145,75.00003213914121,0.0922174163718795,3.930225834113079e-06,-0.0954450247862361,0.176000661123932,0.0092860448872053,1.6848528570560128,17.45001607612518,31.598133069997797,28.756653585487616
1.05,31.222180595685096,131.01046475414776,19.61391889157795,0.8899094655559657,1.3237491924883091,16.79319428645517,-5.550463613502705,0.4735251911163204,240.4562587980608,31.70874171286876,14.612246265519722,67.38144259371879,6.294591859977736,126.77666649528756,614.6807913945772,1.274,1.022755494436122,0.0,2.919076004248579,75.00003213914121,0.0932011937252256,4.054557444668146e-06,-0.0969077405448342,0.1783098217021888,0.0095286429710547,1.59502660351711,17.187952020467122,31.9166572516091,17.693028196837016
1.06,31.222179932547903,131.01046608839755,19.9064890517812,0.888183125933997,1.231082689591722,24.16966009506005,-5.612892580096261,0.422711830622401,308.1796836557233,31.81854251622988,14.688136248491304,67.31486301247455,6.523022424763257,127.02418852322316,618.9277942578542,1.274,1.0227013895379469,0.0,2.9262746320995814,75.00003213914121,0.0935242389033389,4.1802921033384255e-06,-0.0983891738913473,0.1804906488065201,0.009707535136632,1.517996195556749,17.043993011673848,32.01190565386561,24.81644046833038
1.07,31.222179271110782,131.01046742002478,20.19734280746705,0.8805319116620434,1.131345549093395,28.56022347620624,-5.7019303729568005,0.3542045139782184,348.5093681440431,32.096203608959414,14.828483736830544,67.24691523655918,6.752792972953618,127.27328466138698,629.7593464937576,1.274,1.0226540159946436,0.0,2.933499860851798,75.00003213914121,0.0943406777492004,4.307459045299424e-06,-0.099877580552142,0.1825236585916186,0.0099401038603179,1.4335893514725957,16.814840773096297,32.27390340440577,29.125999310351773
1.08,31.22217859710591,131.0104687715967,20.49291378562124,0.8711939405774862,1.0306993328060872,19.020510938295743,-5.792217599801845,0.281682513608238,261.0015785751465,32.4029599019361,14.980345998060889,67.17759534065259,6.983651240928678,127.52368570990276,641.8363753938057,1.274,1.0226061614050743,0.0,2.940595335680512,75.00003213914121,0.0952426471054378,4.435895150280259e-06,-0.1013784548228615,0.1844144934089993,0.0101856151820103,1.3495325573213928,16.57345396212015,32.56485304256457,19.884892911850315
1.09,31.22217791576504,131.0104701346119,20.79078101134092,0.8654442920355863,0.9357460161483012,17.443665059945413,-5.846785995465424,0.2257810649087789,246.54375332456465,32.5448072628522,15.069065556987256,67.10689728915348,7.215354424111978,127.77513238738348,647.4495640429884,1.274,1.0225512795791307,0.0,2.9477195788890853,75.00003213914121,0.0956599033259399,4.565503270284453e-06,-0.1028912538772619,0.1861588918483413,0.0103825648416815,1.2745775120776572,16.414435287140982,32.69178736916351,18.39884056916637
1.1,31.222177233019256,131.0104714998416,21.088316506615406,0.8580688997953113,0.8398086574481679,35.61217457072375,-5.900686739725704,0.1670512345827259,413.1890617384087,32.710791829259584,15.167265883926996,67.03481709394683,7.447656818684208,128.02736193147587,654.0519400517812,1.274,1.0224981043155532,0.0,2.954813379237253,75.00003213914121,0.0961481094246625,4.696279575668392e-06,-0.1044065266945109,0.1877440894013574,0.0105888984346335,1.200628205864558,16.244024663293143,32.84270394123807,36.098102273818405
1.11,31.222176543013976,131.01047287627938,21.388085028974764,0.8421605586121645,0.7365862002056526,25.896569924378586,-6.003093385977384,0.0772699009369543,324.1593910379213,33.157236113363844,15.37424527121326,66.96135860550548,7.680300345243744,128.28009777986676,672.0077215068321,1.274,1.0224548851875197,0.0,2.961815674459934,75.00003213914121,0.0974606902405841,4.828118697395664e-06,-0.1059233991796989,0.1891674760385194,0.010889045285726,1.118818378196861,15.943271876799065,33.27293561606696,26.583367632536433
1.12,31.222175836303915,131.01047427802007,21.694104411138703,0.8316256580317573,0.6398914709039928,9.377094442354055,-6.05502242907993,0.0124072491202634,172.7328179403806,33.36725899998196,15.49007080190082,66.88652797137856,7.913027187624774,128.5330632437197,680.5278749327587,1.274,1.0223979224661404,0.0,2.968788446474925,75.00003213914121,0.0980783594966356,4.960776645380912e-06,-0.1074519789521766,0.1904342901521493,0.0111158264690264,1.0493014699076522,15.755379992053197,33.46777082769957,11.162139164932457
1.13,31.222175130249475,131.01047567863932,21.998847477838208,0.8252509414987285,0.5473653591310121,30.63274449025493,-6.062639994309237,-0.0302563618149968,367.5328077894322,33.37817804955698,15.528682618568157,66.81032675240455,8.145588333477598,128.785990755238,680.9534053117496,1.274,1.0223460397860296,0.0,2.9758237270543164,75.00003213914121,0.0981107918919033,5.094285822243995e-06,-0.1089795286293861,0.1915307390956916,0.0112772094760643,0.9902662439065772,15.658183095243729,33.464156691274695,31.226936355545224
1.14,31.22217442388813,131.0104770797722,22.30278240951701,0.8076895740559334,0.4476892210117303,16.674343988583352,-6.141884572851863,-0.1181449312820309,239.6953177322812,33.79057284684068,15.723916476451796,66.73276648986513,8.377722672569814,129.03859915413665,697.8636415686665,1.274,1.0223022138470996,0.0,2.982749061069269,75.00003213914121,0.099323313151778,5.228656120463192e-06,-0.1104951148881002,0.1924485255927453,0.01157497466743,0.923458071684968,15.382294018519309,33.86089498966206,17.769931113558915
1.15,31.222173696689342,131.01047851163625,22.614518059327832,0.7973211249027908,0.3535997517382371,16.425673109267297,-6.1538767720840735,-0.1705271221015897,237.4125115347709,33.88747317345472,15.796350811209152,66.65386734371918,8.60916467682935,129.29060198181364,701.8508548469551,1.274,1.0222426194541194,0.0,2.989578370419747,75.00003213914121,0.099608490375397,5.363550304937964e-06,-0.112013844481157,0.1931928336339793,0.0117673671238044,0.8722073661600758,15.247264039759765,33.94301613999274,17.54143711096314
1.16,31.222172975333034,131.01047993473642,22.922806892093007,0.7842791091695013,0.2590387411543776,44.00952101385096,-6.172297465344453,-0.2301876894297133,490.043774385954,34.05048407373022,15.89484923019631,66.57364211792101,8.839657330227128,129.54172148358788,708.598420831656,1.274,1.02219674531104,0.0,2.9965035363886163,75.00003213914121,0.1000879911379657,5.499045860118528e-06,-0.1135202373750938,0.1937538721323366,0.0119826295698897,0.8259483032069632,15.08431172083289,34.09117364542332,44.44083912620971
