Time,Latitude,Longitude,Altitude,Angle of Attack,Angle of Sideslip,X-Acceleration,Y-Acceleration,Z-Acceleration,Thrust,True Velocity,Ground Velocity,Pitch,Roll,Yaw,Dynamic Pressure,cp,cg,parachute_deploy_gain,Wind Speed,Wind Direction,Mach,omega_x,omega_y,omega_z,Cmq,Angle of Attack(total),Angle of Attack(gust),True Velocity(gust),Acceleration
0.0,31.222216000000007,131.010392,3.000000004412624,0.0,0.0,0.0,0.0,0.0,2.2828121974499247,0.0,0.0,69.99999999623412,0.0,119.9999999935444,0.0,1.274,1.0271675151847728,0.0,0.0,0.0,0.0,0.0,0.0,0.0,-0.0,0.0,90.0,0.0,0.0
0.01,31.22221599999084,131.01039200000497,3.000002745347096,0.0,0.0,0.0,0.0,0.0,34.242186961749226,3.465174813755316e-14,2.8705476994166025e-14,69.9999999962611,-2.1713911667908447e-11,119.99999999352175,7.352495975525499e-28,1.274,1.0271659134330349,0.0,0.0,0.0,1.0183245502395064e-16,-3.3305335486039093e-18,7.169286865560398e-18,5.624298769768554e-18,-7.715917190115602e-34,0.0,89.99999999999979,3.465174813755316e-14,0.0
0.02,31.222215999994315,131.0103920000094,3.0000030495639742,0.0,0.0,0.0,0.0,0.0,25.871876237766216,3.8197434737535036e-11,2.4171837235633357e-11,69.99999999628672,-1.1921727947863515e-11,119.99999999353136,8.93414285188691e-22,1.274,1.027164492361118,0.0,0.0,0.0,1.1225230367947217e-13,-6.657678965418802e-18,1.4338573731120796e-17,1.1241821275959074e-17,-1.7010872994127372e-30,0.0,89.99999999975682,3.8197434737535036e-11,0.0
0.03,31.222215999994315,131.0103920000094,3.0000030495639742,0.0,0.0,9.81877837424427,-2.5122800045972096e-05,3.3498614629347925,180.34219359854663,1.2659015405517447e-10,1.1364406173918436e-10,69.99999999631459,-1.6431898037347223e-11,119.99999999352724,9.812605835254651e-21,1.274,1.0271551940870716,0.0,0.0,0.0,3.720154642239108e-13,-9.991600645811728e-18,2.150108433310316e-17,1.6859343782149594e-17,-8.453698244545225e-30,0.0,89.99999999919412,1.2659015405517447e-10,10.374487003414373
0.04,31.222215999994315,131.0103920000094,3.0000030495639742,18.83801224594347,-0.0001111777826462,48.68248476615645,-1.016330065874988e-05,3.3497854396877287,548.635972453808,0.1556173050466994,0.0975908358443652,69.99999999633813,-2.0932768807056278e-11,119.99999999352085,0.0148286043323172,1.274,1.027133720825283,0.0,0.0,0.0,0.0004573186944143,-1.3322134194415637e-17,-1.04744143520903e-11,1.336824254131964e-11,5.0626055458604615e-15,18.83801224625964,89.06236267790787,0.1555998412814392,48.79759610369246
0.05,31.22221599164764,131.01039201704114,3.002326315126219,5.772385609593056,-4.395076213712875e-06,71.20344550265034,4.905512691849684e-05,3.349217396035405,761.6984298824663,0.8326471944351852,0.3620326097059287,70.00000001316391,-1.0866255162484559e-10,120.00000000231074,0.4245281043148827,1.274,1.027093426565204,0.0,0.0,0.0,0.0024469331205246,-5.0245994431125096e-18,-7.32924164976824e-07,2.217344936947165e-11,1.895424184525467e-09,5.772385609594774,84.74112356985832,0.8326465040582279,71.28217104309611
0.06,31.22221596664444,131.01039206837547,3.015081730143309,4.056581213689704,3.169093567502233e-05,53.16249142470188,0.0001203825427859,3.3481235983850643,590.4875390737236,1.657216205300742,0.6755452977614796,69.99999964391398,-3.9285905645317736e-10,120.0000000287861,1.6816755551786196,1.274,1.027050317124926,0.0,0.0,0.0,0.0048701272653724,3.095757869075056e-13,-7.483541766772344e-06,3.074135420506017e-11,3.8518749565858254e-08,4.056581213813337,79.59316473687034,1.657221183301277,53.26781792157489
0.07,31.22221592883117,131.0103921460222,3.034593611434361,4.115662018628709,6.450869598349036e-05,81.18203554989698,0.0001593212642178,3.347059402768047,855.2937749779172,2.099899704220947,0.8579771146174259,69.99999543281565,-8.233801910783518e-10,120.00000006883089,2.700101932075157,1.274,1.027003201295312,0.0,0.0,0.0,0.006171060252819,3.4704292086287e-12,-2.6327204536316785e-05,1.9541142932033486e-10,1.7170712165327165e-07,4.115662019133419,76.90111966094352,2.099909837223217,81.2510043180746
0.08,31.22221588914193,131.01039222747755,3.0542761843835606,3.459696193892355,8.037433511260004e-05,16.298214211652088,0.0002413456836072,3.344878926597744,241.2171988638792,3.051964775152957,1.2149999716613011,69.99998042886442,-1.0128995578004475e-09,120.00000011111383,5.703497661025892,1.274,1.0269597189470347,0.0,0.0,0.0,0.0089689344021769,1.458982438104473e-11,-5.702803872814215e-05,7.043261397829576e-10,5.405702492731987e-07,3.459696194824858,71.30331929508368,3.051977400323993,16.63790856991177
0.09,31.2222158241468,131.01039236098703,3.0886872184095737,4.313676956300389,0.0001337561018991,50.35975918308536,0.0002293282821279,3.344215841840564,563.0937377043203,2.893161298572128,1.191209213966114,69.99994788602814,-7.098432023887522e-10,120.00000018106356,5.125380275808925,1.274,1.026918932011013,0.0,0.0,0.0,0.0085022553945842,3.8672912027154325e-11,-0.0001115933708951,2.016054215232918e-09,1.0027525988343615e-06,4.313676958370176,72.2316578138625,2.893182308931483,50.47067588835877
0.1,31.2222157788302,131.01039245392113,3.109877853389092,4.035124630954496,0.0001457499816535,47.804664812504015,0.0002878217657545,3.341734392237128,538.7437595981891,3.5677148583138303,1.4531247507621967,69.99988403958329,1.9248461973355822e-09,120.0000002323013,7.7939962029572305,1.274,1.0268846934974103,0.0,0.0,0.0,0.0104845969583028,8.579678749070606e-11,-0.0001726817043215,3.984565639703107e-09,1.913455350430327e-06,4.0351246335824245,68.43243098813296,3.567737752667411,47.92132267234452
0.11,31.222215703308,131.01039260899836,3.148841432727305,4.043401107254707,0.0001752764476999,37.67622367577205,0.0003286462930162,3.3392563999062723,442.86563930529127,4.034183355956686,1.6436552022667772,69.99978525353545,7.302513231814865e-09,120.00000031883242,9.96528118825134,1.274,1.026848594915519,0.0,0.0,0.0,0.0118554331868328,1.5870341853361987e-10,-0.0002596204409236,7.232030302688121e-09,3.252930323390323e-06,4.04340111104746,65.92012987243639,4.034210888316708,37.82391391539392
0.12,31.222215627491828,131.01039276462643,3.186995101203875,4.17874459224363,0.0002066711490009,41.15991989399172,0.0003576945202315,3.336766085769504,475.58594813540793,4.361857560629481,1.7865750500940407,69.99963665601238,1.781774420198147e-08,120.00000041104812,11.649831899889556,1.274,1.0268114448194128,0.0,0.0,0.0,0.0128183893919737,2.682972478760441e-10,-0.0003710216542429,1.2215991071490164e-08,5.026311388647148e-06,4.178744597345269,64.21681651392016,4.361890024457652,41.29495143136631
0.13,31.22221554594398,131.01039293200228,3.2277173449026786,4.202734874672792,0.0002327160860324,45.44886120763352,0.0003953741266062,3.333578629398489,515.9156326236897,4.792165672014363,1.9646716520715424,69.99942424225341,3.613383418913551e-08,120.00000051758742,14.061726603124043,1.274,1.026779572895131,0.0,0.0,0.0,0.0140829618979635,4.248908088871395e-10,-0.0005056103199642,1.908859219307828e-08,7.5253154423526356e-06,4.202734881104192,62.048594618540655,4.792202226971676,45.570952718869485
0.14,31.222215454191247,131.01039312033683,3.2737880595608355,4.184830647080848,0.000257138757548,42.32232525579263,0.0004369426767266,3.329727443445437,486.2390860568421,5.269261304374574,2.158791628597544,69.99913473613935,6.515851355725497e-08,120.00000064630268,17.000925061330125,1.274,1.0267449573927567,0.0,0.0,0.0,0.0154850332441425,6.382432869666793e-10,-0.0006690086306358,2.8426433029675884e-08,1.0948547100483978e-05,4.184830654966803,59.74181173116622,5.269301695636157,42.45310707234106
0.15,31.222215353826755,131.0103933263496,3.3242182719560263,4.21963947489699,0.0002846467688673,40.886944113003565,0.0004726792395108,3.325585650885676,472.5421858721398,5.6781946837482895,2.329510773545807,69.99875162806286,1.0876776246115984e-07,120.00000079954532,19.742017654108928,1.274,1.0267115958081523,0.0,0.0,0.0,0.0166867950518804,9.204756288136623e-10,-0.000865746478554,4.08948221429571e-08,1.526771148078443e-05,4.219639484480408,57.84996018384879,5.678239395958187,41.02196629910223
0.16,31.222215247130432,131.01039354534575,3.3775922280208457,4.253495568077899,0.0003118339050386,32.26872905470846,0.0005078415214353,3.32090791922544,391.1218908297597,6.081244877834229,2.4981889727471702,69.99825581174558,1.7187028096464329e-07,120.0000009800088,22.644030778355887,1.274,1.026675762255412,0.0,0.0,0.0,0.0178712695992133,1.2856146928958252e-09,-0.0010961187242953,5.6923362293832417e-08,2.0702404729358337e-05,4.253495579487569,56.06022383757386,6.081293860589489,32.43916312841722
0.17,31.22221513260033,131.01039378041813,3.4348437275053194,4.364838523348639,0.0003448792023946,40.840448242802736,0.0005326487904353,3.3162727284953744,471.78125980632416,6.362544479165355,2.6250789114832647,69.99762801982864,2.5997588617291615e-07,120.00000119506798,24.78723182122683,1.274,1.0266409836796937,0.0,0.0,0.0,0.0186979513961862,1.747791994374917e-09,-0.0013624931601664,7.706724512977917e-08,2.6923621797558364e-05,4.364838536947241,54.85936171416122,6.362598652663785,40.97486885600156
0.18,31.222215014088988,131.01039402363364,3.4935801365785646,4.353948305387995,0.0003681615230806,33.992183768165326,0.0005718025428208,3.310131992647221,407.1015672119096,6.81502088160835,2.810667639293692,69.99684761766231,3.794979223522764e-07,120.00000144728236,28.437950785509614,1.274,1.0266048342046536,0.0,0.0,0.0,0.020027681385988,2.3221419748804155e-09,-0.0016616990447559,1.0147209890543081e-07,3.517105786247627e-05,4.353948320923495,52.99157233768714,6.815078712285162,34.152972512863755
0.19,31.22221488419521,131.01039429023237,3.558399965607869,4.432620772533925,0.0003996774584738,38.45149959021069,0.0005986099513107,3.304145139297767,448.95313283182486,7.1223367465208405,2.946425726785696,69.99589577323147,5.440084577183829e-07,120.00000176148238,31.060341085698347,1.274,1.026566130444714,0.0,0.0,0.0,0.0209308229359413,3.022391489754689e-09,-0.0020041563310821,1.3135864879722746e-07,4.433199397898183e-05,4.432620790516937,51.77883352025967,7.122399527709208,38.59320142454953
0.2,31.222214751373183,131.01039456280608,3.624052454705669,4.443889400961181,0.0004246617145652,35.23432408779927,0.0006337972852267,3.2968110145188256,418.5156301991588,7.530482904611057,3.1167566004785483,69.99474776398331,7.478025600151903e-07,120.00000211715036,34.72195181863731,1.274,1.026529240027363,0.0,0.0,0.0,0.0221302820454282,3.866698391504749e-09,-0.0023849544920781,1.668144671071589e-07,5.57780533277244e-05,4.443889421210987,50.22448880200342,7.530549610317194,35.38822625098952
0.21,31.222214608673173,131.01039485566503,3.6948551453492566,4.493351735844891,0.0004538195602194,33.79371564104691,0.0006629296043866,3.2891790438445727,404.8187610144608,7.868284042829251,3.2629204975089228,69.99338155599101,1.0150082652278477e-06,120.00000255293388,37.906665490338085,1.274,1.0264923657015164,0.0,0.0,0.0,0.0231230169900677,4.871073773182836e-09,-0.0028117605859743,2.089322918608601e-07,6.870935089180403e-05,4.493351758715364,48.992529909481824,7.868355328639073,33.95340801819282
0.22,31.22221446109996,131.01039515850383,3.767700382407304,4.5412639153933885,0.000482649303782,41.008966751568416,0.0006914639179131,3.2808061382386606,472.5421858721387,8.20057841132235,3.4071691679735228,69.9917708347139,1.3454961520984431e-06,120.00000305929996,41.175744234065135,1.274,1.0264494137127138,0.0,0.0,0.0,0.0240995709751246,6.054779813287368e-09,-0.0032829112061357,2.580881224843564e-07,8.3609968899004e-05,4.54126394098788,47.82515604752711,8.2006542256977,41.13999323561041
0.23,31.22221430675399,131.0103954752338,3.843768625625224,4.52371495179584,0.0005047555656171,33.98493478127787,0.0007294889663961,3.2705214710765107,406.340642146096,8.647938096586296,3.5908865300848416,69.98989017772566,1.7539876018835507e-06,120.00000365514876,45.79040229326471,1.274,1.0264133390858623,0.0,0.0,0.0,0.0254142776666487,7.436335125872812e-09,-0.0038001790077148,3.1489825108822685e-07,0.0001020628978177,4.523714979897577,46.31461705147579,8.648017383405135,34.14194053232237
0.24,31.222214142622448,131.0103958120587,3.92493179063287,4.57837522350066,0.0005351929930195,35.051650311058864,0.0007555049947555,3.26053011385611,416.2328240017099,8.954297884844461,3.72617527247482,69.98771316795013,2.25257161141768e-06,120.0000043564586,49.09180568115741,1.274,1.0263750048312463,0.0,0.0,0.0,0.0263146218848643,9.034877387788232e-09,-0.0043732521010013,3.809642748985157e-07,0.00012161410144,4.578375254714954,45.32798984252032,8.954381952763216,35.20297212911011
0.25,31.22221397517227,131.0103961556623,4.0071748888306855,4.6034117733065,0.0005618935542827,36.03738579534623,0.000785606492708,3.249069743648399,425.3640807915084,9.311611941121669,3.8789349536029696,69.98520781816889,2.8559738498748624e-06,120.00000517181904,53.08749562138344,1.274,1.0263373768840591,0.0,0.0,0.0,0.0273647110956883,1.0873791100894836e-08,-0.0049950711786164,4.5609738277273444e-07,0.0001444478241125,4.603411807525074,44.2165428352526,9.311700203154778,36.183554686886296
0.26,31.22221379934012,131.01039651647062,4.09364247475714,4.621386912291471,0.0005881033207375,39.29107511182762,0.0008162761165496,3.236407051295005,455.80158342417656,9.67833954512075,4.034902068846398,69.98234620927953,3.5784678110229355e-06,120.00000612171208,57.350948423913096,1.274,1.0263006300381676,0.0,0.0,0.0,0.0284424679130479,1.2973286442992724e-08,-0.0056712051373577,5.414206381221602e-07,0.0001704578711045,4.621386949630312,43.12063533194282,9.678431924174348,39.42414126789902
0.27,31.222213616776543,131.01039689108487,4.183310605341074,4.617158109135719,0.0006115457810536,35.90419462403674,0.0008503454714941,3.221982799915672,423.8421996598744,10.088790784535757,4.205862468567124,69.97909721779352,4.436165972465058e-06,120.000007221354,62.31798301949865,1.274,1.026260090595354,0.0,0.0,0.0,0.0296487219805601,1.5355910600537293e-08,-0.0064045199323113,6.379142666348734e-07,0.0002006609239367,4.617158149547818,41.94410287616451,10.08888684592241,36.048472443180565
0.28,31.22221342607797,131.0103972823952,4.277051150896916,4.642105655370123,0.0006389739579882,41.51133203546672,0.0008785747638736,3.2071101123224945,476.3468732012228,10.432377224420517,4.35383399240675,69.97542808435722,5.446665372087172e-06,120.00000849080963,66.63429581008447,1.274,1.0262212716723291,0.0,0.0,0.0,0.0306584788590473,1.8045308789081613e-08,-0.0072006835403936,7.469524967369969e-07,0.0002332868227611,4.642105699250441,41.0023231023774,10.432477594215127,41.63503624837164
0.29,31.22221323001776,131.01039768469093,4.373143569786686,4.62134615173668,0.0006600657405645,33.17552944492765,0.0009148746278066,3.1894209319791806,397.9703104221098,10.876662296046485,4.536381530986506,69.9713027936179,6.629751536885327e-06,120.00000994797426,72.43000748232016,1.274,1.026183007522519,0.0,0.0,0.0,0.0319641703260467,2.1067646517035105e-08,-0.0080566154554079,8.688043379161898e-07,0.000272130659453,4.621346198772975,39.83162628795024,10.876765978930557,33.32848872465723
0.3,31.22221302403368,131.01039810736614,4.4744193758467325,4.664362353358112,0.0006905183788532,31.08096762732793,0.0009381960428197,3.172549142946348,378.1859457108735,11.168362145070317,4.66647911311536,69.96668711012893,8.005507138509574e-06,120.00001161892672,76.36634300732833,1.274,1.0261430389738484,0.0,0.0,0.0,0.0328214509167604,2.4447409007156216e-08,-0.0089829108229115,1.0056222251461646e-06,0.0003115527202986,4.664362404357781,39.09908960432563,11.168470611443622,31.242464973103964
0.31,31.22221281503337,131.01039853619727,4.576593712520673,4.700143580504286,0.0007196683316923,32.79732593144512,0.0009620705970519,3.154230688182399,394.1656220930229,11.470279728974068,4.800072153432283,69.96154070456518,9.597499105113692e-06,120.00001352112182,80.55022837857167,1.274,1.0261054058068628,0.0,0.0,0.0,0.0337087616009043,2.8214060606649844e-08,-0.0099686353219717,1.1565909895184251e-06,0.0003550834484269,4.700143635477137,38.36463422765983,11.47039277421126,32.94865339301887
0.32,31.222212598991007,131.01039897947376,4.68216432480395,4.718667719113184,0.0007464384342556,35.7316568886908,0.0009885845337584,3.133859770838664,421.5593934624264,11.808280530415894,4.946054328851105,69.95582953472353,1.14278227255889e-05,120.00001568218067,85.36654007972253,1.274,1.026068246703101,0.0,0.0,0.0,0.0347021168382987,3.2392058795580455e-08,-0.0110163301561155,1.3226102501723267e-06,0.0004039614423012,4.718667778018562,37.5686120062341,11.808397780690962,35.8688218659563
0.33,31.222212376029034,131.0103994369436,4.791055524254013,4.72141404831576,0.0007708346814671,35.42013590291081,0.0010176135371143,3.1111955852784385,418.5156301991632,12.181577273013426,5.104163223586657,69.94951809396906,1.351997394754887e-05,120.00001812674968,90.84831229869296,1.274,1.0260310883392356,0.0,0.0,0.0,0.0357992034445943,3.700677535501642e-08,-0.0121310534481307,1.5051409581878843e-06,0.0004588955105349,4.721414111097893,36.7208578211118,12.181698355442045,35.55651229220977
0.34,31.222212145785647,131.0103999093516,4.903491659547144,4.73024573449122,0.0007962944975467,27.63851074646407,0.0010446307681611,3.0871492806781062,345.4656368807584,12.53557620048282,5.2556261014174765,69.94256797855994,1.5899658158227497e-05,120.000020882338,96.20413272674828,1.274,1.0259901535019136,0.0,0.0,0.0,0.0368395817555172,4.208561016221623e-08,-0.0133180771902383,1.7057647550599631e-06,0.0005184333231541,4.730245801363397,35.94841996438923,12.535701282129995,27.810389570354005
0.35,31.222211909310875,131.01040039453565,5.018822212845608,4.780248518778662,0.0008286678570753,30.332092807652543,0.0010618579815451,3.063967690608957,370.5765700527057,12.774786382148209,5.367579971644358,69.93493776125636,1.8594985713558667e-05,120.00002397748868,99.9096898192772,1.274,1.025950003202184,0.0,0.0,0.0,0.0375426220587071,4.7658312175989686e-08,-0.0145774693288123,1.9252724355785177e-06,0.0005782798420984,4.780248590437683,35.44790728185619,12.774916548990808,30.486451961956565
0.36,31.22221166933814,131.0104008868675,5.135354490370708,4.798132156899578,0.0008554457330409,34.32674769697476,0.0010851169437774,3.0374319611165923,407.8625232777224,13.09301701329486,5.506730645516068,69.92658597246795,2.163521613217148e-05,120.0000274401514,104.94818266210537,1.274,1.0259105142325406,0.0,0.0,0.0,0.0384778908056978,5.3755109608570216e-08,-0.0158991451700967,2.162609490834569e-06,0.0006464142451675,4.798132232978766,34.796094028187134,13.09315138639638,34.46087058603792
0.37,31.222211421355144,131.01040139563804,5.255882891363927,4.797392186816851,0.0008791822061288,32.551601855236584,0.00111162791192,3.0078619428913056,391.1218908297639,13.457513730739372,5.661815946371007,69.91747693543164,2.5047738471809164e-05,120.0000313040604,110.87154396328836,1.274,1.025872170958032,0.0,0.0,0.0,0.0395491312153729,6.040098808671168e-08,-0.0172926678053148,2.420031948898497e-06,0.0007226353721561,4.797392267189059,34.07332166419882,13.457651832357364,32.69027405888565
0.38,31.22221116634284,131.01040191882743,5.379799334000849,4.811698494594017,0.0009057112478668,34.02947987649063,0.0011338447913587,2.9774881690446744,404.81876101445977,13.77554886562956,5.800899861213392,69.90756948297444,2.886339581486796e-05,120.00003560072224,116.17243393848278,1.274,1.02583050512925,0.0,0.0,0.0,0.0404838339452728,6.762496638941508e-08,-0.0187646375218858,2.69955777313946e-06,0.0008026686661094,4.8116985796350695,33.46655348088405,13.775691134419684,34.15949264475229
0.39,31.222210906095896,131.01040245274032,5.505993307722699,4.813508003664984,0.000929862892873,29.00025983045028,0.0011579891265804,2.9442136901860865,357.6406249338268,14.124492165837273,5.950648592462506,69.8968186645841,3.311602501056718e-05,120.00004036395212,122.13093644173792,1.274,1.02579027384009,0.0,0.0,0.0,0.0415093739609825,7.545934774906889e-08,-0.020311592409804,3.0013532510753577e-06,0.0008908380763632,4.813508093268025,32.821616487639595,14.124638228358922,29.149330452482886
0.4,31.222210638473225,131.0104030017851,5.635788650457906,4.841647069358873,0.0009592124397379,27.71178845184976,0.0011749448424961,2.91135549588368,345.4656368807565,14.390874239274588,6.07193451174791,69.8851815212744,3.783947407715338e-05,120.00004563180136,126.77947425345651,1.274,1.0257493418632293,0.0,0.0,0.0,0.0422922854866381,8.39343718693383e-08,-0.021938519432511,3.3271332720311508e-06,0.0009803271643914,4.841647164150728,32.348088166612904,14.391024912012275,27.864299944624147
0.41,31.22221036681104,131.01040355909262,5.767123077463226,4.86553909860892,0.0009876699832274,31.306062598221665,0.0011918093836199,2.876450850006428,378.9468707766882,14.663028799871563,6.195223154320929,69.87261222561014,4.307011032901644e-05,120.0000514391194,131.6183642808765,1.274,1.025708445186429,0.0,0.0,0.0,0.0430921644173401,9.308325447883581e-08,-0.0236371933433427,3.6760977501392174e-06,0.0010761942383903,4.865539198612839,31.87689439156756,14.663183942709727,31.437931330109585
0.42,31.22221008906472,131.01040412887247,5.901259531771367,4.867510642114694,0.0010118258958528,35.308283402190774,0.0012128114559048,2.8374461227958245,416.23282400171047,14.9952917972178,6.33928625560071,69.85906967380902,4.884273094936628e-05,120.00005782486392,137.64909586091787,1.274,1.0256701057426505,0.0,0.0,0.0,0.0440686959134695,1.0293499639582845e-07,-0.0254093547296826,4.049238334851429e-06,0.0011830797791891,4.867510747027452,31.315270489291198,14.995450734457847,35.422111438762386
0.43,31.222209804115888,131.01040471342728,6.038886819939341,4.854590670645608,0.0010330089741511,31.00586934514032,0.0012363751872706,2.794478603999558,375.90313951343126,15.369430568701889,6.497852263156962,69.8445117629242,5.519340856908871e-05,120.00006482835984,144.60167924299955,1.274,1.0256308158337524,0.0,0.0,0.0,0.0451682983415116,1.135186446762958e-07,-0.0272634397889413,4.449073329427772e-06,0.0013010625065656,4.854590780289497,30.70250814963406,15.369592833372094,31.13154422839874
0.44,31.22220951192321,131.01040531284193,6.180028459770617,4.866912332640401,0.0010595850174406,28.57707721036899,0.0012525768202179,2.752165534925872,353.07501253892326,15.659290812546615,6.627318538707029,69.82889155423543,6.216182865383864e-05,120.00007249162944,150.1053167542629,1.274,1.025586171750536,0.0,0.0,0.0,0.0460202245100907,1.2486676023179565e-07,-0.0292060158163984,4.8779154055816594e-06,0.001420032405556,4.866912447705031,30.24619499837236,15.659457251771938,28.709297424144207
0.45,31.222209215425703,131.01040592106523,6.322872201489905,4.881836476567178,0.0010866574689855,33.31904824532484,0.0012669045761511,2.7082028218433374,397.2093853562887,15.934249290371609,6.751662050993672,69.81215834018458,6.97909417564726e-05,120.00008085697964,155.42080512416243,1.274,1.0255397023523487,0.0,0.0,0.0,0.0468283602442113,1.3701614206272197e-07,-0.0312276295846745,5.334643585560923e-06,0.0015449645531859,4.8818365972149325,29.82567893138932,15.934419982127675,33.428929688274074
0.46,31.22220891307435,131.0104065412864,6.468371919199588,4.869610441729251,0.0011078049156487,38.95909776354321,0.0012868374716666,2.6582856015412624,449.7140588976424,16.292139278621757,6.904766425053949,69.79426683863348,7.812149592850748e-05,120.00008996920153,162.4785746623087,1.274,1.02549635315424,0.0,0.0,0.0,0.0478802236363867,1.499987870203256e-07,-0.0333272350234362,5.819761874615242e-06,0.0016858511402973,4.869610567434908,29.29014635640275,16.292313292210977,39.04968351401366
0.47,31.22220860266524,131.01040717804253,6.6178810515614845,4.838450928223533,0.0011247917292402,26.253747818137555,0.0013104398935566,2.6026193242279367,331.0078106302504,16.710658191447514,7.078951441335346,69.77517236812905,8.719457259907165e-05,120.0000998741591,170.9309671061642,1.274,1.025453319323251,0.0,0.0,0.0,0.0491102725711187,1.6384464803343264e-07,-0.0355167087264168,6.3368207228363735e-06,0.0018427306558807,4.838451058652396,28.68386015667837,16.710834873319172,26.382435512333956
0.48,31.222208284201663,131.0104078313267,6.771393590864176,4.869339340099417,0.0011561785713505,25.860860976019296,0.0013165328518772,2.5543454292827983,327.20312230115803,16.911139899671,7.177575416403102,69.75482343794755,9.70562828082882e-05,120.00011062072316,175.0543877818846,1.274,1.0254092882449153,0.0,0.0,0.0,0.0496995461609974,1.7858865391586845e-07,-0.0378054080201581,6.88909442277235e-06,0.0019849793891693,4.869339477030596,28.40887970825325,16.911321511776286,25.986704537635287
0.49,31.22220796480208,131.01040848648364,6.924537656029012,4.881367714530694,0.0011829003785372,32.565703383222065,0.0013261973190012,2.5011623511055703,389.6000096981238,17.169005224738054,7.296160258358563,69.73316318155707,0.0001077573203115,120.000122255028,180.4309832312717,1.274,1.025367445590036,0.0,0.0,0.0,0.05045746454003,1.942747077649401e-07,-0.0401641298712614,7.47069711110948e-06,0.002140948887153,4.881367857509675,28.058569663954906,17.169191034294997,32.66161128464712
0.5,31.222207637929923,131.01040915697027,7.081324512896956,4.862566137860805,0.001202418260511,33.47759680712428,0.0013425340759632,2.4399894027711366,397.970310422106,17.52898693231981,7.450304424940405,69.71015149227495,0.0001193385310595,120.0001348274002,188.0736471953394,1.274,1.0253278572281015,0.0,0.0,0.0,0.0515154948878309,2.109295159784217e-07,-0.0426011733481599,8.084173008518589e-06,0.0023184335011768,4.862566286171007,27.57768313050809,17.529175807738486,33.56639745442473
0.51,31.22220730314019,131.01040984370235,7.24202048914867,4.8479762258125,0.001223054804074,25.49162310288008,0.0013562860883156,2.3767006597692686,323.39843497208153,17.86914397471067,7.597652147346554,69.68574349602717,0.0001318441288964,120.00014838524436,195.4407439266201,1.274,1.025286455263166,0.0,0.0,0.0,0.0525152689856776,2.2858192086249162e-07,-0.0451315948093539,8.734206149830708e-06,0.002503767471626,4.847976379721193,27.13799345359824,17.86933609171003,25.602178740977283
0.52,31.222206962738102,131.01041054193402,7.405210501673173,4.865306299521403,0.0012516517170965,30.733671928447727,0.0013599291289974,2.317711624364424,372.098451184342,18.08534843773428,7.701914987606457,69.65988568649581,0.0001453248538387,120.00016298000436,200.19561780583155,1.274,1.0252426840672306,0.0,0.0,0.0,0.0531507657929359,2.4726951523704535e-07,-0.0477531686556663,9.421346966092632e-06,0.0026812161964639,4.865306460134566,26.8699055233151,18.085545046726228,30.820940596104087
0.53,31.222206619320115,131.01041124632013,7.569307468221277,4.848802699234936,0.0012715119568563,32.301199055744725,0.0013711327835325,2.2490252325653923,386.55624643486095,18.41963113311156,7.8474319110539055,69.6325258319474,0.0001598315062727,120.0001786629144,207.6614205945027,1.274,1.0251993415311351,0.0,0.0,0.0,0.0541332845214831,2.67031759303889e-07,-0.0504479325599339,1.0141887756417996e-05,0.0028848299490111,4.848802865552398,26.45837260670532,18.419830861742675,32.37940050117613
0.54,31.22220626697288,131.01041196903336,7.737918664599091,4.831496690588052,0.0012913635058467,28.31291960103712,0.0013809098107221,2.177242866245296,349.2703242098436,18.75116898748492,7.992112829440902,69.60362200959217,0.0001754082864028,120.00019548734956,215.20067397992847,1.274,1.0251561018460285,0.0,0.0,0.0,0.0551077428911958,2.878941684235108e-07,-0.0532336286085667,1.090122304443916e-05,0.003098869611663,4.831496862756785,26.061835558272342,18.751371834390056,28.396510432451375
0.55,31.222205908994248,131.01041270328463,7.909026079894722,6.513254524653416,3.221351441463697,30.068444254434496,-0.1684980275329739,2.0122048554421923,365.2500005919912,19.321439881558085,8.113323699629928,69.57312211246325,0.0001921068626005,120.00021350480982,228.48556729167785,1.274,1.025112921033824,0.0,1.2532017829729258,0.0,0.0567838195707577,3.0989272306468813e-07,-0.0561100530405476,1.1700476995263424e-05,0.0033655954893797,7.263252841114067,28.864298325220624,19.8271820386331,30.136169296172707
0.56,31.222205546564343,131.01041344664463,8.081909946161325,1.3459620392475593,-0.0063865977664468,28.0056035196612,-0.0377989726185855,2.1944201262997582,346.22656194657776,18.822700317967776,8.249440985479161,69.54097415464405,0.0002099796112633,120.00023276987916,216.8385239586981,1.274,1.0250709539098009,0.0,1.2577738927225492,120.00005142262596,0.05531818072353,3.33055098311298e-07,-0.0602110325869796,0.0020678997594897,0.0035182973661973,1.3459771885969911,25.581274665723345,18.82169711353863,28.091470893377945
0.57,31.22220517743276,131.01041420478916,8.258244915209472,1.3849422820444235,-0.0048651478980293,27.690639682696688,-0.038119822532926,2.164254282021977,343.1828296833045,19.090498098147663,8.376175143124465,69.50647648621381,0.0033802394768671,120.00361702871795,223.04872918546107,1.274,1.0250279191823897,0.0,1.2623102824056371,120.00005142262596,0.0561053253137641,3.590438221820124e-07,-0.0610026685020631,0.0020631984461644,0.0036152079216922,1.3849508257149827,25.27162582939354,19.089733882503825,27.77511432478824
0.58,31.2222048029258,131.01041497285908,8.43643535173215,1.4174297941837128,-0.0059033055501711,36.62125333664874,-0.0383344359369774,2.1326071488238387,426.12500585731766,19.36385748937747,8.503726310997438,69.47152518889214,0.0065322672833203,120.0069825773631,229.47826519717952,1.274,1.024981594484354,0.0,1.2668518344190975,120.00005142262596,0.056908819354138,3.853112376319776e-07,-0.0618415145562321,0.0020593252722272,0.0037173354307477,1.4174420846534008,24.96002282499288,19.36293020031169,36.68331608139046
0.59,31.222204422714697,131.01041575308068,8.617291629603805,1.4380234774500171,-0.006877307448386,29.595735975700016,-0.0387939373426063,2.090582865296441,360.68438819710633,19.772700902360125,8.678963117551172,69.4360932157902,0.0096672032788386,120.01033063723628,239.2666970387684,1.274,1.0249386802161349,0.0,1.271361409473568,120.00005142262596,0.0581104958134014,4.118758074675743e-07,-0.062725631697948,0.0020546863382598,0.003850022385121,1.438039919168925,24.506494749333847,19.771620617434905,29.66950673047312
0.6,31.222204032774137,131.010416553186,8.803006744626334,1.4678837569886924,-0.0078718532764059,26.25304397602041,-0.0389389333240902,2.056962376362206,329.4859594986072,20.03154070494116,8.80175592931504,69.40015463706034,0.0127837337154836,120.0136598129284,245.56768926921785,1.274,1.024891335813742,0.0,1.2758590987156786,120.00005142262596,0.0588713300610872,4.387484349124593e-07,-0.0636616487414209,0.0020492159425243,0.0039585551989089,1.4679048595011404,24.22793115472129,20.03030419712389,26.333532396265404
0.61,31.22220364037752,131.01041735828332,8.98921797992784,1.497027439619235,-0.00885289962462,30.85217360263936,-0.0390337462714845,2.0230222224755567,372.0984511843332,20.27533729414584,8.919403021026312,69.36367970245495,0.0158804396751235,120.01696858422704,251.57699535923544,1.274,1.0248423929069768,0.0,1.2803969216307969,120.00005142262596,0.0595879567611886,4.659551981526165e-07,-0.0646430372654219,0.0020429299570751,0.0040684271636867,1.4970536099183436,23.97109052626225,20.273946683930188,30.918453366127082
0.62,31.222203241987472,131.01041817564996,9.178057362268277,1.5181995692075527,-0.0097779477049401,38.482025344529205,-0.0392713375371498,1.9817254963368487,442.86563930529206,20.604806395347364,9.06739236893586,69.32664242423783,0.0189559253624417,120.0202554665398,259.8148391416902,1.274,1.0247996097896497,0.0,1.2848677136470033,120.00005142262596,0.0605563749872988,4.935138416112352e-07,-0.0656691443218456,0.0020358106821652,0.0042000912369078,1.5182310488941135,23.63153132879,20.60327047892097,38.53303845789703
0.63,31.22220283569204,131.01041900921507,9.37066286728024,1.5308196595728158,-0.0106373470128628,21.616130606236275,-0.0396579127200932,1.9322419844700625,286.11251274707456,21.025673802645617,9.24787879259928,69.28901718558824,0.0220087671766319,120.02351894306656,270.5320279647834,1.274,1.024756158874558,0.0,1.2893213125705287,120.00005142262596,0.0617934150534309,5.214365565020557e-07,-0.0667445125005084,0.0020278008690495,0.0043559840863823,1.5308566086869644,23.210363530380388,21.02400289209375,21.702355499402703
0.64,31.222202420618206,131.01041986077,9.567544933892163,1.5634105301045726,-0.0116131790631492,21.219558176828063,-0.0394623564443897,1.9018513892163755,282.3078244179702,21.15548100870344,9.325679346352494,69.25077576498288,0.0250374516425805,120.02675739901096,273.87755452144967,1.274,1.024708534665538,0.0,1.2937863969633243,120.00005142262596,0.0621750501054501,5.497362600646997e-07,-0.0678741909223922,0.0020188292109496,0.0044569745710896,1.5634536507668413,23.08444687223903,21.15365681481445,21.30465313503205
0.65,31.22220200683813,131.01042070960386,9.762675606519776,1.5886326944344331,-0.0125347672564526,37.87370236008102,-0.0393935150521669,1.864661153215668,436.7781447787504,21.36360675037682,9.43129232048092,69.21188702588361,0.0280403536951951,120.02996908763748,279.28759455724605,1.274,1.0246641738210605,0.0,1.29827270809458,120.00005142262596,0.0627868609363235,5.784500074558901e-07,-0.0690428078558578,0.0020090051712497,0.0045782285465229,1.5886821324449285,22.88429242550961,21.36163779375616,37.919597090756994
0.66,31.22220158532976,131.01042157426582,9.961447372324631,1.593615415534812,-0.01329451075487,32.14563674492175,-0.0397708354941527,1.807204166735708,383.5125151715984,21.8234415622464,9.626405394487056,69.17232867794031,0.0310160253201778,120.03315247100976,291.43431460849,1.274,1.0246195561629028,0.0,1.302643856133524,120.00005142262596,0.0641384424996177,6.075877558468301e-07,-0.0702542997278552,0.0019982767859135,0.004758743631656,1.5936708540558415,22.451689738605523,21.82135326539911,32.19642107992885
0.67,31.22220115203077,131.01042246309953,10.166258330471567,1.6095679534905367,-0.0141265786580532,21.987741498063823,-0.0397981272837529,1.7603708049459637,289.15624401033847,22.11411641874708,9.761700471721802,69.13207616544348,0.0339629410925842,120.03630592197588,299.2435841890436,1.274,1.024572383541697,0.0,1.307022604693839,120.00005142262596,0.0649928773850254,6.371488279143013e-07,-0.0715229934445214,0.0019864831206898,0.0049091114557206,1.6096299278497073,22.18672105080287,22.111897420982935,22.058133770732265
0.68,31.22220071679011,131.01042335586035,10.37124174726177,1.632999118124454,-0.0150162100853826,27.58056170560543,-0.039567392066488,1.721497376042814,340.89999248584934,22.281060333510315,9.853101549195063,69.0910966959162,0.0368793248005734,120.03942752896604,303.77275886307746,1.274,1.0245245285832842,0.0,1.3114582829818076,120.00005142262596,0.0654836731264633,6.671653830317515e-07,-0.0728392402385604,0.0019736901878084,0.0050370971999077,1.6330681385971684,22.037842084186835,22.27870159277287,27.634263203330498
0.69,31.22220027815033,131.01042425554508,10.577270586112116,1.645082601053308,-0.0158011935693453,34.07674973211775,-0.0395563256648481,1.670710645992619,401.0140726853658,22.582624431996223,9.992659099142172,69.04936302825476,0.0397635118612712,120.04251551069017,312.04508603649293,1.274,1.024479631064582,0.0,1.315821666108528,120.00005142262596,0.0663701193614853,6.976637814314929e-07,-0.0741953359302885,0.0019599556301957,0.0052002173377567,1.6451584645233743,21.77250350540237,22.58014238634592,34.11770377781776
0.7,31.222199830532624,131.01042517361265,10.787637891294292,1.650605206849666,-0.0165167160656572,28.50648627345357,-0.0396372439320086,1.6125001686425011,349.270324209851,22.953618669761664,10.157284667197567,69.00685234396586,0.0426139383675994,120.04556819664684,322.3755348992305,1.274,1.0244351749185203,0.0,1.3201390955555157,120.00005142262596,0.067460628015669,7.286486518258423e-07,-0.0755990946606947,0.0019451758649014,0.0053855425488603,1.650687818854741,21.453978070391805,22.95102423010493,28.552083769202827
0.71,31.22219937546158,131.01042610692667,11.001425924160245,1.66303267079976,-0.0172903468825585,23.346178659269007,-0.0394725746755284,1.5617384399097007,301.3312640634036,23.208581121197447,10.280619637900449,68.96353733312367,0.0454288854379982,120.04858374128122,329.57026079874646,1.274,1.0243880468141104,0.0,1.3244791543471317,120.00005142262596,0.0682101265388023,7.601316961342153e-07,-0.077054581481029,0.0019292787305864,0.0055500876881815,1.6631225259383575,21.240578823715463,23.205865159901457,23.39838975291571
0.72,31.222198917035737,131.01042704706785,11.216215631673409,1.6775880585744996,-0.0180805208530348,28.699485730750183,-0.0391871041452829,1.5135135092895893,350.7922053414578,23.413977551310392,10.386339064672216,68.91938835162948,0.0482065304154328,120.05156018349184,335.42256274915934,1.274,1.024337302174265,0.0,1.328810231769398,120.00005142262596,0.0688139543396439,7.921409324537583e-07,-0.0785541149359115,0.0019123256761225,0.0057080526250335,1.677685461009696,21.071816451492275,23.41113746978328,28.739393521462258
0.73,31.22219845384849,131.0104279969246,11.43283441928716,1.6830465449148408,-0.01877177527086,36.43581952006588,-0.0390553151911727,1.4547825406706176,422.3203185282354,23.725406861630407,10.530363734452775,68.8743801677787,0.050945161362576,120.0544956849414,344.3976513983851,1.274,1.024292465384646,0.0,1.333094031107072,120.00005142262596,0.0697294191385055,8.24696499801865e-07,-0.0800939833209637,0.0018943399147415,0.0058972339734905,1.683151196576834,20.8200945282987,23.722458198118872,36.46487161169087
0.74,31.222197982365923,131.01042896374994,11.653343731140568,1.6806819053214284,-0.0193725745846214,22.640187363540296,-0.0390380830485864,1.3863232709982622,294.4828134710563,24.1260434440686,10.706818382141108,68.8284896809163,0.053643117789699,120.0573884628634,356.1195848274622,1.274,1.0242470321640116,0.0,1.337348361552223,120.00005142262596,0.0709070740239217,8.578035265242507e-07,-0.0816804636231685,0.0018752219086162,0.0061154708509697,1.6807935197023385,20.504228793944897,24.12300040722677,22.68262551028538
0.75,31.22219750242036,131.01042994788372,11.877824862451805,1.6942928766654155,-0.0201426211819978,26.51833507221163,-0.0385574702148311,1.337374895792182,330.24688556441737,24.281126680688264,10.79489664734921,68.78169018726696,0.0562985969199214,120.06023657637816,360.7048276959151,1.274,1.0241984712898409,0.0,1.3416132591980376,120.00005142262596,0.0713630484522613,8.91470109529171e-07,-0.0833188649511835,0.0018548736105032,0.0062781027401045,1.6944125704321735,20.385033283890937,24.277962685216966,26.552064953455012
0.76,31.222197022731148,131.01043093142826,12.101187894436569,1.6974190123310664,-0.0207924124741664,28.586790284512183,-0.0382589268923365,1.275718623513027,349.2703242098581,24.563259007558337,10.92908523267742,68.7339519233135,0.0589096581517466,120.06303792513437,369.1279624355981,1.274,1.0241522053390697,0.0,1.345878898004988,120.00005142262596,0.0721924267774928,9.257381587217544e-07,-0.08499199969598,0.0018334946434798,0.0064784477231168,1.6975463178810628,20.17065931019944,24.55999294311606,28.615266913354926
0.77,31.222196533555184,131.01043193437883,12.329105331383037,1.6984690919139875,-0.0214099171732143,26.70745181931347,-0.0379390147719972,1.2111681154710334,331.76876669606884,24.85701006843381,11.067738445278568,68.68525501070833,0.0614746967698767,120.06579078660664,378.00125451766615,1.274,1.0241065975906936,0.0,1.3500592213565514,120.00005142262596,0.0730559610593632,9.60607306067178e-07,-0.0867075032361507,0.0018109595788535,0.0066881035290847,1.6986039875328636,19.95191607770272,24.853647006586808,26.73492753410276
0.78,31.22219603887068,131.01043294856785,12.559247608987135,1.7007053866367283,-0.0220375590592349,21.86595489013014,-0.0375140510219307,1.148394133930463,286.8734378128874,25.11219133010727,11.192640596077837,68.63557516870895,0.0639919304579188,120.06849323068036,385.7936630502031,1.274,1.0240588105546735,0.0,1.3542610223585123,120.00005142262596,0.0738061428287452,9.960910538171034e-07,-0.0884654209472419,0.0017872447529837,0.0068935984130429,1.7008481188818478,19.76559541003796,25.108729678510443,21.89612293644873
0.79,31.222195539258056,131.01043397280324,12.791274405955503,1.7059153345445848,-0.0226975630149284,31.26277863436464,-0.0369478711368911,1.090048747137636,373.6203323159581,25.304137571531363,11.294728033381704,68.58488809756638,0.06645956169338,120.07114331205048,391.7051394539328,1.274,1.0240083170932772,0.0,1.358440539070458,120.00005142262596,0.0743704783115837,1.0322081623870464e-06,-0.0902619976503563,0.0017623769232706,0.007087198947653,1.7060662811743676,19.62775490496266,25.30057224676351,31.281798211701386
0.8,31.222195035760866,131.0104350049434,13.024579444419226,1.6984489228916066,-0.0231923057034807,31.68678826155208,-0.0366039044250738,1.0141775523324768,377.42502064505805,25.661130660187943,11.457282738488653,68.53317164821702,0.0688758595666611,120.0737391538172,402.8265024177674,1.274,1.0239625010683884,0.0,1.3625901880563216,120.00005142262596,0.0754199023443806,1.0689789738349508e-06,-0.09209172637131,0.0017364152760019,0.0073327151651894,1.698607214500688,19.375576738168267,25.657487621426533,31.70303528506236
0.81,31.22219452214103,131.01043605777997,13.262743901708571,1.6924382129203714,-0.0236993114965861,20.500317970045167,-0.0361463484853091,0.9401620587444875,273.9374926939922,25.977485528847115,11.605321553489183,68.48040684163914,0.0712392117734871,120.07627901157385,412.81051385998967,1.274,1.0239149950770308,0.0,1.3666948948553113,120.00005142262596,0.0763498971323313,1.1063955970586877e-06,-0.0939651111032464,0.0017091772779814,0.0075739463290215,1.6926040879528368,19.15723816556706,25.973762849808622,20.52189679654803
0.82,31.222194003630506,131.01043712057995,13.502744747324856,1.6962537036369632,-0.0243353265431413,26.445555510077835,-0.0353846569769365,0.8815306458191445,328.725004432774,26.12394043449296,11.691326908702836,68.42656865743722,0.0735477461303347,120.07876084652042,417.46866858033445,1.274,1.0238644186635044,0.0,1.3708237483080663,120.00005142262596,0.0767805476565764,1.1444773672638935e-06,-0.0958780328206346,0.0016806953303944,0.0077715253903272,1.696428207202452,19.057918762307104,26.12011785045336,26.460267470115937
0.83,31.222193483528727,131.0104381865787,13.742695462657624,1.6891059576557876,-0.0248183559208036,33.70877731822794,-0.0348025484364205,0.8068225344039845,395.6875032246518,26.415400070838377,11.83080580343394,68.37163443920913,0.0757996708944991,120.081182705299,426.82602788519176,1.274,1.0238188483711983,0.0,1.3749237920456931,120.00005142262596,0.077637383219956,1.1832584906596957e-06,-0.0978167690159873,0.0016511586209947,0.0080169462016496,1.689288225415729,18.862714734362225,26.41150161272854,33.71844958044895
0.84,31.22219295388422,131.01043927207618,13.987131825953352,1.6755728514864876,-0.0252051036117162,20.69901973703652,-0.0342859295259117,0.7219115712438999,275.45937482564227,26.78601691746098,11.99979315718368,68.31558941565697,0.077993521225931,120.08354299502632,438.87676856506806,1.274,1.0237739661568126,0.0,1.3789637781259267,120.00005142262596,0.0787268786370258,1.222728747296228e-06,-0.0997903713512947,0.0016203995919308,0.0082932555113743,1.675762362857239,18.61981741170294,26.782057709171703,20.71163320252381
0.85,31.22219241649657,131.01044037337874,14.235004356361054,1.67544679472517,-0.0257811059649281,22.609660033902937,-0.03338764139297,0.6597935163939859,292.9609323393965,26.92521517554448,12.083648940679426,68.2584136096953,0.0801276016610046,120.08583986113672,443.4394657746584,1.274,1.0237227741398531,0.0,1.3830202831450995,120.00005142262596,0.0791362180505007,1.2628886166758031e-06,-0.1018031288799555,0.0015883175877722,0.008504293481754,1.67564508113063,18.53013449961047,26.92116548902609,22.619309650551696
0.86,31.22219187936632,131.01044147408882,14.481768535521532,1.6679505509516068,-0.0262473289038409,28.394868551652127,-0.0325833807055432,0.5865343314037836,346.2265619465616,27.158027078300176,12.202333018691604,68.20008457437595,0.082200093858668,120.08807130673289,451.13042658402463,1.274,1.023674789281455,0.0,1.3870748394216643,120.00005142262596,0.0798207004945437,1.3037821761500492e-06,-0.1038363483159764,0.0015551975753918,0.0087489364551529,1.668156997429033,18.381839101564967,27.153904157661348,28.40094442556825
0.87,31.222191333944767,131.01044259172488,14.732267064015293,1.654416582029376,-0.0266158825447648,26.427553944319712,-0.0318376361028992,0.5032467960211071,327.9640783669946,27.4680073318096,12.349959491263265,68.14059060650698,0.084209657777573,120.09023586406748,461.47645396982784,1.274,1.0236288969245204,0.0,1.3910495315524425,120.00005142262596,0.0807319978264439,1.3454022885849223e-06,-0.1058951698179025,0.0015209295286031,0.0090240293000349,1.6546306038523628,18.187823431860856,27.46382651890639,26.43236422366918
0.88,31.222190781404,131.01044372388117,14.985814526247252,1.6431319340577004,-0.0270150143513464,22.810623361449885,-0.0309632164576497,0.4248628189998728,294.4828134710421,27.71952148141504,12.476188555625038,68.07991703823686,0.0861548175512515,120.09233190529332,469.9548331024507,1.274,1.0235805388426191,0.0,1.3950264832544763,120.00005142262596,0.0814714632462412,1.3877451199310497e-06,-0.1079836226953485,0.0014854185453985,0.0092860333329281,1.6433539374207236,18.033133636135315,27.71527797304113,22.814600703796355
0.89,31.222190224633728,131.01044486463587,15.240775611439796,1.6331664585474297,-0.0274319750580417,25.05267874723351,-0.0299859884516063,0.3502763635568021,315.02813424808807,27.926585044353924,12.586117758176847,68.01804688971974,0.0880339872527706,120.09435767846014,476.9904596289276,1.274,1.0235293752791452,0.0,1.3989955195602215,120.00005142262596,0.0820802874816834,1.4308279998265309e-06,-0.1100953920446992,0.0014487467765874,0.009538123831526,1.6333967646492202,17.907510537459785,27.92227603995276,25.055145282006563
0.9,31.22218966321857,131.01044601483932,15.49738078997337,1.6187976647641429,-0.0277742366454152,27.70660474947437,-0.0290292433565176,0.2685074464551532,339.3781423542166,28.185299676636383,12.715643211817344,67.95496680590868,0.0898457464914689,120.0963116097786,485.85719640739273,1.274,1.0234837388140003,0.0,1.40293125293177,120.00005142262596,0.0828409271848207,1.4746641245026145e-06,-0.1122251873532394,0.0014109840838355,0.0098124684996267,1.6190358496330386,17.752887056410312,28.180936909917037,27.70792099182772
0.91,31.222189094920267,131.01044717907396,15.756870786767076,1.601476154235466,-0.0280634127552335,21.030961315484166,-0.028057299223134,0.1819619631014707,277.7421810230785,28.47255676903669,12.856224257268517,67.89066646661652,0.0915888210661719,120.09819228128389,495.7987624697992,1.274,1.023436404813438,0.0,1.4068377973619597,120.00005142262596,0.083685464936456,1.519249671445082e-06,-0.1143747530773587,0.0013720723802935,0.0101020867543891,1.6017219554636195,17.584132642718675,28.46814857864562,21.031767192070355
0.92,31.222188520258776,131.01044835627232,16.018939937254913,1.5893795028667776,-0.0284363886888946,25.091748533778123,-0.0269050172568738,0.1079110211018722,315.0281342480675,28.64640447642981,12.9544838221447,67.82513454661883,0.0932618870646969,120.09999821458976,501.85911017713926,1.274,1.0233859136578225,0.0,1.410734160554311,120.00005142262596,0.0841966805214218,1.564584465214545e-06,-0.1165440326422069,0.0013319828431154,0.0103562777004973,1.5896338021413414,17.48314174965811,28.641937699123208,25.09199500141002
0.93,31.222187943129512,131.01044953845724,16.281418447540258,1.570596492736804,-0.0286920303908722,29.89523170400499,-0.0258168864388332,0.0214117310417782,359.16250706547066,28.91445376737608,13.0885432301566,67.75835974629202,0.094863617635944,120.10172792052224,511.2821252656429,1.274,1.0233407575091376,0.0,1.4146156199972044,120.00005142262596,0.0849847749015689,1.610692197731916e-06,-0.1187223943546937,0.0012908944907238,0.0106482985144499,1.5708584816579696,17.3298712105912,28.909946833969823,29.895250519271396
0.94,31.22218735777162,131.0104507374222,16.547489999969088,1.5477517858338872,-0.0288712590258677,21.644379826752804,-0.0247322082426904,-0.0728729315866911,283.06875048378083,29.234193869411435,13.242555123746325,67.69033687684866,0.0963929992803206,120.10338025464291,522.6389503625356,1.274,1.0232914783978162,0.0,1.4184505839903907,120.00005142262596,0.0859248064652532,1.6575571721498902e-06,-0.120914425531802,0.0012486892947461,0.0109645476831086,1.5480209744658855,17.15044353724554,29.229658782840577,21.644516631956147
0.95,31.222186765389026,131.01045195069932,16.816467386146368,1.5316604820654616,-0.0291675413462435,28.105211266264245,-0.0234432286273176,-0.1494805892073541,342.421873617488,29.40615498875149,13.34090174350888,67.62105810715319,0.0978488802633743,120.10495391177886,528.7918981477751,1.274,1.0232418269359267,0.0,1.4222859587219348,120.00005142262596,0.0864304949169904,1.7051716806344012e-06,-0.1231214989773375,0.0012053065417559,0.0112300683192484,1.5319381107354808,17.05487010809345,29.401573362268547,28.105618554888007
0.96,31.22218617124206,131.01045316752067,17.085452619186633,1.506873691853235,-0.0293033935765374,27.53820356614192,-0.0222481050003497,-0.2446871063473814,337.09533515678265,29.716178473481275,13.49207338529574,67.55051481133094,0.0992300601934869,120.1064475256296,539.9866282899476,1.274,1.0231951201821403,0.0,1.4261114205681045,120.00005142262596,0.0873419802265719,1.753565242513536e-06,-0.1253301836691852,0.0011609916291852,0.0115517472230156,1.507158523209816,16.885844848439106,29.71157550738268,27.53929959909039
0.97,31.222185567162423,131.01045440460285,17.35891598041793,1.4830824038002537,-0.0294520412132465,17.544153511388682,-0.0209601369816865,-0.3356678865605535,245.0218871929888,29.985373463915742,13.628112313781964,67.47870608576055,0.1005357504971863,120.10786018550428,549.7998384738354,1.274,1.0231476260761452,0.0,1.429886225399727,120.00005142262596,0.0881334717893092,1.8027089149924444e-06,-0.1275478198486744,0.0011155568088632,0.011862333747203,1.483374748826218,16.741419692816606,29.98074714830404,17.547376860618858
0.98,31.222184958599527,131.010455650791,17.633857388243978,1.46547897333177,-0.0297156233683277,25.66472307947197,-0.0194965120445421,-0.4075364788245381,319.593746642963,30.107485402012063,13.708199320948545,67.40562679376924,0.1017649232478418,120.10919070314252,554.2723119176889,1.274,1.0230935628253934,0.0,1.4336735256133295,120.00005142262596,0.0884926596050338,1.8526100178696816e-06,-0.1297686911347854,0.0010690901542812,0.0121177106394883,1.4657801496073426,16.675898428876962,30.10281768301778,25.667965966190927
0.99,31.222184348445296,131.01045690016812,17.90870621768444,1.438042159699723,-0.0297852885963617,28.07489471837721,-0.0181428835956727,-0.5029670774740896,341.66094855170127,30.40127406432069,13.854457864484107,67.33127507894092,0.1029167254462929,120.11043807816051,565.1273428537063,1.274,1.0230490803133316,0.0,1.437431390520707,120.00005142262596,0.0893564475611168,1.903295517541416e-06,-0.1319796078799314,0.001021852829828,0.0124440951497421,1.4383505241062835,16.522038926993826,30.39659540233945,28.079405593659075
1.0,31.2221837280246,131.01045817048177,18.188155496987832,1.4097698556418263,-0.0298317682989221,25.1076177484874,-0.0167330586951077,-0.5986341120936357,314.2672081822764,30.690582120021684,13.99947462715324,67.25565666498669,0.1039907326006662,120.11160178278736,575.9189216228244,1.274,1.022999484445133,0.0,1.4411392638325715,120.00005142262596,0.0902070759676903,1.954722895365508e-06,-0.1341899238075672,0.0009736058124342,0.0127725638138086,1.4100853877254231,16.37305987160986,30.68589615702683,25.114758844145307
1.01,31.22218310240104,131.01045945136983,18.46944143265045,1.3829614165604065,-0.0299051364344444,26.27886357039384,-0.015231712725645,-0.6869566252390352,324.92031610370094,30.92329047435822,14.123074115210391,67.17877188872457,0.1049862058786768,120.11268093011256,584.6699359122332,1.274,1.0229507481225095,0.0,1.4448609432070008,120.00005142262596,0.0908913508274831,2.00688818270749e-06,-0.1363963911073463,0.0009243874388969,0.0130806671794056,1.383284650097341,16.254696096412403,30.918592986725155,26.28784532747796
1.02,31.22218247210016,131.01046074175696,18.75227760303177,1.353483039729117,-0.0299200333928876,21.90169647707461,-0.0137090834294945,-0.7802034375070617,284.59063161543185,31.188351623978,14.259603876248867,67.10062295687024,0.1059025047478669,120.1136747405624,594.7198157536442,1.274,1.0229039803623294,0.0,1.4485591374842777,120.00005142262596,0.0916707249632013,2.0597977626329194e-06,-0.1385918567288344,0.0008743251012603,0.0134047788617634,1.3538136432712742,16.121996691178815,31.18365179633649,21.915592940113864
1.03,31.222181834772524,131.0104620464472,19.037912711894105,1.326090302414472,-0.0299742407907939,17.855626693331306,-0.0120968909997768,-0.8633126280122966,247.3046933904342,31.3818813029418,14.368739256931692,67.02121618010094,0.1067392161978711,120.11458268056852,602.1068970371617,1.274,1.022853416101322,0.0,1.452230545250044,120.00005142262596,0.0922398566101809,2.1134357645705373e-06,-0.1407753424653663,0.0008234039076096,0.0137000821886055,1.3264289595891643,16.025886702037567,31.3771729604233,17.87648901882198
1.04,31.22218119391619,131.0104633582853,19.32446534541684,1.29922457406671,-0.0300358715658537,28.554167589268094,-0.0104291799994152,-0.9404395371119236,345.4656368807608,31.53657192849752,14.463047569539484,66.9405584176545,0.1074959443869446,120.11540422521216,608.0407203003056,1.274,1.0228049544826707,0.0,1.4558916933512625,120.00005142262596,0.0926948340114611,2.1678092844769685e-06,-0.142938987413304,0.0007717826668573,0.0139788304184244,1.29957165743479,15.94943269251792,31.53185390504084,28.569652115606292
1.05,31.222180548930847,131.0104646784986,19.612251845059173,1.2636000335514013,-0.029899564740818,17.12913402400183,-0.0088239726784983,-1.0442352391742602,240.4562587980608,31.87188742335372,14.628418745357866,66.85866104072122,0.1081725607633208,120.11613914072156,621.0223924149947,1.274,1.022755494436122,0.0,1.4595187545010544,120.00005142262596,0.0936807245507958,2.2229156940227127e-06,-0.1450772867513149,0.0007195717439301,0.0143384054026633,1.2639536715481985,15.78810181462044,31.86719081092012,17.16093638206972
1.06,31.222179893385643,131.0104660202344,19.90465877317644,1.2362869223879145,-0.0299431444052205,24.51893180289788,-0.0070649640418226,-1.1141239822198084,308.1796836557233,31.98236116452999,14.7060249144623,66.77553858604884,0.1087691288118404,120.11678740510509,625.3174441276961,1.274,1.0227013895379469,0.0,1.463116529133756,120.00005142262596,0.0940057490987817,2.278696830611572e-06,-0.1471987647604487,0.000666513536798,0.014598093462476,1.236649427774362,15.734342071443926,31.97765770661965,24.544232294301473
1.07,31.22217923925244,131.0104673590143,20.195352327103056,1.2010699435234085,-0.0298027584000805,28.92276032729268,-0.0053541967100993,-1.2089263622482675,348.5093681440431,32.26071354507929,14.850063262552643,66.69120066932037,0.1092853755191188,120.11734860751474,636.2317087499873,1.274,1.0226540159946436,0.0,1.4667273991581289,120.00005142262596,0.0948242212455152,2.335196574870687e-06,-0.149286047865788,0.000613034923548,0.0149335312544211,1.2014395879687445,15.603223303472332,32.25603213894807,28.948015416722033
1.08,31.222178574343868,131.01046871975407,20.490741353047543,1.1638923438638844,-0.0296080965115016,19.396230246328628,-0.0036104404524455,-1.3081026976180803,261.0015785751465,32.56815236593364,15.006155076205296,66.60566690872933,0.1097216692628938,120.11782305777228,648.3974420234563,1.274,1.0226061614050743,0.0,1.470273476937989,120.00005142262596,0.095728198165026,2.392354811448465e-06,-0.1513462683277633,0.0005589039291469,0.0152834655498182,1.164268829308423,15.460984952337776,32.56350153721627,19.440290467773096
1.09,31.222177903198407,131.01047009317307,20.78841329645913,1.1318603431699,-0.0295335391137129,17.83243120436387,-0.0017747586118001,-1.3809726892312633,246.54375332456465,32.710664426411526,15.097333920387385,66.51895280232496,0.1100780765986916,120.11821071655916,654.0656854514792,1.274,1.0225512795791307,0.0,1.4738337239420332,120.00005142262596,0.0961474095662392,2.450147703351024e-06,-0.1533776692273821,0.0005041239950189,0.0155559338143585,1.1322455356097714,15.394808571201038,32.70602530914125,17.88582375448615
1.1,31.222177230835303,131.0104714690118,21.085750994520254,1.0979082468171593,-0.029407559044029,36.013792911754706,7.249243552975696e-05,-1.4564884797593347,413.1890617384087,32.87731284210832,15.198411390715286,66.43107485368861,0.1103546989744584,120.11851157912506,660.7282246221505,1.274,1.0224981043155532,0.0,1.4773786433082172,120.00005142262596,0.0966375683511146,2.508602222819573e-06,-0.1553670775447085,0.0004490284033899,0.0158375316266864,1.098301969909505,15.318420214045751,32.8726935137385,36.04323290976657
1.11,31.22217655233569,131.01047285732392,21.38530823651256,1.0533770001281535,-0.02900711620307,26.310830577745275,0.0018918287289359,-1.576257092490139,324.1593910379213,33.32442608952691,15.412018127380597,66.34205713353175,0.1105521318316122,120.11872618751804,678.8019679725537,1.274,1.0224548851875197,0.0,1.4808778355415184,120.00005142262596,0.0979521168677891,2.567690835711621e-06,-0.1573128563058589,0.000393633500217,0.0162534883374746,1.0537762677093094,15.12029850805583,33.319869662563285,26.358004395087598
1.12,31.222175859891447,131.01047427406442,21.691083904068133,1.01601439978645,-0.0287856705036578,9.80374296937996,0.0038019198996446,-1.657386218343838,172.7328179403806,33.535105145124135,15.531627770783196,66.25192465615208,0.1106710121963151,120.11885513049552,687.3917648341944,1.274,1.0223979224661404,0.0,1.4843621648840863,120.00005142262596,0.0985717162466554,2.627312616944864e-06,-0.1592267143807306,0.0003375254488507,0.0165547466779567,1.016422052370382,15.027590209086911,33.530583502765204,9.942852696335091
1.13,31.222175168013088,131.01047568957813,21.99558418598941,0.9839537024260436,-0.0287043143204961,31.07144331260293,0.0057453100691976,-1.7042376058565671,367.5328077894322,33.54667958109081,15.57144112077588,66.16069568242659,0.1107114255598967,120.1188983686638,687.8462268613891,1.274,1.0223460397860296,0.0,1.487877436200375,120.00005142262596,0.0986060764898092,2.6875150377607986e-06,-0.161091854366325,0.0002811649814866,0.0167539553233193,0.98437225945184,15.020648886645906,33.54217071812964,31.11814660859642
1.14,31.22217447584374,131.01047710561798,22.29927592263149,0.9386887255457564,-0.0282549272962605,17.124731620870165,0.0076754363777563,-1.815823705575924,239.6953177322812,33.95972948533028,15.773604450198343,66.06839812779423,0.1106741167099063,120.11885659717548,704.8684210287773,1.274,1.0223022138470996,0.0,1.4913378103356647,120.00005142262596,0.0998205247375888,2.7483326866413765e-06,-0.1628948353642959,0.0002249526278591,0.0171495646793283,0.9391138338637264,14.844069220474228,33.955291211909085,17.220734819655217
1.15,31.222173766540536,131.01047855659755,22.61072564609724,0.9021582034652434,-0.0280396825265308,16.887334692111867,0.0096399060577226,-1.87356227973584,237.4125115347709,34.05728167066804,15.848668431674616,65.9750676404295,0.1105603892272194,120.11873113849958,708.9026180124172,1.274,1.0222426194541194,0.0,1.4947502316411507,120.00005142262596,0.1001076194427542,2.809616232314077e-06,-0.164652427737069,0.00016827878819,0.0173838790258947,0.9025938083656846,14.801499739634911,34.05287720781213,16.990950578094292
1.16,31.222173062060754,131.01047999765174,22.91874021898724,0.8628002926131385,-0.0277407429117332,44.48201685076971,0.0116078800727067,-1.9403116737248176,490.043774385954,34.2209485767272,15.950880090909813,65.88073018202431,0.1103707249201145,120.11852237393266,715.7112707067721,1.274,1.02219674531104,0.0,1.4982101269438803,120.00005142262596,0.1005890498731898,2.8714368941885143e-06,-0.1663461500090026,0.0001117388706131,0.0176465788059521,0.863246103716144,14.731913835748845,34.21659107119062,44.52431658370775
