Time,Latitude,Longitude,Altitude,Angle of Attack,Angle of Sideslip,X-Acceleration,Y-Acceleration,Z-Acceleration,Thrust,True Velocity,Ground Velocity,Pitch,Roll,Yaw,Dynamic Pressure,cp,cg,parachute_deploy_gain,Wind Speed,Wind Direction,Mach,omega_x,omega_y,omega_z,Cmq,Angle of Attack(total),Angle of Attack(gust),True Velocity(gust),Acceleration
0.0,31.222216000000007,131.010392,3.000000004412624,0.0,0.0,0.0,0.0,0.0,2.2828121974499247,0.0,0.0,69.99999999623412,0.0,119.9999999935444,0.0,1.274,1.0271675151847728,0.0,0.0,0.0,0.0,0.0,0.0,0.0,-0.0,0.0,90.0,0.0,0.0
0.01,31.22221599999084,131.01039200000497,3.000002745347096,0.0,0.0,0.0,0.0,0.0,34.242186961749226,3.465174813755316e-14,2.8705476994166025e-14,69.9999999962611,-2.1713911667908447e-11,119.99999999352175,7.352495975525499e-28,1.274,1.0271659134330349,0.0,0.0,0.0,1.0183245502395064e-16,-3.3305335486039093e-18,7.169286865560398e-18,5.624298769768554e-18,-7.715917190115602e-34,0.0,89.99999999999979,3.465174813755316e-14,0.0
0.02,31.222215999994315,131.0103920000094,3.0000030495639742,0.0,0.0,0.0,0.0,0.0,25.871876237766216,3.8197434737535036e-11,2.4171837235633357e-11,69.99999999628672,-1.1921727947863515e-11,119.99999999353136,8.93414285188691e-22,1.274,1.027164492361118,0.0,0.0,0.0,1.1225230367947217e-13,-6.657678965418802e-18,1.4338573731120796e-17,1.1241821275959074e-17,-1.7010872994127372e-30,0.0,89.99999999975682,3.8197434737535036e-11,0.0
0.03,31.222215999994315,131.0103920000094,3.0000030495639742,0.0,0.0,9.81877837424427,-2.5122800045972096e-05,3.3498614629347925,180.34219359854663,1.2659015405517447e-10,1.1364406173918436e-10,69.99999999631459,-1.6431898037347223e-11,119.99999999352724,9.812605835254651e-21,1.274,1.0271551940870716,0.0,0.0,0.0,3.720154642239108e-13,-9.991600645811728e-18,2.150108433310316e-17,1.6859343782149594e-17,-8.453698244545225e-30,0.0,89.99999999919412,1.2659015405517447e-10,10.374487003414373
0.04,31.222215999994315,131.0103920000094,3.0000030495639742,18.83801224594347,-0.0001111777826462,48.68248476615645,-1.016330065874988e-05,3.3497854396877287,548.635972453808,0.1556173050466994,0.0975908358443652,69.99999999633813,-2.0932768807056278e-11,119.99999999352085,0.0148286043323172,1.274,1.027133720825283,0.0,0.0,0.0,0.0004573186944143,-1.3322134194415637e-17,-1.04744143520903e-11,1.336824254131964e-11,5.0626055458604615e-15,18.83801224625964,89.06236267790787,0.1555998412814392,48.79759610369246
0.05,31.22221599164764,131.01039201704114,3.002326315126219,5.772385609593056,-4.395076213712875e-06,71.20344550265034,4.905512691849684e-05,3.349217396035405,761.6984298824663,0.8326471944351852,0.3620326097059287,70.00000001316391,-1.0866255162484559e-10,120.00000000231074,0.4245281043148827,1.274,1.027093426565204,0.0,0.0,0.0,0.0024469331205246,-5.0245994431125096e-18,-7.32924164976824e-07,2.217344936947165e-11,1.895424184525467e-09,5.772385609594774,84.74112356985832,0.8326465040582279,71.28217104309611
0.06,31.22221596664444,131.01039206837547,3.015081730143309,4.056581213689704,3.169093567502233e-05,53.16249142470188,0.0001203825427859,3.3481235983850643,590.4875390737236,1.657216205300742,0.6755452977614796,69.99999964391398,-3.9285905645317736e-10,120.0000000287861,1.6816755551786196,1.274,1.027050317124926,0.0,0.0,0.0,0.0048701272653724,3.095757869075056e-13,-7.483541766772344e-06,3.074135420506017e-11,3.8518749565858254e-08,4.056581213813337,79.59316473687034,1.657221183301277,53.26781792157489
0.07,31.22221592883117,131.0103921460222,3.034593611434361,4.115662018628709,6.450869598349036e-05,81.18203554989698,0.0001593212642178,3.347059402768047,855.2937749779172,2.099899704220947,0.8579771146174259,69.99999543281565,-8.233801910783518e-10,120.00000006883089,2.700101932075157,1.274,1.027003201295312,0.0,0.0,0.0,0.006171060252819,3.4704292086287e-12,-2.6327204536316785e-05,1.9541142932033486e-10,1.7170712165327165e-07,4.115662019133419,76.90111966094352,2.099909837223217,81.2510043180746
0.08,31.22221588914193,131.01039222747755,3.0542761843835606,3.459696193892355,8.037433511260004e-05,16.298214211652088,0.0002413456836072,3.344878926597744,241.2171988638792,3.051964775152957,1.2149999716613011,69.99998042886442,-1.0128995578004475e-09,120.00000011111383,5.703497661025892,1.274,1.0269597189470347,0.0,0.0,0.0,0.0089689344021769,1.458982438104473e-11,-5.702803872814215e-05,7.043261397829576e-10,5.405702492731987e-07,3.459696194824858,71.30331929508368,3.051977400323993,16.63790856991177
0.09,31.2222158241468,131.01039236098703,3.0886872184095737,4.313676956300389,0.0001337561018991,50.35975918308536,0.0002293282821279,3.344215841840564,563.0937377043203,2.893161298572128,1.191209213966114,69.99994788602814,-7.098432023887522e-10,120.00000018106356,5.125380275808925,1.274,1.026918932011013,0.0,0.0,0.0,0.0085022553945842,3.8672912027154325e-11,-0.0001115933708951,2.016054215232918e-09,1.0027525988343615e-06,4.313676958370176,72.2316578138625,2.893182308931483,50.47067588835877
0.1,31.2222157788302,131.01039245392113,3.109877853389092,4.035124630954496,0.0001457499816535,47.804664812504015,0.0002878217657545,3.341734392237128,538.7437595981891,3.5677148583138303,1.4531247507621967,69.99988403958329,1.9248461973355822e-09,120.0000002323013,7.7939962029572305,1.274,1.0268846934974103,0.0,0.0,0.0,0.0104845969583028,8.579678749070606e-11,-0.0001726817043215,3.984565639703107e-09,1.913455350430327e-06,4.0351246335824245,68.43243098813296,3.567737752667411,47.92132267234452
0.11,31.222215703308,131.01039260899836,3.148841432727305,4.043401107254707,0.0001752764476999,37.67622367577205,0.0003286462930162,3.3392563999062723,442.86563930529127,4.034183355956686,1.6436552022667772,69.99978525353545,7.302513231814865e-09,120.00000031883242,9.96528118825134,1.274,1.026848594915519,0.0,0.0,0.0,0.0118554331868328,1.5870341853361987e-10,-0.0002596204409236,7.232030302688121e-09,3.252930323390323e-06,4.04340111104746,65.92012987243639,4.034210888316708,37.82391391539392
0.12,31.222215627491828,131.01039276462643,3.186995101203875,4.17874459224363,0.0002066711490009,41.15991989399172,0.0003576945202315,3.336766085769504,475.58594813540793,4.361857560629481,1.7865750500940407,69.99963665601238,1.781774420198147e-08,120.00000041104812,11.649831899889556,1.274,1.0268114448194128,0.0,0.0,0.0,0.0128183893919737,2.682972478760441e-10,-0.0003710216542429,1.2215991071490164e-08,5.026311388647148e-06,4.178744597345269,64.21681651392016,4.361890024457652,41.29495143136631
0.13,31.22221554594398,131.01039293200228,3.2277173449026786,4.202734874672792,0.0002327160860324,45.44886120763352,0.0003953741266062,3.333578629398489,515.9156326236897,4.792165672014363,1.9646716520715424,69.99942424225341,3.613383418913551e-08,120.00000051758742,14.061726603124043,1.274,1.026779572895131,0.0,0.0,0.0,0.0140829618979635,4.248908088871395e-10,-0.0005056103199642,1.908859219307828e-08,7.5253154423526356e-06,4.202734881104192,62.048594618540655,4.792202226971676,45.570952718869485
0.14,31.222215454191247,131.01039312033683,3.2737880595608355,4.184830647080848,0.000257138757548,42.32232525579263,0.0004369426767266,3.329727443445437,486.2390860568421,5.269261304374574,2.158791628597544,69.99913473613935,6.515851355725497e-08,120.00000064630268,17.000925061330125,1.274,1.0267449573927567,0.0,0.0,0.0,0.0154850332441425,6.382432869666793e-10,-0.0006690086306358,2.8426433029675884e-08,1.0948547100483978e-05,4.184830654966803,59.74181173116622,5.269301695636157,42.45310707234106
0.15,31.222215353826755,131.0103933263496,3.3242182719560263,4.21963947489699,0.0002846467688673,40.886944113003565,0.0004726792395108,3.325585650885676,472.5421858721398,5.6781946837482895,2.329510773545807,69.99875162806286,1.0876776246115984e-07,120.00000079954532,19.742017654108928,1.274,1.0267115958081523,0.0,0.0,0.0,0.0166867950518804,9.204756288136623e-10,-0.000865746478554,4.08948221429571e-08,1.526771148078443e-05,4.219639484480408,57.84996018384879,5.678239395958187,41.02196629910223
0.16,31.222215247130432,131.01039354534575,3.3775922280208457,4.253495568077899,0.0003118339050386,32.26872905470846,0.0005078415214353,3.32090791922544,391.1218908297597,6.081244877834229,2.4981889727471702,69.99825581174558,1.7187028096464329e-07,120.0000009800088,22.644030778355887,1.274,1.026675762255412,0.0,0.0,0.0,0.0178712695992133,1.2856146928958252e-09,-0.0010961187242953,5.6923362293832417e-08,2.0702404729358337e-05,4.253495579487569,56.06022383757386,6.081293860589489,32.43916312841722
0.17,31.22221513260033,131.01039378041813,3.4348437275053194,4.364838523348639,0.0003448792023946,40.840448242802736,0.0005326487904353,3.3162727284953744,471.78125980632416,6.362544479165355,2.6250789114832647,69.99762801982864,2.5997588617291615e-07,120.00000119506798,24.78723182122683,1.274,1.0266409836796937,0.0,0.0,0.0,0.0186979513961862,1.747791994374917e-09,-0.0013624931601664,7.706724512977917e-08,2.6923621797558364e-05,4.364838536947241,54.85936171416122,6.362598652663785,40.97486885600156
0.18,31.222215014088988,131.01039402363364,3.4935801365785646,4.353948305387995,0.0003681615230806,33.992183768165326,0.0005718025428208,3.310131992647221,407.1015672119096,6.81502088160835,2.810667639293692,69.99684761766231,3.794979223522764e-07,120.00000144728236,28.437950785509614,1.274,1.0266048342046536,0.0,0.0,0.0,0.020027681385988,2.3221419748804155e-09,-0.0016616990447559,1.0147209890543081e-07,3.517105786247627e-05,4.353948320923495,52.99157233768714,6.815078712285162,34.152972512863755
0.19,31.22221488419521,131.01039429023237,3.558399965607869,4.432620772533925,0.0003996774584738,38.45149959021069,0.0005986099513107,3.304145139297767,448.95313283182486,7.1223367465208405,2.946425726785696,69.99589577323147,5.440084577183829e-07,120.00000176148238,31.060341085698347,1.274,1.026566130444714,0.0,0.0,0.0,0.0209308229359413,3.022391489754689e-09,-0.0020041563310821,1.3135864879722746e-07,4.433199397898183e-05,4.432620790516937,51.77883352025967,7.122399527709208,38.59320142454953
0.2,31.222214751373183,131.01039456280608,3.624052454705669,4.443889400961181,0.0004246617145652,35.23432408779927,0.0006337972852267,3.2968110145188256,418.5156301991588,7.530482904611057,3.1167566004785483,69.99474776398331,7.478025600151903e-07,120.00000211715036,34.72195181863731,1.274,1.026529240027363,0.0,0.0,0.0,0.0221302820454282,3.866698391504749e-09,-0.0023849544920781,1.668144671071589e-07,5.57780533277244e-05,4.443889421210987,50.22448880200342,7.530549610317194,35.38822625098952
0.21,31.222214608673173,131.01039485566503,3.6948551453492566,4.493351735844891,0.0004538195602194,33.79371564104691,0.0006629296043866,3.2891790438445727,404.8187610144608,7.868284042829251,3.2629204975089228,69.99338155599101,1.0150082652278477e-06,120.00000255293388,37.906665490338085,1.274,1.0264923657015164,0.0,0.0,0.0,0.0231230169900677,4.871073773182836e-09,-0.0028117605859743,2.089322918608601e-07,6.870935089180403e-05,4.493351758715364,48.992529909481824,7.868355328639073,33.95340801819282
0.22,31.22221446109996,131.01039515850383,3.767700382407304,4.5412639153933885,0.000482649303782,41.008966751568416,0.0006914639179131,3.2808061382386606,472.5421858721387,8.20057841132235,3.4071691679735228,69.9917708347139,1.3454961520984431e-06,120.00000305929996,41.175744234065135,1.274,1.0264494137127138,0.0,0.0,0.0,0.0240995709751246,6.054779813287368e-09,-0.0032829112061357,2.580881224843564e-07,8.3609968899004e-05,4.54126394098788,47.82515604752711,8.2006542256977,41.13999323561041
0.23,31.22221430675399,131.0103954752338,3.843768625625224,4.52371495179584,0.0005047555656171,33.98493478127787,0.0007294889663961,3.2705214710765107,406.340642146096,8.647938096586296,3.5908865300848416,69.98989017772566,1.7539876018835507e-06,120.00000365514876,45.79040229326471,1.274,1.0264133390858623,0.0,0.0,0.0,0.0254142776666487,7.436335125872812e-09,-0.0038001790077148,3.1489825108822685e-07,0.0001020628978177,4.523714979897577,46.31461705147579,8.648017383405135,34.14194053232237
0.24,31.222214142622448,131.0103958120587,3.92493179063287,4.57837522350066,0.0005351929930195,35.051650311058864,0.0007555049947555,3.26053011385611,416.2328240017099,8.954297884844461,3.72617527247482,69.98771316795013,2.25257161141768e-06,120.0000043564586,49.09180568115741,1.274,1.0263750048312463,0.0,0.0,0.0,0.0263146218848643,9.034877387788232e-09,-0.0043732521010013,3.809642748985157e-07,0.00012161410144,4.578375254714954,45.32798984252032,8.954381952763216,35.20297212911011
0.25,31.22221397517227,131.0103961556623,4.0071748888306855,4.6034117733065,0.0005618935542827,36.03738579534623,0.000785606492708,3.249069743648399,425.3640807915084,9.311611941121669,3.8789349536029696,69.98520781816889,2.8559738498748624e-06,120.00000517181904,53.08749562138344,1.274,1.0263373768840591,0.0,0.0,0.0,0.0273647110956883,1.0873791100894836e-08,-0.0049950711786164,4.5609738277273444e-07,0.0001444478241125,4.603411807525074,44.2165428352526,9.311700203154778,36.183554686886296
0.26,31.22221379934012,131.01039651647062,4.09364247475714,4.621386912291471,0.0005881033207375,39.29107511182762,0.0008162761165496,3.236407051295005,455.80158342417656,9.67833954512075,4.034902068846398,69.98234620927953,3.5784678110229355e-06,120.00000612171208,57.350948423913096,1.274,1.0263006300381676,0.0,0.0,0.0,0.0284424679130479,1.2973286442992724e-08,-0.0056712051373577,5.414206381221602e-07,0.0001704578711045,4.621386949630312,43.12063533194282,9.678431924174348,39.42414126789902
0.27,31.222213616776543,131.01039689108487,4.183310605341074,4.617158109135719,0.0006115457810536,35.90419462403674,0.0008503454714941,3.221982799915672,423.8421996598744,10.088790784535757,4.205862468567124,69.97909721779352,4.436165972465058e-06,120.000007221354,62.31798301949865,1.274,1.026260090595354,0.0,0.0,0.0,0.0296487219805601,1.5355910600537293e-08,-0.0064045199323113,6.379142666348734e-07,0.0002006609239367,4.617158149547818,41.94410287616451,10.08888684592241,36.048472443180565
0.28,31.22221342607797,131.0103972823952,4.277051150896916,4.642105655370123,0.0006389739579882,41.51133203546672,0.0008785747638736,3.2071101123224945,476.3468732012228,10.432377224420517,4.35383399240675,69.97542808435722,5.446665372087172e-06,120.00000849080963,66.63429581008447,1.274,1.0262212716723291,0.0,0.0,0.0,0.0306584788590473,1.8045308789081613e-08,-0.0072006835403936,7.469524967369969e-07,0.0002332868227611,4.642105699250441,41.0023231023774,10.432477594215127,41.63503624837164
0.29,31.22221323001776,131.01039768469093,4.373143569786686,4.62134615173668,0.0006600657405645,33.17552944492765,0.0009148746278066,3.1894209319791806,397.9703104221098,10.876662296046485,4.536381530986506,69.9713027936179,6.629751536885327e-06,120.00000994797426,72.43000748232016,1.274,1.026183007522519,0.0,0.0,0.0,0.0319641703260467,2.1067646517035105e-08,-0.0080566154554079,8.688043379161898e-07,0.000272130659453,4.621346198772975,39.83162628795024,10.876765978930557,33.32848872465723
0.3,31.22221302403368,131.01039810736614,4.4744193758467325,4.664362353358112,0.0006905183788532,31.08096762732793,0.0009381960428197,3.172549142946348,378.1859457108735,11.168362145070317,4.66647911311536,69.96668711012893,8.005507138509574e-06,120.00001161892672,76.36634300732833,1.274,1.0261430389738484,0.0,0.0,0.0,0.0328214509167604,2.4447409007156216e-08,-0.0089829108229115,1.0056222251461646e-06,0.0003115527202986,4.664362404357781,39.09908960432563,11.168470611443622,31.242464973103964
0.31,31.22221281503337,131.01039853619727,4.576593712520673,4.700143580504286,0.0007196683316923,32.79732593144512,0.0009620705970519,3.154230688182399,394.1656220930229,11.470279728974068,4.800072153432283,69.96154070456518,9.597499105113692e-06,120.00001352112182,80.55022837857167,1.274,1.0261054058068628,0.0,0.0,0.0,0.0337087616009043,2.8214060606649844e-08,-0.0099686353219717,1.1565909895184251e-06,0.0003550834484269,4.700143635477137,38.36463422765983,11.47039277421126,32.94865339301887
0.32,31.222212598991007,131.01039897947376,4.68216432480395,4.718667719113184,0.0007464384342556,35.7316568886908,0.0009885845337584,3.133859770838664,421.5593934624264,11.808280530415894,4.946054328851105,69.95582953472353,1.14278227255889e-05,120.00001568218067,85.36654007972253,1.274,1.026068246703101,0.0,0.0,0.0,0.0347021168382987,3.2392058795580455e-08,-0.0110163301561155,1.3226102501723267e-06,0.0004039614423012,4.718667778018562,37.5686120062341,11.808397780690962,35.8688218659563
0.33,31.222212376029034,131.0103994369436,4.791055524254013,4.72141404831576,0.0007708346814671,35.42013590291081,0.0010176135371143,3.1111955852784385,418.5156301991632,12.181577273013426,5.104163223586657,69.94951809396906,1.351997394754887e-05,120.00001812674968,90.84831229869296,1.274,1.0260310883392356,0.0,0.0,0.0,0.0357992034445943,3.700677535501642e-08,-0.0121310534481307,1.5051409581878843e-06,0.0004588955105349,4.721414111097893,36.7208578211118,12.181698355442045,35.55651229220977
0.34,31.222212145785647,131.0103999093516,4.903491659547144,4.73024573449122,0.0007962944975467,27.63851074646407,0.0010446307681611,3.0871492806781062,345.4656368807584,12.53557620048282,5.2556261014174765,69.94256797855994,1.5899658158227497e-05,120.000020882338,96.20413272674828,1.274,1.0259901535019136,0.0,0.0,0.0,0.0368395817555172,4.208561016221623e-08,-0.0133180771902383,1.7057647550599631e-06,0.0005184333231541,4.730245801363397,35.94841996438923,12.535701282129995,27.810389570354005
0.35,31.222211909310875,131.01040039453565,5.018822212845608,4.780248518778662,0.0008286678570753,30.332092807652543,0.0010618579815451,3.063967690608957,370.5765700527057,12.774786382148209,5.367579971644358,69.93493776125636,1.8594985713558667e-05,120.00002397748868,99.9096898192772,1.274,1.025950003202184,0.0,0.0,0.0,0.0375426220587071,4.7658312175989686e-08,-0.0145774693288123,1.9252724355785177e-06,0.0005782798420984,4.780248590437683,35.44790728185619,12.774916548990808,30.486451961956565
0.36,31.22221166933814,131.0104008868675,5.135354490370708,4.798132156899578,0.0008554457330409,34.32674769697476,0.0010851169437774,3.0374319611165923,407.8625232777224,13.09301701329486,5.506730645516068,69.92658597246795,2.163521613217148e-05,120.0000274401514,104.94818266210537,1.274,1.0259105142325406,0.0,0.0,0.0,0.0384778908056978,5.3755109608570216e-08,-0.0158991451700967,2.162609490834569e-06,0.0006464142451675,4.798132232978766,34.796094028187134,13.09315138639638,34.46087058603792
0.37,31.222211421355144,131.01040139563804,5.255882891363927,4.797392186816851,0.0008791822061288,32.551601855236584,0.00111162791192,3.0078619428913056,391.1218908297639,13.457513730739372,5.661815946371007,69.91747693543164,2.5047738471809164e-05,120.0000313040604,110.87154396328836,1.274,1.025872170958032,0.0,0.0,0.0,0.0395491312153729,6.040098808671168e-08,-0.0172926678053148,2.420031948898497e-06,0.0007226353721561,4.797392267189059,34.07332166419882,13.457651832357364,32.69027405888565
0.38,31.22221116634284,131.01040191882743,5.379799334000849,4.811698494594017,0.0009057112478668,34.02947987649063,0.0011338447913587,2.9774881690446744,404.81876101445977,13.77554886562956,5.800899861213392,69.90756948297444,2.886339581486796e-05,120.00003560072224,116.17243393848278,1.274,1.02583050512925,0.0,0.0,0.0,0.0404838339452728,6.762496638941508e-08,-0.0187646375218858,2.69955777313946e-06,0.0008026686661094,4.8116985796350695,33.46655348088405,13.775691134419684,34.15949264475229
0.39,31.222210906095896,131.01040245274032,5.505993307722699,4.813508003664984,0.000929862892873,29.00025983045028,0.0011579891265804,2.9442136901860865,357.6406249338268,14.124492165837273,5.950648592462506,69.8968186645841,3.311602501056718e-05,120.00004036395212,122.13093644173792,1.274,1.02579027384009,0.0,0.0,0.0,0.0415093739609825,7.545934774906889e-08,-0.020311592409804,3.0013532510753577e-06,0.0008908380763632,4.813508093268025,32.821616487639595,14.124638228358922,29.149330452482886
0.4,31.222210638473225,131.0104030017851,5.635788650457906,4.841647069358873,0.0009592124397379,27.71178845184976,0.0011749448424961,2.91135549588368,345.4656368807565,14.390874239274588,6.07193451174791,69.8851815212744,3.783947407715338e-05,120.00004563180136,126.77947425345651,1.274,1.0257493418632293,0.0,0.0,0.0,0.0422922854866381,8.39343718693383e-08,-0.021938519432511,3.3271332720311508e-06,0.0009803271643914,4.841647164150728,32.348088166612904,14.391024912012275,27.864299944624147
0.41,31.22221036681104,131.01040355909262,5.767123077463226,4.86553909860892,0.0009876699832274,31.306062598221665,0.0011918093836199,2.876450850006428,378.9468707766882,14.663028799871563,6.195223154320929,69.87261222561014,4.307011032901644e-05,120.0000514391194,131.6183642808765,1.274,1.025708445186429,0.0,0.0,0.0,0.0430921644173401,9.308325447883581e-08,-0.0236371933433427,3.6760977501392174e-06,0.0010761942383903,4.865539198612839,31.87689439156756,14.663183942709727,31.437931330109585
0.42,31.22221008906472,131.01040412887247,5.901259531771367,4.867510642114694,0.0010118258958528,35.308283402190774,0.0012128114559048,2.8374461227958245,416.23282400171047,14.9952917972178,6.33928625560071,69.85906967380902,4.884273094936628e-05,120.00005782486392,137.64909586091787,1.274,1.0256701057426505,0.0,0.0,0.0,0.0440686959134695,1.0293499639582845e-07,-0.0254093547296826,4.049238334851429e-06,0.0011830797791891,4.867510747027452,31.315270489291198,14.995450734457847,35.422111438762386
0.43,31.222209804115888,131.01040471342728,6.038886819939341,4.854590670645608,0.0010330089741511,31.00586934514032,0.0012363751872706,2.794478603999558,375.90313951343126,15.369430568701889,6.497852263156962,69.8445117629242,5.519340856908871e-05,120.00006482835984,144.60167924299955,1.274,1.0256308158337524,0.0,0.0,0.0,0.0451682983415116,1.135186446762958e-07,-0.0272634397889413,4.449073329427772e-06,0.0013010625065656,4.854590780289497,30.70250814963406,15.369592833372094,31.13154422839874
0.44,31.22220951192321,131.01040531284193,6.180028459770617,4.866912332640401,0.0010595850174406,28.57707721036899,0.0012525768202179,2.752165534925872,353.07501253892326,15.659290812546615,6.627318538707029,69.82889155423543,6.216182865383864e-05,120.00007249162944,150.1053167542629,1.274,1.025586171750536,0.0,0.0,0.0,0.0460202245100907,1.2486676023179565e-07,-0.0292060158163984,4.8779154055816594e-06,0.001420032405556,4.866912447705031,30.24619499837236,15.659457251771938,28.709297424144207
0.45,31.222209215425703,131.01040592106523,6.322872201489905,4.881836476567178,0.0010866574689855,33.31904824532484,0.0012669045761511,2.7082028218433374,397.2093853562887,15.934249290371609,6.751662050993672,69.81215834018458,6.97909417564726e-05,120.00008085697964,155.42080512416243,1.274,1.0255397023523487,0.0,0.0,0.0,0.0468283602442113,1.3701614206272197e-07,-0.0312276295846745,5.334643585560923e-06,0.0015449645531859,4.8818365972149325,29.82567893138932,15.934419982127675,33.428929688274074
0.46,31.22220891307435,131.0104065412864,6.468371919199588,4.869610441729251,0.0011078049156487,38.95909776354321,0.0012868374716666,2.6582856015412624,449.7140588976424,16.292139278621757,6.904766425053949,69.79426683863348,7.812149592850748e-05,120.00008996920153,162.4785746623087,1.274,1.02549635315424,0.0,0.0,0.0,0.0478802236363867,1.499987870203256e-07,-0.0333272350234362,5.819761874615242e-06,0.0016858511402973,4.869610567434908,29.29014635640275,16.292313292210977,39.04968351401366
0.47,31.22220860266524,131.01040717804253,6.6178810515614845,4.838450928223533,0.0011247917292402,26.253747818137555,0.0013104398935566,2.6026193242279367,331.0078106302504,16.710658191447514,7.078951441335346,69.77517236812905,8.719457259907165e-05,120.0000998741591,170.9309671061642,1.274,1.025453319323251,0.0,0.0,0.0,0.0491102725711187,1.6384464803343264e-07,-0.0355167087264168,6.3368207228363735e-06,0.0018427306558807,4.838451058652396,28.68386015667837,16.710834873319172,26.382435512333956
0.48,31.222208284201663,131.0104078313267,6.771393590864176,4.869339340099417,0.0011561785713505,25.860860976019296,0.0013165328518772,2.5543454292827983,327.20312230115803,16.911139899671,7.177575416403102,69.75482343794755,9.70562828082882e-05,120.00011062072316,175.0543877818846,1.274,1.0254092882449153,0.0,0.0,0.0,0.0496995461609974,1.7858865391586845e-07,-0.0378054080201581,6.88909442277235e-06,0.0019849793891693,4.869339477030596,28.40887970825325,16.911321511776286,25.986704537635287
0.49,31.22220796480208,131.01040848648364,6.924537656029012,4.881367714530694,0.0011829003785372,32.565703383222065,0.0013261973190012,2.5011623511055703,389.6000096981238,17.169005224738054,7.296160258358563,69.73316318155707,0.0001077573203115,120.000122255028,180.4309832312717,1.274,1.025367445590036,0.0,0.0,0.0,0.05045746454003,1.942747077649401e-07,-0.0401641298712614,7.47069711110948e-06,0.002140948887153,4.881367857509675,28.058569663954906,17.169191034294997,32.66161128464712
0.5,31.222207637929923,131.01040915697027,7.081324512896956,4.862566137860805,0.001202418260511,33.47759680712428,0.0013425340759632,2.4399894027711366,397.970310422106,17.52898693231981,7.450304424940405,69.71015149227495,0.0001193385310595,120.0001348274002,188.0736471953394,1.274,1.0253278572281015,0.0,0.0,0.0,0.0515154948878309,2.109295159784217e-07,-0.0426011733481599,8.084173008518589e-06,0.0023184335011768,4.862566286171007,27.57768313050809,17.529175807738486,33.56639745442473
0.51,31.22220730314019,131.01040984370235,7.24202048914867,4.8479762258125,0.001223054804074,25.49162310288008,0.0013562860883156,2.3767006597692686,323.39843497208153,17.86914397471067,7.597652147346554,69.68574349602717,0.0001318441288964,120.00014838524436,195.4407439266201,1.274,1.025286455263166,0.0,0.0,0.0,0.0525152689856776,2.2858192086249162e-07,-0.0451315948093539,8.734206149830708e-06,0.002503767471626,4.847976379721193,27.13799345359824,17.86933609171003,25.602178740977283
0.52,31.222206962738102,131.01041054193402,7.405210501673173,4.865306299521403,0.0012516517170965,30.733671928447727,0.0013599291289974,2.317711624364424,372.098451184342,18.08534843773428,7.701914987606457,69.65988568649581,0.0001453248538387,120.00016298000436,200.19561780583155,1.274,1.0252426840672306,0.0,0.0,0.0,0.0531507657929359,2.4726951523704535e-07,-0.0477531686556663,9.421346966092632e-06,0.0026812161964639,4.865306460134566,26.8699055233151,18.085545046726228,30.820940596104087
0.53,31.222206619320115,131.01041124632013,7.569307468221277,4.848802699234936,0.0012715119568563,32.301199055744725,0.0013711327835325,2.2490252325653923,386.55624643486095,18.41963113311156,7.8474319110539055,69.6325258319474,0.0001598315062727,120.0001786629144,207.6614205945027,1.274,1.0251993415311351,0.0,0.0,0.0,0.0541332845214831,2.67031759303889e-07,-0.0504479325599339,1.0141887756417996e-05,0.0028848299490111,4.848802865552398,26.45837260670532,18.419830861742675,32.37940050117613
0.54,31.22220626697288,131.01041196903336,7.737918664599091,4.831496690588052,0.0012913635058467,28.31291960103712,0.0013809098107221,2.177242866245296,349.2703242098436,18.75116898748492,7.992112829440902,69.60362200959217,0.0001754082864028,120.00019548734956,215.20067397992847,1.274,1.0251561018460285,0.0,0.0,0.0,0.0551077428911958,2.878941684235108e-07,-0.0532336286085667,1.090122304443916e-05,0.003098869611663,4.831496862756785,26.061835558272342,18.751371834390056,28.396510432451375
0.55,31.222205908994248,131.01041270328463,7.909026079894722,15.583667740966511,19.664999119857367,30.720439458472708,-1.3368252415728843,1.3946302070072405,365.2500005919912,22.576858604022103,8.113323699629928,69.57312211246325,0.0001921068626005,120.00021350480982,311.9656824561849,1.274,1.025112921033824,0.0,8.77241248081048,0.0,0.0663511763773331,3.0989272306468813e-07,-0.0561100530405476,1.1700476995263424e-05,0.0039326558448982,24.8978919174017,43.03553878934265,25.605539229253623,30.78112239120741
0.56,31.222205546564343,131.01041344664463,8.081909946161325,19.145165035834967,15.291676439740016,28.72161706809124,-1.4680241597261687,0.7987650586746385,346.22656194657776,23.53158092197334,8.244196224145494,69.54097415464405,0.0002099796112633,120.00023276987916,338.9025195129918,1.274,1.0250709539098009,0.0,8.804417249057844,345.0001478400497,0.0691571466453988,3.329453068617489e-07,-0.0676788746658307,0.0162031517425457,0.0049440035560644,24.32208236273497,40.214100272477005,25.90517722463898,28.770199991633174
0.57,31.22220518050852,131.0104142056356,8.258482545612129,18.96853869617849,15.13161926060514,28.43220014394267,-1.7605036526750737,0.4526231677792982,343.1828296833045,23.806297843809723,8.358829587389808,69.50219571939748,0.0250463022753114,120.02674470608842,346.85579049916333,1.274,1.0250279191823897,0.0,8.836171976839463,345.0001478400497,0.0699646537118589,3.695541349346303e-07,-0.0835972313567329,0.030198748479496,0.0061780431048519,24.08954486420988,39.81694722024265,26.155633317648185,28.490248259155386
0.58,31.222204809709623,131.01041497300716,8.436981689886778,18.785326528302985,14.96155549221202,37.388041916237405,-2.0629577650871385,0.0931464184813554,426.12500585731766,24.086512107077223,8.476975119973158,69.45428428054566,0.0711635045040272,120.0759870111298,355.0631578192802,1.274,1.024981594484354,0.0,8.868005395768742,345.0001478400497,0.0707883217779863,4.203767492315497e-07,-0.0997775894935092,0.044379310300342,0.0074604780450483,23.84579031908245,39.40842562874692,26.41004990870804,37.44502836594111
0.59,31.222204434519032,131.01041575291208,8.61824678921676,18.490621803953488,14.710058167424368,30.386163348746965,-2.3894592033433444,-0.3027026161082609,360.68438819710633,24.49110787501821,8.642799765449702,69.39707024230998,0.1386257139626921,120.14804542309332,367.085375849801,1.274,1.0249386802161349,0.0,8.899625771364676,345.0001478400497,0.0719775433816499,4.85597366984708e-07,-0.1162221568693525,0.058739505867219,0.0088358744495398,23.46681745537944,38.80576358658698,26.77645755956207,30.48147088339036
0.6,31.222204050981126,131.01041655234377,8.804487689290058,18.30696122551004,14.54028945877136,27.06649560885845,-2.7131107013082167,-0.6886228248885559,329.4859594986072,24.758585055445653,8.756058311143484,69.33037346009212,0.227427282008994,120.24293553447173,375.1406241774205,1.274,1.024891335813742,0.0,8.931178123995462,345.0001478400497,0.0727637917854372,5.653937583957273e-07,-0.133022208695034,0.0733485329510817,0.0102233771684042,23.222623771851826,38.41334322566486,27.018131605150547,27.2108499613089
0.61,31.22220366635621,131.01041735650847,8.991337353470545,18.127755382638483,14.37417673157755,31.687012603234496,-3.0438734001939034,-1.0833197190673856,372.0984511843332,25.012744934528065,8.864259839813846,69.2539518260369,0.3376037832599797,120.36072152867376,382.8753184132119,1.274,1.0248423929069768,0.0,8.963028588752124,345.0001478400497,0.0735109052761851,6.600346165349097e-07,-0.1500615617117554,0.0881127588934323,0.0116511134705281,22.98397781668492,38.03703187956102,27.247024818723634,31.851303185390545
0.62,31.22220327706558,131.01041817269447,9.180926999118112,17.87860093543435,14.156796847370588,39.33559557364544,-3.395743577007387,-1.508525879422974,442.86563930529206,25.34591709439901,9.003078477725804,69.16762043041989,0.4689847466179788,120.50125201702164,393.13596483051714,1.274,1.0247996097896497,0.0,8.994426505467926,345.0001478400497,0.0744902368992846,7.696853135213775e-07,-0.1673221193655458,0.1030158765585164,0.0131640667592562,22.66022468583164,37.5411872913616,27.547103959050744,39.510704927944154
0.63,31.222202881146167,131.01041900483932,9.374393356022102,17.560593315104168,13.888967913855431,22.485405196571183,-3.7744953390474194,-1.9714560492458413,286.11251274707456,25.764122990496315,9.174827145437316,69.07119543695207,0.6213124121353736,120.66428680527169,406.208881859672,1.274,1.024756158874558,0.0,9.025720601177197,345.0001478400497,0.0757194859667222,8.944896711565978e-07,-0.1848563226052254,0.118096221159167,0.0147832633710162,22.25255352115064,36.92623705059731,27.924493162563547,22.885080311691915
0.64,31.22220247765603,131.01041985474848,9.572244911410165,17.438719085515597,13.76555012903823,22.10279723684197,-4.116334408085388,-2.377753545388602,282.3078244179702,25.913525461578505,9.243209510793402,68.96445351355887,0.7943231275797261,120.8495839898126,410.9258289363892,1.274,1.024708534665538,0.0,9.057106665265168,345.0001478400497,0.0761587424434889,1.034632987864063e-06,-0.2027208319832861,0.1333955575110145,0.0163056183026561,22.08368952318839,36.68164777956645,28.05507102215276,22.60821900492705
0.65,31.222202076908182,131.01042070165315,9.768460550406433,17.254162921372306,13.59620223577408,38.766995719318,-4.476562031603081,-2.811058872574627,436.7781447787504,26.135823816172287,9.339991048658408,68.84712923466648,0.987750262534732,121.0569032413217,417.99842156702414,1.274,1.0246641738210605,0.0,9.088654004870785,345.0001478400497,0.0768122378243736,1.1903852397525168e-06,-0.2206936946968554,0.1487380027242986,0.017903186127797,21.838499488584308,36.32924775199904,28.251523004742104,39.125715542459936
0.66,31.222201669586983,131.01042156417682,9.968424464702196,16.89536913447199,13.298520886287369,33.04364344359423,-4.895907871978558,-3.328343709786855,383.5125151715984,26.591976382071376,9.528025686355582,68.71907715284969,1.2010099637934644,121.28566884151138,432.7082223357796,1.274,1.0246195561629028,0.0,9.119408329231955,345.0001478400497,0.0781530299662196,1.3617971929961076e-06,-0.238821716185815,0.1641579471529985,0.0197115283827,21.380599640746517,35.6611785835482,28.662197909019948,33.569780424792285
0.67,31.222201251322662,131.01042245073927,10.174525363434787,16.642645574055855,13.07898032241354,22.886644259356263,-5.293710628885951,-3.8136590059981006,289.15624401033847,26.89151868691324,9.65567732755062,68.58011701038274,1.4335147324126047,121.53530518796644,442.5027550100672,1.274,1.024572383541697,0.0,9.1502270738042,345.0001478400497,0.0790335596785177,1.548932923965242e-06,-0.2572741716827218,0.1797843529472183,0.0214732999950879,21.05190454415645,35.19856202943663,28.928164478606583,23.798442232438987
0.68,31.222200832385408,131.0104233409856,10.380908613720246,16.460201429402673,12.911405874151924,28.475887420214686,-5.67086183687127,-4.270176330173002,340.89999248584934,27.07624799661,9.738891761558891,68.42996217097216,1.6848051523244731,121.80537844994647,448.59422617920734,1.274,1.0245245285832842,0.0,9.18144508395477,345.0001478400497,0.0795766601824503,1.7520529890288507e-06,-0.2759150276098863,0.1955087283911981,0.0231868901510981,20.809028639140237,34.87595338243682,29.08724541279218,29.347389053072398
0.69,31.222200411261205,131.0104242379277,10.588445494702103,16.186056367421113,12.676120631309752,34.96215322732563,-6.0860914164152655,-4.7801650654342405,401.0140726853658,27.38690294827645,9.87204818570661,68.26839805912623,1.954213692644544,122.0952355267196,458.9378783446832,1.274,1.024479631064582,0.0,9.212179792646795,345.0001478400497,0.08048985857453,1.9713042883558703e-06,-0.29464250861798,0.2112498084277238,0.0250442677225462,20.4538801889581,34.389011005025864,29.361859422259705,35.808415841429756
0.7,31.22219998185703,131.01042515316217,10.80041301069246,15.864678583215293,12.405888232747614,29.37533551677169,-6.529242010423792,-5.328667860563127,349.270324209851,27.763130821623847,10.031799327532768,68.09526383895003,2.2409151081878,122.40405725885456,471.6242170307388,1.274,1.0244351749185203,0.0,9.242603534810792,345.0001478400497,0.0815957839932013,2.206704062038728e-06,-0.313538267824617,0.2270683806672781,0.0270159451472477,20.040669219319973,33.82015282472511,29.69665210104745,30.56036713002299
0.71,31.2221995456552,131.01042608356323,11.015891323241751,15.60507242861829,12.181240130498468,24.192232802164103,-6.95066120581458,-5.847828013563176,301.3312640634036,28.03115085287468,10.14950449286098,67.91034559640131,2.5441279145104367,122.73107480675742,480.7641651861375,1.274,1.0243880468141104,0.0,9.273175327480343,345.0001478400497,0.0823836945802919,2.4583446444116347e-06,-0.3326350997033227,0.2429872147171015,0.0289375119729053,19.70285962969124,33.37675480481247,29.93019367636045,25.841302436764575
0.72,31.22219910711169,131.01042702061227,11.232471966982075,15.365310169348012,11.97116689657914,29.51569600028404,-7.363250836169979,-6.3561002845374,350.7922053414578,28.25291969526601,10.249493351382972,67.71340526779521,2.863062155951109,123.07551344987355,488.39124454311786,1.274,1.024337302174265,0.0,9.303701714447856,345.0001478400497,0.0830356772220881,2.726387457783173e-06,-0.3518338268803143,0.2589271319634294,0.0308492123656151,19.38916233579905,32.97988468033801,30.119694554138608,31.077222914614456
0.73,31.2221986646305,131.01042796724903,11.450975965701645,15.059186424516124,11.711932823940904,37.21372801445626,-7.81323993851721,-6.916090115985784,422.3203185282354,28.57500590949926,10.390419751326688,67.50425977676792,3.196790123623225,123.4364525753897,499.57965616385707,1.274,1.024292465384646,0.0,9.333910556843913,345.0001478400497,0.0839824995784383,3.010899720781605e-06,-0.3710829090173096,0.2748460011415801,0.0329072296333614,18.99385468914828,32.463174680062885,30.40192698687577,38.64894013505678
0.74,31.22219821404427,131.01042893090295,11.67344368026969,14.7004383243541,11.413673263914996,23.3707031673694,-8.300828271774567,-7.527536740183284,294.4828134710563,28.982142906584567,10.566661116077505,67.28275445268017,3.544306997729638,123.81289019535566,513.9061277659446,1.274,1.0242470321640116,0.0,9.36392001389147,345.0001478400497,0.0851792969378685,3.3118608935822444e-06,-0.3904374718247655,0.2907839547665483,0.0351161380788462,18.533649461366583,31.85139610959404,30.76316433719577,25.91828169284359
0.75,31.222197754927944,131.01042991198528,11.89994675151976,14.462133820748704,11.20429055305578,27.193655570078487,-8.71345544344279,-8.040108762620465,330.24688556441737,29.157239875231888,10.650030177619447,67.04870032246004,3.9046424037908336,124.20386317570508,520.1231479589927,1.274,1.0241984712898409,0.0,9.39397548727889,345.0001478400497,0.0856941306151046,3.6292925686409298e-06,-0.4099382569636068,0.3067699467980798,0.0370919936040885,18.221011766224493,31.48374139597298,30.90601015437272,29.665848343569916
0.76,31.22219729747064,131.01043089217913,12.125442371704825,14.1515311437404,10.94138237336256,29.19676751989404,-9.172383948880716,-8.616251197754472,349.2703242098581,29.45342769110705,10.783503456179425,66.80188292859091,4.276846818871177,124.6084324775194,530.7324549950441,1.274,1.0241522053390697,0.0,9.424063919217025,345.0001478400497,0.0865648570135484,3.9633670534452e-06,-0.4293955025471595,0.3226555954317851,0.0392463476995708,17.819357331708126,30.9818512549298,31.16166928728936,31.79345287349629
0.77,31.222196830007444,131.01043189202585,12.355538988416878,13.82817679753952,10.668708362554046,27.241821907839647,-9.640356506123624,-9.206213206575326,331.76876669606884,29.76096486061149,10.922923639504168,66.54220252984094,4.65978387548614,125.02545672006924,541.8616017678411,1.274,1.0241065975906936,0.0,9.453566157683948,345.0001478400497,0.0874689486935287,4.313964769883033e-06,-0.4488754766790901,0.3384899312876444,0.0414542633589844,17.401613189628723,30.462969792219585,31.42713433415488,30.328331573440273
0.78,31.222196357077127,131.01043290319492,12.587923774902436,13.516528332512594,10.404584907689616,22.31434092091336,-10.09763379869082,-9.783968187379628,286.8734378128874,30.032437896078992,11.048593320148976,66.26952123870528,5.052382333244893,125.45386498560056,551.7798616359214,1.274,1.0240588105546735,0.0,9.483218121767065,345.0001478400497,0.088267052796665,4.681059818473408e-06,-0.4683619004577765,0.3542579817836539,0.0436474394596272,16.99799471566473,29.97544148861316,31.65781856199256,26.374572082952707
0.79,31.22219587929805,131.0104339244812,12.822256431632656,13.225942676884005,10.155785352636366,31.614596812186303,-10.531096288659825,-10.332511806307275,373.6203323159581,30.24386593494584,11.15036143169673,65.98371350075193,5.453562599711304,125.89257658376584,559.5636651120134,1.274,1.0240083170932772,0.0,9.512715498902937,345.0001478400497,0.0888886868965365,5.06463281588739e-06,-0.4878060129566086,0.3699205226888697,0.0457784732668451,16.6199649636035,29.53929639764427,31.830792668373565,34.88764137722131
0.8,31.22219539789961,131.0104349536867,13.057935796556352,12.855179154789928,9.847537860384408,31.929524844787867,-11.033616408438515,-10.974396377709018,377.42502064505805,30.61385522483465,11.320025725407916,65.68468694301839,5.862217129610364,126.34047886970392,573.3253126035868,1.274,1.0239625010683884,0.0,9.541955628523723,345.0001478400497,0.0899763487013977,5.4646378099578575e-06,-0.5071430037727312,0.3854261135019725,0.0481743079513723,16.14291634543973,28.94751019757474,32.15309845629258,35.52003130231675
0.81,31.22219490462317,131.0104360041827,13.298471066139866,12.496790432216088,9.548183731024462,20.621967988888134,-11.523089557982145,-11.601424303445008,273.9374926939922,30.945501973704552,11.475203620740414,65.37239359505294,6.277207449854451,126.79642295540889,585.8009887384117,1.274,1.0239149950770308,0.0,9.57092914568688,345.0001478400497,0.0909513294554187,5.880848003368089e-06,-0.526453254299892,0.4008341052880687,0.0505492057982169,15.680709153833725,28.388861837326967,32.438394783146265,26.318058487748836
0.82,31.222194406023,131.01043706485055,13.540882769731928,12.201443844945892,9.295204042070528,26.434917398040543,-11.93759774421628,-12.13253272506763,328.725004432774,31.11430105293942,11.562105700567594,65.04674127494984,6.697490272983456,127.25936157039877,592.1953944676516,1.274,1.0238644186635044,0.0,9.600064508678088,345.0001478400497,0.0914476936863607,6.313207518848302e-06,-0.5456818178399381,0.4161005592432702,0.0526800784185409,15.295872478609033,27.970444597279947,32.56799199267602,31.440570097706264
0.83,31.222193906536926,131.0104381285934,13.783323854532288,11.840512757415116,8.993613390843601,33.55244305238828,-12.414637650277772,-12.748461430638034,395.6875032246518,31.423247238796183,11.710631153448409,64.70767730254235,7.122008811981602,127.72822941173172,604.0000020485321,1.274,1.0238188483711983,0.0,9.628996345693922,345.0001478400497,0.0923559665813775,6.761700325051523e-06,-0.5646964575745635,0.4311235783178908,0.0550557767742741,14.82990923994214,27.42267011950592,32.83016656032663,37.97911178029205
0.84,31.222193395138408,131.01043921259657,14.030217543701053,11.444208880247349,8.665699789795676,20.383210761488616,-12.92932896596816,-13.416528721638407,275.45937482564227,31.80923082402473,11.894661334674645,64.3552379464796,7.549645828137,128.20189000048438,618.9147789154196,1.274,1.0237739661568126,0.0,9.657510498517736,345.0001478400497,0.0934906701386918,7.225992267868216e-06,-0.5835585863137466,0.4459481199285395,0.0575922575352733,14.319966525133372,26.807103490911206,33.1652520915836,27.616047352871426
0.85,31.22219287388001,131.01044031308768,14.280519296395353,11.127209337601128,8.395988054829044,22.122748116293327,-13.330634313346485,-13.93893135275163,292.9609323393965,31.97180906427128,11.982264500571638,63.989428903280114,7.979380099964722,128.6793077399499,625.2425132062491,1.274,1.0237227741398531,0.0,9.686119317399752,345.0001478400497,0.0939687700305644,7.705826260247866e-06,-0.6022832888432401,0.4605835967799564,0.0597425913200372,13.90746807120691,26.37170466476878,33.28593288375736,29.349882498399428
0.86,31.22219235411529,131.0104414126955,14.529806766515335,10.769277019675608,8.09597275438216,27.723251834825703,-13.771291452130628,-14.515898833715427,346.2265619465616,32.22556227532585,12.111496070085806,63.610253958352885,8.410249372940623,129.15950708304513,635.1915164087739,1.274,1.023674789281455,0.0,9.714668008248337,345.0001478400497,0.0947148458679517,8.201193671100683e-06,-0.6207051915714452,0.4749041343403641,0.0620571057103034,13.44423240835525,25.85617479264262,33.49304707238649,34.18974231414086
0.87,31.22219182337997,131.01044253006648,14.782774779567616,10.379108285551307,7.772009400183663,25.557276201422408,-14.246445506344587,-15.141163714245735,327.9640783669946,32.55464613141785,12.27644677952148,63.21782908767241,8.84123036169069,129.64143810450332,648.2150182737078,1.274,1.0236288969245204,0.0,9.74269774735072,345.0001478400497,0.0956823364242489,8.71169143135685e-06,-0.6388496719388382,0.4889276661011232,0.0645218393427494,12.940905608673274,25.27766487509131,33.77173006406938,32.94526392400932
0.88,31.22219128294552,131.0104436627584,15.03873658691552,10.003120613988884,7.458326997374739,21.72860941617489,-14.686257386326776,-15.723365110742051,294.4828134710421,32.827455995928126,12.417949825051764,62.81226342589429,9.27138136296968,130.12413438564718,659.1084979742246,1.274,1.0235805388426191,0.0,9.770739738201543,345.0001478400497,0.0964844387152719,9.236932728134238e-06,-0.6567267572841972,0.5026600117964157,0.0668815528514581,12.454802099921151,24.739421220125543,33.99570143757787,30.578470098810083
0.89,31.222190736991863,131.01044480447166,15.296103249959955,9.635027088088323,7.150246375615729,23.74606307237676,-15.094441321519533,-16.267424703415394,315.02813424808807,33.057355028029505,12.541562340142844,62.39366874775564,9.69982972332459,130.6066991761274,668.3561139585848,1.274,1.0235293752791452,0.0,9.7987142779087,345.0001478400497,0.0971604259375345,9.776652591575018e-06,-0.6742716439769202,0.516051620449843,0.0691475302132441,11.97816487210262,24.228624352065854,34.17760005057748,32.50148883862678
0.9,31.22219018477867,131.01044595614513,15.555090285110676,9.245656679755596,6.826481625242387,26.16195720512286,-15.521575707115916,-16.839640708054155,339.3781423542166,33.33811323490308,12.690532463753952,61.96220703253138,10.125726231847011,131.0882538616997,679.7401985305689,1.274,1.0234837388140003,0.0,9.826448975485484,345.0001478400497,0.0979859019030265,1.0330518347858638e-05,-0.6914291473655473,0.5290604680627191,0.0715074964940891,11.475079438041533,23.67748267274977,34.40787929811475,34.76982623498089
0.91,31.222189622497623,131.01044712280526,15.81687231844082,8.84351845965179,6.493346621148865,19.23503277611161,-15.955697697921831,-17.424467224697075,277.7421810230785,33.647303104925385,12.855013054419336,61.51808483494517,10.548256867040095,131.56795046942966,692.3895771943718,1.274,1.023436404813438,0.0,9.85397119820486,345.0001478400497,0.0988949511381927,1.0898045333914758e-05,-0.7081922329793907,0.5416801570858648,0.0739185389262157,10.95608155724045,23.10462957314372,34.66509362978348,30.466093169129817
0.92,31.222189050643976,131.0104483033828,16.08113755962139,8.46704833646019,6.1786784575545965,23.0330324541224,-16.314219581197012,-17.91368226578818,315.0281342480675,33.84567050519643,12.969124234390696,61.06152266445803,10.966673554785029,132.04500618108543,700.5598166071792,1.274,1.0233859136578225,0.0,9.881407305138264,345.0001478400497,0.0994782821256938,1.147875138316205e-05,-0.7245398789063255,0.5538939229685972,0.0760687620284174,10.468450442511893,22.603735893264663,34.814335048745164,33.43014144295207
0.93,31.22218847551788,131.01044948920682,16.345811141988374,8.061147472844649,5.842743401995674,27.56105102330862,-16.71426356841415,-18.46084311946064,359.16250706547066,34.136997574965804,13.129568833578285,60.59276374391016,11.380285356116866,132.51869337458783,712.6537618848503,1.274,1.0233407575091376,0.0,9.908724076463695,345.0001478400497,0.100334842423634,1.2072297978514698e-05,-0.7403848847363851,0.5656370815043682,0.0783994034335937,9.944548635714597,22.039418740612096,35.053183742266896,37.14540171845197
0.94,31.222187887194966,131.01045069325087,16.61390078310953,7.639207846353882,5.495320752934084,19.02247387317153,-17.132781429271933,-19.03595904200656,283.06875048378083,34.479618880285535,13.317468143058226,60.11211660500759,11.78842477357714,132.9883007891444,727.0121535171248,1.274,1.0232914783978162,0.0,9.935710518213972,345.0001478400497,0.10134217527894,1.2678016080987436e-05,-0.7557363706521366,0.5769152243196197,0.080826075352469,9.400892573785123,21.442820664067096,35.34149901954189,31.902264001284458
0.95,31.222187287266944,131.01045191292343,16.88472791405582,7.247434713063042,5.169456312313872,25.1858423717702,-17.4483958735557,-19.47956788783331,342.421873617488,34.67701486864909,13.4366201263107,59.61989305323552,12.19049996778692,133.4531931578605,735.3411516477894,1.274,1.0232418269359267,0.0,9.9626773872433,345.0001478400497,0.1019226711847163,1.3295274016088344e-05,-0.7705792081566886,0.5877158517325802,0.0828831801814891,8.894146040768547,20.934565777254733,35.48792992930632,36.30739235517579
0.96,31.22218668487494,131.01045313635063,17.155556667337972,6.821814638552044,4.819721716975216,24.309884693967685,-17.831974756482385,-20.016229971362,337.09533515678265,35.01111710166407,13.625632853837024,59.11642338963261,12.585978694886222,133.91279315610336,749.5594804700347,1.274,1.0231951201821403,0.0,9.989537890558555,345.0001478400497,0.1029049788201306,1.3923696124640892e-05,-0.7848166756564441,0.5979687427707102,0.0852256474491543,8.34607383507458,20.345093933313446,35.767304662337246,36.188385979707355
0.97,31.22218606511856,131.0104543821407,17.430561556630387,6.40189569436631,4.474131645761475,13.997506423184143,-18.174368022660687,-20.50257929018566,245.0218871929888,35.305167096165555,13.797464170870638,58.60210906675213,12.9743504420592,134.3665373831014,762.1829644464085,1.274,1.0231476260761452,0.0,10.016044959086097,345.0001478400497,0.1037695751033691,1.456241388653607e-05,-0.7984678016461108,0.6076860539062521,0.0874339960319193,7.805044189347376,19.780342752092302,36.00724802038269,30.766761230921635
0.98,31.22218543750791,131.01045563798073,17.70691199832029,6.006194472202563,4.145546060134056,21.793022797862296,-18.40546288833293,-20.84589201399596,319.593746642963,35.45395625567835,13.897646507294088,58.07734751403021,13.355179482693556,134.8139380374354,768.6003491593385,1.274,1.0230935628253934,0.0,10.042606923186185,345.0001478400497,0.1042072237805321,1.52108205825464e-05,-0.8114787970552368,0.6168282043193,0.0892308444608839,7.293620916455169,19.29593133368796,36.1045690994504,35.33055505735973
0.99,31.2221848074804,131.01045689723836,17.983149672928043,5.576626248803578,3.7937719051424015,23.86948323895968,-18.724936145399283,-21.309546927206565,341.66094855170127,35.77317091426484,14.087468913669008,57.54257898604365,13.728069401610426,135.25454190939973,782.4822980451081,1.274,1.0230490803133316,0.0,10.068951169236763,345.0001478400497,0.1051457958363489,1.586843741678391e-05,-0.823766262648808,0.625336498801707,0.0913951266028097,6.741363004021227,18.72140951391201,36.368659858329,37.07387562674121
1.0,31.222184158163312,131.01045817993432,18.263590065621862,5.146483567779121,3.4419782657577445,20.562112895492195,-19.02175934042629,-21.74733398980443,314.2672081822764,36.0882071035575,14.278307878031589,56.998305573343245,14.092652874934345,135.6879181419802,796.3033850878246,1.274,1.022999484445133,0.0,10.09494662871093,345.0001478400497,0.1060720972280034,1.6534191309062126e-05,-0.8353529926241309,0.6332248965085707,0.0934943231120522,6.188830329209498,18.153403992192423,36.62854664600799,35.46229477622908
1.01,31.2221834988502,131.01045947451044,18.54565230361565,4.723490341417174,3.095494733854996,21.38870847701745,-19.26038424829777,-22.11206877475076,324.92031610370094,36.347426314584496,14.44252166933736,56.44502185297539,14.448630878812208,136.11370488927426,807.7621767256886,1.274,1.0229507481225095,0.0,10.120999624038884,345.0001478400497,0.1068343461215362,1.720729738809859e-05,-0.8462000909055573,0.6404647500585854,0.0953860511267668,5.645504990454599,17.617600008631282,36.83342897996964,36.2957688609323
1.02,31.22218283046751,131.01046077977324,18.82906481912612,4.29448647207596,2.7455141422375844,16.662865327401114,-19.497044030600502,-22.47818518460394,284.59063161543185,36.63906161523538,14.626703195632548,55.883254557261886,14.795744868091514,136.5315769723338,820.7540734516338,1.274,1.0229039803623294,0.0,10.146870488333462,345.0001478400497,0.1076918809581501,1.7887030654349742e-05,-0.8562563145371161,0.6470201259084319,0.0972913983276974,5.095717690962295,17.071024289538173,37.07016094518456,34.103586556894996
1.03,31.22218214798648,131.0104621012496,19.114942533987445,3.873187344289795,2.401014317257949,12.26691301873228,-19.662208419704022,-22.75329401724203,247.3046933904342,36.85965608285792,14.775218269254164,55.31357017084362,15.133771618620724,136.94123992702728,830.64412095653,1.274,1.022853416101322,0.0,10.172538515051812,345.0001478400497,0.1083406158514244,1.857245504690137e-05,-0.8654952428797485,0.6528712869156756,0.0989305344974388,4.556058047061904,16.56241194451263,37.23669615518571,32.477561232088924
1.04,31.222181458342007,131.01046343083135,19.401562435135048,3.454661186739355,2.058741258079088,22.61614255069826,-19.775611864109354,-22.963234080284813,345.4656368807608,37.04172019302552,14.90482601353304,54.73655846054137,15.46252903698152,137.3424373358887,838.8470399799959,1.274,1.0228049544826707,0.0,10.198106795435503,345.0001478400497,0.1088761042132386,1.926280828670953e-05,-0.8738681111781507,0.6579850059999494,0.1003782164045777,4.020940378151191,16.076018193157413,37.365036931030254,37.813685986681605
1.05,31.2221807601608,131.01046476994907,19.68919942075177,3.017666141096828,1.706013414768338,10.841175956810131,-19.982969294650555,-23.30251628031756,240.4562587980608,37.404058417703766,15.137073020647096,54.152846505456765,15.781867636783945,137.73494092038902,855.3147036889461,1.274,1.022755494436122,0.0,10.223425633736316,345.0001478400497,0.1099414756834933,1.995723120431653e-05,-0.8813394565381392,0.6623375534492949,0.1022238840746299,3.4661360166763484,15.520535433844133,37.67199878223094,32.555451508955144
1.06,31.222180039206137,131.01046613383286,19.980840237520685,2.6011259080253804,1.366115650415357,17.88683696692589,-20.012615565329863,-23.408404323750435,308.1796836557233,37.54212905678635,15.246623633194124,53.56308956887856,16.091672867717314,138.11855378489224,861.6167169117494,1.274,1.0227013895379469,0.0,10.248525217138928,345.0001478400497,0.1103476688402797,2.06543576001804e-05,-0.887910519891865,0.6659249707199201,0.1033633016269828,2.9378300848737138,15.065963058402712,37.756697669664206,35.614563193042926
1.07,31.22217932128477,131.01046749427664,20.27084137461304,2.171580897142368,1.020046042154735,21.94976179356778,-20.126487751961257,-23.63091615101904,348.5093681440431,37.84805816969997,15.453683823241164,52.96794726803231,16.3918688966459,138.49311573361692,875.6920927980358,1.274,1.0226540159946436,0.0,10.273656508283322,345.0001478400497,0.11124725104667,2.135369608976596e-05,-0.8935185093135304,0.6687098187459846,0.1048608400333368,2.399116345288756,14.554245124536855,38.00827816331488,38.01694030508908
1.08,31.222178579323927,131.01046888015955,20.564846204494284,1.7421862411443605,0.6755568173281419,12.088427601984936,-20.2308799999164,-23.84522020806493,261.0015785751465,38.18300727967655,15.68115058923244,52.36812385212907,16.682404266979272,138.85848614182348,891.2349722092841,1.274,1.0226061614050743,0.0,10.298336426539072,345.0001478400497,0.1122321433165335,2.2053835501809604e-05,-0.8981592169537013,0.6706845162163392,0.1063352788082241,1.8685420118742324,14.044216857479295,38.28912103769407,33.5263048102614
1.09,31.22217782287157,131.010470280833,20.860683776714005,1.3234997643828548,0.3375273229401376,10.20040067407675,-20.19444723485688,-23.87423693644312,246.54375332456465,38.353330168600415,15.815681459220457,51.764330709893336,16.963258698968627,139.2145529284263,899.1782170000224,1.274,1.0225512795791307,0.0,10.323059998461604,345.0001478400497,0.1127331534184243,2.275365528891357e-05,-0.901804074987297,0.6718277966757115,0.1072400098254602,1.3658535999520338,13.606804173841208,38.40634852985259,32.89138279748282
1.1,31.22217706339485,131.0104716843389,21.156075431087743,0.9046930236162372,0.0009102115224118,28.068374876359687,-20.14382861062607,-23.887838592207768,413.1890617384087,38.54783081196987,15.966519948860505,51.15730164342423,17.234435299515106,139.56122345113076,908.2955483934504,1.274,1.0224981043155532,0.0,10.34764295973096,345.0001478400497,0.1133052329701257,2.345248697467808e-05,-0.9044166597631708,0.6721211823171491,0.108093044361303,0.9046934814599566,13.173248138701386,38.54797378766146,42.002813380790435
1.11,31.22217628937049,131.0104731024508,21.453217933943154,0.4805519901900169,-0.3335389790700273,18.060920152006943,-20.24964780321985,-24.117739372960084,324.1593910379213,39.02273511168576,16.288420156243085,50.547796393074165,17.495961603677262,139.8984264334451,930.78701130291,1.274,1.0224548851875197,0.0,10.371901581026671,345.0001478400497,0.1147015234114511,2.4149189296760296e-05,-0.9059796592151762,0.6715528436051184,0.1096107145561421,0.5849579961136425,12.662512208860662,38.97034322728104,36.30303603493303
1.12,31.22217548161685,131.01047455401863,21.75546793529828,0.066172218177884,-0.663498281500737,1.26624110805903,-20.16451610779559,-24.0938152444724,172.7328179403806,39.26121925209252,16.47177843930582,49.93658865963555,17.74788730973901,140.22610975001308,942.17127498755,1.274,1.0223979224661404,0.0,10.396023322112129,345.0001478400497,0.1154029056590379,2.484192612035191e-05,-0.9064698493601128,0.6700945044773657,0.1103370564205719,0.6667897241846362,12.246905864396004,39.15699951512831,31.443966184946465
1.13,31.22217467457845,131.01047600423084,22.056419969250303,-0.3441546608287439,-0.992711426642,22.26588051675752,-19.91549572033264,-23.85050898188867,367.5328077894322,39.300761416013664,16.535001942526723,49.32447180601492,17.990272208787268,140.544225311627,944.0427677514996,1.274,1.0223460397860296,0.0,10.420278935298354,345.0001478400497,0.1155195266734668,2.5530182989345395e-05,-0.9058624196472445,0.6677403397326189,0.1103709806850082,1.0506695746150034,11.908809661036583,39.1448344714,38.22621068937205
1.14,31.22217386656504,131.01047745508677,22.356506921585133,-0.750762017021464,-1.3103075355327665,8.064996640954085,-19.899538178971024,-23.929366693652053,239.6953177322812,39.741655413998735,16.849294905722378,48.712255654957886,18.223198922963302,140.8527462575886,965.3151658282504,1.274,1.0223022138470996,0.0,10.444156556797047,345.0001478400497,0.1168158733738817,2.621339302604464e-05,-0.9041553798420614,0.6645012647119465,0.1113956418280779,1.5101162794847949,11.470729768501029,39.53585072800352,32.15043360382858
1.15,31.222173015394382,131.01047894736456,22.66283206781464,-1.154967911262002,-1.6306406991008184,7.598325652834989,-19.64260854241117,-23.68325017015928,237.4125115347709,39.86688728880872,16.96969972040167,48.10075065402288,18.446775498333896,141.15167144270032,971.3798734718276,1.274,1.0222426194541194,0.0,10.467702076052054,345.0001478400497,0.1171843826633361,2.6889310229651124e-05,-0.9013060811761748,0.6603276471586109,0.1113912371183389,1.998144084157271,11.144598984102146,39.61078142322803,31.693263664370132
1.16,31.222172175519475,131.01048042799653,22.966059688976173,-1.5536249242798643,-1.9439715136270173,34.9857794606686,-19.39717455625733,-23.456566105295224,490.043774385954,40.058449259524366,17.133822257035554,47.49080040781157,18.66110397427653,141.4409841695689,980.7087742581544,1.274,1.02219674531104,0.0,10.491471506398817,345.0001478400497,0.1177478611685058,2.7557680091407704e-05,-0.897329469128634,0.6552488157405891,0.1114294051343639,2.48834268798075,10.821403365081224,39.75314951074513,46.373113316754385
