Time,Latitude,Longitude,Altitude,Angle of Attack,Angle of Sideslip,X-Acceleration,Y-Acceleration,Z-Acceleration,Thrust,True Velocity,Ground Velocity,Pitch,Roll,Yaw,Dynamic Pressure,cp,cg,parachute_deploy_gain,Wind Speed,Wind Direction,Mach,omega_x,omega_y,omega_z,Cmq,Angle of Attack(total),Angle of Attack(gust),True Velocity(gust),Acceleration
0.0,31.222216000000007,131.010392,3.000000004412624,0.0,0.0,0.0,0.0,0.0,2.2828121974499247,0.0,0.0,69.99999999623412,0.0,119.9999999935444,0.0,1.274,1.0271675151847728,0.0,0.0,0.0,0.0,0.0,0.0,0.0,-0.0,0.0,90.0,0.0,0.0
0.01,31.22221599999084,131.01039200000497,3.000002745347096,0.0,0.0,0.0,0.0,0.0,34.242186961749226,3.465174813755316e-14,2.8705476994166025e-14,69.9999999962611,-2.1713911667908447e-11,119.99999999352175,7.352495975525499e-28,1.274,1.0271659134330349,0.0,0.0,0.0,1.0183245502395064e-16,-3.3305335486039093e-18,7.169286865560398e-18,5.624298769768554e-18,-7.715917190115602e-34,0.0,89.99999999999979,3.465174813755316e-14,0.0
0.02,31.222215999994315,131.0103920000094,3.0000030495639742,0.0,0.0,0.0,0.0,0.0,25.871876237766216,3.8197434737535036e-11,2.4171837235633357e-11,69.99999999628672,-1.1921727947863515e-11,119.99999999353136,8.93414285188691e-22,1.274,1.027164492361118,0.0,0.0,0.0,1.1225230367947217e-13,-6.657678965418802e-18,1.4338573731120796e-17,1.1241821275959074e-17,-1.7010872994127372e-30,0.0,89.99999999975682,3.8197434737535036e-11,0.0
0.03,31.222215999994315,131.0103920000094,3.0000030495639742,0.0,0.0,9.81877837424427,-2.5122800045972096e-05,3.3498614629347925,180.34219359854663,1.2659015405517447e-10,1.1364406173918436e-10,69.99999999631459,-1.6431898037347223e-11,119.99999999352724,9.812605835254651e-21,1.274,1.0271551940870716,0.0,0.0,0.0,3.720154642239108e-13,-9.991600645811728e-18,2.150108433310316e-17,1.6859343782149594e-17,-8.453698244545225e-30,0.0,89.99999999919412,1.2659015405517447e-10,10.374487003414373
0.04,31.222215999994315,131.0103920000094,3.0000030495639742,18.83801224594347,-0.0001111777826462,48.68248476615645,-1.016330065874988e-05,3.3497854396877287,548.635972453808,0.1556173050466994,0.0975908358443652,69.99999999633813,-2.0932768807056278e-11,119.99999999352085,0.0148286043323172,1.274,1.027133720825283,0.0,0.0,0.0,0.0004573186944143,-1.3322134194415637e-17,-1.04744143520903e-11,1.336824254131964e-11,5.0626055458604615e-15,18.83801224625964,89.06236267790787,0.1555998412814392,48.79759610369246
0.05,31.22221599164764,131.01039201704114,3.002326315126219,5.772385609593056,-4.395076213712875e-06,71.20344550265034,4.905512691849684e-05,3.349217396035405,761.6984298824663,0.8326471944351852,0.3620326097059287,70.00000001316391,-1.0866255162484559e-10,120.00000000231074,0.4245281043148827,1.274,1.027093426565204,0.0,0.0,0.0,0.0024469331205246,-5.0245994431125096e-18,-7.32924164976824e-07,2.217344936947165e-11,1.895424184525467e-09,5.772385609594774,84.74112356985832,0.8326465040582279,71.28217104309611
0.06,31.22221596664444,131.01039206837547,3.015081730143309,4.056581213689704,3.169093567502233e-05,53.16249142470188,0.0001203825427859,3.3481235983850643,590.4875390737236,1.657216205300742,0.6755452977614796,69.99999964391398,-3.9285905645317736e-10,120.0000000287861,1.6816755551786196,1.274,1.027050317124926,0.0,0.0,0.0,0.0048701272653724,3.095757869075056e-13,-7.483541766772344e-06,3.074135420506017e-11,3.8518749565858254e-08,4.056581213813337,79.59316473687034,1.657221183301277,53.26781792157489
0.07,31.22221592883117,131.0103921460222,3.034593611434361,4.115662018628709,6.450869598349036e-05,81.18203554989698,0.0001593212642178,3.347059402768047,855.2937749779172,2.099899704220947,0.8579771146174259,69.99999543281565,-8.233801910783518e-10,120.00000006883089,2.700101932075157,1.274,1.027003201295312,0.0,0.0,0.0,0.006171060252819,3.4704292086287e-12,-2.6327204536316785e-05,1.9541142932033486e-10,1.7170712165327165e-07,4.115662019133419,76.90111966094352,2.099909837223217,81.2510043180746
0.08,31.22221588914193,131.01039222747755,3.0542761843835606,3.459696193892355,8.037433511260004e-05,16.298214211652088,0.0002413456836072,3.344878926597744,241.2171988638792,3.051964775152957,1.2149999716613011,69.99998042886442,-1.0128995578004475e-09,120.00000011111383,5.703497661025892,1.274,1.0269597189470347,0.0,0.0,0.0,0.0089689344021769,1.458982438104473e-11,-5.702803872814215e-05,7.043261397829576e-10,5.405702492731987e-07,3.459696194824858,71.30331929508368,3.051977400323993,16.63790856991177
0.09,31.2222158241468,131.01039236098703,3.0886872184095737,4.313676956300389,0.0001337561018991,50.35975918308536,0.0002293282821279,3.344215841840564,563.0937377043203,2.893161298572128,1.191209213966114,69.99994788602814,-7.098432023887522e-10,120.00000018106356,5.125380275808925,1.274,1.026918932011013,0.0,0.0,0.0,0.0085022553945842,3.8672912027154325e-11,-0.0001115933708951,2.016054215232918e-09,1.0027525988343615e-06,4.313676958370176,72.2316578138625,2.893182308931483,50.47067588835877
0.1,31.2222157788302,131.01039245392113,3.109877853389092,4.035124630954496,0.0001457499816535,47.804664812504015,0.0002878217657545,3.341734392237128,538.7437595981891,3.5677148583138303,1.4531247507621967,69.99988403958329,1.9248461973355822e-09,120.0000002323013,7.7939962029572305,1.274,1.0268846934974103,0.0,0.0,0.0,0.0104845969583028,8.579678749070606e-11,-0.0001726817043215,3.984565639703107e-09,1.913455350430327e-06,4.0351246335824245,68.43243098813296,3.567737752667411,47.92132267234452
0.11,31.222215703308,131.01039260899836,3.148841432727305,4.043401107254707,0.0001752764476999,37.67622367577205,0.0003286462930162,3.3392563999062723,442.86563930529127,4.034183355956686,1.6436552022667772,69.99978525353545,7.302513231814865e-09,120.00000031883242,9.96528118825134,1.274,1.026848594915519,0.0,0.0,0.0,0.0118554331868328,1.5870341853361987e-10,-0.0002596204409236,7.232030302688121e-09,3.252930323390323e-06,4.04340111104746,65.92012987243639,4.034210888316708,37.82391391539392
0.12,31.222215627491828,131.01039276462643,3.186995101203875,4.17874459224363,0.0002066711490009,41.15991989399172,0.0003576945202315,3.336766085769504,475.58594813540793,4.361857560629481,1.7865750500940407,69.99963665601238,1.781774420198147e-08,120.00000041104812,11.649831899889556,1.274,1.0268114448194128,0.0,0.0,0.0,0.0128183893919737,2.682972478760441e-10,-0.0003710216542429,1.2215991071490164e-08,5.026311388647148e-06,4.178744597345269,64.21681651392016,4.361890024457652,41.29495143136631
0.13,31.22221554594398,131.01039293200228,3.2277173449026786,4.202734874672792,0.0002327160860324,45.44886120763352,0.0003953741266062,3.333578629398489,515.9156326236897,4.792165672014363,1.9646716520715424,69.99942424225341,3.613383418913551e-08,120.00000051758742,14.061726603124043,1.274,1.026779572895131,0.0,0.0,0.0,0.0140829618979635,4.248908088871395e-10,-0.0005056103199642,1.908859219307828e-08,7.5253154423526356e-06,4.202734881104192,62.048594618540655,4.792202226971676,45.570952718869485
0.14,31.222215454191247,131.01039312033683,3.2737880595608355,4.184830647080848,0.000257138757548,42.32232525579263,0.0004369426767266,3.329727443445437,486.2390860568421,5.269261304374574,2.158791628597544,69.99913473613935,6.515851355725497e-08,120.00000064630268,17.000925061330125,1.274,1.0267449573927567,0.0,0.0,0.0,0.0154850332441425,6.382432869666793e-10,-0.0006690086306358,2.8426433029675884e-08,1.0948547100483978e-05,4.184830654966803,59.74181173116622,5.269301695636157,42.45310707234106
0.15,31.222215353826755,131.0103933263496,3.3242182719560263,4.21963947489699,0.0002846467688673,40.886944113003565,0.0004726792395108,3.325585650885676,472.5421858721398,5.6781946837482895,2.329510773545807,69.99875162806286,1.0876776246115984e-07,120.00000079954532,19.742017654108928,1.274,1.0267115958081523,0.0,0.0,0.0,0.0166867950518804,9.204756288136623e-10,-0.000865746478554,4.08948221429571e-08,1.526771148078443e-05,4.219639484480408,57.84996018384879,5.678239395958187,41.02196629910223
0.16,31.222215247130432,131.01039354534575,3.3775922280208457,4.253495568077899,0.0003118339050386,32.26872905470846,0.0005078415214353,3.32090791922544,391.1218908297597,6.081244877834229,2.4981889727471702,69.99825581174558,1.7187028096464329e-07,120.0000009800088,22.644030778355887,1.274,1.026675762255412,0.0,0.0,0.0,0.0178712695992133,1.2856146928958252e-09,-0.0010961187242953,5.6923362293832417e-08,2.0702404729358337e-05,4.253495579487569,56.06022383757386,6.081293860589489,32.43916312841722
0.17,31.22221513260033,131.01039378041813,3.4348437275053194,4.364838523348639,0.0003448792023946,40.840448242802736,0.0005326487904353,3.3162727284953744,471.78125980632416,6.362544479165355,2.6250789114832647,69.99762801982864,2.5997588617291615e-07,120.00000119506798,24.78723182122683,1.274,1.0266409836796937,0.0,0.0,0.0,0.0186979513961862,1.747791994374917e-09,-0.0013624931601664,7.706724512977917e-08,2.6923621797558364e-05,4.364838536947241,54.85936171416122,6.362598652663785,40.97486885600156
0.18,31.222215014088988,131.01039402363364,3.4935801365785646,4.353948305387995,0.0003681615230806,33.992183768165326,0.0005718025428208,3.310131992647221,407.1015672119096,6.81502088160835,2.810667639293692,69.99684761766231,3.794979223522764e-07,120.00000144728236,28.437950785509614,1.274,1.0266048342046536,0.0,0.0,0.0,0.020027681385988,2.3221419748804155e-09,-0.0016616990447559,1.0147209890543081e-07,3.517105786247627e-05,4.353948320923495,52.99157233768714,6.815078712285162,34.152972512863755
0.19,31.22221488419521,131.01039429023237,3.558399965607869,4.432620772533925,0.0003996774584738,38.45149959021069,0.0005986099513107,3.304145139297767,448.95313283182486,7.1223367465208405,2.946425726785696,69.99589577323147,5.440084577183829e-07,120.00000176148238,31.060341085698347,1.274,1.026566130444714,0.0,0.0,0.0,0.0209308229359413,3.022391489754689e-09,-0.0020041563310821,1.3135864879722746e-07,4.433199397898183e-05,4.432620790516937,51.77883352025967,7.122399527709208,38.59320142454953
0.2,31.222214751373183,131.01039456280608,3.624052454705669,4.443889400961181,0.0004246617145652,35.23432408779927,0.0006337972852267,3.2968110145188256,418.5156301991588,7.530482904611057,3.1167566004785483,69.99474776398331,7.478025600151903e-07,120.00000211715036,34.72195181863731,1.274,1.026529240027363,0.0,0.0,0.0,0.0221302820454282,3.866698391504749e-09,-0.0023849544920781,1.668144671071589e-07,5.57780533277244e-05,4.443889421210987,50.22448880200342,7.530549610317194,35.38822625098952
0.21,31.222214608673173,131.01039485566503,3.6948551453492566,4.493351735844891,0.0004538195602194,33.79371564104691,0.0006629296043866,3.2891790438445727,404.8187610144608,7.868284042829251,3.2629204975089228,69.99338155599101,1.0150082652278477e-06,120.00000255293388,37.906665490338085,1.274,1.0264923657015164,0.0,0.0,0.0,0.0231230169900677,4.871073773182836e-09,-0.0028117605859743,2.089322918608601e-07,6.870935089180403e-05,4.493351758715364,48.992529909481824,7.868355328639073,33.95340801819282
0.22,31.22221446109996,131.01039515850383,3.767700382407304,4.5412639153933885,0.000482649303782,41.008966751568416,0.0006914639179131,3.2808061382386606,472.5421858721387,8.20057841132235,3.4071691679735228,69.9917708347139,1.3454961520984431e-06,120.00000305929996,41.175744234065135,1.274,1.0264494137127138,0.0,0.0,0.0,0.0240995709751246,6.054779813287368e-09,-0.0032829112061357,2.580881224843564e-07,8.3609968899004e-05,4.54126394098788,47.82515604752711,8.2006542256977,41.13999323561041
0.23,31.22221430675399,131.0103954752338,3.843768625625224,4.52371495179584,0.0005047555656171,33.98493478127787,0.0007294889663961,3.2705214710765107,406.340642146096,8.647938096586296,3.5908865300848416,69.98989017772566,1.7539876018835507e-06,120.00000365514876,45.79040229326471,1.274,1.0264133390858623,0.0,0.0,0.0,0.0254142776666487,7.436335125872812e-09,-0.0038001790077148,3.1489825108822685e-07,0.0001020628978177,4.523714979897577,46.31461705147579,8.648017383405135,34.14194053232237
0.24,31.222214142622448,131.0103958120587,3.92493179063287,4.57837522350066,0.0005351929930195,35.051650311058864,0.0007555049947555,3.26053011385611,416.2328240017099,8.954297884844461,3.72617527247482,69.98771316795013,2.25257161141768e-06,120.0000043564586,49.09180568115741,1.274,1.0263750048312463,0.0,0.0,0.0,0.0263146218848643,9.034877387788232e-09,-0.0043732521010013,3.809642748985157e-07,0.00012161410144,4.578375254714954,45.32798984252032,8.954381952763216,35.20297212911011
0.25,31.22221397517227,131.0103961556623,4.0071748888306855,4.6034117733065,0.0005618935542827,36.03738579534623,0.000785606492708,3.249069743648399,425.3640807915084,9.311611941121669,3.8789349536029696,69.98520781816889,2.8559738498748624e-06,120.00000517181904,53.08749562138344,1.274,1.0263373768840591,0.0,0.0,0.0,0.0273647110956883,1.0873791100894836e-08,-0.0049950711786164,4.5609738277273444e-07,0.0001444478241125,4.603411807525074,44.2165428352526,9.311700203154778,36.183554686886296
0.26,31.22221379934012,131.01039651647062,4.09364247475714,4.621386912291471,0.0005881033207375,39.29107511182762,0.0008162761165496,3.236407051295005,455.80158342417656,9.67833954512075,4.034902068846398,69.98234620927953,3.5784678110229355e-06,120.00000612171208,57.350948423913096,1.274,1.0263006300381676,0.0,0.0,0.0,0.0284424679130479,1.2973286442992724e-08,-0.0056712051373577,5.414206381221602e-07,0.0001704578711045,4.621386949630312,43.12063533194282,9.678431924174348,39.42414126789902
0.27,31.222213616776543,131.01039689108487,4.183310605341074,4.617158109135719,0.0006115457810536,35.90419462403674,0.0008503454714941,3.221982799915672,423.8421996598744,10.088790784535757,4.205862468567124,69.97909721779352,4.436165972465058e-06,120.000007221354,62.31798301949865,1.274,1.026260090595354,0.0,0.0,0.0,0.0296487219805601,1.5355910600537293e-08,-0.0064045199323113,6.379142666348734e-07,0.0002006609239367,4.617158149547818,41.94410287616451,10.08888684592241,36.048472443180565
0.28,31.22221342607797,131.0103972823952,4.277051150896916,4.642105655370123,0.0006389739579882,41.51133203546672,0.0008785747638736,3.2071101123224945,476.3468732012228,10.432377224420517,4.35383399240675,69.97542808435722,5.446665372087172e-06,120.00000849080963,66.63429581008447,1.274,1.0262212716723291,0.0,0.0,0.0,0.0306584788590473,1.8045308789081613e-08,-0.0072006835403936,7.469524967369969e-07,0.0002332868227611,4.642105699250441,41.0023231023774,10.432477594215127,41.63503624837164
0.29,31.22221323001776,131.01039768469093,4.373143569786686,4.62134615173668,0.0006600657405645,33.17552944492765,0.0009148746278066,3.1894209319791806,397.9703104221098,10.876662296046485,4.536381530986506,69.9713027936179,6.629751536885327e-06,120.00000994797426,72.43000748232016,1.274,1.026183007522519,0.0,0.0,0.0,0.0319641703260467,2.1067646517035105e-08,-0.0080566154554079,8.688043379161898e-07,0.000272130659453,4.621346198772975,39.83162628795024,10.876765978930557,33.32848872465723
0.3,31.22221302403368,131.01039810736614,4.4744193758467325,4.664362353358112,0.0006905183788532,31.08096762732793,0.0009381960428197,3.172549142946348,378.1859457108735,11.168362145070317,4.66647911311536,69.96668711012893,8.005507138509574e-06,120.00001161892672,76.36634300732833,1.274,1.0261430389738484,0.0,0.0,0.0,0.0328214509167604,2.4447409007156216e-08,-0.0089829108229115,1.0056222251461646e-06,0.0003115527202986,4.664362404357781,39.09908960432563,11.168470611443622,31.242464973103964
0.31,31.22221281503337,131.01039853619727,4.576593712520673,4.700143580504286,0.0007196683316923,32.79732593144512,0.0009620705970519,3.154230688182399,394.1656220930229,11.470279728974068,4.800072153432283,69.96154070456518,9.597499105113692e-06,120.00001352112182,80.55022837857167,1.274,1.0261054058068628,0.0,0.0,0.0,0.0337087616009043,2.8214060606649844e-08,-0.0099686353219717,1.1565909895184251e-06,0.0003550834484269,4.700143635477137,38.36463422765983,11.47039277421126,32.94865339301887
0.32,31.222212598991007,131.01039897947376,4.68216432480395,4.718667719113184,0.0007464384342556,35.7316568886908,0.0009885845337584,3.133859770838664,421.5593934624264,11.808280530415894,4.946054328851105,69.95582953472353,1.14278227255889e-05,120.00001568218067,85.36654007972253,1.274,1.026068246703101,0.0,0.0,0.0,0.0347021168382987,3.2392058795580455e-08,-0.0110163301561155,1.3226102501723267e-06,0.0004039614423012,4.718667778018562,37.5686120062341,11.808397780690962,35.8688218659563
0.33,31.222212376029034,131.0103994369436,4.791055524254013,4.72141404831576,0.0007708346814671,35.42013590291081,0.0010176135371143,3.1111955852784385,418.5156301991632,12.181577273013426,5.104163223586657,69.94951809396906,1.351997394754887e-05,120.00001812674968,90.84831229869296,1.274,1.0260310883392356,0.0,0.0,0.0,0.0357992034445943,3.700677535501642e-08,-0.0121310534481307,1.5051409581878843e-06,0.0004588955105349,4.721414111097893,36.7208578211118,12.181698355442045,35.55651229220977
0.34,31.222212145785647,131.0103999093516,4.903491659547144,4.73024573449122,0.0007962944975467,27.63851074646407,0.0010446307681611,3.0871492806781062,345.4656368807584,12.53557620048282,5.2556261014174765,69.94256797855994,1.5899658158227497e-05,120.000020882338,96.20413272674828,1.274,1.0259901535019136,0.0,0.0,0.0,0.0368395817555172,4.208561016221623e-08,-0.0133180771902383,1.7057647550599631e-06,0.0005184333231541,4.730245801363397,35.94841996438923,12.535701282129995,27.810389570354005
0.35,31.222211909310875,131.01040039453565,5.018822212845608,4.780248518778662,0.0008286678570753,30.332092807652543,0.0010618579815451,3.063967690608957,370.5765700527057,12.774786382148209,5.367579971644358,69.93493776125636,1.8594985713558667e-05,120.00002397748868,99.9096898192772,1.274,1.025950003202184,0.0,0.0,0.0,0.0375426220587071,4.7658312175989686e-08,-0.0145774693288123,1.9252724355785177e-06,0.0005782798420984,4.780248590437683,35.44790728185619,12.774916548990808,30.486451961956565
0.36,31.22221166933814,131.0104008868675,5.135354490370708,4.798132156899578,0.0008554457330409,34.32674769697476,0.0010851169437774,3.0374319611165923,407.8625232777224,13.09301701329486,5.506730645516068,69.92658597246795,2.163521613217148e-05,120.0000274401514,104.94818266210537,1.274,1.0259105142325406,0.0,0.0,0.0,0.0384778908056978,5.3755109608570216e-08,-0.0158991451700967,2.162609490834569e-06,0.0006464142451675,4.798132232978766,34.796094028187134,13.09315138639638,34.46087058603792
0.37,31.222211421355144,131.01040139563804,5.255882891363927,4.797392186816851,0.0008791822061288,32.551601855236584,0.00111162791192,3.0078619428913056,391.1218908297639,13.457513730739372,5.661815946371007,69.91747693543164,2.5047738471809164e-05,120.0000313040604,110.87154396328836,1.274,1.025872170958032,0.0,0.0,0.0,0.0395491312153729,6.040098808671168e-08,-0.0172926678053148,2.420031948898497e-06,0.0007226353721561,4.797392267189059,34.07332166419882,13.457651832357364,32.69027405888565
0.38,31.22221116634284,131.01040191882743,5.379799334000849,4.811698494594017,0.0009057112478668,34.02947987649063,0.0011338447913587,2.9774881690446744,404.81876101445977,13.77554886562956,5.800899861213392,69.90756948297444,2.886339581486796e-05,120.00003560072224,116.17243393848278,1.274,1.02583050512925,0.0,0.0,0.0,0.0404838339452728,6.762496638941508e-08,-0.0187646375218858,2.69955777313946e-06,0.0008026686661094,4.8116985796350695,33.46655348088405,13.775691134419684,34.15949264475229
0.39,31.222210906095896,131.01040245274032,5.505993307722699,4.813508003664984,0.000929862892873,29.00025983045028,0.0011579891265804,2.9442136901860865,357.6406249338268,14.124492165837273,5.950648592462506,69.8968186645841,3.311602501056718e-05,120.00004036395212,122.13093644173792,1.274,1.02579027384009,0.0,0.0,0.0,0.0415093739609825,7.545934774906889e-08,-0.020311592409804,3.0013532510753577e-06,0.0008908380763632,4.813508093268025,32.821616487639595,14.124638228358922,29.149330452482886
0.4,31.222210638473225,131.0104030017851,5.635788650457906,4.841647069358873,0.0009592124397379,27.71178845184976,0.0011749448424961,2.91135549588368,345.4656368807565,14.390874239274588,6.07193451174791,69.8851815212744,3.783947407715338e-05,120.00004563180136,126.77947425345651,1.274,1.0257493418632293,0.0,0.0,0.0,0.0422922854866381,8.39343718693383e-08,-0.021938519432511,3.3271332720311508e-06,0.0009803271643914,4.841647164150728,32.348088166612904,14.391024912012275,27.864299944624147
0.41,31.22221036681104,131.01040355909262,5.767123077463226,4.86553909860892,0.0009876699832274,31.306062598221665,0.0011918093836199,2.876450850006428,378.9468707766882,14.663028799871563,6.195223154320929,69.87261222561014,4.307011032901644e-05,120.0000514391194,131.6183642808765,1.274,1.025708445186429,0.0,0.0,0.0,0.0430921644173401,9.308325447883581e-08,-0.0236371933433427,3.6760977501392174e-06,0.0010761942383903,4.865539198612839,31.87689439156756,14.663183942709727,31.437931330109585
0.42,31.22221008906472,131.01040412887247,5.901259531771367,4.867510642114694,0.0010118258958528,35.308283402190774,0.0012128114559048,2.8374461227958245,416.23282400171047,14.9952917972178,6.33928625560071,69.85906967380902,4.884273094936628e-05,120.00005782486392,137.64909586091787,1.274,1.0256701057426505,0.0,0.0,0.0,0.0440686959134695,1.0293499639582845e-07,-0.0254093547296826,4.049238334851429e-06,0.0011830797791891,4.867510747027452,31.315270489291198,14.995450734457847,35.422111438762386
0.43,31.222209804115888,131.01040471342728,6.038886819939341,4.854590670645608,0.0010330089741511,31.00586934514032,0.0012363751872706,2.794478603999558,375.90313951343126,15.369430568701889,6.497852263156962,69.8445117629242,5.519340856908871e-05,120.00006482835984,144.60167924299955,1.274,1.0256308158337524,0.0,0.0,0.0,0.0451682983415116,1.135186446762958e-07,-0.0272634397889413,4.449073329427772e-06,0.0013010625065656,4.854590780289497,30.70250814963406,15.369592833372094,31.13154422839874
0.44,31.22220951192321,131.01040531284193,6.180028459770617,4.866912332640401,0.0010595850174406,28.57707721036899,0.0012525768202179,2.752165534925872,353.07501253892326,15.659290812546615,6.627318538707029,69.82889155423543,6.216182865383864e-05,120.00007249162944,150.1053167542629,1.274,1.025586171750536,0.0,0.0,0.0,0.0460202245100907,1.2486676023179565e-07,-0.0292060158163984,4.8779154055816594e-06,0.001420032405556,4.866912447705031,30.24619499837236,15.659457251771938,28.709297424144207
0.45,31.222209215425703,131.01040592106523,6.322872201489905,4.881836476567178,0.0010866574689855,33.31904824532484,0.0012669045761511,2.7082028218433374,397.2093853562887,15.934249290371609,6.751662050993672,69.81215834018458,6.97909417564726e-05,120.00008085697964,155.42080512416243,1.274,1.0255397023523487,0.0,0.0,0.0,0.0468283602442113,1.3701614206272197e-07,-0.0312276295846745,5.334643585560923e-06,0.0015449645531859,4.8818365972149325,29.82567893138932,15.934419982127675,33.428929688274074
0.46,31.22220891307435,131.0104065412864,6.468371919199588,4.869610441729251,0.0011078049156487,38.95909776354321,0.0012868374716666,2.6582856015412624,449.7140588976424,16.292139278621757,6.904766425053949,69.79426683863348,7.812149592850748e-05,120.00008996920153,162.4785746623087,1.274,1.02549635315424,0.0,0.0,0.0,0.0478802236363867,1.499987870203256e-07,-0.0333272350234362,5.819761874615242e-06,0.0016858511402973,4.869610567434908,29.29014635640275,16.292313292210977,39.04968351401366
0.47,31.22220860266524,131.01040717804253,6.6178810515614845,4.838450928223533,0.0011247917292402,26.253747818137555,0.0013104398935566,2.6026193242279367,331.0078106302504,16.710658191447514,7.078951441335346,69.77517236812905,8.719457259907165e-05,120.0000998741591,170.9309671061642,1.274,1.025453319323251,0.0,0.0,0.0,0.0491102725711187,1.6384464803343264e-07,-0.0355167087264168,6.3368207228363735e-06,0.0018427306558807,4.838451058652396,28.68386015667837,16.710834873319172,26.382435512333956
0.48,31.222208284201663,131.0104078313267,6.771393590864176,4.869339340099417,0.0011561785713505,25.860860976019296,0.0013165328518772,2.5543454292827983,327.20312230115803,16.911139899671,7.177575416403102,69.75482343794755,9.70562828082882e-05,120.00011062072316,175.0543877818846,1.274,1.0254092882449153,0.0,0.0,0.0,0.0496995461609974,1.7858865391586845e-07,-0.0378054080201581,6.88909442277235e-06,0.0019849793891693,4.869339477030596,28.40887970825325,16.911321511776286,25.986704537635287
0.49,31.22220796480208,131.01040848648364,6.924537656029012,4.881367714530694,0.0011829003785372,32.565703383222065,0.0013261973190012,2.5011623511055703,389.6000096981238,17.169005224738054,7.296160258358563,69.73316318155707,0.0001077573203115,120.000122255028,180.4309832312717,1.274,1.025367445590036,0.0,0.0,0.0,0.05045746454003,1.942747077649401e-07,-0.0401641298712614,7.47069711110948e-06,0.002140948887153,4.881367857509675,28.058569663954906,17.169191034294997,32.66161128464712
0.5,31.222207637929923,131.01040915697027,7.081324512896956,4.862566137860805,0.001202418260511,33.47759680712428,0.0013425340759632,2.4399894027711366,397.970310422106,17.52898693231981,7.450304424940405,69.71015149227495,0.0001193385310595,120.0001348274002,188.0736471953394,1.274,1.0253278572281015,0.0,0.0,0.0,0.0515154948878309,2.109295159784217e-07,-0.0426011733481599,8.084173008518589e-06,0.0023184335011768,4.862566286171007,27.57768313050809,17.529175807738486,33.56639745442473
0.51,31.22220730314019,131.01040984370235,7.24202048914867,4.8479762258125,0.001223054804074,25.49162310288008,0.0013562860883156,2.3767006597692686,323.39843497208153,17.86914397471067,7.597652147346554,69.68574349602717,0.0001318441288964,120.00014838524436,195.4407439266201,1.274,1.025286455263166,0.0,0.0,0.0,0.0525152689856776,2.2858192086249162e-07,-0.0451315948093539,8.734206149830708e-06,0.002503767471626,4.847976379721193,27.13799345359824,17.86933609171003,25.602178740977283
0.52,31.222206962738102,131.01041054193402,7.405210501673173,4.865306299521403,0.0012516517170965,30.733671928447727,0.0013599291289974,2.317711624364424,372.098451184342,18.08534843773428,7.701914987606457,69.65988568649581,0.0001453248538387,120.00016298000436,200.19561780583155,1.274,1.0252426840672306,0.0,0.0,0.0,0.0531507657929359,2.4726951523704535e-07,-0.0477531686556663,9.421346966092632e-06,0.0026812161964639,4.865306460134566,26.8699055233151,18.085545046726228,30.820940596104087
0.53,31.222206619320115,131.01041124632013,7.569307468221277,4.848802699234936,0.0012715119568563,32.301199055744725,0.0013711327835325,2.2490252325653923,386.55624643486095,18.41963113311156,7.8474319110539055,69.6325258319474,0.0001598315062727,120.0001786629144,207.6614205945027,1.274,1.0251993415311351,0.0,0.0,0.0,0.0541332845214831,2.67031759303889e-07,-0.0504479325599339,1.0141887756417996e-05,0.0028848299490111,4.848802865552398,26.45837260670532,18.419830861742675,32.37940050117613
0.54,31.22220626697288,131.01041196903336,7.737918664599091,4.831496690588052,0.0012913635058467,28.31291960103712,0.0013809098107221,2.177242866245296,349.2703242098436,18.75116898748492,7.992112829440902,69.60362200959217,0.0001754082864028,120.00019548734956,215.20067397992847,1.274,1.0251561018460285,0.0,0.0,0.0,0.0551077428911958,2.878941684235108e-07,-0.0532336286085667,1.090122304443916e-05,0.003098869611663,4.831496862756785,26.061835558272342,18.751371834390056,28.396510432451375
0.55,31.222205908994248,131.01041270328463,7.909026079894722,14.193861641631903,17.30827178555825,30.54741720668075,-1.1206419029467845,1.502983954635326,365.2500005919912,21.8890205352718,8.113323699629928,69.57312211246325,0.0001921068626005,120.00021350480982,293.246240929438,1.274,1.025112921033824,0.0,7.519210697837553,0.0,0.0643296876565522,3.0989272306468813e-07,-0.0561100530405476,1.1700476995263424e-05,0.0038128415497007,22.245252871972426,41.161555875709446,24.566634922506456,30.604893351252613
0.56,31.222205546564343,131.01041344664463,8.081909946161325,17.3777611574764,13.511112184011647,28.546861649566505,-1.2251566687432156,0.9915959603174994,346.22656194657776,22.770292108216864,8.24480645417527,69.54097415464405,0.0002099796112633,120.00023276987916,317.32902021495335,1.274,1.0250709539098009,0.0,7.546643356335294,345.0001478400497,0.0669197890149433,3.3296850471894137e-07,-0.0663687823322451,0.0135876122741358,0.0046914489181714,21.88341839242412,38.52209558885544,24.87299761293547,28.59034070190446
0.57,31.222205179969823,131.01041420541662,8.258425056245468,17.220627642494073,13.366165787498376,28.254214477299666,-1.4693042198253512,0.6878109750170449,343.1828296833045,23.045041269262505,8.360670969850228,69.50294694945941,0.0210379424507234,120.02246589255763,325.0275739955003,1.274,1.0250279191823897,0.0,7.573861694433826,345.0001478400497,0.0677273863291194,3.676386261013405e-07,-0.0802635160921736,0.025256661995055,0.0057419955345821,21.674245454171373,38.13156807063154,25.125602058784445,28.300752190657416
0.58,31.222204808629392,131.0104149727561,8.43686248502043,17.057655410108218,13.212789351954914,37.20713436669538,-1.7218300942044396,0.3722947534868871,426.12500585731766,23.32522868905533,8.47978831936211,69.45694992608577,0.0596148957894167,120.06365655751276,332.9734497433624,1.274,1.024981594484354,0.0,7.601138657571382,345.0001478400497,0.0685509709510988,4.144156205496544e-07,-0.0943927803738845,0.0370843834789425,0.0068347782261244,21.455415534037076,37.73146951895418,25.38234233696655,37.248814075593145
0.59,31.222204432666544,131.01041575253367,8.618041561675197,16.79123246429123,12.985016376715436,30.202937521765683,-1.9947018995294263,0.0238372917771218,360.68438819710633,23.731884101244766,8.646579835309094,69.4028351126176,0.1160127317420215,120.12389514428224,344.67887495313727,1.274,1.0249386802161349,0.0,7.628232724887802,345.0001478400497,0.0697462410515652,4.7346196723819963e-07,-0.1087583549556211,0.0490665268646489,0.0080121123654695,21.111249889991228,37.14022504758171,25.75415022227525,30.268743595136996
0.6,31.222204048161608,131.0104165518393,8.804173799136441,16.629043884215044,12.83333894612224,26.88133419350743,-2.2650733411467936,-0.3148186961407303,329.4859594986072,23.99897319791456,8.760815922321758,69.34044703409386,0.1902516781789275,120.20322006985222,352.4745693832436,1.274,1.024891335813742,0.0,7.655265251591664,345.0001478400497,0.0705313441274269,5.449334782794939e-07,-0.1234415340121784,0.0612636230757587,0.0091959879060502,20.893872604590214,36.75997682091924,25.998016068474826,26.978432053684024
0.61,31.22220366237113,131.01041735586767,8.990892457054729,16.471582853365057,12.685688235711195,31.50053875110733,-2.5414232291165,-0.6610825488195521,372.0984511843332,24.25240776012659,8.869979210857304,69.2695768468824,0.2823969812817887,120.30172119533786,359.95184473601586,1.274,1.0248423929069768,0.0,7.682550489910211,345.0001478400497,0.0712763211431951,6.290672370174745e-07,-0.1383392764436929,0.0735948866747388,0.0104144657354245,20.682539368708152,36.39749414353317,26.22883045138664,31.60980550044339
0.62,31.222203271722808,131.01041817190605,9.180328863172456,16.249437741368762,12.491533994345708,39.14868637107035,-2.8355993074319525,-1.0347782998630473,442.86563930529206,24.586094618428174,9.009718066896085,69.19006815107898,0.3923440299629122,120.41931028817244,369.918352353182,1.274,1.0247996097896497,0.0,7.709445212121706,345.0001478400497,0.0722571605271195,7.260087896376708e-07,-0.1534356452460568,0.0860466275667478,0.0117096670557213,20.39272951266736,35.91820993477409,26.53275280800076,39.26488296356689
0.63,31.222202874262656,131.01041900389168,9.37361997397973,15.9636092846298,12.251746850457508,22.29904136432756,-3.1524760102746545,-1.4422962830077315,286.11251274707456,25.0060021564068,9.182323699357102,69.10176709091732,0.5199211916940273,120.55583080675808,382.65487324947,1.274,1.024756158874558,0.0,7.736247721484365,345.0001478400497,0.073491405608664,8.358840020995233e-07,-0.1687775881694845,0.0986526990161881,0.0131002539405118,20.02563480000008,35.32276027562138,26.915869351893388,22.566913154690134
0.64,31.222202469060587,131.01041985362923,9.571274602821664,15.861367053396089,12.145289394334666,21.91767505278992,-3.4382343997034,-1.7980452853878215,282.3078244179702,25.152886594713905,9.251651165249136,69.0044861632358,0.6649605909058043,120.71113363999748,387.1561324616216,1.274,1.024708534665538,0.0,7.763127330412651,345.0001478400497,0.0739232565537418,9.588550882355598e-07,-0.1844158896022485,0.1114499108552772,0.0143978817173949,19.88195890555867,35.096344159357905,27.04640906120358,22.258456872732637
0.65,31.22220206639192,131.01042070035504,9.767270747057696,15.701200905120464,11.997264493808109,38.58429783581328,-3.739521172523156,-2.178101152304003,436.7781447787504,25.373678645928848,9.349297562235522,68.89800182429073,0.8273005339534671,120.88507985016548,393.9754627283616,1.274,1.0246641738210605,0.0,7.7901430201496735,345.0001478400497,0.074572319823473,1.0951611155074087e-06,-0.200153204180256,0.1242862748976726,0.0157634124631938,19.668006547778656,34.764733960666526,27.24446355865624,38.826230601388055
0.66,31.222201656987146,131.0104215626862,9.966993760592954,15.378909363465672,11.73214874097483,32.86490604114388,-4.0906795038399375,-2.633764904162764,383.5125151715984,25.83165993172309,9.53795951909953,68.78219838198805,1.0065108897624364,121.0772463374536,408.3180737945912,1.274,1.0246195561629028,0.0,7.816476813549162,345.0001478400497,0.0759184812414981,1.2448462493710983e-06,-0.2160315041834829,0.1371922215981462,0.0173206957190732,19.25677843995117,34.122238447534684,27.661690291808704,33.22307068088004
0.67,31.22220123652628,131.01042244903687,10.172833763316712,15.156174777312843,11.539396602483269,22.71308979619987,-4.42379737584719,-3.060259721267895,289.15624401033847,26.13065102852688,9.666310203344496,68.65693021121538,1.2021654151171657,121.28721719580057,417.81675381419967,1.274,1.024572383541697,0.0,7.842863914343529,345.0001478400497,0.0767973855301456,1.407965211229778e-06,-0.2322022375764437,0.1502803835034588,0.0188323264719518,18.96677536060934,33.685112900134214,27.93102618344541,23.34137144373496
0.68,31.222200815214183,131.0104233390618,10.378934541648348,14.99960966367136,11.394883913340884,28.308880027674768,-4.739627422599685,-3.460680979928535,340.89999248584934,26.313142836125447,9.75029448176248,68.52195792356123,1.4139569946348571,121.51470758921349,423.66466292515776,1.274,1.0245245285832842,0.0,7.869593098407222,345.0001478400497,0.0773339045879755,1.584748478468532e-06,-0.2485446126435508,0.16345736924745,0.0202981204834321,18.75750500429557,33.38827100111475,28.091271114169054,28.91077773722425
0.69,31.22220039154564,131.01042423577175,10.5861676501469,14.757905353307356,11.188955463642456,34.8034796327995,-5.0876137373929256,-3.9091227104577766,401.0140726853658,26.62316449389168,9.883983350807563,68.37710683691148,1.6414029811012725,121.75924751979872,433.6980845028237,1.274,1.024479631064582,0.0,7.8959041322356285,345.0001478400497,0.0782452361955493,1.7753266097893803e-06,-0.2649682439329412,0.1766533826865155,0.0218939241636987,18.4445272880061,32.93050472898158,28.36957179105217,35.38993145595249
0.7,31.222199959508742,131.01042515075207,10.797812433417128,14.472538396746604,10.951677958798724,29.226874436612963,-5.459253880191221,-4.392041033611105,349.270324209851,26.99945310334357,10.044063616336471,68.22225042380478,1.8838875078220163,122.0202265744466,446.0353310638283,1.274,1.0244351749185203,0.0,7.9219468372515855,345.0001478400497,0.0793513344325274,1.97971471800396e-06,-0.2815466689911583,0.1899219961502905,0.0235921021973604,18.078321216832684,32.39346213232752,28.709282500575803,30.055010675473845
0.71,31.222199520593392,131.01042608087664,11.012949490467848,14.245409275584915,10.756751497991695,24.055796421852367,-5.812807259961639,-4.848559622455113,301.3312640634036,27.266058004198328,10.16219585134438,68.05721503948635,2.1408373184089777,122.29708271128436,454.87813642611593,1.274,1.0243880468141104,0.0,7.948119124296016,345.0001478400497,0.0801350801565413,2.1979948986168186e-06,-0.2983099580846918,0.2032838603542332,0.0252430840513212,17.783130623765963,31.98225915261221,28.945816227690592,25.21861614251603
0.72,31.222199079200458,131.0104270176357,11.229168973078515,14.03735133071323,10.57575156744816,29.393270621469167,-6.159129173373635,-5.295360390004484,350.7922053414578,27.485775775858432,10.262624580335023,67.8818054194072,2.4116753809302782,122.58925243373744,462.22915588860224,1.274,1.024337302174265,0.0,7.974247589268093,345.0001478400497,0.0807810288314725,2.4303118525526505e-06,-0.315170194863883,0.2166711568398674,0.0268841574521788,17.511193032379104,31.618746601490937,29.13759384648556,30.49491878430328
0.73,31.22219863376377,131.01042796396507,11.447292910165046,13.767656227692944,10.350379421793496,37.10761430519769,-6.537131593271162,-5.788571781593752,422.3203185282354,27.80684256187329,10.40364611278979,67.6958747816487,2.695705619103926,122.89604619713204,473.0810984701616,1.274,1.024292465384646,0.0,8.000102504968545,345.0001478400497,0.0817248491248569,2.6767276230012486e-06,-0.3320820327100962,0.230048223364172,0.0286570347787319,17.164043506560507,31.13834305206009,29.423847928847984,38.12107936774246
0.74,31.22219818021505,131.01042892727955,11.66936480218473,13.44908806912591,10.089935285569744,23.283365327676265,-6.947049140401484,-6.327924541082377,294.4828134710563,28.21369495905106,10.579605228659055,67.49930088379273,2.99216455101698,123.21670341355951,487.01564435627887,1.274,1.0242470321640116,0.0,8.025785338943598,345.0001478400497,0.0829208039511752,2.9372268591997225e-06,-0.3490957799453225,0.2434509280905124,0.030565358784075,16.757213983605517,30.565566637891965,29.79043900776828,25.10815050414552
0.75,31.22219771816992,131.0104299079852,11.895457858779244,13.24386224156589,9.911331395653088,27.12729987874151,-7.294250569149715,-6.779018275113918,330.24688556441737,28.38601371093804,10.663277372233416,67.29192996355152,3.300318953772857,123.55049766981128,492.97212902986047,1.274,1.0241984712898409,0.0,8.051512885301573,345.0001478400497,0.0834274661732763,3.211832497788032e-06,-0.3662490681874428,0.2569055235101738,0.0322623828158962,16.48863541144842,30.23591948496029,29.93512901026828,28.897259019689717
0.76,31.22219725759088,131.0104308878012,12.120522668021882,12.971281519321495,9.684356530272428,29.15407236909856,-7.680708873268013,-7.287210638515527,349.2703242098581,28.68048613384441,10.796535636281051,67.07358434129365,3.6194532104722494,123.89672306977135,503.24234846501287,1.274,1.0241522053390697,0.0,8.077262658276803,345.0001478400497,0.0842931447399692,3.5007031437823686e-06,-0.3833728033263408,0.2702842111301732,0.0341203852450657,16.13784637362346,29.775013798735724,30.19446835340375,31.017038275577313
0.77,31.22219678711013,131.0104318872231,12.350177032572352,12.68716438418369,9.449017398507712,27.22551757169449,-8.075168993753913,-7.808066276048611,331.76876669606884,28.986326630828103,10.935548467475282,66.84418683226374,3.9486825871462687,124.25449120058448,514.0211031917648,1.274,1.0241065975906936,0.0,8.10250876713278,345.0001478400497,0.0851922434432139,3.8037395948259214e-06,-0.4005275911372032,0.2836307110986971,0.0360265072683004,15.77280504532139,29.29888494927113,30.463855997648217,29.45170725604031
0.78,31.22219631118097,131.01043289793503,12.582105952462438,12.414444219098815,9.222043012403493,22.327181197181247,-8.461068933869555,-8.318408275415688,286.8734378128874,29.25562845157425,11.060811347638213,66.60362452006122,4.28717612573856,124.62297215885268,523.6049900805517,1.274,1.0240588105546735,0.0,8.127883096208397,345.0001478400497,0.085983959762949,4.120927211408646e-06,-0.4177002013008225,0.2969332823611943,0.0379193586288177,15.421645327826424,28.855294380781487,30.69797700172966,25.284157568563767
0.79,31.222195830416485,131.0104339187336,12.815969312104365,12.16197286276434,9.009622414645202,31.659369753470056,-8.827396367556732,-8.803152416132676,373.6203323159581,29.46429470924865,11.162314037876683,66.3517933791282,4.63409030407329,125.00132234568424,531.088942604276,1.274,1.0240083170932772,0.0,8.153124595009606,345.0001478400497,0.0865974702737162,4.452259009344104e-06,-0.4348481627888865,0.3101590486053579,0.0397567433852098,15.095100597240044,28.46411094216972,30.873697751213843,34.0254920945833
0.8,31.22219534601824,131.01043494742626,13.051165389757813,11.83440380267644,8.743356984512545,32.00941601364049,-9.252351495593224,-9.371737430217747,377.42502064505805,29.832646863111503,11.330755889896547,66.0886166694455,4.988549988050616,125.38866316192484,544.4386210638216,1.274,1.0239625010683884,0.0,8.178153915988776,345.0001478400497,0.0876803137694514,4.797706313911325e-06,-0.4519145856916204,0.3232645189661889,0.0418326570380484,14.676767001363814,27.920146152095366,31.200725991747536,34.61268819657403
0.81,31.22219485003792,131.0104359973367,13.291214228150691,11.518815980686332,8.485730044799224,20.7400739347136,-9.666949372027895,-9.927699357006048,273.9374926939922,30.162215568945182,11.4847077367858,65.81405471164273,5.349644210719419,125.78407564348164,556.5213350770819,1.274,1.0239149950770308,0.0,8.20294636137749,345.0001478400497,0.0886491801957164,5.1570823623924095e-06,-0.4689736046570971,0.3363028396227636,0.0438903386857926,14.272931606179306,27.41042798367221,31.4902833297092,24.943131148711768
0.82,31.222194348828044,131.01043705737956,13.533130234627489,11.26309444654426,8.27105842255293,26.59413648793134,-10.01908053594151,-10.39884407661352,328.725004432774,30.327690950408023,11.571188020522172,65.52802573909669,5.716539645551531,126.18672420645356,562.6313681260543,1.274,1.0238644186635044,0.0,8.227878387157908,345.0001478400497,0.089135768949129,5.5303540467042765e-06,-0.4859775089631755,0.3492372308500249,0.0457301598764262,13.942130927226351,27.041214328839025,31.6223980786552,30.26162633524714
0.83,31.2221938466534,131.01043812048584,13.775060638028952,10.945788663206905,8.012355176794497,33.75609039987424,-10.424519833414353,-10.946440790369431,395.6875032246518,30.63412590582786,11.718247338297596,65.23048034182982,6.088381537808523,126.59574800744733,574.0452738578542,1.274,1.0238188483711983,0.0,8.252636183111731,345.0001478400497,0.0900366541733121,5.917525674889009e-06,-0.50280859763976,0.361980226917998,0.0477909101381322,13.53603378599372,26.54492556871844,31.888605644751355,36.986062494117895
0.84,31.22219333295683,131.01043920376927,14.021445788818246,10.595294955148471,7.729980581307443,20.634684549274404,-10.862463686645052,-11.541452371914934,275.45937482564227,31.017923139890904,11.900043117299624,64.92144551465148,6.464249146847138,127.01021095594872,588.5052138985592,1.274,1.0237739661568126,0.0,8.277035623415188,345.0001478400497,0.0911649247260838,6.318322965271422e-06,-0.5195243499306529,0.3745726410058146,0.0499971743556968,13.089285161165824,25.982514387900697,32.228465518890424,26.019001645815067
0.85,31.2221928097526,131.01044030346543,14.271240825032768,10.320263889026732,7.501456969601738,22.424966539951047,-11.205731903528973,-12.00764085654065,292.9609323393965,31.17695273258853,11.986859487488436,64.60091786234422,6.843298207802315,127.42925783399104,594.5409801323996,1.274,1.0237227741398531,0.0,8.30152653906099,345.0001478400497,0.0916325876025336,6.732542845241705e-06,-0.5361407089352288,0.387024468492189,0.051859564803742,12.734564252865756,25.600518232487943,32.35191536450786,27.796240586657674
0.86,31.222192287885868,131.0104414022827,14.520005103199477,10.006741282290424,7.245560698987875,28.07946525075628,-11.582990880256895,-12.523581652414215,346.2265619465616,31.427539228535927,12.114437414353295,64.26888901347711,7.224727373662712,127.85207745083862,604.1222688000511,1.274,1.023674789281455,0.0,8.325960959199747,345.0001478400497,0.0923693488860401,7.160203909027734e-06,-0.5525098027205982,0.399227172264736,0.0538711701115715,12.332784968326012,25.13996975332947,32.5626381987162,32.85516921133157
0.87,31.222191755486687,131.01044251877752,14.77245621691083,9.662843157628211,6.968054954645304,25.97078249975092,-11.99028801547081,-13.083822727327238,327.9640783669946,31.75372475350129,12.276871226092751,63.92544771277298,7.6076663431198845,128.27777808879813,616.7127301267005,1.274,1.0236288969245204,0.0,8.34994794023209,345.0001478400497,0.0933283135256974,7.600979667478439e-06,-0.5686568556168521,0.4111981139275864,0.0560196601738676,11.893808197741494,24.61773664244508,32.84556816072213,31.455285207790382
0.88,31.22219121381129,131.0104436505127,15.027908109441858,9.332678068958227,6.700393136818446,22.20247936125812,-12.368830380817284,-13.607042751686912,294.4828134710421,32.02325675116299,12.41612010741532,63.570673318986806,7.991307394149818,128.705532452644,627.2113399982343,1.274,1.0235805388426191,0.0,8.373947143980645,345.0001478400497,0.0941207742801352,8.054561512447312e-06,-0.5845935291796969,0.4229442793771422,0.0580770250317777,11.471531376586322,24.136666154279705,33.07335471708105,28.82862582959439
0.89,31.22219066684517,131.01044479121975,15.284765025293604,9.010311591835162,6.43828105769188,24.283248470973657,-12.72176949115798,-14.09772051714002,315.02813424808807,32.24961461996262,12.537682944852284,63.204644151413774,8.37489446716489,129.1345656353737,636.0939317837158,1.274,1.0235293752791452,0.0,8.397890273040222,345.0001478400497,0.0947863460127971,8.52075140138513e-06,-0.6002632897495122,0.43442397086701,0.0600537955059035,11.058689811723395,23.68400695478165,33.25881048534836,30.826373433613515
0.9,31.222190113897728,131.01044594183156,15.543245079581768,8.667837269895923,6.162045433019058,26.765451238982333,-13.091844805940688,-14.615079261912088,339.3781423542166,32.52692962290228,12.683873654970448,62.82748025659528,8.757680520978601,129.56410724790476,647.064469717791,1.274,1.0234837388140003,0.0,8.421628890792666,345.0001478400497,0.0956016942777112,8.999294551486957e-06,-0.6156182732255593,0.4456020172927849,0.0621180679118936,10.621293257342415,23.191864220336253,33.492996593292744,33.18714091754742
0.91,31.222189551396603,131.01044710734195,15.804533621257931,8.313296798978985,5.877451601133874,19.907722513488388,-13.469071977495156,-15.145403859408452,277.7421810230785,32.8326646183007,12.845011523971216,62.43933847215781,9.138938451831145,129.9934030020503,659.2691842248324,1.274,1.023436404813438,0.0,8.445186668700476,345.0001478400497,0.0965005813692194,9.489805879899432e-06,-0.6306547862618661,0.4564747433130358,0.0642318299864363,10.169189558315956,22.67869431124256,33.75427424568608,28.409797142422228
0.92,31.22218897984031,131.01044828668398,16.06832028756113,7.983622264245572,5.610292064332317,23.777348962751685,-13.7837304403647,-15.59226090475918,315.0281342480675,33.027180349420945,12.956801606738171,62.04038486809287,9.517990727474103,130.4217476849601,667.0870489375648,1.274,1.0233859136578225,0.0,8.468672844177584,345.0001478400497,0.0970725838915197,9.991906305805513e-06,-0.6453564714331221,0.467029406652521,0.0661169230299161,9.747281735784664,22.23848720066734,33.90703539102339,31.598609916754036
0.93,31.22218840517007,131.01044947124012,16.33251553122965,7.625759261045501,5.323648121155821,28.379532186665696,-14.1348240650032,-16.09273438080219,359.16250706547066,33.314807112043454,13.113596079635698,61.63080266786363,9.894201781792209,130.84847655345592,678.7394624858648,1.274,1.0233407575091376,0.0,8.492059003085346,345.0001478400497,0.0979182604790195,1.050534571308527e-05,-0.6596458770294334,0.4772105728640332,0.06816769400637,9.29116744199379,21.735069092218826,34.14984108513289,35.55512900178596
0.94,31.222187818082404,131.0104506738979,16.60015541095332,7.252465696800456,5.026502302637557,19.91744942148492,-14.503033644911316,-16.62026671531904,283.06875048378083,33.653752820865826,13.296899695256387,61.21083105341835,10.266945906316824,131.272928630561,692.6029422650465,1.274,1.0232914783978162,0.0,8.515162942351372,345.0001478400497,0.0989147820939258,1.1029587185229327e-05,-0.6735345068960306,0.4870253875356122,0.0703092775799385,8.816395630952119,21.199474376581776,34.442301552131944,29.719960330578868
0.95,31.222187220109685,131.01045189207818,16.87056057535149,6.908529341437824,4.749730433539641,26.159102947977274,-14.785685329481568,-17.032567218742592,342.421873617488,33.847118086923885,13.41310689358228,60.7807089130828,10.635658503425876,131.6945046060718,700.5666282286346,1.274,1.0232418269359267,0.0,8.538253447752897,345.0001478400497,0.0994834229225159,1.1564130880245426e-05,-0.6870118356616365,0.4964651397566615,0.0721263444486932,8.377244769705428,20.75343812718656,34.592349756553205,34.54017231813276
0.96,31.22218661981824,131.01045311398784,17.140969411513403,6.53172906201067,4.450742394121264,25.363432869491184,-15.1274395521609,-17.53024940237482,337.09533515678265,34.17733814277775,13.597033878327014,60.3406885728745,10.999821787001412,132.11265079724984,714.2845301392657,1.274,1.0231951201821403,0.0,8.56126979927,345.0001478400497,0.1004543119440887,1.2108703999461711e-05,-0.6999909431646029,0.5054689165282819,0.0742040113999865,7.898523291044426,20.22535133718717,34.87575622940966,34.34316232438316
0.97,31.222186003302507,131.0104543581032,17.41560462026901,6.1604789790206045,4.155751440155186,15.132831272986897,-15.435981721603016,-17.985417116454094,245.0218871929888,34.46738724929754,13.764039198375109,59.89108443715915,11.358927870616345,132.5268166456185,726.4404955888026,1.274,1.0231476260761452,0.0,8.583972018777937,345.0001478400497,0.101307140578916,1.2662604888131042e-05,-0.7124930537705048,0.5140501196288213,0.0761683013822614,7.4266509654656385,19.72227465157633,35.11959894589832,28.120230135957147
0.98,31.222185379471703,131.010455612196,17.691608733283626,5.813071922751453,3.877013143591419,23.01084391397168,-15.651791819127329,-18.31514313449115,319.593746642963,34.61196071016894,13.861367580900064,59.43220400800462,11.712532423349282,132.93651622000323,732.5279680707533,1.274,1.0230935628253934,0.0,8.60672458175688,345.0001478400497,0.1017323902134011,1.3225364871719282e-05,-0.7244712092797179,0.5221753351163593,0.0777716106577882,6.983653050244756,19.30087939859702,35.22049587155679,33.31549178414401
0.99,31.222184753390984,131.01045686968263,17.967505320738518,5.432245801791724,3.5762562384728733,25.17079790344243,-15.944257322482468,-18.75502192495184,341.66094855170127,34.92706299504402,14.045405352806764,58.96439118253033,12.060220319770364,133.34128883899666,745.9065725154755,1.274,1.0230490803133316,0.0,8.6292929912905,345.0001478400497,0.1026588667629603,1.3796628470852672e-05,-0.7358498074632916,0.5297931217910778,0.0797101268849754,6.500811340604295,18.78720725569243,35.48845532068554,35.20709099126058
1.0,31.2221841093864,131.010458150435,18.24767220744637,5.050694262948482,3.2754216229657462,21.947296891798644,-16.21933339794512,-19.174487753379204,314.2672081822764,35.23794082904064,14.230183226894216,58.48804451856194,12.401595580845113,133.7406870955693,759.2235257476907,1.274,1.022999484445133,0.0,8.651563373709344,345.0001478400497,0.1035729373773446,1.4375522560447166e-05,-0.7466541142624498,0.5369188831157619,0.081598194795486,6.017482037775299,18.279494688621767,35.75216266354292,33.352834922011375
1.01,31.222183456129745,131.01045944297894,18.52949914360971,4.676125382359007,2.979642983640204,22.85760293441114,-16.446795127686876,-19.531302626766376,324.92031610370094,35.49291235565835,14.388990488160674,58.00355250054454,12.736322917484191,134.13432535660792,770.2294695904257,1.274,1.0229507481225095,0.0,8.673888887935657,345.0001478400497,0.104322692878545,1.4961429984020972e-05,-0.7568509308318769,0.5435289365320121,0.0833087843465676,5.5429862376923005,17.80396165405305,35.960742641828965,34.27008701736307
1.02,31.222182794489303,131.01046074612995,18.812712429934685,4.295329343430724,2.680337236802413,18.215049156030165,-16.674438211466345,-19.89217137787106,284.59063161543185,35.78027774059036,14.566896894897166,57.511330672950784,13.064100381285051,134.5218482429447,782.7308649093802,1.274,1.0229039803623294,0.0,8.696061606918661,345.0001478400497,0.1051676688823384,1.5553787406658896e-05,-0.7663946903303093,0.5495923817817963,0.0850399884783875,5.061679177559628,17.316233801627984,36.20115058120584,31.709988766178977
1.03,31.222182119822545,131.0104620653732,19.09844964462605,3.922156065827472,2.386288698761087,13.90120749864608,-16.843062131733557,-20.174255572144872,247.3046933904342,35.99657119312713,14.710170065448755,57.01182930235651,13.384654643967664,134.90292512552554,792.2010163334932,1.274,1.022853416101322,0.0,8.718063496670812,345.0001478400497,0.1058037534876588,1.6151848174024025e-05,-0.7752637675852326,0.5550935284613175,0.0865417556815821,4.590074454087308,16.86639766563142,36.371300188975546,29.731009060979908
1.04,31.22218143856663,131.0104633926615,19.38496185332079,3.5516490127417777,2.094311216636066,24.330842162126554,-16.96933542258263,-20.400595550883832,345.4656368807608,36.17431477164251,14.835047622109151,56.50551782710115,13.69774834286292,135.2772589581176,800.0217638820982,1.274,1.0228049544826707,0.0,8.739984526289259,345.0001478400497,0.106326534152418,1.6755018504945085e-05,-0.7834140146782961,0.560003210555104,0.0878809571523285,4.122466533069211,16.43805006205599,36.50321515651816,36.001840561743144
1.05,31.22218074945953,131.01046472941488,19.67253118350986,3.1615266425992394,1.791263397478914,12.634685981821592,-17.177633598314262,-20.74605334644705,240.4562587980608,36.53231144706924,15.058685876943604,55.99289898023045,14.0031714933988,135.64457628774167,815.9123052194702,1.274,1.022755494436122,0.0,8.761694270138326,345.0001478400497,0.1073791359844608,1.7362619436369515e-05,-0.7908135690666179,0.5643007249958457,0.089586464466335,3.6332654644646887,15.935611549077697,36.813636610344446,29.750716215761948
1.06,31.22218003937504,131.01046609075146,19.9642120447748,2.79254940552418,1.501174220993763,19.756036091195128,-17.236015264049605,-20.88453168279576,308.1796836557233,36.66606346279308,15.163931229181856,55.474500596119206,14.300744817738437,136.00463142691132,821.8746496184542,1.274,1.0227013895379469,0.0,8.783209027388118,345.0001478400497,0.1077726269437404,1.7973530193865606e-05,-0.7974687312777587,0.5679863244127025,0.0906686012840141,3.170184764086601,15.536267525361836,36.90184038051173,33.519320515619874
1.07,31.22217933214728,131.01046744867415,20.25424524434064,2.4090748797931862,1.203848421712762,23.89195871812511,-17.368161866681287,-21.13078609102363,348.5093681440431,36.967624613759234,15.36289413441662,54.95085109021806,14.59032661839849,136.35721516948382,835.4260370327703,1.274,1.0226540159946436,0.0,8.804763104884664,345.0001478400497,0.1086593617936181,1.858739479635273e-05,-0.8033180710524693,0.5710237425376778,0.092082256047763,2.692960941812453,15.074094611082238,37.15671076837412,36.31788621107283
1.08,31.22217860281372,131.01046883185273,20.548403517630945,2.02488242635451,0.9072877969368568,14.100158826423351,-17.49413432877877,-21.372697775785525,261.0015785751465,37.29823239250254,15.581263063896088,54.42252204203152,14.871794894722155,136.7021335557244,850.411542954848,1.274,1.0226061614050743,0.0,8.825935321831551,345.0001478400497,0.1096314849164353,1.9203050995270075e-05,-0.8083624404642316,0.5734097391697894,0.0934865161265055,2.2187783227605267,14.610202354071108,37.44074287040141,31.01050507584144
1.09,31.222177860203928,131.01047022972003,20.84447580256868,1.6520392455387132,0.6174491497418362,12.27712939344572,-17.501185005407297,-21.450306277229945,246.54375332456465,37.46424082655263,15.710119612587178,53.89008854117717,15.14505904377904,137.0392223976421,857.9740809664838,1.274,1.0225512795791307,0.0,8.847153434776397,345.0001478400497,0.1101198049242928,1.9819591883998537e-05,-0.8125772435960013,0.5751265945501258,0.0943895337374584,1.7636245243582027,14.219411441514596,37.56122763493232,30.284237189070364
1.1,31.222177114881315,131.0104716304012,21.140126284026007,1.278223479957702,0.3281999957882944,30.205417007427418,-17.497616550047326,-21.51656539965837,413.1890617384087,37.6544313689194,15.854520146344855,53.354145128811,15.41005116876612,137.36833714247038,866.6827442009533,1.274,1.0224981043155532,0.0,8.868256321872481,345.0001478400497,0.1106792071278186,2.043650330213965e-05,-0.8159250915660344,0.5761547685545344,0.0952568681116264,1.3196789879861304,13.82851903008364,37.70598462177513,41.00605306686869
1.11,31.222176356245463,131.01047304559023,21.43761257821524,0.895447555558444,0.0379712485961386,20.253861341615487,-17.6303403846227,-21.78141177779317,324.1593910379213,38.125014813386834,16.162951475069818,52.815312916852406,15.666725440607872,137.68935246562597,888.4553269104393,1.274,1.0224548851875197,0.0,8.88908227683678,345.0001478400497,0.1120627884385797,2.105285301525064e-05,-0.8183906013060152,0.576484065566332,0.0967360079260633,0.8962522095292172,13.34988404646893,38.130979322732095,34.575680764908036
1.12,31.222175566677823,131.01047449402367,21.74040126619336,0.5239049335799308,-0.2467854508171066,3.5088372143766544,-17.600590498927392,-21.819408630664064,172.7328179403806,38.35924081609969,16.338224292747107,52.274225710793125,15.915058494783072,138.00216320319163,899.3793865504482,1.274,1.0223979224661404,0.0,8.909796141209009,345.0001478400497,0.1127516460454254,2.166710057465872e-05,-0.8199606188353042,0.5760957179493259,0.0975142026913924,0.5791180715348566,12.967627956095958,38.32047596799673,28.252067490713404
1.13,31.222174777861014,131.01047594111523,22.04190187960277,0.1578427201481707,-0.5297438514366967,24.55133655721295,-17.430800769057196,-21.660608695588724,367.5328077894322,38.39452202073394,16.398195320886728,51.73152978306501,16.155040623416365,138.3066737018704,901.0084765923892,1.274,1.0223460397860296,0.0,8.930637291945155,345.0001478400497,0.1128557341958009,2.227886140253937e-05,-0.8206050090373037,0.5749788082233358,0.0976777683012727,0.5527586837900897,12.663104497357114,38.31131123668442,37.09154770644547
1.14,31.22217398823359,131.01047738884378,22.34255303737825,-0.2103831037706075,-0.8064242368381,10.387627769405013,-17.463649621509525,-21.796823907588603,239.6953177322812,38.83121911658569,16.6987070653059,51.18789188151364,16.386682950644747,138.60280731973933,921.594460600816,1.274,1.0223022138470996,0.0,8.951154002394766,345.0001478400497,0.114139736096941,2.2887695760369063e-05,-0.8203143775190016,0.5731370805822226,0.0987509101399439,0.8334135692341909,12.243271015455942,38.70455047592726,29.799050341193592
1.15,31.22217315905697,131.0104788777652,22.649708257576503,-0.5733436879897295,-1.0835124025922709,9.950028328355993,-17.289513813730508,-21.63983750206589,237.4125115347709,38.95227468745379,16.813281193354936,50.643985142681046,16.610020982063663,138.89051163057837,927.3221639443428,1.274,1.0222426194541194,0.0,8.971385982922959,345.0001478400497,0.1144959613604196,2.349168844215075e-05,-0.81906160777653,0.5705359492083569,0.0989045653720517,1.2258396811567676,11.93775473203816,38.782087101438165,29.43149535389057
1.16,31.222172340359297,131.0104803551092,22.95371491390456,-0.932770874119012,-1.355606520120869,37.35910371537789,-17.126313949292058,-21.50236722460082,490.043774385954,39.13966299531005,16.969640038902,50.1005046278226,16.82509003670276,139.16972730682613,936.2384519069273,1.274,1.02219674531104,0.0,8.991826263779087,345.0001478400497,0.1150471635256318,2.4090668769940872e-05,-0.8168482098912153,0.5671918684599702,0.0991089116574497,1.6454689856253335,11.62746545895664,38.92674468715032,46.382809921000536
