Time,Latitude,Longitude,Altitude,Angle of Attack,Angle of Sideslip,X-Acceleration,Y-Acceleration,Z-Acceleration,Thrust,True Velocity,Ground Velocity,Pitch,Roll,Yaw,Dynamic Pressure,cp,parachute_deploy_gain,Wind Speed,Mach,omega_x,omega_y,omega_z,Cmq
0,31.2221860000000042,131.010383999999988,3.00000000364323682,0,0,0,0,0,2.2828121974499247,0,0,69.9999999962342088,0,113.699999993883324,0,15.2880000000000003,0,0,0,0,0,0,-0
0.01,31.2221859999997946,131.010384000000556,3.00000016469923247,0,0,0,0,0,34.2421869617492334,9.11367326775851009e-12,8.66229497295429822e-12,69.9999999962370651,-4.92863947922479589e-13,113.699999993882884,5.08594204168408172e-23,15.2880000000000003,0,0,2.67827100510624443e-14,-3.65918233213857746e-19,7.58941520739853104e-19,4.81114714040442593e-19,-1.83541113936281872e-32
0.02,31.2221859999996028,131.010384000001039,3.00000030885429547,0,0,0,0,0,25.8718762377664078,1.96992978605390895e-11,1.88456988716431921e-11,69.9999999962400494,-1.04152381447771591e-12,113.699999993882386,2.37621641206600858e-22,15.2880000000000003,0,0,5.78911013494094702e-14,-7.28448334638698292e-19,1.51788304147970621e-18,9.75781955236953991e-19,-7.93451985123442364e-32
0.03,31.222185999409362,131.010384001586402,3.00018176030779937,18.6493779029494604,-0.000129237623237530007,10.7928899806483045,-1.97644583900689674e-05,3.34983967390763571,180.342193598546658,0.0785672533977095078,0.0490694047558625918,69.9999999976775626,-4.2497891361524094e-12,113.699999994705607,0.00377978965327356543,15.2880000000000003,0,0,0.000230888677896110966,2.88330015245363835e-17,-7.25223402354589416e-10,1.08188208080271277e-11,1.51197624781400831e-13
0.04,31.2221859959356287,131.010384010943454,3.00162780953569674,9.74253989061216075,-4.88763086122285772e-05,51.6475445943311158,1.54548216767323456e-06,3.34965665682309899,548.635972453807767,0.346420694310776434,0.171860503977579737,70.0000000036447574,-2.28205307288861013e-11,113.699999999565534,0.0734838809649275282,15.2880000000000003,0,0,0.00101804013696402693,1.80009747884589399e-15,-1.58734069119923437e-08,2.61929145365345784e-11,1.45916869803439425e-11
0.05,31.222185985910329,131.010384038045004,3.00715844163023283,5.5769968489095687,-4.21135943534799539e-06,75.3242160169835273,4.73080294831520123e-05,3.34902689347595528,761.698429882464552,0.947854334293939504,0.409211128642743283,70.0000000010935537,-1.04766136577077691e-10,113.700000013612069,0.55013262299765131,15.2880000000000003,0,0,0.00278549703395658196,1.95473045844392346e-14,-1.13584749331540247e-07,4.14067569904437612e-11,2.85688606727574374e-10
0.06,31.222185966868647,131.010384089593572,3.01868664272593046,4.48500474963244322,2.31139019787050305e-05,56.3605563030587007,9.71465785775115924e-05,3.34799244711343214,590.487539073720654,1.60618980149218604,0.665693519146445256,69.9999999197690244,-2.82941102348924619e-10,113.700000040305838,1.57971028663545732,15.2880000000000003,0,0,0.00472017413217633904,1.01936766184118274e-13,-4.07864410983111553e-07,5.76522069423461223e-11,1.73837509686130208e-09
0.07,31.2221859390775336,131.010384164863126,3.03600551209402658,4.00448286551149391,4.63712119495135773e-05,85.8192455386477917,0.000147926970097503541,3.34656708333141317,855.293774977913927,2.27788210706903049,0.926660947343454056,69.9999996219982279,-5.49831570978999292e-10,113.700000079276109,3.1772067926123353,15.2880000000000003,0,0,0.00669410445039518576,3.35900025920073467e-13,-9.92070622953462368e-07,7.83315922772719921e-11,5.99658406989250883e-09
0.08,31.2221859009658012,131.01038426812616,3.06033476575187802,3.77263127792190334,7.06371256062416025e-05,17.6076228145981588,0.000196957592070898702,3.34480227118667583,241.217198863884818,2.92612482887636283,1.17954495655796454,69.9999989088305909,-9.15694670892462832e-10,113.700000132739973,5.24285298735243899,15.2880000000000003,0,0,0.00859912396431777512,8.49635706706491564e-13,-2.01744800413265681e-06,1.10032289818440005e-10,1.56647792516492608e-08
0.09,31.2221858556197738,131.010384390989856,3.0892797608365723,3.74258231141200604,9.5325675231994802e-05,53.4176180048964397,0.000237730218002333866,3.34289666486112669,563.093737704317618,3.46187703891102627,1.39384941462988121,69.9999975134546446,-1.31671842773002699e-09,113.70000019638816,7.33844512707370811,15.2880000000000003,0,0,0.0101735644468633635,1.80613395740032365e-12,-3.4856561047658452e-06,1.59232278560273843e-10,3.20202005890100843e-08
0.1,31.2221858028175774,131.010384534057465,3.12301320909491364,3.81071421019783685,0.000121971080758598364,50.732831688561788,0.000271545837515448313,3.34090447591365036,538.7437595981919,3.9029133825176725,1.57567038389986336,69.999995157830341,-1.72222432289554893e-09,113.700000270567642,9.32732681847184431,15.2880000000000003,0,0,0.0114696609641860067,3.37914451533694905e-12,-5.48904943388414521e-06,2.34452541412924053e-10,5.68476506314615152e-08
0.11,31.2221857431700727,131.010384695667796,3.16106164078641116,3.84323765504598036,0.000147145408783231387,40.0848474374385688,0.000307099758177995722,3.33859717034531034,442.865639305294906,4.36819921201157246,1.76578242121538631,69.9999915253729768,-2.07703942468805025e-09,113.700000354470319,11.6837607126815346,15.2880000000000003,0,0,0.0128370221364947634,5.76365694334259916e-12,-8.08162139954488366e-06,3.4437809457680147e-10,9.36754562129998513e-08
0.12,31.2221856770245907,131.01038487487628,3.20315617196047642,3.86558564807459826,0.000171348089099210797,43.7480799143332604,0.000342946594964391399,3.33600966231316054,475.585948135404465,4.83801864946757032,1.95742650583495204,69.9999862600106582,-2.3147200577597177e-09,113.700000447673773,14.3321420062794882,15.2880000000000003,0,0,0.0142177082532951912,9.17772063248746377e-12,-1.13223702306849879e-05,4.98555567062495836e-10,1.45354343598177095e-07
0.13,31.2221856047215205,131.010385070757366,3.24903338361815308,3.95285669440916232,0.000198169826234992146,48.2585391180499741,0.000371981107240517913,3.33344523512332414,515.915632623689476,5.21512035057569623,2.1172615234944101,69.9999789703044399,-2.35265113573284059e-09,113.700000549782459,16.6533950244453948,15.2880000000000003,0,0,0.0153259223232261182,1.38588880633063252e-11,-1.52681962163171846e-05,7.07166414280215559e-10,2.11287244421402401e-07
0.14,31.2221855263490333,131.010385283071088,3.29862557546706325,3.99981420118284792,0.000223008237377726162,44.9721767850953427,0.000403855591455553264,3.33052592490198407,486.239086056840392,5.63167615200940475,2.29059513099545553,69.9999692426645623,-2.0964169591742506e-09,113.700000660771011,19.4199179783547713,15.2880000000000003,0,0,0.0165500839355928395,2.00553635588333716e-11,-1.99811439493909854e-05,9.81252131659242702e-10,2.9859131057555361e-07
0.15,31.2221854420015994,131.010385511560628,3.35186028506811029,4.05975476911301225,0.000248539990764711958,43.4637160193537753,0.000433543226731567866,3.32747422849243879,472.54218587214001,6.01888316560526437,2.45383766868271946,69.99995661705006,-1.43188768134039915e-09,113.700000780625842,22.182048585914238,15.2880000000000003,0,0,0.0176879988684610287,2.80404916713566325e-11,-2.55291719775422389e-05,1.33309260321839681e-09,4.07727088477750495e-07
0.16,31.2221853515819241,131.010385756490507,3.40881389436676407,4.08854462484130732,0.000272210944932510383,34.4023069357135967,0.000465877824565354701,3.32404684464906053,391.12189082975641,6.44303061809316624,2.62971580822363071,69.9999405987561403,-2.27841984783363582e-10,113.700000909623355,25.4183784408083007,15.2880000000000003,0,0,0.0189344747787753703,3.81042963600432359e-11,-3.19913711614788564e-05,1.77662362644707755e-09,5.46937370926295155e-07
0.17,31.2221852554099399,131.010386016990765,3.46923909377793649,4.13347468842419552,0.00029684158695823977,43.4155809381403728,0.000495744973995866601,3.3205135250562221,471.78125980632376,6.83404379119085981,2.79420112365087148,69.9999206448319882,1.67575894446247236e-09,113.700001047478835,28.5969980778046526,15.2880000000000003,0,0,0.0200835795555658371,5.05622819343119236e-11,-3.94162603380559734e-05,2.32482468580976756e-09,7.14768170397066036e-07
0.18,31.2221851530022434,131.010386294375877,3.53351204963262022,4.16207877285686756,0.000320492787063832857,36.2151660219171347,0.000526966735016640565,3.31665933612355879,407.101567211914528,7.2444022294323478,2.96528531587496236,69.9998961790314524,4.45070668055043651e-09,113.700001195059045,32.1341903991183955,15.2880000000000003,0,0,0.0212895378539265934,6.5741708189353534e-11,-4.79243856484647045e-05,2.99669991322666987e-09,9.21230820748327094e-07
0.19,31.2221850444828668,131.010386588308563,3.60153760019172342,4.17456309251139679,0.000342914278589344943,40.9041800427263027,0.00055982867240863632,3.31244583927210501,448.953132831826849,7.67810673790947895,3.14433961722118216,69.9998665624008964,8.30674092292676784e-09,113.700001352409558,36.0967170721845179,15.2880000000000003,0,0,0.0225641073333706747,8.40032927522686365e-11,-5.75836346763551867e-05,3.80911503044151526e-09,1.17316671380156179e-06
0.2,31.2221849296486234,131.01038689934137,3.67347464118590317,4.20078915399145636,0.000366573034254704516,37.5214898208491761,0.000590466919182690893,3.30812712915434881,418.515630199161365,8.08216006412957277,3.31318683933006453,69.9998311045104487,1.34800080829191884e-08,113.700001520067786,39.9955165273270055,15.2880000000000003,0,0,0.0237515420632470921,1.05728805481567758e-10,-6.85028882131185225e-05,4.78351733027568889e-09,1.4690610466811608e-06
0.21,31.2221848088436893,131.01038722653837,3.74905730552401684,4.22722562033261262,0.000390310433246848657,36.0064697775761644,0.000620601272787201603,3.30359776763142721,404.818761014464428,8.48018829437500621,3.47992805775657654,69.9997890742529592,2.02433263776548733e-08,113.700001697833756,44.0315784885794201,15.2880000000000003,0,0,0.0249212734096428447,1.31320595517854955e-10,-8.07208291683553139e-05,5.93661589182972911e-09,1.81631626331753899e-06
0.22,31.2221846819136672,131.010387570319409,3.82840670130281646,4.2176244726165093,0.000410696285369717819,43.5935627685881499,0.000655758920494764063,3.29841875767922987,472.542185872136486,8.94831461811120121,3.67066782999472752,69.9997397083127737,2.88926538075102191e-08,113.700001886238866,49.0266756129506618,15.2880000000000003,0,0,0.0262970098082033268,1.61186003536399267e-10,-9.43348117723774896e-05,7.29106197993283208e-09,2.23980539128825791e-06
0.23,31.2221845484548304,131.01038793178239,3.91183756115468473,4.25320537954326383,0.0004356497720089569,36.207459360748949,0.000683686922722525747,3.29355466128287455,406.340642146102141,9.31799902525197865,3.82760028360492655,69.9996821549030983,3.9766623706965518e-08,113.70000208621326,53.1608354775167555,15.2880000000000003,0,0,0.0273834518362109196,1.95767624418301473e-10,-0.000109505708778552874,8.87784718088286285e-09,2.70740355927931971e-06
0.24,31.2221844093456014,131.010388308538637,3.99866964940866776,4.27135264557773553,0.00045883378920767232,37.3286080087975947,0.000713911697673520317,3.2882529474867046,416.232824001711379,9.7203332459195213,3.9956861712714935,69.9996155408946805,5.32509871046438109e-08,113.700002296918697,57.8502398901668755,15.2880000000000003,0,0,0.0285658473732890855,2.35534745143307651e-10,-0.00012617657385590063,1.07071802425012536e-08,3.25424194465518317e-06
0.25,31.2221842644570167,131.010388700938847,4.08900446593793809,4.29698686981540234,0.000482848983334858658,38.3649566400252979,0.000742483922667206905,3.28284626589867479,425.364080791506922,10.1009615935159527,4.1562806652626314,69.9995389781877293,6.97479781374676735e-08,113.700002518962805,62.4689963611702623,15.2880000000000003,0,0,0.0296844577155840929,2.80933085873043406e-10,-0.000144451636124542286,1.28055329635332884e-08,3.87142965072796435e-06
0.26,31.2221841140756986,131.010389108203611,4.18262110402873155,4.32755423691547136,0.000507438991606541483,41.7865661614553829,0.000769736419800412888,3.27732087646770287,455.80158342417883,10.4644497354123782,4.31094871887776954,69.9994515368878751,8.97024502886333285e-08,113.700002752408935,67.0452443356678742,15.2880000000000003,0,0,0.0307527002093570291,3.32431765373287754e-10,-0.00016436315770221847,1.51925047864838523e-08,4.56355359993810651e-06
0.27,31.2221839578137299,131.010389531387915,4.27982215321117465,4.33742811840656994,0.000529702335486379188,38.2242911032538473,0.000800211178185602123,3.27123004841987974,423.842199659872563,10.8736118498261902,4.48123226393084195,69.9993522521519935,1.13587393208351198e-07,113.700002998306658,72.3900346549699947,15.2880000000000003,0,0,0.0319551720828357214,3.90484337603431509e-10,-0.000186059811616844751,1.79019946498730075e-08,5.36790267753501075e-06
0.28,31.2221837957695953,131.010389970223883,4.38053283172365671,4.35979025650862262,0.000553527510562852902,44.1207307275094038,0.000828072271385077072,3.26514386100193477,476.346873201222195,11.2478718916014184,4.63949182586423614,69.9992400702920463,1.41938296327408329e-07,113.700003257081931,77.4582454645660761,15.2880000000000003,0,0,0.0330550782151640757,4.55595825375374429e-10,-0.000209619220926101062,2.09616181379585756e-08,6.25569396794615011e-06
0.29,31.2221836278828384,131.010390424876022,4.48480177698289584,4.38135974025744623,0.00057737648726709299,35.3536197607625553,0.000855659611391794222,3.2588361863853601,397.970310422111766,11.6195889013503368,4.79682445966682813,69.9991139044831527,1.7532937395312496e-07,113.700003529427192,82.6616578528940948,15.2880000000000003,0,0,0.0341475147840558241,5.28268525040872464e-10,-0.000235137545717689308,2.44023887909330158e-08,7.24907222782668121e-06
0.3,31.2221834544381096,131.010390894570321,4.59240982688131272,4.39617507281761988,0.000600356665334356751,33.1490797613948018,0.000884158719714270942,3.25217107922164672,378.185945710871067,12.0052186882677852,4.95887519756831807,69.998972627127344,2.14383684192303281e-07,113.700003815596887,88.2385269149682756,15.2880000000000003,0,0,0.0352808420099011907,6.09029939588318471e-10,-0.000262641159892275291,2.82471356422800846e-08,8.36561857411674722e-06
0.31,31.2221832755909574,131.01039137888381,4.7032380575360353,4.42235615181669761,0.000624899913490765827,34.9528590290802086,0.000910025197609511073,3.24555398289468222,394.16562209302117,12.3556398803864607,5.10879227158949156,69.9988150759387651,2.59766173767152649e-07,113.700004116072961,93.4639131761651498,15.2880000000000003,0,0,0.0363107024397255479,6.98403788157463991e-10,-0.000292187019282257228,3.25229566712151178e-08,9.57826248689966157e-06
0.32,31.2221830914257232,131.010391877587324,4.81722282885169673,4.45155794779377789,0.000649944303128982049,38.0379859115142835,0.000934821026682707218,3.23882361682650144,421.559393462426954,12.6924793110791878,5.25399282922068878,69.9986400687318024,3.12179641788393281e-07,113.700004431478234,98.6283237403037703,15.2880000000000003,0,0,0.0373006526995305274,7.96905013945712519e-10,-0.000323836613651358495,3.72580440687311147e-08,1.09050644159405278e-05
0.33,31.22218290196043,131.01039239063175,4.9343519698327194,4.48019701204722054,0.000675004219851668761,37.7093551175013246,0.000959261610436717115,3.23189933669563656,418.515630199168186,13.0256844327599097,5.39788776638052958,69.9984463826819052,3.72372687880250348e-07,113.700004762578004,103.87354288045799,15.2880000000000003,0,0,0.0382799263433428877,9.05047894999210997e-10,-0.000357667290238851605,4.24836225249657193e-08,1.23603484615852587e-05
0.34,31.222182707020778,131.010392918491164,5.05476263450916541,4.49049305198152204,0.000697378143373914754,29.5227085089536203,0.000987142430045659337,3.22427911658814059,345.465636880756449,13.4081741031825317,5.55863100914667463,69.9982327456812641,4.41143957445642244e-07,113.700005110463266,110.062177258613033,15.2880000000000003,0,0,0.0394040418267209702,1.02333461745717641e-09,-0.000393806243978271305,4.82396483202145133e-08,1.40087103268591529e-05
0.35,31.2221825067937928,131.010393460657156,5.17831168393457641,4.50711781535187139,0.000720712543856854714,32.3530371383660977,0.00101333646443235357,3.21661305844837253,370.576570052703289,13.7686530554979374,5.71176159517965232,69.9979978091806316,5.19362042776584697e-07,113.700005475786654,116.058400304168075,15.2880000000000003,0,0,0.0404634764462946869,1.15232390415689195e-09,-0.000432299813734132244,5.45552399130644805e-08,1.57912776608867467e-05
0.36,31.2221823012122108,131.010394017312592,5.30505329869157727,4.52767240178778962,0.000744729708600240731,36.5526511043957356,0.00103828652712813154,3.20885713174522058,407.862523277719447,14.1132764952183631,5.85938873702120233,69.9977401961163537,6.07939829707116331e-07,113.700005859608282,121.939407863977465,15.2880000000000003,0,0,0.0414763190843316643,1.29254043868676357e-09,-0.000473255972436325862,6.14699225552327593e-08,1.77198251922661022e-05
0.37,31.222182090341061,131.010394588280832,5.43493909097431604,4.55039311415752579,0.00076918150115683735,34.6835787828593496,0.00106234372950533948,3.20097384516078431,391.121890829766642,14.446930470491731,6.00318739776240751,69.9974584775585669,7.0785096329375243e-07,113.700006262864989,127.771540530283914,15.2880000000000003,0,0,0.042456928843506235,1.4445318520011827e-09,-0.000516746496826029863,6.90186481791334769e-08,1.98053803654614999e-05
0.38,31.2221818741223878,131.010395173719473,5.56801609611825477,4.56315131642791805,0.000792019287104061913,36.2353933787001239,0.00108827974821363053,3.19255015153205646,404.818761014460279,14.8084413239345949,6.1564787166299757,69.9971511865591651,8.20121521966083772e-07,113.700006686723384,134.244380272309172,15.2880000000000003,0,0,0.0435194095147296359,1.60882660749176723e-09,-0.000562873331420229127,7.72423853301427293e-08,2.21128406351508731e-05
0.39,31.2221816525004634,131.010395773780147,5.704329739781131,4.57922628245169783,0.000815489716137310881,30.9425419640016202,0.00111309493143926189,3.18402316666385765,357.640624933827439,15.1559126959619999,6.30488433186772657,69.9968167722787769,9.45855271408966431e-07,113.700007132429306,140.616382889747683,15.2880000000000003,0,0,0.0445406353688629561,1.78596578656278109e-09,-0.000611756345505213715,8.61868943159197994e-08,2.45968452142520012e-05
0.4,31.2221814256617982,131.010396387955836,5.84373750626454935,4.59349479979191955,0.000838670682925170751,29.5834243852937959,0.00113797512888990423,3.17521289611434332,345.465636880754005,15.505969085398343,6.45410901523083158,69.9964536498379317,1.08621525395706341e-06,113.700007600947828,147.185065961143067,15.2880000000000003,0,0,0.045569462889951777,1.97653506559195414e-09,-0.000663427505461186432,9.58835144134294998e-08,2.72901174189528038e-05
0.41,31.2221811937141673,131.010397015953487,5.98615797249314241,4.60939449845229365,0.000862163931524819621,33.360545626359837,0.00116210409424792778,3.16624854525325983,378.946870776686467,15.8471768437686258,6.60022848408685459,69.9960602026584695,1.24241947051318175e-06,113.700008093413757,153.73182724817184,15.2880000000000003,0,0,0.0465722905345462151,2.18109996727848554e-09,-0.000717942131686907965,1.06367950505874699e-07,3.01820283711074823e-05
0.42,31.2221809567080335,131.010397657635991,6.13155423418529733,4.63387609959193458,0.000887317919769279608,37.5676427387571721,0.001183742077125155,3.15743374731593907,416.232824001711379,16.155026338188506,6.73482947265292431,69.9956347739890248,1.41574639558456e-06,113.700008611107208,159.760443802515937,15.2880000000000003,0,0,0.0474770882933877245,2.400206535531791e-09,-0.00077537935552726017,1.17680930846389008e-07,3.32294321368729263e-05
0.43,31.222180714655078,131.010398312971745,6.27991949833728835,4.65367427313455995,0.000911660169575580258,33.0386483003103493,0.00120612360190941372,3.14823214930187856,375.903139513433644,16.4750454055619109,6.87353555569934649,69.9951756835756242,1.60752723178871754e-06,113.700009155418982,166.15023929888028,15.2880000000000003,0,0,0.0484176551665520677,2.63438237315801404e-09,-0.000835821567166909188,1.29864614855892046e-07,3.65287677570896608e-05
0.44,31.2221804673911407,131.010398982407111,6.43138341412837455,4.65757387742934892,0.000932929976641759203,30.4788052564327749,0.00123214974254881528,3.13809943757763454,353.075012538921555,16.8483715860516412,7.03046484016701978,69.9946811832270441,1.81916859536649675e-06,113.700009728069276,173.762989227436179,15.2880000000000003,0,0,0.0495148886868988364,2.88411342836306464e-09,-0.000899417740154189794,1.42975581697416844e-07,4.01983191819108926e-05
0.45,31.2221802146980103,131.010399666535704,6.58611776122768511,4.65827001030579346,0.000953562143933252499,35.4620561517945134,0.00125873275223327787,3.12754579585638304,397.209385356286873,17.2316459864824161,7.19073264961644831,69.9941493995125938,2.05218870761162579e-06,113.700010330973456,181.755888424112015,15.2880000000000003,0,0,0.0506413642318551335,3.14987863732273609e-09,-0.000966369542842942814,1.57083782729145849e-07,4.41725079750487196e-05
0.46,31.2221799565319174,131.010400365476642,6.74415901717088939,4.66907507286434065,0.00097630283571516251,41.3913707355688842,0.0012823814722795761,3.11722412848720953,449.71405889764344,17.5754687869478978,7.33738035579407555,69.9935783582983362,2.30821229426708146e-06,113.700010965912341,189.078525726536213,15.2880000000000003,0,0,0.0516519027755614896,3.43223060675433133e-09,-0.00103681314204437207,1.7224885851047691e-07,4.83373548649469587e-05
0.47,31.2221796928065203,131.010401079464799,6.90557672428163105,4.67806301106434042,0.000998761260684927557,28.0209900204918974,0.00130616618884544979,3.10657060381263461,331.007810630253402,17.9233234115620377,7.48533101007974988,69.9929660462147325,2.5889364060732201e-06,113.700011634803886,196.634049649816575,15.2880000000000003,0,0,0.0526742959306323727,3.73170463860384924e-09,-0.0011108841623615434,1.88532207060213475e-07,5.28148505664365441e-05
0.48,31.2221794239793269,131.010401807256216,7.07001851744381948,4.68642527483421745,0.00102109091231145262,27.6007969606275125,0.00132978852885184593,3.09563681785184297,327.203122301157407,18.2709832353803314,7.63313726727991071,69.9923104035261474,2.89614261094227829e-06,113.700012338884164,204.33305198470137,15.2880000000000003,0,0,0.0536961221459722679,4.04904859899578719e-09,-0.00118849531779471017,2.05948560519311644e-07,5.75998398329450787e-05
0.49,31.2221791502289392,131.010402548365278,7.23734841566291642,4.70156796398202914,0.00104489945272251677,34.6487244505178253,0.00135120419031512233,3.08484494341801163,389.60000969812296,18.589315545984995,7.7707981814672209,69.9916093757078812,3.23165731652504743e-06,113.700013079832303,211.511801733856089,15.2880000000000003,0,0,0.0546317638991248022,4.38486615800834454e-09,-0.00126967773493266863,2.2453662401782158e-07,6.26054017926546362e-05
0.5,31.2221788715876762,131.010403302704333,7.40754387012007864,4.72212438923579736,0.00106996435823571525,35.6033845714535389,0.00137072557486675028,3.0741588573465477,397.970310422105001,18.8826594549893159,7.8998011517407587,69.9908609011483378,3.5973597360057951e-06,113.700013859590555,218.236320199079358,15.2880000000000003,0,0,0.0554939729313439212,4.73968531279909998e-09,-0.00135450679800636423,2.44344941868023912e-07,6.78409867869358833e-05
0.51,31.2221785881337617,131.010404070060673,7.5805467220577798,4.73558879650721298,0.00109346949398930206,27.1956639286467201,0.00139183542187690463,3.06284319292573448,323.39843497208409,19.200774511812984,8.03722958125224807,69.9900628955037689,3.99519228958782199e-06,113.700014680103109,225.647740475438098,15.2880000000000003,0,0,0.0564289867670437692,5.11403675587933804e-09,-0.00144303978709531136,2.65418546512062939e-07,7.34915902759761199e-05
0.52,31.2221782998954396,131.010404850471673,7.75637008425921426,-13.6543965308697413,-19.1688855590353988,33.1757618129424685,0.964032809370046873,3.94750379909819982,372.098451184341457,18.890598826395717,8.17859063328237035,69.9892119860399475,1.26459746034443027e-05,113.700024290373378,218.412561653930368,15.2880000000000003,0,8.77255074703166748,0.0555175242976066116,5.51016229587920274e-09,-0.00152514130266720818,1.8673204384276846e-05,7.64168387826080081e-05
0.53,31.222178006023988,131.010405644676325,7.93513104586161866,-13.3639994269535531,-18.9086374957592867,34.8177161708139877,0.989233371953182394,3.96043963827892354,386.55624643486243,19.1835819212865104,8.32761796040631452,69.9883962357192502,-0.000199788625365146337,113.699798616674968,225.236157513582071,15.2880000000000003,0,8.80591321845188979,0.0563786851294090854,5.79798994195847035e-09,-0.00130188823440033417,-0.000324464452175952987,6.62413551939943933e-05
0.54,31.2221777059497327,131.010406453099563,8.11690176860371437,-13.0840115943543758,-18.6567283989377444,30.6137179216004114,1.01476555732605633,3.97341064265254351,349.270324209843579,19.4755032842349998,8.4760861543714956,69.9877096316242842,-0.000958353154825782841,113.698991726093951,232.139212376888167,15.2880000000000003,0,8.83920657420135569,0.0572367310445908231,5.79874784477287138e-09,-0.00107388587079608011,-0.000676595793522646351,5.54708784405739326e-05
0.55,31.2221773998941998,131.010407275038602,8.30148036952609125,-12.81763525584417,-18.4177814595905609,32.4275363698032066,1.04032028100863938,3.98621118522568052,365.250000591990727,19.7610247111876483,8.62202852598119307,69.9871548086893256,-0.00227692031275564082,113.697588849846312,238.991443792313646,15.2880000000000003,0,8.87237598168510821,0.0580759734507369577,5.5138405408402852e-09,-0.000841461873002697638,-0.00103735536592248915,4.41016087772715373e-05
0.56,31.2221770878403504,131.010408110492705,8.48886624672742229,-12.5668086759853868,-18.1948641915817291,30.2844828239909383,1.06565078670441893,3.99868453212529973,346.226561946578727,20.0359923819309245,8.76393880131399605,69.9867342988266188,-0.0041691686636591346,113.695575427457072,245.684258884757895,15.2880000000000003,0,8.90542198427148612,0.0588842045591052507,4.9449602319254389e-09,-0.000604591931482947333,-0.00140688572191371509,3.21274250458491905e-05
0.57,31.2221767698382493,131.010408959279744,8.67900714267422835,-12.3179248236507952,-17.9702530330570482,29.947363902514045,1.09180652078842266,4.01152209855114528,343.182829683302316,20.3186137055527176,8.90855389146794074,69.9864505881415795,-0.00664881167804911872,113.692936862661412,252.659617442730905,15.2880000000000003,0,8.93834291084118959,0.0597149344716325151,4.09417276257711721e-09,-0.000363366503508603142,-0.00178516221304328274,1.95809495499370099e-05
0.58,31.2221764458503301,131.010409821456278,8.87191891474189731,-12.0628531410647764,-17.7329360494287442,39.3383485875541012,1.11955891636357197,4.02521380636761439,426.12500585731533,20.6216286749233433,9.06054420227947332,69.986306149595336,-0.00972973281498516231,113.689658379973068,260.246901177506857,15.2880000000000003,0,8.97113598771270837,0.0606056054194800201,2.96372847900257643e-09,-0.000117754887659938688,-0.00217233892191151133,6.44004118842099748e-06
0.59,31.2221761154845296,131.010410698040857,9.06789168797665113,-11.8317904818762898,-17.5239628657297999,31.94198599645107,1.14623343287951251,4.03802870727342,360.68438819711065,20.8990579471130076,9.20302125568735363,69.986303632247143,-0.0134267696053347492,113.685724190702828,267.291341034340178,15.2880000000000003,0,9.0038496787020037,0.0614210875265364525,1.5556078030436887e-09,0.000132799219381543138,-0.00256936103545688573,-7.36038954752696647e-06
0.6,31.2221757789194996,131.010411588500176,9.26677317213360929,-11.5845684732002425,-17.288670975154151,28.4178096511233065,1.1755198915961651,4.05233242958867912,329.48595949860578,21.2133349089287897,9.35889003647420203,69.9864456850542638,-0.0177550075720490017,113.681118243234579,275.385502154482708,15.2880000000000003,0,9.03645033123305375,0.0623448686916906747,-1.2772868387153722e-10,0.00038801956671926681,-0.00297593543447013595,-2.18289501285044395e-05
0.61,31.2221754360921686,131.010412492958466,9.46859854667551737,-11.3412768823368353,-17.0544280897312284,33.2499516656198821,1.2056492155837033,4.06697551320353146,372.09845118432969,21.5338867687606204,9.5169108301263261,69.9867349949025908,-0.0227299449818154052,113.675824048968323,283.765510580101932,15.2880000000000003,0,9.06894138263333538,0.0632870977387993694,-2.08380607797051275e-09,0.000647990493383449203,-0.00339230765441930456,-3.70043616412095528e-05
0.62,31.2221750870899974,131.010413411129633,9.67328612267337462,-11.1388285280915937,-16.873431183571924,41.2733434871090807,1.2326587344062836,4.07946927714589247,442.86563930529212,21.7952421326757388,9.65321675327435536,69.9871742818958751,-0.0283674864757615837,113.669824688683121,290.68968374921451,15.2880000000000003,0,9.10132078706720904,0.0640553569841042225,-4.31004181893475348e-09,0.000912640851997102145,-0.00381848674000151043,-5.27490842160319474e-05
0.63,31.2221747317265965,131.010414343476782,9.8809678627590376,-10.9314971955261804,-16.6821237873281056,23.5208676662625784,1.26116401212452311,4.09273124415991951,286.112512747078938,22.0742959761328166,9.79591068039389157,69.9877660410341349,-0.0346830041816936704,113.66310381535061,298.175039119727273,15.2880000000000003,0,9.1335933874342583,0.0648756372226139272,-6.80313359499481714e-09,0.00118216027961868869,-0.00425489220537398488,-6.92002852349148041e-05
0.64,31.2221743705233941,131.010415288536166,10.0912264642983782,-10.7134018227908232,-16.4718986934826148,23.0937530888855029,1.2919469079224426,4.10722359239885026,282.307824417967538,22.3834163626483296,9.94943751083602734,69.9885128633079887,-0.0416921015807978773,113.655644828548859,306.578390781894484,15.2880000000000003,0,9.16566700965386616,0.0657842880158361065,-9.56013256186034324e-09,0.00145578007010790803,-0.004700451573862033,-8.64088120566633173e-05
0.65,31.2221740034463906,131.01041624635775,10.3040763012164298,-10.5248687557370584,-16.3006947570524439,40.6113787912644426,1.32033977149562709,4.12006203840142593,436.778144778747503,22.646478433665937,10.086143488050606,69.9894170910622364,-0.0494100477960184303,113.647431495513786,313.820473500388573,15.2880000000000003,0,9.19762653338595904,0.0665575805338328996,-1.25774240317653736e-08,0.00173358528517318384,-0.00515540766200223328,-0.000104105315642547073
0.66,31.2221736300148152,131.010417218210506,10.5198793114032334,-10.3353054962601831,-16.1248934036702565,34.5790610148087794,1.34982690849197251,4.13340157939559116,383.512515171600171,22.9200828000351287,10.2266204173534341,69.9904810533987671,-0.0578523319983342277,113.638447352558899,321.442488739283533,15.2880000000000003,0,9.22943950159478987,0.0673618626953326749,-1.58505461473025186e-08,0.00201622224575406881,-0.00562090293227959781,-0.000122538511295594999
0.67,31.2221732503818998,131.010418203633321,10.7385041765787523,-10.1370281445673847,-15.9330650682070907,23.8814357275817066,1.3814981746863142,4.14789027403077437,289.156244010342505,23.2210702283302624,10.3769327210111868,69.9917073822959139,-0.067035595722213237,113.628674702984355,329.933385829789017,15.2880000000000003,0,9.26111346215648545,0.0682466296495858327,-1.93761199544981969e-08,0.00230344764440471245,-0.00609668241762856191,-0.000141830448238904126
0.68,31.2221728646855681,131.010419202207487,10.9598317471238236,-9.94744573512341645,-15.7507326374178174,29.7571608435184629,1.41316917598686365,4.16219374008365506,340.899992485846269,23.5142582135566798,10.5243341905173509,69.9930984958974562,-0.0769764748417160471,113.618095870477134,338.310234100788875,15.2880000000000003,0,9.29267234376749229,0.06910848048832538,-2.31506039316961229e-08,0.00259507544107577754,-0.00658257401596593419,-0.00016180090200934214
0.69,31.2221724729827095,131.010420213736893,11.1838064319155048,-9.774689860478329,-15.5904818641106431,36.5861028663097088,1.44353531411772695,4.17553503212093435,401.014072685363431,23.7799066437524331,10.6617272688778346,69.9946568533200804,-0.0876914736237601605,113.606693310612229,345.989978493828175,15.2880000000000003,0,9.32404748651416426,0.0698893986757763708,-2.71701428105578392e-08,0.00289100157491667051,-0.00707853453820888982,-0.000182284105182704755
0.7,31.2221720751328249,131.010421238566323,11.4105268879275155,-9.60497732637392865,-15.4320160370955648,30.717217242872433,1.47443988596580566,4.18902592627775228,349.270324209852845,24.0468577550241633,10.7995382585415136,69.9963846689875737,-0.0991969595788020631,113.594449639477887,353.793983114799573,15.2880000000000003,0,9.35527080035321212,0.0706741516026470895,-3.14300223957914818e-08,0.00319140460762090033,-0.00758498351578466064,-0.00020347969313278864
0.71,31.2221716711694164,131.010422276565464,11.6399563830326755,-9.43106271656591844,-15.26431623732989,25.277137434860574,1.50703084794313091,4.20333926605648323,301.331264063405797,24.3322600488391636,10.9439258674749649,69.9982843007434923,-0.111509804349368469,113.581346931489179,362.233910438751877,15.2880000000000003,0,9.38637026208983904,0.0715131392293674589,-3.59260781680071771e-08,0.00349620230992908534,-0.00810191973672753918,-0.000225553883151518306
0.72,31.2221712610785218,131.010423327733406,11.8720951159411161,-9.25168169431334064,-15.0852452126972487,30.9003911599048031,1.54164768731299895,4.21865575545220306,350.79220534145287,24.6405970447180067,11.0964724206131322,70.0003580938603704,-0.124647303816151703,113.567366815735937,371.464210951790392,15.2880000000000003,0,9.41732421564609012,0.0724195392681088457,-4.06539729226795463e-08,0.00380541535149268471,-0.00862951005409526122,-0.000248607894126087921
0.73,31.222170844841024,131.010424392082371,12.10694704022991,-9.09755305830205607,-14.942375442409503,39.0342668707243305,1.57322187390930202,4.23201097279235405,422.320318528233997,24.8955930403720131,11.2298148935683955,70.0026084684165255,-0.138627452654669914,113.552490181471725,379.183719273028316,15.2880000000000003,0,9.44809675158582607,0.0731691748995072361,-4.56093631288585018e-08,0.0041190970911109525,-0.00916797574736175069,-0.000271879418753591688
0.74,31.2221704223841172,131.010425469775527,12.3445592655756382,-8.93962544630334399,-14.7910384529568475,24.5075278149583689,1.60644359870087805,4.24615028742503231,294.482813471059444,25.1680251919667199,11.3693596586363448,70.0050376465059543,-0.153467725312298769,113.536698476008624,387.519088721721403,15.2880000000000003,0,9.478748644435953,0.0739700625247572408,-5.07874249538011521e-08,0.0044372814910059611,-0.00971751706845200292,-0.000296079295300205115
0.75,31.2221699940239432,131.010426559911082,12.5846753272866625,-8.78051721312721689,-14.6352225187765725,28.5770938453069547,1.64096056392327427,4.26085393146648883,330.246885564414924,25.4520927372236763,11.5129978992311592,70.0076477806137376,-0.169185828242253339,113.519972906466421,396.307051672547857,15.2880000000000003,0,9.50924741935840601,0.0748051536428897823,-5.61853530041997017e-08,0.0047594598527213143,-0.0102774173552690855,-0.000321153802739561583
0.76,31.2221695596442679,131.010427662772599,12.82737674877019,-8.63168453330703223,-14.4931469088214691,30.7443633424194545,1.67464914365953277,4.27490013422005255,349.270324209861712,25.71667663820676,11.6496094359475908,70.0104410575145693,-0.185799463936740517,113.502294679757682,404.579964744019208,15.2880000000000003,0,9.53957681108771283,0.0755829877927397809,-6.179773604542916e-08,0.0050858172785468031,-0.0108481238622959962,-0.000346734757922028812
0.77,31.2221691191782398,131.010428778509578,13.0727069305148831,-8.48732307989372892,-14.3558621970966058,28.7565944931850836,1.70848404429909584,4.28885133186944234,331.76876669607077,25.9762071697987444,11.7843671113582147,70.0134194886002632,-0.203326600203332652,113.483644736748658,412.777418773264799,15.2880000000000003,0,9.56972642470275403,0.0763459762446615092,-6.76194071324384574e-08,0.00541643365805166786,-0.0114299156287090281,-0.000372993031220657256
0.78,31.2221686726715788,131.010429906963878,13.3206215579973808,-8.33960522078462851,-14.2107778988082334,23.6497290944735497,1.74403960875985109,4.30359523471159644,286.873437812889904,26.2531313917265052,11.9252685904630358,70.0165851564017885,-0.221785411776751928,113.464003793612065,421.615275200524422,15.2880000000000003,0,9.5997329082696119,0.0771600926426074668,-7.36460702485906827e-08,0.0057511870001244747,-0.0120227293017146804,-0.000400257807267387811
0.79,31.222168220191552,131.010431047917933,13.5710594599436032,-8.19132731839002837,-14.0623068891877114,33.5276411511692274,1.78085567193567162,4.31885826705084686,373.620332315953419,26.5402755299130177,12.06973634689348,70.0199400687108096,-0.241194392880193509,113.443352235715267,430.878200591972586,15.2880000000000003,0,9.62959002538249287,0.0780042530667922202,-7.98736080626540198e-08,0.00608995396434461322,-0.012626495336892727,-0.000428459920477784447
0.8,31.2221677615216358,131.010432201934464,13.8241819637108989,-8.05716866917471641,-13.934608249940414,33.9647755463890704,1.81574158878515135,4.33285886917829988,377.42502064505743,26.7925662540834999,12.2017504358207276,70.0234862941248082,-0.261572664143806477,113.421669785713533,439.098281864158196,15.2880000000000003,0,9.65932089214251555,0.0787459830440599418,-8.62952641395665692e-08,0.00643310010103495967,-0.0132419978960289231,-0.000456893344318783437
0.81,31.2221672967431978,131.010433368759323,14.0799175398031782,-7.91822148318813213,-13.7968159035618143,22.17956834865074,1.85272078595362188,4.34783653798513203,273.937492693991885,27.0669451643701429,12.3415584608416733,70.0272257611412812,-0.282939346989396545,113.39893617407796,448.126814374545575,15.2880000000000003,0,9.68886414187397804,0.0795526391371023794,-9.29073613611514613e-08,0.00678041972756684725,-0.0138690348220581773,-0.000486480419664094238
0.82,31.2221668260163092,131.010434547921079,14.3381327890293075,-7.77890893453489163,-13.656105495870051,28.4231146635478211,1.89093543508881656,4.36330200823921466,328.725004432770049,27.3506780667231411,12.4846114917231077,70.0311604452910501,-0.305313732363167445,113.375130947755395,457.559810135961584,15.2880000000000003,0,9.71824011449593073,0.0803867945945166418,-9.97068767873662864e-08,0.00713163038307300379,-0.0145072599982797364,-0.000517029946164703023
0.83,31.22216634931317,131.010435739466544,14.5988420845294389,-7.65506996871589784,-13.5392310726521163,36.0574735592193676,1.92650428994021516,4.37712937349131703,395.68750322465047,27.5906772579635273,12.6120993805061019,70.0352921313148613,-0.328715352874909994,113.350233413939876,465.613457888097741,15.2880000000000003,0,9.74747146185327651,0.0810924184037104534,-1.06688581114045521e-07,0.00748679125184689449,-0.0151569291703371762,-0.000547527561470945818
0.84,31.2221658665257529,131.010436943668083,14.8621242200899832,-7.53072096046429884,-13.4195243006970522,22.3533923918965662,1.96316881172234803,4.39137500733961783,275.459374825645227,27.8386619581960524,12.7423697279904538,70.0396225457327972,-0.353163491766141147,113.324223144002801,474.008943992162301,15.2880000000000003,0,9.77656020616018751,0.0818215192091011623,-1.13846621371248719e-07,0.0078460086143924794,-0.0158183946841446467,-0.000578940667526929684
0.85,31.2221653779135231,131.010438159782666,15.1277684789483438,-7.39819232190474985,-13.2837523107864381,24.3492666179245809,2.00304358988516995,4.40716736260742614,292.960932339393764,28.12246789885533,12.8852382130532082,70.0441533731412846,-0.378677528240131067,113.297079609713464,483.710596551069386,15.2880000000000003,0,9.80548262799762504,0.0826559102383419286,-1.21179709834196779e-07,0.00820879694269165995,-0.0164909402849757122,-0.0006118694679519552
0.86,31.2221648833059859,131.010439388255406,15.3959029953958684,-7.27548136500320641,-13.1627648583893748,30.4258778555125247,2.04142898927143079,4.42196092950212627,346.226561946558718,28.3787723097421711,13.0183164824888546,70.0488862554747129,-0.405277610621790518,113.26878147883788,492.555038382887119,15.2880000000000003,0,9.83425892707516169,0.083409477485986358,-1.28680550093983488e-07,0.00857546675855661196,-0.0171752857914738155,-0.000645009376567270412
0.87,31.2221643827151709,131.01044062902875,15.6665126430891224,-7.15822101232358587,-13.0493416654126992,28.3433982735650147,2.0793156764146703,4.43629727400979768,327.964078366998024,28.6213740481844567,13.14649915681143,70.0538227147798267,-0.432983887163363557,113.239307426655543,500.999429035205026,15.2880000000000003,0,9.86286244971857684,0.0841227773073372764,-1.36344640710321842e-07,0.00894595960465408707,-0.017871491685200528,-0.00067861082368495852
0.88,31.2221638761643021,131.010441882015897,15.9395739438715491,-7.03792298825357765,-12.9287004930645359,24.5226054968848963,2.11911851426110243,4.45146079263264571,294.482813471041823,28.8819025137040377,13.2809395603212401,70.0589643173987184,-0.461816601496860324,113.208636023165596,510.1483409277389,15.2880000000000003,0,9.89129673115174413,0.0848887735006217947,-1.44168125968263401e-07,0.00932015668755367503,-0.0185795089610749642,-0.000713412956562083523
0.89,31.222163363718483,131.010443147013461,16.2150302827968531,-6.91490440216401137,-12.8012258998263722,26.867941790943128,2.16089477649154027,4.46746572837778189,315.028134248086985,29.1604949046589574,13.4216616836695106,70.0643124614418298,-0.49179627883197391,113.176745554691792,520.02374555388883,15.2880000000000003,0,9.91957695622165581,0.0857078698120835314,-1.52147322536590418e-07,0.00969793541773758538,-0.0192992788652680547,-0.000749470719199294539
0.9,31.2221628452998381,131.010444424215592,16.4929384061892179,-6.80557415203506721,-12.6962343800676134,29.6487137012784565,2.1995292004881617,4.48161964351686581,339.378142354214447,29.3912394243559305,13.5454769616968722,70.0698685995646997,-0.5229441542104456,113.14361355732774,528.27201419571918,15.2880000000000003,0,9.94771404796363612,0.0863863397830095386,-1.60276061175474159e-07,0.010079426694742228,-0.0200312167179430324,-0.000785095760386613026
0.91,31.2221623209649621,131.010445713446387,16.7732496194284373,-6.69327692147185882,-12.584153840419706,22.6081387383911192,2.24012324391602879,4.49660527368725571,277.742181023078899,29.6400165592716576,13.6755679597523585,70.0756339608672505,-0.555280885637340571,113.109218188197019,537.238335858394521,15.2880000000000003,0,9.97569955268630792,0.087117817760669472,-1.68551132669923163e-07,0.0104644620474908662,-0.0207751861060856136,-0.00082196354861941226
0.92,31.2221617908886913,131.010447014198405,17.0558206820775879,-6.57831168259018195,-12.4653813513028577,26.8670810031163221,2.28271549747663727,4.5124244611161437,315.028134248062145,29.9067959532699135,13.8118949817468231,70.0816097148277635,-0.588827430887960634,113.073537292945815,546.938003100586002,15.2880000000000003,0,10.0035200655218421,0.0879022149425835175,-1.76971746495807304e-07,0.0108526765159530567,-0.0215306675675602452,-0.00086010638024073291
0.93,31.2221612549817351,131.01044832670334,17.340719223361706,-6.47526714055122898,-12.3666385813419542,31.9107182392586886,2.32225610636863644,4.52646492079585627,359.162507065472823,30.1283078716433792,13.93226632273511,70.0877969623193877,-0.623605017012316742,113.03654843897327,555.054877776677017,15.2880000000000003,0,10.0311901201640694,0.0885535686215610934,-1.85530802548147941e-07,0.0112442466695974481,-0.0222981732335257761,-0.000897715337634093853
0.94,31.2221607131394556,131.010449651241032,17.6280267147188248,-6.36468595646438651,-12.2522900547053748,23.2114659690022727,2.36552928725597722,4.54222252791149561,283.068750483778672,30.3890839172324085,14.066327491596013,70.0941966506618712,-0.659634688026317195,112.998229396354873,564.689452055798029,15.2880000000000003,0,10.0587094012618561,0.0893203349920147632,-1.94222566781863601e-07,0.0116392436631306776,-0.023078030197027373,-0.000937268292396648776
0.95,31.2221601656153211,131.010450987083004,17.9175369380716241,-6.25704949850837089,-12.1416146585485496,29.9969338334883595,2.40885668503502792,4.55779436938312532,342.421873617487279,30.6432736885231627,14.1979871458404361,70.1008097600007716,-0.696938348203242963,112.958557027883785,574.159696024424534,15.2880000000000003,0,10.0860667150945762,0.0900677499728909925,-2.03047880229662443e-07,0.0120372189045548986,-0.0238695483509627979,-0.000977396545482759173
0.96,31.2221596121405902,131.010452334972086,18.209463552681509,-6.15584953945738267,-12.0413088373431201,29.3870442447191174,2.45080721511981592,4.57245926276111714,337.095335156783449,30.8734955349236806,14.3211873803639431,70.1076371467706281,-0.735537917618312997,112.917508188767556,582.803047365601628,15.2880000000000003,0,10.113283837510032,0.090744724743626437,-2.11995860558295148e-07,0.0124386248011616948,-0.0246738038785107999,-0.00101754933841762159
0.97,31.2221590527282267,131.010453694860388,18.5037945983833936,-6.05376961426570315,-11.9377044265641707,18.8510627663606236,2.49415804230557026,4.58762479011112845,245.021887192993233,31.1135702248134507,14.4477560349684424,70.1146796400475836,-0.775455890327024111,112.875059132053877,591.885399229201084,15.2880000000000003,0,10.1403580895820724,0.0914506664590235829,-2.210629032340641e-07,0.0128433802589836433,-0.0254908404464960874,-0.00105880069429720321
0.98,31.2221584876304199,131.010455066023411,18.8003251378474054,-5.94513704885805794,-11.8198310917838008,27.3820122684763163,2.54139344382975363,4.60451850667624285,319.593746642958081,31.3926524953885959,14.5878360370125346,70.1219379435017629,-0.816714803026953429,112.831186074000328,602.534038848732166,15.2880000000000003,0,10.1672709231128824,0.0922712686985909941,-2.30252170576130712e-07,0.0132509473308087978,-0.0263197844479563271,-0.00110216749729061194
0.99,31.222157916709989,131.010456448837061,19.0991642236749719,-5.85157758910855907,-11.7293051430541713,29.9062319094441946,2.58333034832054276,4.61854832642760904,341.660948551705417,31.602007103180366,14.7035099294501137,70.1294127344268361,-0.859337821247012301,112.785864571880623,610.579795341917816,15.2880000000000003,0,10.1940430979592893,0.0928869302101275884,-2.39554326308269932e-07,0.0136616188827192071,-0.0271614174074014947,-0.00114387093840525775
1,31.2221573399633492,131.010457843306369,19.4003151926130641,-5.75168472524218632,-11.6249381108911365,26.76785994453369,2.62909494380938158,4.63426574969736826,314.26720818227642,31.8493538721278249,14.8323364495368075,70.137104407463994,-0.903347270259305835,112.739071085560852,620.157195722863776,15.2880000000000003,0,10.2206664401440861,0.0936142680316709996,-2.48966693905447575e-07,0.0140752647562081817,-0.0280156904936095762,-0.00118769473606016528
1.01,31.2221567575461734,131.010459248979942,19.7036510838915859,-5.6544947700483128,-11.5242431768033899,27.9854938563222895,2.67474805437477059,4.64970394542081777,324.920316103697928,32.0884691513340528,14.9581958280327196,70.1450133883265465,-0.948766474537304338,112.690781021677651,629.485715368268757,15.2880000000000003,0,10.2471371640264319,0.0943174183617546541,-2.58489153884149169e-07,0.014491587012067068,-0.028882201174768099,-0.00123196941877646519
1.02,31.2221561693887004,131.010460666051245,20.009229097696295,-5.56058958531134273,-11.4284892746525575,23.3622837951956086,2.71992575721782393,4.66468680090500865,284.590631615404163,32.3153311895845334,15.0796998489736662,70.1531399150046298,-0.995618496144568432,112.640970075912435,638.399235287073793,15.2880000000000003,0,10.2734618822870534,0.0949845599187322254,-2.68115545887316121e-07,0.014910662086831868,-0.0297613171314861542,-0.00127652043924030337
1.03,31.2221555755493299,131.010462094350629,20.3170027865064036,-5.46302881436623089,-11.3238612063353781,19.0852455178975688,2.76801883286067429,4.6808637545949825,247.30469339049705,32.5684699286144266,15.2102250534470791,70.161484079170009,-1.04392638663275505,112.589613964752914,648.420906935717767,15.2880000000000003,0,10.2996357943790464,0.0957289439092509353,-2.77844251079359172e-07,0.0153323033082953999,-0.0306528693729401919,-0.00132286081872970505
1.04,31.2221549760794694,131.01046353372584,20.6269306874838456,-5.37149097435836431,-11.2297880758816842,30.3323651902612923,2.81420680211432073,4.6958838781039951,345.465636880722968,32.7931301636846513,15.3307591097588816,70.1700459679435795,-1.09371406778277547,112.536687489568422,657.377923691911064,15.2880000000000003,0,10.3256627243380397,0.0963896278719900274,-2.87672252836851979e-07,0.0157564045783374351,-0.0315568497412246143,-0.00136878886684704739
1.05,31.2221543707320741,131.010464984887761,20.939217879037745,-5.27733101849507236,-11.1288360286982879,18.2891593105256973,2.86290368813944429,4.71188255824736224,240.456258798199826,33.0388916906236858,15.4585083482410823,70.1788254902569548,-1.14500529954440333,112.482165634495203,667.24800449953716,15.2880000000000003,0,10.3515572439808015,0.0971123427886812218,-2.97587744850246513e-07,0.0161833619166468975,-0.0324743263519754952,-0.00141637306089218893
1.06,31.2221537597113183,131.010466447247353,21.2536982724846197,-5.18126720963423093,-11.0223271442998207,26.0505710851497412,2.91391742038468937,4.7287458476083577,308.179683655939243,33.3028654504367125,15.5924386453123738,70.1878225795247062,-1.19782495871785821,112.4260222062574,677.932462858943609,15.2880000000000003,0,10.3773082336432712,0.0978885972494834139,-3.07594678876521333e-07,0.0166127235300932916,-0.0334045744365054631,-0.00146552342105140385
1.07,31.2221531429165005,131.010467921094062,21.5704566339295774,-5.09387875476981034,-10.9322015822280285,30.6730888625149234,2.96124912022853382,4.74360981368457679,348.509368144030759,33.5193876934077295,15.7098421921481712,70.1970371083637303,-1.25219855717478668,112.368230347830618,686.755530184191002,15.2880000000000003,0,10.4029307351881961,0.0985253828993974401,-3.17684387247710288e-07,0.0170446956381529527,-0.0343482708851453808,-0.00151336064939840034
1.08,31.2221525202629557,131.010469406678851,21.8895668494326614,-5.00607833684995729,-10.8397754208487722,20.6281579860382074,3.0099147492292988,4.75887030195069816,261.001578574662346,33.7435854854889357,15.8297998672304274,70.2064687228732538,-1.30815121665435252,112.308763627869553,695.95178890901434,15.2880000000000003,0,10.4284264254177366,0.0991847369800996082,-3.27851240757914082e-07,0.0174793340999784171,-0.03530579416095736,-0.0015622837287270683
1.09,31.22215189198727,131.01047090331906,22.2108361818972817,-4.911826837241966,-10.7321594455660261,18.962349808097283,3.06373292714359868,4.77630589721177934,246.543753324744074,34.0161363813431805,15.9663169200853687,70.216116957230156,-1.36570841251427511,112.247595249834532,707.217937280865726,15.2880000000000003,0,10.4537800750034826,0.0999862262121931494,-3.38102336008142733e-07,0.0179160809998472649,-0.0362761808843276509,-0.00161420392279810598
1.1,31.2221512581547813,131.010472410826964,22.5342132043748151,-4.82274761840116462,-10.6339051551547144,38.0890904632534131,3.11565938852569069,4.79258969374018751,413.189061738584087,34.2613400064104923,16.0932581785491848,70.2259812269576003,-1.42489596225861415,112.184698065153754,717.428291869593977,15.2880000000000003,0,10.4789967323736022,0.100707339440270771,-3.48435238988415504e-07,0.0183548087511253843,-0.0372593924329089957,-0.0016656015488743332
1.11,31.2221506184272748,131.010473930199026,22.8599849095888032,-4.74242368392826652,-10.5530478915805457,27.862252760838814,3.16303123424370103,4.80650344551256037,324.159391037639693,34.4517239150559007,16.2012124471601453,70.2360608538926812,-1.48574021956844726,112.120044367622185,725.400977608239828,15.2880000000000003,0,10.5041008109412886,0.101267323716108526,-3.58831371294865127e-07,0.0187961531928676866,-0.0382571068985365359,-0.00171507553620548056
1.12,31.222149972863189,131.010475461280208,23.1881093878828395,-4.64911111315409986,-10.442472423860492,10.4623081712900241,3.22038711267184974,4.82478417904600665,172.73281794065943,34.7392960128999349,16.3424858662502963,70.2463549285629654,-1.54826718178829403,112.053606840776226,737.538267493733542,15.2880000000000003,0,10.5290812398548397,0.102112990627701475,-3.69292807883326468e-07,0.0192398484076420177,-0.0392690249943837486,-0.00177015904833369717
1.13,31.2221493219598187,131.010477002608553,23.5181712019940328,-4.56453539201973779,-10.3494166695746994,32.8360493011134835,3.27306373050696342,4.84062909066902058,367.532807790070478,34.9712344540798483,16.4644699277676452,70.2568626669043965,-1.61250493976084996,111.985355954926391,747.395862174001536,15.2880000000000003,0,10.5539212482902514,0.102795135388047645,-3.79836847866899777e-07,0.019684902295525511,-0.0402931588401153409,-0.00182314028623882301
1.14,31.2221486651678148,131.010478555822317,23.8506409198417195,-4.48614979671626557,-10.2686872044900177,18.1391485094882015,3.32240195507759584,4.85468798336985063,239.695317731955441,35.1622437342356307,16.5722924934267866,70.2675828036890096,-1.6784795807435231,111.915264322965925,755.558427909977468,15.2880000000000003,0,10.57865422725291,0.10335697960963923,-3.90433766400190442e-07,0.0201323663804877581,-0.0413321925295704745,-0.00187470698532484349
1.15,31.2221480028996474,131.010480119718835,24.1851773151361265,-4.39523102411661792,-10.1584250198381199,17.8681511593403606,3.38238456683677002,4.87331945329672855,237.412511535467729,35.454642877919575,16.7147392522706681,70.2785139130177754,-1.74621736129438698,111.84330438833365,768.152006290732743,15.2880000000000003,0,10.6032498068873622,0.104216860077478018,-4.01103730362619082e-07,0.0205812261004095602,-0.0423840925861662873,-0.00193237938490204678
1.16,31.2221473352714298,131.010481693958383,24.5216856709656135,-4.31990864279863196,-10.0819028617383353,46.9104839914092295,3.43159254177963557,4.88679020534342268,490.043774384589426,35.6317583633870072,16.8175309399807986,70.289654662503267,-1.81574655701320387,111.769446462184348,775.820783689366067,15.2880000000000003,0,10.6277186085067754,0.104737878484356922,-4.11844406119635313e-07,0.0210313126320035987,-0.0434487277896100504,-0.00198443844691767197
1.17,31.2221466615729355,131.01048328069038,24.8607829548684869,-4.23856267667580333,-9.99030258209339017,8.22360911579829867,3.48672472815734569,4.9026651270377366,153.709379294867944,35.861480305724875,16.938226288257983,70.301003265345372,-1.88709360436356266,111.693662823045855,785.831041219898907,15.2880000000000003,0,10.6520933540682545,0.105413538723585498,-4.22618453306121845e-07,0.0214839634281409723,-0.0445295697247523811,-0.00204015173843560957
1.18,31.2221459827570484,131.010484877078142,25.2016607679875797,-4.14922850768042029,-9.87867581337816247,22.7442938829794521,3.5499737484528775,4.92186656944475409,280.025018221967457,36.1644233291193373,17.0837550791050958,70.3125579481930174,-1.9602864664645383,111.615924137468568,799.137706621241023,15.2880000000000003,0,10.6763037802859682,0.106304437844117458,-4.33475637271780464e-07,0.0219370321366336579,-0.0456218435645308479,-0.00210070489824657142
1.19,31.2221452984031949,131.010486484398115,25.544686520477768,-4.08031365055161732,-9.81323722936213549,39.81208751999133,3.59687553678998739,4.93350259918563427,428.407813052929214,36.3006874971533691,17.1722191018003656,70.3243168477176681,-2.0353539750225571,111.536200164257863,805.144674292246009,15.2880000000000003,0,10.7003841346381048,0.106705396103748767,-4.44382261228477247e-07,0.0223915320754623365,-0.0467282522424211921,-0.002152236450137914
1.2,31.2221446081623633,131.010488103745246,25.8901759826431856,-3.99672212465410537,-9.71193578509457112,3.98354803032305282,3.65796171669156323,4.95113728339717962,117.184374136023607,36.5682426557967588,17.3053509381224728,70.3362775741747157,-2.11232256953171316,111.454463215307968,817.029977497849586,15.2880000000000003,0,10.7243609882408304,0.107492290101671203,-4.55322414657046738e-07,0.0228479480743242931,-0.0478503409436774121,-0.00221221942972979696
1.21,31.2221439129758025,131.010489732280149,26.2373197635204711,-3.91491692656560097,-9.61326674223993471,31.9187691446174924,3.71893484619206305,4.96840140940630093,359.923432132008998,36.827936891429971,17.435588856366234,70.3484379397010855,-2.19122180597136795,111.370682303247975,828.648044003133236,15.2880000000000003,0,10.7481935759825493,0.108256084997941385,-4.66345948837012874e-07,0.0233042120779664644,-0.0489833696104480729,-0.00227234485414089422
1.22,31.2221432121432301,131.010491372161567,26.5867378629547275,-3.84669362042053153,-9.54595846307545948,23.0609486197258988,3.76804512028086069,4.98018777848225724,283.068750482576149,36.9685244745160375,17.5251570419319478,70.3607953366154248,-2.27207969880391447,111.284828093063368,834.958683502176655,15.2880000000000003,0,10.7719311906170034,0.108669772114022081,-4.77402137958531596e-07,0.0237618810120134166,-0.0501314966983192473,-0.00232573797188343877
1.23,31.2221425059614361,131.010493022523946,26.9381854248149288,-3.76546440291365947,-9.44571831727083833,8.85133309152028147,3.83116985049256575,4.99777075503729318,159.796873822227951,37.2354887527276688,17.6575328922622923,70.373346753073676,-2.35492275760466141,111.196872858323331,847.032759915384304,15.2880000000000003,0,10.7955459394584956,0.109454953477320829,-4.88512654601569592e-07,0.0242200551775276877,-0.0512928601055049199,-0.00238762091684744607
1.24,31.2221417948272801,131.010494682167661,27.2913219345232712,-3.68982931880769671,-9.35771536754838174,38.6490029988833683,3.8899788808382243,5.01316334695100618,418.515630199805003,37.4558920997534983,17.7738891354327251,70.3860892555265565,-2.43977984171011109,111.106786389783338,857.060831691895487,15.2880000000000003,0,10.8190294248457963,0.110103275226066444,-4.99695564270931174e-07,0.0246778425835807759,-0.0524655215456379664,-0.00244706660508865618
1.25,31.2221410781057429,131.010496353091838,27.6467219869323557,-3.62182684349155659,-9.28748095934735574,18.5602503339726503,3.94170295902321044,5.02521443777235266,244.260946125734876,37.6050051172360753,17.8659337431093448,70.3990195241498782,-2.52667850129943439,111.014539882122349,863.868890628377926,15.2880000000000003,0,10.8424096939521384,0.11054204301088226,-5.10902193176591404e-07,0.0251366277315088482,-0.0536533650022878519,-0.00250239747895906637
1.26,31.2221403562412441,131.010498033964438,28.0040072431870186,-3.54092993129546674,-9.18349291884250185,10.8292569740804225,4.00883920718839448,5.04352122846824713,177.298446336408631,37.8898054473599899,18.0037589994325522,70.4121339404071307,-2.61564563687706997,110.920105229840686,876.973308052771699,15.2880000000000003,0,10.8656183355669338,0.111379678829525694,-5.22165708603485106e-07,0.0255951766562248217,-0.0548536107274338741,-0.00256725630557257285
1.27,31.222139629382518,131.010499724344072,28.3630541151404287,-3.47174335859364946,-9.10785876272413653,37.1384711862079158,4.06395567805943347,5.05639335647517463,405.579686079964688,38.0593993855406367,18.1024001967154504,70.4254290361217699,-2.70671134336758801,110.823450949138447,884.810985340992261,15.2880000000000003,0,10.888711701647944,0.111878665182345086,-5.33484806356060676e-07,0.0260532322528255859,-0.056065916404383638,-0.00262480644985988018
1.28,31.2221388970388425,131.010501425822042,28.7243207541718633,-3.40077551836406711,-9.02641388112608034,11.8563962309895938,4.12223525736895713,5.07028892008564025,186.429688124688823,38.2520525364395425,18.2086914114800464,70.4389007063363692,-2.79990228109242656,110.72454921482101,893.76030067485965,15.2880000000000003,0,10.9117108003525178,0.112445443082862556,-5.44823789620760865e-07,0.0265117200293071564,-0.0572931282713699669,-0.00268442527581476973
1.29,31.2221381598515038,131.010503136421647,29.0872442418740071,-3.32414876582605689,-8.92876503196209192,19.6549424310276883,4.18883663382497051,5.0873303778658796,254.153128984572163,38.5134092366582337,18.3379558406617456,70.4525447729971006,-2.89524646719570855,110.62337077116382,905.983650421328662,15.2880000000000003,0,10.9345828028230745,0.113214188979290045,-5.56227837290957446e-07,0.026969039368678293,-0.0585313813874041231,-0.00274929265110862835
