Time,Latitude,Longitude,Altitude,Angle of Attack,Angle of Sideslip,X-Acceleration,Y-Acceleration,Z-Acceleration,Thrust,True Velocity,Ground Velocity,Pitch,Roll,Yaw,Dynamic Pressure,cp,cg,parachute_deploy_gain,Wind Speed,Wind Direction,Mach,omega_x,omega_y,omega_z,Cmq,Angle of Attack(total),Angle of Attack(gust),True Velocity(gust),Acceleration
0.0,31.222216000000007,131.010392,3.000000004412624,0.0,0.0,0.0,0.0,0.0,2.2828121974499247,0.0,0.0,69.99999999623412,0.0,119.9999999935444,0.0,1.274,1.0271675151847728,0.0,0.0,0.0,0.0,0.0,0.0,0.0,-0.0,0.0,90.0,0.0,0.0
0.01,31.22221599999084,131.01039200000497,3.000002745347096,0.0,0.0,0.0,0.0,0.0,34.242186961749226,3.465174813755316e-14,2.8705476994166025e-14,69.9999999962611,-2.1713911667908447e-11,119.99999999352175,7.352495975525499e-28,1.274,1.0271659134330349,0.0,0.0,0.0,1.0183245502395064e-16,-3.3305335486039093e-18,7.169286865560398e-18,5.624298769768554e-18,-7.715917190115602e-34,0.0,89.99999999999979,3.465174813755316e-14,0.0
0.02,31.222215999994315,131.0103920000094,3.0000030495639742,0.0,0.0,0.0,0.0,0.0,25.871876237766216,3.8197434737535036e-11,2.4171837235633357e-11,69.99999999628672,-1.1921727947863515e-11,119.99999999353136,8.93414285188691e-22,1.274,1.027164492361118,0.0,0.0,0.0,1.1225230367947217e-13,-6.657678965418802e-18,1.4338573731120796e-17,1.1241821275959074e-17,-1.7010872994127372e-30,0.0,89.99999999975682,3.8197434737535036e-11,0.0
0.03,31.222215999994315,131.0103920000094,3.0000030495639742,0.0,0.0,9.81877837424427,-2.5122800045972096e-05,3.3498614629347925,180.34219359854663,1.2659015405517447e-10,1.1364406173918436e-10,69.99999999631459,-1.6431898037347223e-11,119.99999999352724,9.812605835254651e-21,1.274,1.0271551940870716,0.0,0.0,0.0,3.720154642239108e-13,-9.991600645811728e-18,2.150108433310316e-17,1.6859343782149594e-17,-8.453698244545225e-30,0.0,89.99999999919412,1.2659015405517447e-10,10.374487003414373
0.04,31.222215999994315,131.0103920000094,3.0000030495639742,18.83801224594347,-0.0001111777826462,48.68248476615645,-1.016330065874988e-05,3.3497854396877287,548.635972453808,0.1556173050466994,0.0975908358443652,69.99999999633813,-2.0932768807056278e-11,119.99999999352085,0.0148286043323172,1.274,1.027133720825283,0.0,0.0,0.0,0.0004573186944143,-1.3322134194415637e-17,-1.04744143520903e-11,1.336824254131964e-11,5.0626055458604615e-15,18.83801224625964,89.06236267790787,0.1555998412814392,48.79759610369246
0.05,31.22221599164764,131.01039201704114,3.002326315126219,5.772385609593056,-4.395076213712875e-06,71.20344550265034,4.905512691849684e-05,3.349217396035405,761.6984298824663,0.8326471944351852,0.3620326097059287,70.00000001316391,-1.0866255162484559e-10,120.00000000231074,0.4245281043148827,1.274,1.027093426565204,0.0,0.0,0.0,0.0024469331205246,-5.0245994431125096e-18,-7.32924164976824e-07,2.217344936947165e-11,1.895424184525467e-09,5.772385609594774,84.74112356985832,0.8326465040582279,71.28217104309611
0.06,31.22221596664444,131.01039206837547,3.015081730143309,4.056581213689704,3.169093567502233e-05,53.16249142470188,0.0001203825427859,3.3481235983850643,590.4875390737236,1.657216205300742,0.6755452977614796,69.99999964391398,-3.9285905645317736e-10,120.0000000287861,1.6816755551786196,1.274,1.027050317124926,0.0,0.0,0.0,0.0048701272653724,3.095757869075056e-13,-7.483541766772344e-06,3.074135420506017e-11,3.8518749565858254e-08,4.056581213813337,79.59316473687034,1.657221183301277,53.26781792157489
0.07,31.22221592883117,131.0103921460222,3.034593611434361,4.115662018628709,6.450869598349036e-05,81.18203554989698,0.0001593212642178,3.347059402768047,855.2937749779172,2.099899704220947,0.8579771146174259,69.99999543281565,-8.233801910783518e-10,120.00000006883089,2.700101932075157,1.274,1.027003201295312,0.0,0.0,0.0,0.006171060252819,3.4704292086287e-12,-2.6327204536316785e-05,1.9541142932033486e-10,1.7170712165327165e-07,4.115662019133419,76.90111966094352,2.099909837223217,81.2510043180746
0.08,31.22221588914193,131.01039222747755,3.0542761843835606,3.459696193892355,8.037433511260004e-05,16.298214211652088,0.0002413456836072,3.344878926597744,241.2171988638792,3.051964775152957,1.2149999716613011,69.99998042886442,-1.0128995578004475e-09,120.00000011111383,5.703497661025892,1.274,1.0269597189470347,0.0,0.0,0.0,0.0089689344021769,1.458982438104473e-11,-5.702803872814215e-05,7.043261397829576e-10,5.405702492731987e-07,3.459696194824858,71.30331929508368,3.051977400323993,16.63790856991177
0.09,31.2222158241468,131.01039236098703,3.0886872184095737,4.313676956300389,0.0001337561018991,50.35975918308536,0.0002293282821279,3.344215841840564,563.0937377043203,2.893161298572128,1.191209213966114,69.99994788602814,-7.098432023887522e-10,120.00000018106356,5.125380275808925,1.274,1.026918932011013,0.0,0.0,0.0,0.0085022553945842,3.8672912027154325e-11,-0.0001115933708951,2.016054215232918e-09,1.0027525988343615e-06,4.313676958370176,72.2316578138625,2.893182308931483,50.47067588835877
0.1,31.2222157788302,131.01039245392113,3.109877853389092,4.035124630954496,0.0001457499816535,47.804664812504015,0.0002878217657545,3.341734392237128,538.7437595981891,3.5677148583138303,1.4531247507621967,69.99988403958329,1.9248461973355822e-09,120.0000002323013,7.7939962029572305,1.274,1.0268846934974103,0.0,0.0,0.0,0.0104845969583028,8.579678749070606e-11,-0.0001726817043215,3.984565639703107e-09,1.913455350430327e-06,4.0351246335824245,68.43243098813296,3.567737752667411,47.92132267234452
0.11,31.222215703308,131.01039260899836,3.148841432727305,4.043401107254707,0.0001752764476999,37.67622367577205,0.0003286462930162,3.3392563999062723,442.86563930529127,4.034183355956686,1.6436552022667772,69.99978525353545,7.302513231814865e-09,120.00000031883242,9.96528118825134,1.274,1.026848594915519,0.0,0.0,0.0,0.0118554331868328,1.5870341853361987e-10,-0.0002596204409236,7.232030302688121e-09,3.252930323390323e-06,4.04340111104746,65.92012987243639,4.034210888316708,37.82391391539392
0.12,31.222215627491828,131.01039276462643,3.186995101203875,4.17874459224363,0.0002066711490009,41.15991989399172,0.0003576945202315,3.336766085769504,475.58594813540793,4.361857560629481,1.7865750500940407,69.99963665601238,1.781774420198147e-08,120.00000041104812,11.649831899889556,1.274,1.0268114448194128,0.0,0.0,0.0,0.0128183893919737,2.682972478760441e-10,-0.0003710216542429,1.2215991071490164e-08,5.026311388647148e-06,4.178744597345269,64.21681651392016,4.361890024457652,41.29495143136631
0.13,31.22221554594398,131.01039293200228,3.2277173449026786,4.202734874672792,0.0002327160860324,45.44886120763352,0.0003953741266062,3.333578629398489,515.9156326236897,4.792165672014363,1.9646716520715424,69.99942424225341,3.613383418913551e-08,120.00000051758742,14.061726603124043,1.274,1.026779572895131,0.0,0.0,0.0,0.0140829618979635,4.248908088871395e-10,-0.0005056103199642,1.908859219307828e-08,7.5253154423526356e-06,4.202734881104192,62.048594618540655,4.792202226971676,45.570952718869485
0.14,31.222215454191247,131.01039312033683,3.2737880595608355,4.184830647080848,0.000257138757548,42.32232525579263,0.0004369426767266,3.329727443445437,486.2390860568421,5.269261304374574,2.158791628597544,69.99913473613935,6.515851355725497e-08,120.00000064630268,17.000925061330125,1.274,1.0267449573927567,0.0,0.0,0.0,0.0154850332441425,6.382432869666793e-10,-0.0006690086306358,2.8426433029675884e-08,1.0948547100483978e-05,4.184830654966803,59.74181173116622,5.269301695636157,42.45310707234106
0.15,31.222215353826755,131.0103933263496,3.3242182719560263,4.21963947489699,0.0002846467688673,40.886944113003565,0.0004726792395108,3.325585650885676,472.5421858721398,5.6781946837482895,2.329510773545807,69.99875162806286,1.0876776246115984e-07,120.00000079954532,19.742017654108928,1.274,1.0267115958081523,0.0,0.0,0.0,0.0166867950518804,9.204756288136623e-10,-0.000865746478554,4.08948221429571e-08,1.526771148078443e-05,4.219639484480408,57.84996018384879,5.678239395958187,41.02196629910223
0.16,31.222215247130432,131.01039354534575,3.3775922280208457,4.253495568077899,0.0003118339050386,32.26872905470846,0.0005078415214353,3.32090791922544,391.1218908297597,6.081244877834229,2.4981889727471702,69.99825581174558,1.7187028096464329e-07,120.0000009800088,22.644030778355887,1.274,1.026675762255412,0.0,0.0,0.0,0.0178712695992133,1.2856146928958252e-09,-0.0010961187242953,5.6923362293832417e-08,2.0702404729358337e-05,4.253495579487569,56.06022383757386,6.081293860589489,32.43916312841722
0.17,31.22221513260033,131.01039378041813,3.4348437275053194,4.364838523348639,0.0003448792023946,40.840448242802736,0.0005326487904353,3.3162727284953744,471.78125980632416,6.362544479165355,2.6250789114832647,69.99762801982864,2.5997588617291615e-07,120.00000119506798,24.78723182122683,1.274,1.0266409836796937,0.0,0.0,0.0,0.0186979513961862,1.747791994374917e-09,-0.0013624931601664,7.706724512977917e-08,2.6923621797558364e-05,4.364838536947241,54.85936171416122,6.362598652663785,40.97486885600156
0.18,31.222215014088988,131.01039402363364,3.4935801365785646,4.353948305387995,0.0003681615230806,33.992183768165326,0.0005718025428208,3.310131992647221,407.1015672119096,6.81502088160835,2.810667639293692,69.99684761766231,3.794979223522764e-07,120.00000144728236,28.437950785509614,1.274,1.0266048342046536,0.0,0.0,0.0,0.020027681385988,2.3221419748804155e-09,-0.0016616990447559,1.0147209890543081e-07,3.517105786247627e-05,4.353948320923495,52.99157233768714,6.815078712285162,34.152972512863755
0.19,31.22221488419521,131.01039429023237,3.558399965607869,4.432620772533925,0.0003996774584738,38.45149959021069,0.0005986099513107,3.304145139297767,448.95313283182486,7.1223367465208405,2.946425726785696,69.99589577323147,5.440084577183829e-07,120.00000176148238,31.060341085698347,1.274,1.026566130444714,0.0,0.0,0.0,0.0209308229359413,3.022391489754689e-09,-0.0020041563310821,1.3135864879722746e-07,4.433199397898183e-05,4.432620790516937,51.77883352025967,7.122399527709208,38.59320142454953
0.2,31.222214751373183,131.01039456280608,3.624052454705669,4.443889400961181,0.0004246617145652,35.23432408779927,0.0006337972852267,3.2968110145188256,418.5156301991588,7.530482904611057,3.1167566004785483,69.99474776398331,7.478025600151903e-07,120.00000211715036,34.72195181863731,1.274,1.026529240027363,0.0,0.0,0.0,0.0221302820454282,3.866698391504749e-09,-0.0023849544920781,1.668144671071589e-07,5.57780533277244e-05,4.443889421210987,50.22448880200342,7.530549610317194,35.38822625098952
0.21,31.222214608673173,131.01039485566503,3.6948551453492566,4.493351735844891,0.0004538195602194,33.79371564104691,0.0006629296043866,3.2891790438445727,404.8187610144608,7.868284042829251,3.2629204975089228,69.99338155599101,1.0150082652278477e-06,120.00000255293388,37.906665490338085,1.274,1.0264923657015164,0.0,0.0,0.0,0.0231230169900677,4.871073773182836e-09,-0.0028117605859743,2.089322918608601e-07,6.870935089180403e-05,4.493351758715364,48.992529909481824,7.868355328639073,33.95340801819282
0.22,31.22221446109996,131.01039515850383,3.767700382407304,4.5412639153933885,0.000482649303782,41.008966751568416,0.0006914639179131,3.2808061382386606,472.5421858721387,8.20057841132235,3.4071691679735228,69.9917708347139,1.3454961520984431e-06,120.00000305929996,41.175744234065135,1.274,1.0264494137127138,0.0,0.0,0.0,0.0240995709751246,6.054779813287368e-09,-0.0032829112061357,2.580881224843564e-07,8.3609968899004e-05,4.54126394098788,47.82515604752711,8.2006542256977,41.13999323561041
0.23,31.22221430675399,131.0103954752338,3.843768625625224,4.52371495179584,0.0005047555656171,33.98493478127787,0.0007294889663961,3.2705214710765107,406.340642146096,8.647938096586296,3.5908865300848416,69.98989017772566,1.7539876018835507e-06,120.00000365514876,45.79040229326471,1.274,1.0264133390858623,0.0,0.0,0.0,0.0254142776666487,7.436335125872812e-09,-0.0038001790077148,3.1489825108822685e-07,0.0001020628978177,4.523714979897577,46.31461705147579,8.648017383405135,34.14194053232237
0.24,31.222214142622448,131.0103958120587,3.92493179063287,4.57837522350066,0.0005351929930195,35.051650311058864,0.0007555049947555,3.26053011385611,416.2328240017099,8.954297884844461,3.72617527247482,69.98771316795013,2.25257161141768e-06,120.0000043564586,49.09180568115741,1.274,1.0263750048312463,0.0,0.0,0.0,0.0263146218848643,9.034877387788232e-09,-0.0043732521010013,3.809642748985157e-07,0.00012161410144,4.578375254714954,45.32798984252032,8.954381952763216,35.20297212911011
0.25,31.22221397517227,131.0103961556623,4.0071748888306855,4.6034117733065,0.0005618935542827,36.03738579534623,0.000785606492708,3.249069743648399,425.3640807915084,9.311611941121669,3.8789349536029696,69.98520781816889,2.8559738498748624e-06,120.00000517181904,53.08749562138344,1.274,1.0263373768840591,0.0,0.0,0.0,0.0273647110956883,1.0873791100894836e-08,-0.0049950711786164,4.5609738277273444e-07,0.0001444478241125,4.603411807525074,44.2165428352526,9.311700203154778,36.183554686886296
0.26,31.22221379934012,131.01039651647062,4.09364247475714,4.621386912291471,0.0005881033207375,39.29107511182762,0.0008162761165496,3.236407051295005,455.80158342417656,9.67833954512075,4.034902068846398,69.98234620927953,3.5784678110229355e-06,120.00000612171208,57.350948423913096,1.274,1.0263006300381676,0.0,0.0,0.0,0.0284424679130479,1.2973286442992724e-08,-0.0056712051373577,5.414206381221602e-07,0.0001704578711045,4.621386949630312,43.12063533194282,9.678431924174348,39.42414126789902
0.27,31.222213616776543,131.01039689108487,4.183310605341074,4.617158109135719,0.0006115457810536,35.90419462403674,0.0008503454714941,3.221982799915672,423.8421996598744,10.088790784535757,4.205862468567124,69.97909721779352,4.436165972465058e-06,120.000007221354,62.31798301949865,1.274,1.026260090595354,0.0,0.0,0.0,0.0296487219805601,1.5355910600537293e-08,-0.0064045199323113,6.379142666348734e-07,0.0002006609239367,4.617158149547818,41.94410287616451,10.08888684592241,36.048472443180565
0.28,31.22221342607797,131.0103972823952,4.277051150896916,4.642105655370123,0.0006389739579882,41.51133203546672,0.0008785747638736,3.2071101123224945,476.3468732012228,10.432377224420517,4.35383399240675,69.97542808435722,5.446665372087172e-06,120.00000849080963,66.63429581008447,1.274,1.0262212716723291,0.0,0.0,0.0,0.0306584788590473,1.8045308789081613e-08,-0.0072006835403936,7.469524967369969e-07,0.0002332868227611,4.642105699250441,41.0023231023774,10.432477594215127,41.63503624837164
0.29,31.22221323001776,131.01039768469093,4.373143569786686,4.62134615173668,0.0006600657405645,33.17552944492765,0.0009148746278066,3.1894209319791806,397.9703104221098,10.876662296046485,4.536381530986506,69.9713027936179,6.629751536885327e-06,120.00000994797426,72.43000748232016,1.274,1.026183007522519,0.0,0.0,0.0,0.0319641703260467,2.1067646517035105e-08,-0.0080566154554079,8.688043379161898e-07,0.000272130659453,4.621346198772975,39.83162628795024,10.876765978930557,33.32848872465723
0.3,31.22221302403368,131.01039810736614,4.4744193758467325,4.664362353358112,0.0006905183788532,31.08096762732793,0.0009381960428197,3.172549142946348,378.1859457108735,11.168362145070317,4.66647911311536,69.96668711012893,8.005507138509574e-06,120.00001161892672,76.36634300732833,1.274,1.0261430389738484,0.0,0.0,0.0,0.0328214509167604,2.4447409007156216e-08,-0.0089829108229115,1.0056222251461646e-06,0.0003115527202986,4.664362404357781,39.09908960432563,11.168470611443622,31.242464973103964
0.31,31.22221281503337,131.01039853619727,4.576593712520673,4.700143580504286,0.0007196683316923,32.79732593144512,0.0009620705970519,3.154230688182399,394.1656220930229,11.470279728974068,4.800072153432283,69.96154070456518,9.597499105113692e-06,120.00001352112182,80.55022837857167,1.274,1.0261054058068628,0.0,0.0,0.0,0.0337087616009043,2.8214060606649844e-08,-0.0099686353219717,1.1565909895184251e-06,0.0003550834484269,4.700143635477137,38.36463422765983,11.47039277421126,32.94865339301887
0.32,31.222212598991007,131.01039897947376,4.68216432480395,4.718667719113184,0.0007464384342556,35.7316568886908,0.0009885845337584,3.133859770838664,421.5593934624264,11.808280530415894,4.946054328851105,69.95582953472353,1.14278227255889e-05,120.00001568218067,85.36654007972253,1.274,1.026068246703101,0.0,0.0,0.0,0.0347021168382987,3.2392058795580455e-08,-0.0110163301561155,1.3226102501723267e-06,0.0004039614423012,4.718667778018562,37.5686120062341,11.808397780690962,35.8688218659563
0.33,31.222212376029034,131.0103994369436,4.791055524254013,4.72141404831576,0.0007708346814671,35.42013590291081,0.0010176135371143,3.1111955852784385,418.5156301991632,12.181577273013426,5.104163223586657,69.94951809396906,1.351997394754887e-05,120.00001812674968,90.84831229869296,1.274,1.0260310883392356,0.0,0.0,0.0,0.0357992034445943,3.700677535501642e-08,-0.0121310534481307,1.5051409581878843e-06,0.0004588955105349,4.721414111097893,36.7208578211118,12.181698355442045,35.55651229220977
0.34,31.222212145785647,131.0103999093516,4.903491659547144,4.73024573449122,0.0007962944975467,27.63851074646407,0.0010446307681611,3.0871492806781062,345.4656368807584,12.53557620048282,5.2556261014174765,69.94256797855994,1.5899658158227497e-05,120.000020882338,96.20413272674828,1.274,1.0259901535019136,0.0,0.0,0.0,0.0368395817555172,4.208561016221623e-08,-0.0133180771902383,1.7057647550599631e-06,0.0005184333231541,4.730245801363397,35.94841996438923,12.535701282129995,27.810389570354005
0.35,31.222211909310875,131.01040039453565,5.018822212845608,4.780248518778662,0.0008286678570753,30.332092807652543,0.0010618579815451,3.063967690608957,370.5765700527057,12.774786382148209,5.367579971644358,69.93493776125636,1.8594985713558667e-05,120.00002397748868,99.9096898192772,1.274,1.025950003202184,0.0,0.0,0.0,0.0375426220587071,4.7658312175989686e-08,-0.0145774693288123,1.9252724355785177e-06,0.0005782798420984,4.780248590437683,35.44790728185619,12.774916548990808,30.486451961956565
0.36,31.22221166933814,131.0104008868675,5.135354490370708,4.798132156899578,0.0008554457330409,34.32674769697476,0.0010851169437774,3.0374319611165923,407.8625232777224,13.09301701329486,5.506730645516068,69.92658597246795,2.163521613217148e-05,120.0000274401514,104.94818266210537,1.274,1.0259105142325406,0.0,0.0,0.0,0.0384778908056978,5.3755109608570216e-08,-0.0158991451700967,2.162609490834569e-06,0.0006464142451675,4.798132232978766,34.796094028187134,13.09315138639638,34.46087058603792
0.37,31.222211421355144,131.01040139563804,5.255882891363927,4.797392186816851,0.0008791822061288,32.551601855236584,0.00111162791192,3.0078619428913056,391.1218908297639,13.457513730739372,5.661815946371007,69.91747693543164,2.5047738471809164e-05,120.0000313040604,110.87154396328836,1.274,1.025872170958032,0.0,0.0,0.0,0.0395491312153729,6.040098808671168e-08,-0.0172926678053148,2.420031948898497e-06,0.0007226353721561,4.797392267189059,34.07332166419882,13.457651832357364,32.69027405888565
0.38,31.22221116634284,131.01040191882743,5.379799334000849,4.811698494594017,0.0009057112478668,34.02947987649063,0.0011338447913587,2.9774881690446744,404.81876101445977,13.77554886562956,5.800899861213392,69.90756948297444,2.886339581486796e-05,120.00003560072224,116.17243393848278,1.274,1.02583050512925,0.0,0.0,0.0,0.0404838339452728,6.762496638941508e-08,-0.0187646375218858,2.69955777313946e-06,0.0008026686661094,4.8116985796350695,33.46655348088405,13.775691134419684,34.15949264475229
0.39,31.222210906095896,131.01040245274032,5.505993307722699,4.813508003664984,0.000929862892873,29.00025983045028,0.0011579891265804,2.9442136901860865,357.6406249338268,14.124492165837273,5.950648592462506,69.8968186645841,3.311602501056718e-05,120.00004036395212,122.13093644173792,1.274,1.02579027384009,0.0,0.0,0.0,0.0415093739609825,7.545934774906889e-08,-0.020311592409804,3.0013532510753577e-06,0.0008908380763632,4.813508093268025,32.821616487639595,14.124638228358922,29.149330452482886
0.4,31.222210638473225,131.0104030017851,5.635788650457906,4.841647069358873,0.0009592124397379,27.71178845184976,0.0011749448424961,2.91135549588368,345.4656368807565,14.390874239274588,6.07193451174791,69.8851815212744,3.783947407715338e-05,120.00004563180136,126.77947425345651,1.274,1.0257493418632293,0.0,0.0,0.0,0.0422922854866381,8.39343718693383e-08,-0.021938519432511,3.3271332720311508e-06,0.0009803271643914,4.841647164150728,32.348088166612904,14.391024912012275,27.864299944624147
0.41,31.22221036681104,131.01040355909262,5.767123077463226,4.86553909860892,0.0009876699832274,31.306062598221665,0.0011918093836199,2.876450850006428,378.9468707766882,14.663028799871563,6.195223154320929,69.87261222561014,4.307011032901644e-05,120.0000514391194,131.6183642808765,1.274,1.025708445186429,0.0,0.0,0.0,0.0430921644173401,9.308325447883581e-08,-0.0236371933433427,3.6760977501392174e-06,0.0010761942383903,4.865539198612839,31.87689439156756,14.663183942709727,31.437931330109585
0.42,31.22221008906472,131.01040412887247,5.901259531771367,4.867510642114694,0.0010118258958528,35.308283402190774,0.0012128114559048,2.8374461227958245,416.23282400171047,14.9952917972178,6.33928625560071,69.85906967380902,4.884273094936628e-05,120.00005782486392,137.64909586091787,1.274,1.0256701057426505,0.0,0.0,0.0,0.0440686959134695,1.0293499639582845e-07,-0.0254093547296826,4.049238334851429e-06,0.0011830797791891,4.867510747027452,31.315270489291198,14.995450734457847,35.422111438762386
0.43,31.222209804115888,131.01040471342728,6.038886819939341,4.854590670645608,0.0010330089741511,31.00586934514032,0.0012363751872706,2.794478603999558,375.90313951343126,15.369430568701889,6.497852263156962,69.8445117629242,5.519340856908871e-05,120.00006482835984,144.60167924299955,1.274,1.0256308158337524,0.0,0.0,0.0,0.0451682983415116,1.135186446762958e-07,-0.0272634397889413,4.449073329427772e-06,0.0013010625065656,4.854590780289497,30.70250814963406,15.369592833372094,31.13154422839874
0.44,31.22220951192321,131.01040531284193,6.180028459770617,4.866912332640401,0.0010595850174406,28.57707721036899,0.0012525768202179,2.752165534925872,353.07501253892326,15.659290812546615,6.627318538707029,69.82889155423543,6.216182865383864e-05,120.00007249162944,150.1053167542629,1.274,1.025586171750536,0.0,0.0,0.0,0.0460202245100907,1.2486676023179565e-07,-0.0292060158163984,4.8779154055816594e-06,0.001420032405556,4.866912447705031,30.24619499837236,15.659457251771938,28.709297424144207
0.45,31.222209215425703,131.01040592106523,6.322872201489905,4.881836476567178,0.0010866574689855,33.31904824532484,0.0012669045761511,2.7082028218433374,397.2093853562887,15.934249290371609,6.751662050993672,69.81215834018458,6.97909417564726e-05,120.00008085697964,155.42080512416243,1.274,1.0255397023523487,0.0,0.0,0.0,0.0468283602442113,1.3701614206272197e-07,-0.0312276295846745,5.334643585560923e-06,0.0015449645531859,4.8818365972149325,29.82567893138932,15.934419982127675,33.428929688274074
0.46,31.22220891307435,131.0104065412864,6.468371919199588,4.869610441729251,0.0011078049156487,38.95909776354321,0.0012868374716666,2.6582856015412624,449.7140588976424,16.292139278621757,6.904766425053949,69.79426683863348,7.812149592850748e-05,120.00008996920153,162.4785746623087,1.274,1.02549635315424,0.0,0.0,0.0,0.0478802236363867,1.499987870203256e-07,-0.0333272350234362,5.819761874615242e-06,0.0016858511402973,4.869610567434908,29.29014635640275,16.292313292210977,39.04968351401366
0.47,31.22220860266524,131.01040717804253,6.6178810515614845,4.838450928223533,0.0011247917292402,26.253747818137555,0.0013104398935566,2.6026193242279367,331.0078106302504,16.710658191447514,7.078951441335346,69.77517236812905,8.719457259907165e-05,120.0000998741591,170.9309671061642,1.274,1.025453319323251,0.0,0.0,0.0,0.0491102725711187,1.6384464803343264e-07,-0.0355167087264168,6.3368207228363735e-06,0.0018427306558807,4.838451058652396,28.68386015667837,16.710834873319172,26.382435512333956
0.48,31.222208284201663,131.0104078313267,6.771393590864176,4.869339340099417,0.0011561785713505,25.860860976019296,0.0013165328518772,2.5543454292827983,327.20312230115803,16.911139899671,7.177575416403102,69.75482343794755,9.70562828082882e-05,120.00011062072316,175.0543877818846,1.274,1.0254092882449153,0.0,0.0,0.0,0.0496995461609974,1.7858865391586845e-07,-0.0378054080201581,6.88909442277235e-06,0.0019849793891693,4.869339477030596,28.40887970825325,16.911321511776286,25.986704537635287
0.49,31.22220796480208,131.01040848648364,6.924537656029012,4.881367714530694,0.0011829003785372,32.565703383222065,0.0013261973190012,2.5011623511055703,389.6000096981238,17.169005224738054,7.296160258358563,69.73316318155707,0.0001077573203115,120.000122255028,180.4309832312717,1.274,1.025367445590036,0.0,0.0,0.0,0.05045746454003,1.942747077649401e-07,-0.0401641298712614,7.47069711110948e-06,0.002140948887153,4.881367857509675,28.058569663954906,17.169191034294997,32.66161128464712
0.5,31.222207637929923,131.01040915697027,7.081324512896956,4.862566137860805,0.001202418260511,33.47759680712428,0.0013425340759632,2.4399894027711366,397.970310422106,17.52898693231981,7.450304424940405,69.71015149227495,0.0001193385310595,120.0001348274002,188.0736471953394,1.274,1.0253278572281015,0.0,0.0,0.0,0.0515154948878309,2.109295159784217e-07,-0.0426011733481599,8.084173008518589e-06,0.0023184335011768,4.862566286171007,27.57768313050809,17.529175807738486,33.56639745442473
0.51,31.22220730314019,131.01040984370235,7.24202048914867,4.8479762258125,0.001223054804074,25.49162310288008,0.0013562860883156,2.3767006597692686,323.39843497208153,17.86914397471067,7.597652147346554,69.68574349602717,0.0001318441288964,120.00014838524436,195.4407439266201,1.274,1.025286455263166,0.0,0.0,0.0,0.0525152689856776,2.2858192086249162e-07,-0.0451315948093539,8.734206149830708e-06,0.002503767471626,4.847976379721193,27.13799345359824,17.86933609171003,25.602178740977283
0.52,31.222206962738102,131.01041054193402,7.405210501673173,4.865306299521403,0.0012516517170965,30.733671928447727,0.0013599291289974,2.317711624364424,372.098451184342,18.08534843773428,7.701914987606457,69.65988568649581,0.0001453248538387,120.00016298000436,200.19561780583155,1.274,1.0252426840672306,0.0,0.0,0.0,0.0531507657929359,2.4726951523704535e-07,-0.0477531686556663,9.421346966092632e-06,0.0026812161964639,4.865306460134566,26.8699055233151,18.085545046726228,30.820940596104087
0.53,31.222206619320115,131.01041124632013,7.569307468221277,4.848802699234936,0.0012715119568563,32.301199055744725,0.0013711327835325,2.2490252325653923,386.55624643486095,18.41963113311156,7.8474319110539055,69.6325258319474,0.0001598315062727,120.0001786629144,207.6614205945027,1.274,1.0251993415311351,0.0,0.0,0.0,0.0541332845214831,2.67031759303889e-07,-0.0504479325599339,1.0141887756417996e-05,0.0028848299490111,4.848802865552398,26.45837260670532,18.419830861742675,32.37940050117613
0.54,31.22220626697288,131.01041196903336,7.737918664599091,4.831496690588052,0.0012913635058467,28.31291960103712,0.0013809098107221,2.177242866245296,349.2703242098436,18.75116898748492,7.992112829440902,69.60362200959217,0.0001754082864028,120.00019548734956,215.20067397992847,1.274,1.0251561018460285,0.0,0.0,0.0,0.0551077428911958,2.878941684235108e-07,-0.0532336286085667,1.090122304443916e-05,0.003098869611663,4.831496862756785,26.061835558272342,18.751371834390056,28.396510432451375
0.55,31.222205908994248,131.01041270328463,7.909026079894722,6.513254524653416,3.221351441463697,30.068444254434496,-0.1684980275329739,2.0122048554421923,365.2500005919912,19.321439881558085,8.113323699629928,69.57312211246325,0.0001921068626005,120.00021350480982,228.48556729167785,1.274,1.025112921033824,0.0,1.2532017829729258,0.0,0.0567838195707577,3.0989272306468813e-07,-0.0561100530405476,1.1700476995263424e-05,0.0033655954893797,7.263252841114067,28.864298325220624,19.8271820386331,30.136169296172707
0.56,31.222205546564343,131.01041344664463,8.081909946161325,8.087847076660186,-0.006035651635261,28.05232058751685,-0.0377811108987321,1.8130913693825057,346.22656194657776,19.89466692209492,8.249440985479161,69.54097415464405,0.0002099796112633,120.00023276987916,242.2400413373604,1.274,1.0250709539098009,0.0,1.2577738927225492,300.0001285565649,0.0584685917344352,3.33055098311298e-07,-0.0602110325869796,0.0020678997594897,0.0037186669845964,8.087849313769794,25.566038332378007,19.893718844154822,28.110877219875082
0.57,31.22220517743276,131.01041420478916,8.258244915209472,8.039384198149632,-0.0046497293035508,27.74512993887567,-0.0380995874141812,1.686968692957436,343.1828296833045,20.16769676976336,8.371060950357727,69.50647648621381,0.0033802394768671,120.00361702871795,248.93034397039764,1.274,1.0250279191823897,0.0,1.2623102824056371,300.0001285565649,0.0592711191860789,3.59004956898974e-07,-0.0656145645492877,0.0020629336302713,0.0041079366799795,8.039385533942845,25.276987274327485,20.1669663919931,27.79639455531373
0.58,31.222204803367795,131.01041497196653,8.436486255754343,7.987816198183192,-0.0056856454565287,36.683964780198906,-0.0383040900719959,1.5556353615275929,426.12500585731766,20.44610823011606,8.495124966679846,69.46888276652088,0.0065310318231336,120.00698128623412,255.8462826412156,1.274,1.024981594484354,0.0,1.2668518344190975,300.0001285565649,0.0600894672494521,3.871887710610029e-07,-0.0711338010080411,0.0020588116384801,0.0045148822160466,7.987818208548253,24.985648484307927,20.44521513101767,36.71695440224073
0.59,31.222204423592583,131.01041575130785,8.617392764561018,7.8821616101100975,-0.0066621077834457,29.66686374821456,-0.0387517266315295,1.4060106626219355,360.68438819710633,20.858719450745184,8.666848869764426,69.42812670533924,0.0096623022239035,120.01032554468034,266.2720256270699,1.274,1.0249386802161349,0.0,1.2713626860074452,300.0001285565649,0.0613022235396109,4.176519687154072e-07,-0.0767698369480815,0.0020538486278049,0.0049708478571353,7.882164407777038,24.55695918399162,20.857672969304048,29.70018808584974
0.6,31.222204034277954,131.0104165501492,8.803180096328267,7.831839513600163,-0.0076556033416721,26.332994825105818,-0.0388832833216057,1.265099655130565,329.4859594986072,21.122712161202863,8.786076174746004,69.38414138989232,0.012771404520045,120.01364704071838,273.0498049016888,1.274,1.024891335813742,0.0,1.2758615859350115,300.0001285565649,0.0620782085699786,4.504336456995637e-07,-0.0825583870301064,0.002047976844719,0.0054132158212097,7.831843231932892,24.29440778126758,21.12150962184559,26.36339518169432
0.61,31.222203642669704,131.0104173536544,8.989482284249362,7.784428716500263,-0.0086355676385642,30.94119104329517,-0.038962939489325,1.1212514822415915,372.0984511843332,21.37183357971936,8.900171420571358,69.33683942255729,0.0158555787130073,120.01694287597932,279.5234879550967,1.274,1.0248423929069768,0.0,1.2804011044702075,300.0001285565649,0.0628104914151295,4.856004512136489e-07,-0.0884561311892946,0.0020412109930041,0.005868220406645,7.784433476874805,24.0513828077854,21.37047710793185,30.96152493296756
0.62,31.22220324522661,131.0104181691086,9.178431139326625,7.703358455640392,-0.0095630046536919,38.5802395344417,-0.0391833151540058,0.9629718065200504,442.86563930529206,21.705818171949623,9.044669585785408,69.28615824829774,0.0189121064990358,120.02021020594027,288.3229289511859,1.274,1.0247996097896497,0.0,1.2848740316621596,300.0001285565649,0.0637921873639158,5.231951398780875e-07,-0.0944568627260772,0.002033531994799,0.0063641219175462,7.703364355620232,23.727555262915917,21.70431601869828,38.59227555570204
0.63,31.222202840033304,131.01041900044797,9.371164414474832,7.58887390489548,-0.0104286658983535,21.723660585473585,-0.0395502980449784,0.7874227355345124,286.11251274707456,22.13042856775357,9.22176809453936,69.23203886512132,0.0219382616660378,120.02344617293488,299.7080935498129,1.274,1.024756158874558,0.0,1.2893300844129392,300.00012855656485,0.0650402350179575,5.632523896431929e-07,-0.1005819577858743,0.0020248806059511,0.0069092464638881,7.588881028501315,23.323698451206536,22.128790436753963,21.73796283057294
0.64,31.222202426211208,131.0104198494749,9.568192128066183,7.572394375922675,-0.011400264613418,21.33679731513784,-0.0393342090193865,0.642214644292398,282.3078244179702,22.26647789301448,9.295988190530611,69.17441002148783,0.0249312394328939,120.0266478308598,303.3986594495615,1.274,1.024708534665538,0.0,1.2937979570492584,300.0001285565649,0.065440222711478,6.058144930581618e-07,-0.1068546439169364,0.0020151830530809,0.0073851188102111,7.572402907462416,23.20242425515648,22.26468714364837,21.34649635178139
0.65,31.22220201385417,131.01042069543473,9.76348819749358,7.5257592371722914,-0.0123206180555308,38.000651583270376,-0.0392425965778748,0.4840584692797569,436.7781447787504,22.480210548451243,9.39818285852595,69.11318713538523,0.0278881316650941,120.0298121076853,309.24537307247255,1.274,1.0246641738210605,0.0,1.2982873644416546,300.00012855656485,0.0660685193729775,6.509573639187578e-07,-0.1131897849350186,0.0020045504382613,0.0078979071569926,7.5257692643036656,23.008485592951484,22.47827523030761,38.00375472681847
0.66,31.22220159391264,131.0104215569322,9.96244290086501,7.393092919591982,-0.0130897520102425,32.28213729221785,-0.0395934551795081,0.2861500597581253,383.5125151715984,22.9435126601842,9.590363253163556,69.04833444321771,0.0308062897096658,120.03293622514548,322.117250216718,1.274,1.0246195561629028,0.0,1.3026619429478437,300.0001285565649,0.0674302987374483,6.986988688881101e-07,-0.1196065122658247,0.0019929291108162,0.008517474728675,7.393104443151175,22.589245816950577,22.94145652676445,32.283429769031585
0.67,31.2222011622957,131.01042244236876,10.167451946363697,7.314076131876762,-0.0139243789046437,22.133989335116503,-0.0395928704076864,0.1051420115543354,289.15624401033847,23.23906782467212,9.722559087627216,68.97980520999717,0.0336830219967289,120.03601734861492,330.4631374966835,1.274,1.024572383541697,0.0,1.3070443915442118,300.0001285565649,0.068299084503736,7.490508291210118e-07,-0.1261729595792654,0.0019801537680082,0.0091006531388111,7.314089314254206,22.329985537114727,23.236880588370017,22.134274470265158
0.68,31.22220072889281,131.01042333141783,10.37265201620295,7.271109508127733,-0.0148111676258301,27.736633618269245,-0.039332968715744,-0.0616840074609087,340.89999248584934,23.411924792258503,9.810705450773945,68.9075136348983,0.0365153806082897,120.03905234868864,335.3909178499932,1.274,1.0245245285832842,0.0,1.3114837995643351,300.0001285565649,0.0688072664317229,8.020841997344177e-07,-0.132837186108017,0.0019662915886391,0.0096524108355911,7.2711245121344765,22.181355001758984,23.409598259514198,27.73673009699067
0.69,31.222200292240828,131.01042422708773,10.57891568207362,7.182997257545784,-0.0155991630338503,34.24242940446056,-0.0392892442994042,-0.2532168170840446,401.0140726853658,23.718323978981207,9.94752482055088,68.83140370013031,0.0393006131306076,120.0420383117671,344.2202767402351,1.274,1.024479631064582,0.0,1.3158514297545212,300.00012855656485,0.0697079308693945,8.578466453528978e-07,-0.1395601086325908,0.001951401429866,0.0102734356436772,7.183014106880498,21.919070357334054,23.71587366821201,34.24338817816714
0.7,31.2221998467101,131.01042514094016,10.78953169941921,7.071758362736481,-0.016320792951593,28.681592121821502,-0.0393341078727494,-0.4618940643162063,349.270324209851,24.09363869047346,10.109855859165062,68.75144178949795,0.0420361587577558,120.04497252750288,355.1930493856652,1.274,1.0244351749185203,0.0,1.3201733724162898,300.0001285565649,0.0708111455258051,9.163474551449502e-07,-0.1463759226653087,0.0019353769177133,0.0109454510830616,7.071777100222847,21.60402738330047,24.091075026346253,28.685338065660407
0.71,31.222199393820883,131.01042606984743,11.003581928924977,6.992515535155881,-0.0170950706774439,23.53065437605476,-0.0391319951151127,-0.6566995805399614,301.3312640634036,24.353828022331378,10.23067497448976,68.66757467991978,0.0447193379360795,120.04785214346744,362.89853501842657,1.274,1.0243880468141104,0.0,1.3245181100718106,300.0001285565649,0.0715760141836326,9.776145604855102e-07,-0.1532998135253846,0.0019181439221189,0.0115867479608357,6.992536328005717,21.389099421004826,24.351142734948574,23.53984878918019
0.72,31.22219893770774,131.01042700531747,11.218650411352288,6.924296527129465,-0.0178832801594287,28.893142088778628,-0.0388072138759091,-0.8466442080144803,350.7922053414578,24.56481991590653,10.33385109581566,68.5797404426594,0.0473474189676735,120.05067424095763,369.20616592485726,1.274,1.024337302174265,0.0,1.3288534569858017,300.0001285565649,0.0721962955154952,1.0417006578778769e-06,-0.1602938644984128,0.0018997656685175,0.0122200846258418,6.924319507998097,21.21599204458562,24.562010816873592,28.905569916145303
0.73,31.22219847694484,131.01042795027752,11.43556293463498,6.823017700198436,-0.018577293514903,36.63825929496391,-0.0386319106085475,-1.0599872195313167,422.3203185282354,24.88110125896314,10.47611669167948,68.48789888502526,0.0499178877997328,120.053436132769,378.76681947991045,1.274,1.024292465384646,0.0,1.333142222873663,300.0001285565649,0.0731260290640393,1.1086370830326845e-06,-0.1673391465080848,0.0018802662965468,0.0129211697355117,6.823042871047021,20.961477575158263,24.87818314457277,36.653609774415074
0.74,31.222198007933,131.0104289121124,11.656375314968312,6.695301640756153,-0.0191847270856055,22.850985390332543,-0.0385665896212973,-1.296250264054826,294.4828134710563,25.286025634929874,10.651675994077255,68.39202066438938,0.0524283804905954,120.05613528661917,391.18722958862384,1.274,1.0242470321640116,0.0,1.3374016785069986,300.0001285565649,0.0743162946276582,1.1784296509748504e-06,-0.1744603594451377,0.0018595439061535,0.0136899799212914,6.6953290014507765,20.643649825898848,25.28301210510252,22.88775404966788
0.75,31.222197530477622,131.01042989121652,11.8811664367264,6.630543287239744,-0.0199491777411002,26.737345716655224,-0.0380393848528144,-1.4890879911903998,330.24688556441737,25.447046944284946,10.737514560491618,68.29206227940972,0.0548764498444496,120.05876906795828,396.1766980458072,1.274,1.0241984712898409,0.0,1.3416714239574477,300.0001285565649,0.0747897301634415,1.251094523437314e-06,-0.1816768746802931,0.0018374981504688,0.014346737122881,6.630573163422381,20.514587956578776,25.44391333483643,26.778806657733067
0.76,31.22219705345131,131.01043086938236,12.10485964215322,6.5291174570523856,-0.0205989926226927,28.81341056424573,-0.0376890498493837,-1.710646864079062,349.2703242098581,25.734342431132266,10.870671530876791,68.18796911158309,0.0572595754681923,120.0613347441061,405.16411004930734,1.274,1.0241522053390697,0.0,1.3459417280802315,300.0001285565649,0.0756342921765423,1.3266995644241272e-06,-0.1889132432617223,0.0018143351941955,0.0150862829893001,6.529149810519575,20.29238328720187,25.731106749007232,28.8641708957983
0.77,31.222196566909627,131.0104318670122,12.333109959254204,6.421889815009592,-0.021216588297519,26.941148755034003,-0.0373140470728192,-1.9389924843659183,331.76876669606884,26.033161119542424,11.008745327278234,68.07972980952744,0.0595757433390951,120.06383013740034,414.6189143986456,1.274,1.0241065975906936,0.0,1.3501273790645871,300.0001285565649,0.0765127296361297,1.4052325900757571e-06,-0.1961993531468171,0.001789926754185,0.015849724897451,6.421924715625908,20.06476701534876,26.0298284257221,27.010860416384496
0.78,31.22219607488955,131.0104328758194,12.56359280443451,6.321476166383309,-0.0218417990792024,22.106192071833952,-0.0368318496234408,-2.162949110012332,286.8734378128874,26.293705522363023,11.133074293771683,67.96731586917024,0.0618228255921698,120.06625292209696,422.9502390727588,1.274,1.0240588105546735,0.0,1.3543344112431552,300.00012855656485,0.0772786832859601,1.48670879714318e-06,-0.2035316934627956,0.0017642496287821,0.016606246476695,6.321513746645291,19.867332421169856,26.2902746206697,22.21178591096322
0.79,31.22219557797544,131.01043389460412,12.795968154633025,6.2330958126575045,-0.0224955338017243,31.50898695663225,-0.0362072259425339,-2.375471971907995,373.6203323159581,26.49139747156961,11.234263960490283,67.85070080510651,0.0639987804893825,120.06860085798702,429.32455802676014,1.274,1.0240083170932772,0.0,1.3585191536561592,300.0001285565649,0.0778599151962785,1.5711496509472763e-06,-0.2108928718564171,0.0017373325144269,0.0173358330964003,6.23313624597574,19.71561585328261,26.48786388147389,31.59842459816236
0.8,31.222195077230765,131.01043492118455,13.029631427992356,6.102762147739827,-0.022991650746447,31.938078166008207,-0.0357970799400055,-2.629641662872813,377.42502064505805,26.85324289547495,11.398196495593265,67.72986809607522,0.0661017513552824,120.07087189262668,441.1230273288333,1.274,1.0239625010683884,0.0,1.3626729565549192,300.0001285565649,0.0789236101503381,1.6585744207582567e-06,-0.2182587333706862,0.0017092377369087,0.0181859742995972,6.102805293249334,19.452504988833727,26.849631375517927,32.04617190311659
0.81,31.222194566201324,131.01043596878898,13.268144584855673,5.979588780341283,-0.0234971574218269,20.75596799536072,-0.0352710591693566,-2.8788580093541607,273.9374926939922,27.17469951028649,11.547629263007284,67.60481507578416,0.0681301285212614,120.07306423673856,451.7371446108809,1.274,1.0239149950770308,0.0,1.3667828443090142,300.0001285565649,0.0798686091588317,1.7489527569138408e-06,-0.2256671393312437,0.0016797788961886,0.0190279205314442,5.979634779184266,19.22102265172364,27.17100858553312,20.954695772310224
0.82,31.22219405026047,131.0104370263987,13.508496914271024,5.891178835996164,-0.0241221892581102,26.704941153595325,-0.0344434609233118,-3.088715419268788,328.725004432774,27.32719283900433,11.633120670892904,67.47551736125409,0.0700821033964579,120.0751758614534,456.8107549401519,1.274,1.0238644186635044,0.0,1.370916569222324,300.0001285565649,0.0803170170106967,1.8423049286205416e-06,-0.2330987631128033,0.0016489911975836,0.0197643811796682,5.891228047334683,19.10336481748598,27.323403734488178,26.882991487373914
0.83,31.2221935328306,131.01043808700047,13.748812845216868,5.767887968550458,-0.0246007890566057,33.97084349263372,-0.0337874934912298,-3.336904113765596,395.6875032246518,27.623989790059493,11.774603029486592,67.34196164678931,0.0719560725866052,120.07720494942144,466.77658695502726,1.274,1.0238188483711983,0.0,1.3750213930863937,300.0001285565649,0.0811895494167947,1.93866995132927e-06,-0.2405002552742809,0.001617071336533,0.0206129502198451,5.767940253746744,18.89239696388563,27.620125507269588,34.134356274290525
0.84,31.222193005628,131.01043916756575,13.993598296594731,5.6256721326327614,-0.0249862247075599,20.96271834445594,-0.0331904887744132,-3.6095192257482895,275.45937482564227,27.999590204527745,11.947452430976847,67.20416521716297,0.0737509202508948,120.07915021128476,479.54503141915313,1.274,1.0237739661568126,0.0,1.3790662523087067,300.00012855656485,0.0822937022526412,2.0380027220915542e-06,-0.2479024508607949,0.0015838488986739,0.0215357744602373,5.625727441653377,18.634665318116504,27.99566537765304,21.2712315355407
0.85,31.222192470478728,131.0104402643475,14.241805802723448,5.527949574245873,-0.0255480218092303,22.87427960295933,-0.0322179566638182,-3.822497376414292,292.9609323393965,28.144888622709864,12.03168708961601,67.06212766965655,0.0754653694080632,120.08101015986792,484.523406669864,1.274,1.0237227741398531,0.0,1.3831272235612455,300.0001285565649,0.0827209810375784,2.1402814113831825e-06,-0.2553170318707516,0.0015492227312284,0.0222944605381631,5.528008427121583,18.523637758696488,28.140875548961365,23.191489636152895
0.86,31.222191935748526,131.01044136020985,14.48892374466029,5.408171152871854,-0.0260038520643119,28.659250366780284,-0.0313328061131405,-4.061407818942006,346.2265619465616,28.3834306328508,12.152867767254444,66.91584189511754,0.0770981111620696,120.08278325333248,492.7596742569124,1.274,1.023674789281455,0.0,1.3871857096971758,300.0001285565649,0.0834223153220465,2.245558894569357e-06,-0.2626752761304629,0.0015134887008072,0.0231308410374365,5.408233483279989,18.35550832414913,28.379345957460515,28.945615329481218
0.87,31.222191392461703,131.01044247353437,14.739756011372815,5.270769553305198,-0.0263650289630638,26.69049829826761,-0.0304995095093733,-4.323792314605829,327.9640783669946,28.698813061234205,12.305106543820148,66.76534019402406,0.0786484841105219,120.0844686586997,503.7589741270288,1.274,1.0236288969245204,0.0,1.3911633923778393,300.0001285565649,0.0843495009106471,2.35378663327822e-06,-0.2699931182769343,0.0014765361991088,0.0240388401049347,5.27083530731826,18.14283130823953,28.694671652315257,27.038469069267787
0.88,31.22219084180022,131.0104436018953,14.993617649580909,5.141841773028424,-0.0267526109710147,23.071051729771625,-0.0295371467000772,-4.571074176099551,294.4828134710421,28.956027364719287,12.43532068644398,66.61064571648147,0.0801157707827627,120.08606545889752,512.8168586159136,1.274,1.0235805388426191,0.0,1.395144135087116,300.0001285565649,0.0851057305761149,2.464923965042421e-06,-0.2772806717266758,0.0014382707132326,0.0249083446612694,5.141911181524377,17.967367207328156,28.95182507456744,23.51954547784114
0.89,31.22219028679528,131.01044473908487,15.248886055737028,5.01802961188059,-0.0271545318623051,25.30945894215531,-0.0284714342438476,-4.805598531888889,315.02813424808807,29.16900204146889,12.548750063572532,66.4517758143314,0.0814992296400234,120.08757269595772,520.3754892814981,1.274,1.0235293752791452,0.0,1.399116543720634,300.0001285565649,0.0857319392400934,2.5789681326207305e-06,-0.284513860627849,0.0013987799573587,0.0257454592684701,5.018102895320939,17.819282445069412,29.16473661773805,25.761663374419474
0.9,31.22218972699598,131.0104458860251,15.5057882773832,4.882317113915848,-0.0274833206909902,27.95843577113713,-0.0274206646915804,-5.055774374112739,339.3781423542166,29.433468974500503,12.683588286653809,66.28876164072572,0.0827983978496985,120.08898970659028,529.8413835947746,1.274,1.0234837388140003,0.0,1.403055439362663,300.0001285565649,0.0865094967725675,2.695903944513782e-06,-0.2916726754151263,0.0013581391459588,0.0266318983552425,4.882394279927189,17.64300717154789,29.4291519047471,28.411894290659102
0.91,31.22218915999017,131.01044704765,15.765548603231304,4.739363651245577,-0.0277593275111192,21.276522552908087,-0.0263501034595425,-5.315306381805208,277.7421810230785,29.726421782900367,12.830889365064444,66.12164581723187,0.084013061474959,120.09031608897008,540.427465674475,1.274,1.023436404813438,0.0,1.4069648903338765,300.0001285565649,0.087370786246833,2.815681077854639e-06,-0.2987598265996884,0.0013162922780288,0.0275498303725739,4.739444760805287,17.452911269029567,29.72206135810208,21.930426083521905
0.92,31.2221885862943,131.0104482228992,16.027860594323567,4.612233022848206,-0.028111841783734,25.329900522427224,-0.0251034219246727,-5.5384512540693605,315.0281342480675,29.90636994938824,12.93335621396884,65.95046940643961,0.0851430367539486,120.0915514592254,546.9764187711776,1.274,1.0233859136578225,0.0,1.410863667075624,300.0001285565649,0.0878999433139013,2.938255072102133e-06,-0.3057718550562559,0.0012732136988226,0.0283664092035796,4.612318508619899,17.32734182776049,29.901954151784075,25.92834227156749
0.93,31.222188010071218,131.0104494032548,16.29057927167271,4.467545990423178,-0.0283508082359678,30.124516123758063,-0.0239125689383669,-5.790703495292777,359.16250706547066,30.18027859400936,13.074947671537624,65.77527544541476,0.0861882185100797,120.09269550363524,557.0276224359582,1.274,1.0233407575091376,0.0,1.4147470528357586,300.0001285565649,0.0887052706761001,3.0636242320478146e-06,-0.3126729428380444,0.0012290914171798,0.0292715514916442,4.467635763497632,17.151708903973887,30.17582525964721,30.676037724450477
0.94,31.222187425095644,131.01045060144915,16.55684425713731,4.313000978452314,-0.0285148221512814,21.86334224278094,-0.0227189433515878,-6.059742896115251,283.06875048378083,30.5057639515538,13.238867087624392,65.59612751403454,0.0871489089664325,120.09374835453032,569.0926128969103,1.274,1.0232914783978162,0.0,1.4185838340388792,300.00012855656485,0.0896622000926222,3.191706322169183e-06,-0.3194742956692461,0.0011838086005339,0.0302300536290241,4.313095060259441,16.951122270010746,30.50128485394925,22.687589870728353
0.95,31.22218683261324,131.01045181493006,16.82597159524885,4.177618198667649,-0.0287865796275049,28.31268909900673,-0.0213289262041992,-6.27781476220597,342.421873617488,30.68391328100656,13.343007908076387,65.41308275666262,0.0880253314971219,120.0947100392234,575.7439799585866,1.274,1.0232418269359267,0.0,1.4224202871563,300.0001285565649,0.09018608846609,3.322434313392223e-06,-0.3261761802098812,0.0011373077565294,0.0310436554692365,4.177717201055469,16.830423000510006,30.67939149584281,29.000340982972574
0.96,31.222186238319807,131.01045303204924,17.09510452334363,4.0205999198015325,-0.0289040096532417,27.732590769406368,-0.0200206493239369,-6.540939521117857,337.09533515678265,30.999837768393256,13.505371180742795,65.22619815581022,0.0888177254943839,120.09558058705704,587.6456544478817,1.274,1.0231951201821403,0.0,1.42624616175877,300.00012855656485,0.0911149296898317,3.4558116854593544e-06,-0.3327364617660113,0.0010898455260533,0.0319932570582103,4.020703643037496,16.64000373963448,30.995297537366536,28.493523499712772
0.97,31.222185633289296,131.01045427105495,17.36864030098313,3.8671967461811367,-0.0290306210743927,17.724086911418738,-0.0186203057574041,-6.788302448620673,245.0218871929888,31.275048863553128,13.651967041699743,65.03555486445859,0.0895268123105052,120.09636056318416,598.1102863886209,1.274,1.0231476260761452,0.0,1.4300213154099908,300.0001285565649,0.0919241156851939,3.5917213075305808e-06,-0.3391730005653706,0.0010412346212362,0.0329008032882035,3.867305543974327,16.473214926003312,31.27048874445342,18.97958518232843
0.98,31.222185023427336,131.01045551987016,17.64362200341536,3.730164555046737,-0.029262746948231,25.82906139025158,-0.0170544677979255,-6.980090536289293,319.593746642963,31.40353940597185,13.73764780558892,64.84122377252821,0.0901531189303256,120.09705029378397,603.0190138668264,1.274,1.0230935628253934,0.0,1.4338078934805945,300.0001285565649,0.0923020634941885,3.730117870306428e-06,-0.3454658327416438,0.0009915710168716,0.0336480160015277,3.730279172652713,16.38154619250539,31.39894282462986,26.755604404517797
0.99,31.222184411914988,131.01045677199343,17.918506989803834,3.5698322050846865,-0.0293090156485571,28.222006644383608,-0.0155832640224014,-7.2295983752975745,341.66094855170127,31.703404060052456,13.896974260990676,64.64328721361137,0.0906973970114214,120.0976503467792,614.5739308767804,1.274,1.0230490803133316,0.0,1.4375645944354891,300.0001285565649,0.0931837221587122,3.870991830411331e-06,-0.351576602501862,0.0009411275064026,0.0345692658831098,3.5699523636896795,16.206637093287668,31.698800210840968,29.13329700775138
1.0,31.22218378914548,131.0104580470555,18.19789676284221,3.40857908657332,-0.0293304453871393,25.23612040865433,-0.0140545503004474,-7.474532941514569,314.2672081822764,31.99882056735846,14.055795442996075,64.44184952285825,0.0911608585837552,120.09816180517473,626.0638554776641,1.274,1.022999484445133,0.0,1.4412712559820282,300.0001285565649,0.0940523168892819,4.0141886045165006e-06,-0.3575269061217999,0.0008896655851866,0.0354809585725959,3.408705127951912,16.036928921131118,31.994213351971947,26.319776091453935
1.01,31.22218316066096,131.0104593337269,18.47907340181765,3.251976424418604,-0.0293741975794604,26.387480257480487,-0.012438101203307,-7.694592585800381,324.92031610370094,32.23779775583881,14.19155657743586,64.2370026311777,0.0915444329932274,120.09858541656004,635.4328954430772,1.274,1.0229507481225095,0.0,1.4449904608632336,300.0001285565649,0.0947550295986832,4.159631585855838e-06,-0.3633040915836653,0.0008372309791699,0.0363225700399577,3.2521089437050503,15.896777796893046,32.233183667874904,27.486469837116918
1.02,31.222182527032725,131.01046063083973,18.7617546695176,3.090290734832181,-0.0293598361333185,21.989038098095435,-0.0107965563002841,-7.9221473048065745,284.59063161543185,32.50911555363405,14.342513587192196,64.02884572834478,0.0918491732399084,120.09892206422012,646.1561444554785,1.274,1.0229039803623294,0.0,1.4486855687098936,300.0001285565649,0.095552805910559,4.307262546123226e-06,-0.3688868196530046,0.0007839603905343,0.0371901059723944,3.090430065498048,15.743841987344537,32.504503721560525,23.37259786511064
1.03,31.222181885603227,131.010461943821,19.047157966356668,2.93405853469112,-0.0293793804358179,17.9205431143226,-0.0090718136746447,-8.117100129626055,247.3046933904342,32.709021741781704,14.463448977700976,63.8174902367753,0.0920763695075756,120.09917289281698,654.1093792354866,1.274,1.022853416101322,0.0,1.4523533567489628,300.0001285565649,0.0961406921700778,4.456974021211359e-06,-0.3742689387946031,0.0007298456141272,0.037963702397046,2.9342054935471054,15.626187615576512,32.70440683969673,19.673160964229258
1.04,31.222181240264288,131.01046326471936,19.33344063414121,2.779621899244868,-0.0294027600475238,28.595558968695745,-0.0072956422384438,-8.290469011429526,345.4656368807608,32.870167560262445,14.568268065450436,63.60305109005328,0.0922273392259072,120.09933906602556,660.5522255580524,1.274,1.0228049544826707,0.0,1.4560099729550309,300.00012855656485,0.096614655562746,4.6087042714985614e-06,-0.3794283356517112,0.0006750556088474,0.0386755907837113,2.77977728365369,15.527899067950754,32.86554898571713,29.773107368698092
1.05,31.22218059032656,131.0104645949421,19.62090971623968,2.607967671214721,-0.0292371274822163,17.145531947491538,-0.0055637986289356,-8.528084238304128,240.4562587980608,33.21177970728915,14.754327335946948,63.38565590063448,0.0923036534380568,120.09942203192172,674.3348898881569,1.274,1.022755494436122,0.0,1.4596321159283263,300.0001285565649,0.0976190662707926,4.762368614471174e-06,-0.3843496100744902,0.0006197097994908,0.0395832892743884,2.6081314371205764,15.350967956790024,33.20718715024295,19.14934770413654
1.06,31.222179928452263,131.0104659494699,19.912858478371945,2.453849365472827,-0.0292371758569271,24.509665338153155,-0.0037021746761672,-8.67022409407497,308.1796836557233,33.32877453784732,14.841395759322328,63.16544111768855,0.0923070522043303,120.099423433064,679.0751627100832,1.274,1.0227013895379469,0.0,1.4632244868523532,300.0001285565649,0.0979632707774589,4.9177616715610485e-06,-0.3890472906563546,0.0005635540196357,0.0402071092142077,2.454023430650734,15.27602192154428,33.32418197320244,25.99800943410556
1.07,31.22217926821815,131.01046730058005,20.203116399006102,2.2853669275985826,-0.0290616221288665,28.88654601302334,-0.0018719195092958,-8.871482259625655,348.5093681440431,33.6135746993012,15.004957540996406,62.94253482403099,0.0922389582464271,120.09934453361493,690.7111228771782,1.274,1.0226540159946436,0.0,1.4668283399427853,300.00012855656485,0.0988007075209411,5.0748941981933605e-06,-0.3934811646183518,0.0005070296411343,0.0410116885410358,2.285551601624949,15.12982219778117,33.609009710567875,30.218135970794926
1.08,31.22217859570264,131.01046867669405,20.497913587752105,2.1143446778088286,-0.0288321734243075,19.33204392227963,-6.346083166794276e-06,-9.077291391220664,261.0015785751465,33.927441860712655,15.183308634056033,62.71708819747226,0.0921013573508264,120.09918725815578,703.65046862222,1.274,1.0226061614050743,0.0,1.470367836044418,300.00012855656485,0.0997235920550208,5.233551305437177e-06,-0.3976622606834051,0.0004499093547916,0.0418333069166446,2.1145411638042155,14.974572127924832,33.922912913692954,21.35708644019867
1.09,31.222177916023085,131.01047006736096,20.7948954881878,1.953590752684205,-0.0287119223334689,17.739748833909832,0.0019307862634004,-9.207857554607717,246.54375332456465,34.076531319852414,15.287690420452012,62.48924605850507,0.0918959402474032,120.09895318141191,709.8279983470403,1.274,1.0225512795791307,0.0,1.473919778648411,300.0001285565649,0.1001621492718453,5.39359337314752e-06,-0.4015818958333293,0.000392205741692,0.0424300773578644,1.9538016490847572,14.89173716816326,34.07202126182751,19.98707915539655
1.1,31.222177234956245,131.0104714607901,21.091523798346447,1.7902207901335572,-0.0285404058647336,35.89193920872479,0.0038797235663944,-9.33879453836339,413.1890617384087,34.24976990442723,15.404080050236004,62.259158201103766,0.0916244068174133,120.09864388910222,717.0431748725975,1.274,1.0224981043155532,0.0,1.47745542679833,300.0001285565649,0.1006716914989476,5.554989466570027e-06,-0.4052124188684589,0.0003342644904251,0.0430300993379273,1.790448202853664,14.800778246963109,34.24528678814288,37.08698422148688
1.11,31.22217654680572,131.0104728686068,21.390270333330854,1.6110949021966512,-0.0281098987039764,26.15870288669852,0.0058318888651134,-9.576522982966384,324.1593910379213,34.70338331358401,15.65212001631272,62.02699028479028,0.0912888526989826,120.09826142883712,736.1412642353558,1.274,1.0224548851875197,0.0,1.4809453440543507,300.00012855656485,0.1020053590493986,5.717589314844544e-06,-0.4085478278776132,0.0002761108422873,0.0439576234793376,1.611340045435425,14.597960506795834,34.69896782119807,27.85655332536279
1.12,31.22217584240888,131.01047430950408,21.694988148716345,1.4444745376233672,-0.0278431475675187,9.621085939132474,0.0078436969033976,-9.707095638735636,172.7328179403806,34.92066941953002,15.791662929102804,61.79291141472312,0.0908913653969163,120.09780784843744,745.3666172798712,1.274,1.0223979224661404,0.0,1.4844194527670935,300.0001285565649,0.1026443917179038,5.881077412518401e-06,-0.4116006126936161,0.0002173385480191,0.0445620686860423,1.444742802874354,14.494927798483952,34.916295828309615,13.667225830844902
1.13,31.22217513863744,131.01047574905382,21.99843372135068,1.286067895989622,-0.0277033571216964,30.85824192461344,0.0098601241290676,-9.743508398376466,367.5328077894322,34.93895134475168,15.838218444316343,61.55708348770715,0.0904335313094726,120.0972846053362,746.1255142600614,1.274,1.0223460397860296,0.0,1.4879219362374498,300.0001285565649,0.1026984805225749,6.045461403663626e-06,-0.414340017808051,0.0001584208894749,0.0448808278481661,1.286366192106682,14.47324144236966,34.934599711760576,32.35996211075117
1.14,31.222174434543653,131.01047718919256,22.30106556572796,1.111049666146614,-0.0272188965132741,16.880146149303506,0.0119099181319681,-9.937175855777404,239.6953177322812,35.358639792153895,16.076311848008135,61.31968605742164,0.0899174476670617,120.09669376099552,764.1359546373145,1.274,1.0223022138470996,0.0,1.491369874742745,300.0001285565649,0.1039324547877885,6.2107240706012095e-06,-0.4167457013949694,9.976830501932827e-05,0.0456823216544184,1.111382983541959,14.295633775918647,35.35436425804847,19.587928421776542
1.15,31.222173710243847,131.01047867048075,22.611119073234697,0.948041070102881,-0.0269484129389617,16.611739154026232,0.0139492797113483,-9.986922378666003,237.4125115347709,35.46285915585901,16.165374919066394,61.08091037015782,0.0893456103305986,120.09603786015356,768.624274030215,1.274,1.0222426194541194,0.0,1.4947701127944737,300.0001285565649,0.1042391597432008,6.376437796986958e-06,-0.4188323767484521,4.078114058975439e-05,0.0460450075371458,0.9484239670554794,14.244236352897673,35.458626109209334,19.382690496969516
1.16,31.222172991590234,131.01048014017982,22.917823238346298,0.7828246292364353,-0.0265973924843808,44.17537437236472,0.0159955690745629,-10.052482956057943,490.043774385954,35.633265797450704,16.287092966363023,60.840939150422834,0.0887197950448027,120.09531858771732,776.005969312508,1.274,1.02219674531104,0.0,1.4982144903884946,300.00012855656485,0.1047404137649218,6.542661703656332e-06,-0.4205755099806886,-1.7935710690843547e-05,0.0464574500156185,0.7832763097440303,14.16950572142228,35.62908788895908,45.304705830395186
