Time,Latitude,Longitude,Altitude,Angle of Attack,Angle of Sideslip,X-Acceleration,Y-Acceleration,Z-Acceleration,Thrust,True Velocity,Ground Velocity,Pitch,Roll,Yaw,Dynamic Pressure,cp,parachute_deploy_gain,Wind Speed,Mach,omega_x,omega_y,omega_z,Cmq,Angle of Attack(total),Angle of Attack(gust),True Velocity(gust),Acceleration
0.0,31.222186000000004,131.010384,3.000000003643237,0.0,0.0,0.0,0.0,0.0,2.2828121974499247,0.0,0.0,69.99999999623421,0.0,113.69999999388332,0.0,15.288,0.0,0.0,0.0,0.0,0.0,0.0,-0.0,0.0,90.0,0.0,0.0
0.01,31.22218600000153,131.01038399999584,2.99999882256592,0.0,0.0,0.0,0.0,0.0,34.24218696174923,7.502283530665459e-11,7.190531319924593e-11,69.99999999623329,-4.83564628150269e-13,113.69999999388072,3.446445726795683e-21,15.288,0.0,0.0,2.204725565824978e-13,-3.659182332138578e-19,7.589415207398531e-19,4.811147140404426e-19,-1.5108918610345807e-31,0.0,89.9999999995224,7.502283530665459e-11,0.0
0.02,31.22218600000288,131.01038399999217,2.999997775701936,0.0,0.0,0.0,0.0,0.0,25.871876237766408,1.5320717031631675e-10,1.4674636035870463e-10,69.99999999623222,-9.67129256300373e-13,113.69999999387804,1.4372842949972735e-20,15.288,0.0,0.0,4.5023593667086093e-13,-7.284483346386986e-19,1.5178830414797062e-18,9.757819552369542e-19,-6.170906918166791e-31,0.0,89.99999999902465,1.5320717031631675e-10,0.0
0.03,31.22218599928065,131.01038400193067,3.000201659671132,18.81500467334555,-0.00012974450181,11.96616230539064,-1.8916256735984712e-05,3.349833086198469,180.34219359854663,0.0882870268161719,0.0553390044312322,69.99999999799445,-4.212591857125379e-12,113.69999999488518,0.0047728553458352,15.288,0.0,0.0,0.0002594525584132,3.2187251995663407e-17,-7.20264389268894e-10,1.2365134327422308e-11,1.6874092354518158e-13,18.815004673776716,89.46786891739345,0.0882666465974854,12.426199017587786
0.04,31.22218599548236,131.0103840121632,3.001799604587872,9.46752327608497,-4.6177622759613696e-05,55.21900012092241,3.931876292165237e-06,3.349616504302861,548.6359724538078,0.3767519978512604,0.1853356633749705,70.00000000507204,-2.4624598767003407e-11,113.70000000019972,0.086915163246288,15.288,0.0,0.0,0.0011071759353184,1.6174128009138757e-15,-1.3693172015529268e-08,2.7753303060112748e-11,1.3689612277852356e-11,9.467523276196548,87.63554493451223,0.3767447442872393,55.32050167054111
0.05,31.222185984749512,131.01038404118162,3.00777936418888,5.376730308971262,-2.257790939128127e-06,80.28807156553681,5.266841443842784e-05,3.348887800834877,761.6984298824644,1.018787885905993,0.4366201147110198,70.00000000894464,-1.1355399380652658e-10,113.70000001523856,0.635552918586145,15.288,0.0,0.0,0.0029939522895272,1.6418815498809788e-14,-9.32122351075408e-08,4.303264669380585e-11,2.5199270302492604e-10,5.3767303089717045,83.57022052969386,1.0187875312530217,80.35788377762394
0.06,31.22218596447235,131.01038409608267,3.0201664202003013,4.296730121134882,2.4863835723705905e-05,60.21296515808257,0.0001057204249726,3.347700952379021,590.4875390737208,1.721098934225416,0.7081674028809783,69.99999995523842,-3.0560354507026086e-10,113.70000004366592,1.8138247671743823,15.288,0.0,0.0,0.0050578622752421,8.328976953118383e-14,-3.2824985336199985e-07,5.923438275930214e-11,1.4991363363716091e-09,4.296730121206683,79.20467073327266,1.7211028398275985,60.305955550063224
0.07,31.22218593493329,131.01038417609837,3.038741944736831,3.8204913578752526,4.8016684030909405e-05,91.4060317508128,0.0001597686613101,3.346072557365335,855.2937749779139,2.4375792548422868,0.9844712334613328,69.99999973536046,-5.939103491363046e-10,113.7000000850886,3.6383156301599167,15.288,0.0,0.0,0.007163413150771,2.709313825263564e-13,-7.906546256197275e-07,7.920022733617308e-11,5.114174483651565e-09,3.820491358176508,74.87999294483174,2.437586797285377,91.46725557277466
0.08,31.222185894468456,131.01038428575305,3.0647976109320942,3.588632851766762,7.220043782492885e-05,19.18449428359557,0.0002119618497595,3.3440615022685813,241.2171988638848,3.1292508166901074,1.2522236515868983,69.99999919480445,-9.914748373602156e-10,113.7000001418522,5.996012698481753,15.288,0.0,0.0,0.0091960591623389,6.80386533246681e-13,-1.5973238302190878e-06,1.0839624626357699e-10,1.3263625118823921e-08,3.58863285249208,70.86684630658345,3.1292621579083604,19.473766155861934
0.09,31.22218584634549,131.01038441616095,3.0957981580345013,3.551302481506045,9.685468678862004e-05,57.102946699906326,0.0002554087225869,3.341892818148368,563.0937377043176,3.701810007254615,1.479132491047967,69.99999812344194,-1.4359264356978275e-09,113.7000002093888,8.390904013834115,15.288,0.0,0.0,0.010878666406854,1.440096519545733e-12,-2.748643691533636e-06,1.5214952332699618e-10,2.6999776649034504e-08,3.5513024828250237,67.68737872952666,3.701825221153239,57.20065357568538
0.1,31.222185790329306,131.01038456796124,3.1319266121977414,3.608446747536112,0.0001234669721807,54.26147302645416,0.0002914860332524,3.3396271157106168,538.7437595981919,4.174070299823608,1.6716491241860567,69.9999963052332,-1.902380107712657e-09,113.70000028805804,10.668380938744466,15.288,0.0,0.0,0.0122665227999911,2.687800116751415e-12,-4.315796035622946e-06,2.1749089204950437e-10,4.7802076800548326e-08,3.608446749645647,65.17160335282355,4.174089693970246,54.36414778470795
0.11,31.222185727066616,131.0103847393952,3.172681775073216,3.633547373470009,0.0001485939126744,42.987553988990406,0.0003293995000288,3.337005588796181,442.8656393052949,4.672024955140527,1.8729475711242067,69.99999349387662,-2.3433348587116544e-09,113.70000037699285,13.365573690709628,15.288,0.0,0.0,0.0137298902182575,4.5789425819531184e-12,-6.340230783164189e-06,3.1157625832417107e-10,7.860218435507205e-08,3.6335473765043056,62.62546922225161,4.672048296217748,43.116880735560244
0.12,31.22218565692512,131.0103849294629,3.2177790417108385,3.650108937861461,0.0001727442530266,46.86777100765684,0.000367618259785,3.334068179146888,475.58594813540446,5.17479364099247,2.0758708919414386,69.99998941286465,-2.702771525550512e-09,113.70000047573096,16.396890189902592,15.288,0.0,0.0,0.0152074069417046,7.288473386564583e-12,-8.86736416607888e-06,4.42271554299792e-10,1.217615295152289e-07,3.6501089419435786,60.16906436414164,5.174820775596283,46.986210423745625
0.13,31.222185580265183,131.0103851371844,3.2669395832841857,3.7280113734654137,0.0001995014041665,51.64515456841877,0.0003986198234033,3.3311573548369657,515.9156326236895,5.579364582999854,2.2451120211463422,69.99998375846928,-2.9114380666036422e-09,113.70000058383452,19.060875702782603,15.288,0.0,0.0,0.0163963474924215,1.100846422415094e-11,-1.1941028436408576e-05,6.179653149059831e-10,1.7678562106638216e-07,3.728011378795934,58.279338776943774,5.579395920607139,51.75247433579817
0.14,31.22218549718016,131.01038536230575,3.320091807147376,3.768719651034081,0.0002242721760019,48.1660778383537,0.0004326225136175,3.32784677779744,486.2390860568404,6.025734265159953,2.428648685938864,69.99997621008868,-2.890941335368725e-09,113.70000070125378,22.232643351545065,15.288,0.0,0.0,0.0177081261985351,1.5941871344608664e-11,-1.560901486259027e-05,8.477542742712431e-10,2.495765160917323e-07,3.7687196576976176,56.27980129251342,6.025769493750979,48.280903250602165
0.15,31.22218540777004,131.01038560455507,3.377159065217065,3.821894709649632,0.000249725644238,46.56959330999435,0.0004643042952466,3.324387732286376,472.54218587214,6.441023336496372,2.6014999612196745,69.99996641132823,-2.546763407193136e-09,113.70000082794672,25.402620271850456,15.288,0.0,0.0,0.0189285691155931,2.2314099732464315e-11,-1.992367942778425e-05,1.1417519574710292e-09,3.4051816697623295e-07,3.821894717796148,54.501255563441134,6.441062563308839,46.68809885900716
0.16,31.22218531193176,131.01038586421257,3.4382223512025254,3.8463320955387794,0.0002733212404609,36.974247749122085,0.0004987816203583,3.3205066466509234,391.1218908297564,6.895451966878468,2.7877331692857847,69.99995397923414,-1.77088415515292e-09,113.70000096417354,29.113317717489338,15.288,0.0,0.0,0.0202640360420561,3.0367358387834494e-11,-2.4945905791363795e-05,1.5114297685186711e-09,4.5643121540033697e-07,3.846332105235269,52.641145594326446,6.895494900078523,37.12304892183151
0.17,31.222185210004127,131.010386140357,3.503019838429153,3.8860314262554336,0.000297865039677,46.520531453299206,0.0005306403365217,3.31650761597812,471.78125980632376,7.314788342774694,2.9619016331667103,69.99993849340957,-4.3039914767238207e-10,113.70000110959404,32.761746921137856,15.288,0.0,0.0,0.0214963781445172,4.0366633128431416e-11,-3.0713078585132897e-05,1.96747427715988e-09,5.961228045584824e-07,3.886031437653654,51.00464968745696,7.314835131305714,46.63860064094784
0.18,31.22218510147516,131.01038643438045,3.571950002194137,3.9107265153396016,0.0003214293682635,38.895647526122765,0.0005639254295027,3.312149448254175,407.10156721191447,7.754626295791602,3.1430587898572058,69.9999195084231,1.6149322372810674e-09,113.70000126508234,36.81988229018681,15.288,0.0,0.0,0.0227889722876034,5.2593391349219385e-11,-3.731786027786564e-05,2.525509173087448e-09,7.6786585232224e-07,3.9107265285284982,49.36615848311875,7.754676785798701,39.036415444581515
0.19,31.222184986476247,131.0103867459258,3.644912152926752,3.920599115663931,0.0003437679584038,43.86258669386953,0.0005989384366483,3.307389681300437,448.9531328318269,8.219206165926856,3.332657190859447,69.99989653019398,4.538529095696477e-09,113.70000143063515,41.36350714675367,15.288,0.0,0.0,0.02415428010977,6.735860419174937e-11,-4.481243905342629e-05,3.199401151670645e-09,9.773118416308382e-07,3.92059913071168,47.71893898797248,8.21926016487149,43.987104227715655
0.2,31.222184864792144,131.01038707557822,3.722074668489528,3.943376465171875,0.000367328732016,40.28070981710589,0.0006315894240138,3.30251450988504,418.51563019916136,8.65238089736321,3.511445117640573,69.99986902534273,8.534090245934178e-09,113.7000016067622,45.83799876721736,15.288,0.0,0.0,0.025427299120469,8.499785987217288e-11,-5.328041996372527e-05,4.006766070954748e-09,1.2232205148646746e-06,3.9433764822533854,46.2587826635041,8.652438597225508,40.41586552155969
0.21,31.22218473678744,131.01038742234647,3.803156063113743,3.9664546506877016,0.000390962054969,38.67679184347145,0.0006636984664108,3.297405915846789,404.8187610144644,9.079179692250786,3.688002035198235,69.99983642883521,1.3827831253856693e-08,113.70000179318536,50.47126980736161,15.288,0.0,0.0,0.0266815841422463,1.0586558589671407e-10,-6.275155280099118e-05,4.961340042512481e-09,1.5117124669161171e-06,3.9664546699249135,44.88773728276958,9.079241104426773,38.817098210937615
0.22,31.2221846022986,131.01038778667507,3.8882846911135607,3.956175711337521,0.0004112685792646,46.713636108302936,0.0007011135033803,3.291572407481395,472.5421858721365,9.580256326712124,3.889976788904857,69.99979815126248,2.0662823443484168e-08,113.70000199039316,56.195522894218605,15.288,0.0,0.0,0.0281541581291438,1.3033127211465288e-10,-7.330053770532661e-05,6.0817207473359025e-09,1.8632831045819008e-06,3.956175732680424,43.35679625546934,9.580320928629488,46.8294591882524
0.23,31.222184460898035,131.01038816972698,3.977794004014759,3.9879066397329104,0.0004360962274406,38.89105719050748,0.0007308686121188,3.286096544282012,406.3406421461021,9.977039034039262,4.056142701351626,69.99975353557706,2.9316661139418326e-08,113.70000219928508,60.9462612310605,15.288,0.0,0.0,0.0293202403623685,1.5880617816859538e-10,-8.505067486192354e-05,7.393319440773217e-09,2.2514912291167663e-06,3.987906663538912,42.20670487756048,9.97710753587448,39.0296395118868
0.24,31.222184313516166,131.01038856897196,4.070963590490852,4.003523997322975,0.000459165577055,40.0792299321398,0.0007630441688766,3.280134925833028,416.2328240017114,10.408422364424831,4.234121060914368,69.99970190737699,4.010976417051318e-08,113.70000241888,66.32994780718496,15.288,0.0,0.0,0.030588009649109,1.91711512587616e-10,-9.795845222523724e-05,8.904557280909524e-09,2.7052895870113487e-06,4.003524023611085,41.011349410369874,10.408494489985014,40.21323112692186
0.25,31.22218416001652,131.01038898478134,4.167901030441617,4.0261356185860135,0.0004830526730531,41.17760020658354,0.0007934613160587,3.2740610008587527,425.36408079150686,10.816813039390448,4.4041629376391525,69.99964258149416,5.3372865854010094e-08,113.70000264972064,71.63651430352668,15.288,0.0,0.0,0.0317882126436337,2.2947426169209347e-10,-0.0001121037688082,1.0637152702866709e-08,3.217380562698304e-06,4.026135647516394,39.93186687113378,10.816888917126896,41.30755663120434
0.26,31.222184000702686,131.0103894163294,4.26837241014618,4.053359329950934,0.000507503069958,44.80261175215926,0.0008224724146494,3.2678597736729302,455.8015834241788,11.207047269494833,4.567925492611352,69.99957484039399,6.947299261165984e-08,113.70000289176392,76.89781807056055,15.288,0.0,0.0,0.0329350617559806,2.7254099134167665e-10,-0.0001275114371842,1.260720913253598e-08,3.7915697709142366e-06,4.053359361668992,38.945390435244384,11.207126987890645,44.921630958721536
0.27,31.22218383516388,131.01038986473338,4.372698316214008,4.0614460923241,0.0005296455772492,41.029837477288126,0.0008548809954683,3.2610328932384265,423.84219965987256,11.645685385842508,4.748226940060522,69.99949794024376,8.879821051920497e-08,113.70000314600205,83.0342688744587,15.288,0.0,0.0,0.0342241635563461,3.2137296827284217e-10,-0.0001442952656441,1.4842505534226832e-08,4.458527942364847e-06,4.061446126801262,37.8838346421185,11.645768582375233,41.15922617924542
0.28,31.222183663504484,131.01039032970942,4.48079961904222,4.081133040992532,0.0005533279247169,47.27661484082626,0.0008845140695959,3.254218495915602,476.3468732012221,12.047344998676092,4.915789434712848,69.99941106884992,1.1178948978424788e-07,113.70000341275257,88.85982357848233,15.288,0.0,0.0,0.0354045979054623,3.764736350660473e-10,-0.0001625146963723,1.7365685655384934e-08,5.194620655212288e-06,4.081133078439725,36.956255322213885,12.047431915223257,47.38848224631549
0.29,31.22218348566054,131.0103908114315,4.592727908358551,4.1001100265020245,0.0005770279952742,37.989969791857405,0.0009138463939581,3.247164755122801,397.97031042211177,12.446314684600782,5.082367374004485,69.99931338876085,1.3891902435864665e-07,113.70000369260468,94.8417675268915,15.288,0.0,0.0,0.0365771315767517,4.3836067907166327e-10,-0.0001822432988888,2.0202163500922312e-08,6.018074062137429e-06,4.100110067036654,36.07377590258778,12.446405323946324,38.12849176886316
0.3,31.222183301933686,131.01039130907952,4.708251093558373,4.112858061667493,0.0005998635114143,35.655053282557844,0.000944131403186,3.2397207148238625,378.1859457108711,12.860033399289696,5.253940723820665,69.99920403105713,1.707002607527005e-07,113.7000039856728,101.2505662360602,15.288,0.0,0.0,0.03779301412572,5.075709863465428e-10,-0.0002035013069687,2.3370674033523645e-08,6.94335970778e-06,4.112858105337573,35.19685285507256,12.860127625629724,35.80193592228613
0.31,31.222183112488807,131.0103918222051,4.827243246502713,4.136140889545823,0.0006242383343011,37.56633644061071,0.0009716215464757,3.232339252743767,394.1656220930212,13.2364445751808,5.4126574282679245,69.99908210036875,2.0768081583188525e-07,113.7000042923011,107.26326115439352,15.288,0.0,0.0,0.0388992619788015,5.846561731689753e-10,-0.0002263323252403,2.6893437641668458e-08,7.948283231812338e-06,4.1361409365698805,34.43286455705216,13.236542630309057,37.70514091683033
0.32,31.22218291741533,131.01039235056504,4.949637017503345,4.1622282001352975,0.0006491019906456,40.83513712643371,0.0009979686925508,3.224840963348891,421.55939346242695,13.59846554462374,5.566374262777002,69.99894668612772,2.504388718903276e-07,113.70000461297312,113.2095365840355,15.288,0.0,0.0,0.0399632243410653,6.701756367872645e-10,-0.00025078340164,3.0793566854276295e-08,9.047716714467492e-06,4.16222825066026,33.72644865222576,13.598567505326,40.96227562489027
0.33,31.222182716732533,131.01039289410716,5.075419569102976,4.187801887681037,0.0006739743721461,40.48743503284469,0.0010239291638211,3.217136801802925,418.5156301991682,13.956637761217308,5.718704299733134,69.99879684673242,2.995902922462564e-07,113.70000494831164,119.25032483364384,15.288,0.0,0.0,0.0410158804634189,7.647061680070125e-10,-0.0002769136723495,3.509664608790402e-08,1.0253455741189656e-05,4.187801941818244,33.053267359159875,13.956743628864118,40.61505097607
0.34,31.222182510255863,131.01039345333336,5.204736257784645,4.19642921746386,0.0006961879027693,31.814592723444047,0.0010535137542081,3.208669900766693,345.46563688075645,14.367047160772364,5.88887983533068,69.99863160305904,3.557915789971256e-07,113.70000529927128,126.36523219087664,15.288,0.0,0.0,0.042222056531773,8.688448410811866e-10,-0.0003048202762282,3.9835373705550826e-08,1.1618525957862828e-05,4.196429275109305,32.30947868183619,14.367156517712404,31.97598901989736
0.35,31.222182298183583,131.0103940277045,5.337435501771672,4.210915783240843,0.0007193441544952,34.813487415034444,0.0010813034848195,3.200164272309822,370.5765700527033,14.754132934586384,6.050986755458457,69.99844991734221,4.1975736284587617e-07,113.70000566632532,133.26448209504355,15.288,0.0,0.0,0.0433596939127697,9.832256819293898e-10,-0.0003345386312107,4.503361101379695e-08,1.309465610343774e-05,4.210915844572415,31.63649055965014,14.75424592890194,34.96026256388454
0.36,31.222182080444604,131.0103946174141,5.4735747500461605,4.22903876037745,0.0007431682866607,39.2632255716727,0.0011077666085529,3.1915717453569297,407.8625232777193,15.124417129017054,6.2072589919251575,69.99825073022951,4.922382611919288e-07,113.70000605036684,140.03566173682628,15.288,0.0,0.0,0.0444479595865755,1.1084921261805627e-09,-0.0003661511460057,5.0723697896912267e-08,1.4691545926915382e-05,4.229038825557203,31.017264542603208,15.124533865618538,39.39272792946638
0.37,31.22218185710795,131.01039522227452,5.613102797925907,4.249164960780052,0.0007674149135003,37.28328237034959,0.001133274451316,3.1828514669894137,391.1218908297666,15.483077353331511,6.359470679857624,69.99803294268581,5.740349991123437e-07,113.70000645214331,146.75405277514704,15.288,0.0,0.0,0.0455020695186381,1.245311285088233e-09,-0.0003997125883071,5.6934243389647934e-08,1.641828325195534e-05,4.2491650299519,30.439178816713017,15.483197898584232,37.418894813348615
0.38,31.2221816281124,131.0103958424523,5.756069531572451,4.260095806433531,0.0007900626414612,38.9278000801764,0.0011607546399008,3.1735466295306622,404.8187610144602,15.87126705947922,6.521735074464384,69.99779542676283,6.659911329739736e-07,113.70000687263192,154.20298254405043,15.288,0.0,0.0,0.0466429667223463,1.3943646956867835e-09,-0.0004353006984059,6.369875435270817e-08,1.8328108041903096e-05,4.260095879559656,29.83470194713067,15.87139116222873,39.05694584372078
0.39,31.22218139339905,131.0103964781077,5.9025231349944285,4.274091258047817,0.0008133283308351,33.320076729592266,0.0011870382950339,3.164143363712209,357.64062493382744,16.24457853509073,6.678818328235205,69.9975369905506,7.690136753559805e-07,113.70000731287368,161.54010621938565,15.288,0.0,0.0,0.0477401448128051,1.5563705124515804e-09,-0.0004730068442167,7.105463478762673e-08,2.0383860516746246e-05,4.274091335289374,29.274934656826048,16.244706292406182,33.46997636540994
0.4,31.22218115316572,131.01039712870306,6.0523126585892895,4.286421841403391,0.0008363022448449,31.88018820767003,0.0012133780841982,3.1544430614236454,345.465636880754,16.62063299903514,6.836764518435374,69.99725641601981,8.840594270905819e-07,113.70000777359816,169.10340080049767,15.288,0.0,0.0,0.0488453895716005,1.7320643186450851e-09,-0.0005128553637434,7.9027539265021e-08,2.2612406375611563e-05,4.286421922834417,28.730746964325096,16.620764365084565,32.03586915718869
0.41,31.22218090752676,131.01039779392735,6.205351877049411,4.30025870409831,0.0008595777771371,35.882550741685804,0.0012389121673015,3.1445895889870297,378.94687077668647,16.987310563534386,6.99141560549392,69.9969524610574,1.0121301778427253e-06,113.70000825570062,176.64448930727934,15.288,0.0,0.0,0.0499230826371405,1.922193031274436e-09,-0.0005548883906878,8.764667734700782e-08,2.5005077415911235e-05,4.300258789847355,28.21875643368965,16.987445585695873,36.020076248499606
0.42,31.222180656535848,131.0103984736348,6.36160173428776,4.322008670726048,0.0008844838439129,40.34064925656127,0.001261804338223,3.134918999355981,416.2328240017114,17.318628721060172,7.133856886815013,69.99662385300175,1.154276942054023e-06,113.70000876021427,183.59942989625057,15.288,0.0,0.0,0.0508968652507098,2.1275184665783874e-09,-0.0005991661829955,9.694534598491077e-08,2.752657757470936e-05,4.322008761057615,27.772396468009568,17.318767655457478,40.462275036947325
0.43,31.222180400205527,131.0103991677914,6.521055075967404,4.339436441324956,0.0009085827200945,35.541853595187746,0.0012854696362701,3.124839917627212,375.9031395134336,17.662848429084132,7.280642039343927,69.99626930133451,1.3115939750280808e-06,113.70000928827632,190.96736675963504,15.288,0.0,0.0,0.0519085689713619,2.3488101247838237e-09,-0.0006457514522491,1.0695800287133593e-07,3.0255957891170616e-05,4.339436536261635,27.322335771349252,17.662991148924057,35.67895714766603
0.44,31.22218013836212,131.0103998768696,6.683849332059896,4.342209064313268,0.0009296474314902,32.82948243168077,0.0013129688908547,3.113754688841357,353.0750125389216,18.063580761318697,7.446730341918701,69.99588746395321,1.4852372182848018e-06,113.7000098413532,199.7278270846888,15.288,0.0,0.0,0.0530863610987301,2.586862292117705e-09,-0.0006947575786514,1.1773083546077225e-07,3.329010177793299e-05,4.342209163639375,26.81344244367223,18.06372678999575,32.9768158972058
0.45,31.22217987077456,131.0104006014978,6.850166573233225,4.3420317510315165,0.0009500780330031,38.11022602597878,0.001341042003417,3.1022288449712887,397.2093853562869,18.47486275310604,7.616350301328129,69.99547690348253,1.6764536248320808e-06,113.70001042108892,208.92306716049887,15.288,0.0,0.0,0.0542951637545535,2.842521175226318e-09,-0.0007463379956615,1.2932090054593452e-07,3.657529369088674e-05,4.342031854775571,26.30944884471334,18.47501199101448,38.23628058998621
0.46,31.22217959739673,131.01040134180155,7.020045503401754,4.351169003849846,0.0009725797783515,44.3937050866137,0.0013660055515545,3.09098240974522,449.7140588976434,18.844323061800488,7.771531995684422,69.99503610583268,1.8865779683531e-06,113.70001102895836,217.3591612614144,15.288,0.0,0.0,0.0553810645782081,3.1166808800591503e-09,-0.000800596194505,1.417768495237597e-07,4.001824400409673e-05,4.351169112337076,25.873596578896564,18.844475834274814,44.50118229261506
0.47,31.22217931813738,131.01040209802923,7.193559875579052,4.358630093683735,0.0009947969928181,30.22514089990685,0.0013910994973101,3.079396422776949,331.0078106302534,19.2180591098146,7.9280875671397615,69.99456352718363,2.1170044481277104e-06,113.70001166656292,226.0625808853568,15.288,0.0,0.0,0.0564795377574197,3.4102493884459798e-09,-0.0008576351980594,1.551487523304888e-07,4.3718862242359527e-05,4.35863020698899,25.44665981168229,19.218215372160817,30.381603425148434
0.48,31.22217903348153,131.01040286886197,7.370336324605091,4.365514409145237,0.001016880998596,29.779838936311712,0.001416009414045,3.067527859335786,327.2031223011574,19.5915905767454,8.084483592791102,69.99405758812365,2.369198154608765e-06,113.70001233476164,234.93171707892955,15.288,0.0,0.0,0.057577416115756,3.7241711041759195e-09,-0.0009173883913609,1.6944871263079066e-07,4.767297940601472e-05,4.365514527349481,25.03354780044292,19.59175030803913,29.937410312943754
0.49,31.22217874361868,131.01040365378466,7.5502307795521535,4.3786401372577615,0.0010404145545081,37.2489281064929,0.0014385799934191,3.0558405437943126,389.60000969812296,19.93403005898306,8.23012235628909,69.99351671352461,2.644660619562788e-06,113.700013034871,243.21198709852868,15.288,0.0,0.0,0.0585839249886784,4.059374595909599e-09,-0.0009798792959512,1.8470833984680338e-07,5.180951737438081e-05,4.378640260624215,24.667474291142685,19.934193486919103,37.37406598941686
0.5,31.22217844858332,131.0104044527036,7.733219389747018,-7.954396709847834,-13.219922591964767,38.489724429121566,0.7625161951784107,3.7690700824929615,397.97031042210494,19.370562637418463,8.366120773869401,69.99293932307316,2.9449363413826395e-06,113.70001376847225,229.65272259859915,15.288,0.0,6.262892444746544,0.0569280736366226,4.416673716856832e-09,-0.0010561207172611,2.6601108099191817e-05,5.426127858208974e-05,15.391898382398002,13.419056256531825,17.3123581803607,38.68134184415492
0.51,31.222178148076587,131.01040526563747,7.919244359821738,-7.750605896247629,-13.025027731329052,29.578342104634725,0.7812021728376652,3.775195335798059,323.3984349720841,19.69484471443332,8.519699885374386,69.99236195232358,-8.327659221630237e-05,113.69992243028912,237.40206487492767,15.288,0.0,6.2877459405336165,0.0578812264772954,4.742134380338849e-09,-0.0009511610425946,-0.0001551320563681,4.968589112174274e-05,15.122287884039466,13.199340479216968,17.66645483193287,29.828521557681754
0.52,31.222177841537498,131.0104060927868,8.108308788832044,-7.551679476365603,-12.83258601199706,35.4144226948479,0.8006630740467896,3.781576883687249,372.0984511843415,20.02839295155072,8.675804280556534,69.99184514807753,-0.0004587104487344,113.69952331053685,245.5068946429718,15.288,0.0,6.3125107541797085,0.0588616177342493,4.9233840122225395e-09,-0.0008445618980429,-0.0003415275123704,4.4863811998742944e-05,14.857498612467936,12.979256218846343,18.02946539741152,35.62474869939068
0.53,31.222177528821945,131.01040693453956,8.300524223846498,-7.360593689064099,-12.647889013078268,37.15469969712823,0.8202213633995268,3.787825242471336,386.5562464348624,20.3587333147433,8.83068312086852,69.9913898823086,-0.0011308976727566,113.69880838220544,253.66758669307225,15.288,0.0,6.337190872012399,0.0598325876317094,4.957416023579342e-09,-0.0007362449273191,-0.0005328097135913,3.9754256659699366e-05,14.6035467473766,12.76637509560936,18.388103603694105,37.35628585306977
0.54,31.22217720981679,131.01040779116244,8.495967246051196,-7.176292141368006,-12.469510017460625,32.699169232120234,0.839950292782607,3.7939825112588217,349.2703242098436,20.68746241246117,8.984911158465227,69.99099713816636,-0.0021075924793722,113.69776939165838,261.92066461670913,15.288,0.0,6.361804263907869,0.0607988285714157,4.841170245754319e-09,-0.0006261683785346,-0.0007291466945069,3.435585586128494e-05,14.358668030556052,12.55969018469516,18.74418199102761,32.92924973729165
0.55,31.222176884782684,131.01040866190633,8.69442475698571,-7.00041445343845,-12.300572821206554,34.62164971590687,0.8595957906677612,3.799910608685317,365.2500005919907,21.00868155106533,9.136407424822048,69.99066787554256,-0.0033966058751189,113.6963980246166,270.11247365831406,15.288,0.0,6.38632217274598,0.0617430046426787,4.5716280198230286e-09,-0.0005145065827093,-0.0009303295213764,2.866710754049304e-05,14.12635610447143,12.361611792054012,19.09132016154745,34.84016151811422
0.56,31.22217655370672,131.0104095467674,8.89589629141613,-6.833888394404494,-12.143087586158678,32.35033828898221,0.8789538377024007,3.80550538483304,346.2265619465787,21.317829635830567,9.28357584371285,69.99040299503419,-0.0050056269186092,113.6946860973252,278.11513036082926,15.288,0.0,6.410744227893032,0.0626517110333823,4.1458671431681914e-09,-0.0004012705060766,-0.0011364334898819,2.2686419946789348e-05,13.908795905809717,12.173724836123196,19.424645288674057,32.58525461760877
0.57,31.222176216646936,131.01041044554947,9.100326621767609,-6.669415159909264,-11.984875445971326,31.99311423616527,0.8988930497543582,3.8112306455856206,343.1828296833023,21.63514336087139,9.433556589607187,69.99020336417728,-0.0069423506838871,113.69262541990916,286.45055736421807,15.288,0.0,6.435059779916343,0.0635844220162244,3.5610174075683223e-09,-0.0002865242369264,-0.001347440530075,1.643986916295467e-05,13.691862835713566,11.98698511134753,19.766262052027606,32.23186073246577
0.58,31.22217587356852,131.0104113583095,9.307732726277596,-6.502722591783029,-11.81845263241369,41.947098814996274,0.9200439669046572,3.817406593837271,426.1250058573153,21.974704362896404,9.591299358926545,69.99006983267465,-0.0092145531868115,113.690207716893,295.5068480711165,15.288,0.0,6.459268848565717,0.0645825230672841,2.814215403667739e-09,-0.0001702763893069,-0.0015634324060501,9.9230696364016e-06,13.466970296229464,11.795716455351144,20.131402712661437,42.13048982623833
0.59,31.22217552406112,131.01041228612357,9.518422285006544,-6.349625517719212,-11.671686849431756,34.10760106574272,0.940194477183024,3.8228795137050287,360.68438819711065,22.285618473773702,9.738902732492068,69.99000331880322,-0.0118305276005249,113.68742416338893,303.9219477083959,15.288,0.0,6.483401379120723,0.0654964392825109,1.902386809714273e-09,-5.229735397260519e-05,-0.0017849315140028,3.0907521960276687e-06,13.265983581175204,11.620912823181987,20.464888052641747,34.33404758968982
0.6,31.22217516831919,131.01041322842343,9.732234054865534,-6.189078665472537,-11.507462406930811,30.37227367259612,0.9623770016883852,3.829209659006224,329.4859594986058,22.63693273184061,9.900643236394153,69.99000472717756,-0.0147986899278057,113.68426580339836,313.5731909401259,15.288,0.0,6.507436276746406,0.0665290966998403,8.224761062440425e-10,6.726225745795268e-05,-0.0020117697599276,-4.03775424263495e-06,13.046438328920456,11.43452071325472,20.841472677271728,30.62783087567712
0.61,31.22217480628096,131.01041418533742,9.949205498273033,-6.031604594245675,-11.344370701047083,35.49451956954446,0.9851300683973656,3.8356309793442014,372.0984511843297,22.99480258104164,10.064609847205023,69.99007496675667,-0.0181276696121404,113.68072345463165,323.5594490030027,15.288,0.0,6.5313809480024965,0.0675810281912945,-4.286289020453124e-10,0.000188415533477,-0.0022440793611129,-1.1489158057970312e-05,12.82957534726854,11.250535690472285,21.22445318958833,35.71475137438507
0.62,31.22217443804425,131.01041515655933,10.169250185645051,-5.89619709451356,-11.217597663589563,43.99977924989759,1.005224336301147,3.840531644289882,442.86563930529206,23.287108025699208,10.205508421583744,69.99021494768857,-0.0218263050155365,113.67678771276344,331.83077056646084,15.288,0.0,6.555244896824315,0.0684402749353038,-1.8540832621104487e-09,0.0003111047751659,-0.0024818607298948,-1.921121679161119e-05,12.655196088635734,11.095906643170204,21.53628735709908,44.17850985849118
0.63,31.22217406341623,131.01041614257676,10.392508170310371,-5.759055212523946,-11.08408780968255,25.182014813025848,1.0264202172248829,3.845804427366061,286.11251274707894,23.598679816527422,10.353121363943488,69.9904254826286,-0.0259031249244609,113.67244950390972,340.76238172663886,15.288,0.0,6.578984849925324,0.0693561519488522,-3.4568268280881355e-09,0.0004353886379038,-0.00272534261992,-2.724508244659533e-05,12.474319966571787,10.93788166693356,21.86843490696197,25.49465866018468
0.64,31.22217368295432,131.01041714183535,10.618537242893575,-5.617355456419257,-10.938252498841468,24.72944601908814,1.0493618303131715,3.8517479087052298,282.30782441796754,23.943069152287787,10.512168218316004,69.99070736321703,-0.0303667564726084,113.66769964905144,350.7732307625652,15.288,0.0,6.602623852839077,0.0703684862720128,-5.239816022445505e-09,0.0005608988089236,-0.002973925055892,-3.561051370502996e-05,12.280697180509836,10.771955866752435,22.23531026111192,25.049603242648924
0.65,31.222173296627023,131.0104181543853,10.847352788795735,-5.491490378680038,-10.818833902581876,43.29972047925964,1.070250986003702,3.8565071925793326,436.7781447787475,24.23657623500995,10.653337342520471,69.99106130768195,-0.0352256361580399,113.66252917351352,359.4179804487852,15.288,0.0,6.6261250884141525,0.0712312850868766,-7.205849576891321e-09,0.000687649079301,-0.0032277397915469,-4.419188166020566e-05,12.117927006971806,10.628063429762708,22.54723847419896,43.484294618649095
0.66,31.2221729039288,131.01041918156844,11.079338636191528,-5.3658912572693565,-10.69658874359164,36.905540687079686,1.0919120006283407,3.861462954809431,383.51251517160017,24.541464458065857,10.798449318055273,69.99148801584394,-0.0404883036000009,113.65692899420544,368.50937025579645,15.288,0.0,6.649523980661273,0.072127540188358,-9.357676038919112e-09,0.0008158975485166,-0.0034874157004319,-5.309220795678912e-05,11.953004494508846,10.483663087660638,22.870991444720534,37.123066971549854
0.67,31.222172505026656,131.0104202228931,11.314355738755845,-5.236744266034176,-10.563916387939749,25.56540333454917,1.1152189495671656,3.867017692950683,289.1562440103425,24.876171381676727,10.953936689727549,69.99198822053187,-0.0461638969898799,113.6508893935686,378.6211454361936,15.288,0.0,6.672843592126112,0.0731114400862453,-1.1698310138375792e-08,0.00094550985591,-0.0037528074455643,-6.236407469965349e-05,11.777444330533912,10.332740007666194,23.226180832186728,25.88025090298093
0.68,31.222172100071408,131.01042127791249,11.552277928661098,-5.112675291284509,-10.437747004659636,31.794868517009608,1.13839721992837,3.872317046522932,340.8999924858462,25.20208605645197,11.106290269504724,69.99256272249717,-0.0522615712320497,113.64440062855842,388.5982519376154,15.288,0.0,6.69600917186827,0.0740695070102112,-1.4230725245932812e-08,0.0010763774406602,-0.0040238155640049,-7.192436518271509e-05,11.610170251335257,10.1885287821626,23.571582226012318,32.05003044543112
0.69,31.2221716891276,131.0104223464159,11.793046420030068,-4.997796430388568,-10.326594917486087,39.03519390099827,1.1604196200387182,3.876895573300576,401.0140726853634,25.49763516282988,11.24798564169768,69.99321215061856,-0.0587903461501555,113.63745310922806,397.7568122397121,15.288,0.0,6.719066450936558,0.0749383361451725,-1.6957763156162593e-08,0.0012084274882023,-0.0043004116850809,-8.169310768546088e-05,11.460599750471834,10.057587856410064,23.884305200990127,39.24440413446713
0.7,31.22217127205012,131.010423428766,12.03676594038432,-4.885168884916537,-10.21687363684228,32.813960483404514,1.1827616477424907,3.8814456577494094,349.27032420985284,25.79443875393231,11.390075037630972,69.99393711562207,-0.065759169055265,113.6300373210764,407.0613066091928,15.288,0.0,6.742034433691243,0.0758108595040176,-1.9882136859585985e-08,0.001341709687236,-0.0045828246041047,-9.175703952852456e-05,11.313521807223864,9.929320200582826,24.198067545145577,33.063885859285584
0.71,31.222170848878434,131.01042452482176,12.283397692156264,-4.771084568854974,-10.101107521509416,27.047165180234728,1.2063206411130245,3.886362728361701,301.33126406340574,26.111243084936845,11.539090776071,69.99473819216028,-0.0731772233060003,113.62214350175849,417.1117910097124,15.288,0.0,6.7648449898347325,0.0767421732977768,-2.3006637372393663e-08,0.0014761599968893,-0.004871049592507,-0.0001021893057941,11.160608807954528,9.797985074176738,24.532771277299343,27.351566116631716
0.72,31.22217041960168,131.0104256345795,12.53294202751166,-4.655066757755937,-9.978010800940536,33.0096534731402,1.231366850862042,3.891754555773472,350.79220534145287,26.452903515374835,11.696713301941768,69.995616058706,-0.0810539299135846,113.61376162856564,428.0885967302544,15.288,0.0,6.787551936179494,0.077746548279884,-2.6334098075891493e-08,0.0016117580746198,-0.0051651744768334,-0.0001130335230879,11.000488208841302,9.662408038023203,24.893471611833696,33.26107695581401
0.73,31.22216998420362,131.01042675804916,12.78540328013628,-4.552143803391062,-9.879215743121057,41.63431149598552,1.253885911457567,3.895836078329668,422.320318528234,26.73613133838132,11.833923408350037,69.99657130087996,-0.0893990479252574,113.60488132835331,437.2940483473183,15.288,0.0,6.810168981677571,0.0785791943514469,-2.9867429407788594e-08,0.0017484975604883,-0.0054653179127897,-0.0001239330475542,10.868075512562578,9.547408094619952,25.19198570621571,41.83498132392219
0.74,31.222169542610423,131.0104278954012,13.04083152850921,-4.447965560360736,-9.77491376399687,26.2334553500866,1.2775815634538727,3.900254132883077,294.48281347105944,27.03824179675667,11.977664706319915,69.99760440606731,-0.0982220238621337,113.59549256170348,447.221502962716,15.288,0.0,6.832656373503548,0.0794673452541247,-3.360932810262052e-08,0.0018863624546287,-0.0057715867608983,-0.0001352123842935,10.730374603028167,9.429654846334568,25.510239486995356,26.552558757252303
0.75,31.22216909516164,131.01042904567683,13.29895500073654,-4.343836336335353,-9.667780968973885,30.549144736828428,1.3021757289178808,3.904872208277207,330.24688556441487,27.352879205721727,12.1257076121438,69.99871594800156,-0.107532434807185,113.58558514193643,457.67913250696137,15.288,0.0,6.855000901147396,0.0803923214395035,-3.756262863250219e-08,0.0020251083079456,-0.0060835808292423,-0.00014684305707,10.590345569157115,9.311197275509878,25.84146362860704,30.82521585883302
0.76,31.222168641737102,131.010430209174,13.559860265775468,-4.245310256079438,-9.569938948975569,32.8481069006466,1.3259999964945963,3.9089723359055895,349.27032420986166,27.646126686488508,12.266254614156702,69.99990629734484,-0.1173397822018046,113.5751489761118,467.5334870971381,15.288,0.0,6.87723996543868,0.0812544386533339,-4.172989842077525e-08,0.0021647831005503,-0.0064015433200319,-0.0001586499413085,10.46128186964352,9.201537213851806,26.149864024846977,33.106441483039
0.77,31.22216818226896,131.0104313860488,13.823593452334324,-4.1495593618321855,-9.475459769445209,30.741633378734928,1.3498238829849891,3.91289101858544,331.7687666960708,27.93373671729156,12.40479201448672,70.00117595194025,-0.1276537356899973,113.56417378175,477.29974971444847,15.288,0.0,6.89937597772727,0.0820999945444369,-4.6113740861814256e-08,0.0023053894887661,-0.0067256247931811,-0.0001707078834942,10.336627177962724,9.09599822319572,26.4521103052225,31.01903872512739
0.78,31.22216771680893,131.01043257613085,14.090107711214724,-4.052759478990478,-9.375916627962544,25.3278915393728,1.3748648680965725,3.9171313155795593,286.8734378128899,28.24014602965744,12.54980797416637,70.00252522491239,-0.1384840047853182,113.55264924630032,487.81583790518687,15.288,0.0,6.921359933798903,0.0830008111710638,-5.0716763881020294e-08,0.0024468456306687,-0.0070557866400286,-0.0001831650577614,10.207142169400766,8.987971291579896,26.77394470885101,25.665857885121483
0.79,31.22216724543169,131.01043377918705,14.359338310542112,-3.9563016210849415,-9.27428038360707,35.802989949343555,1.4007627767114816,3.921531698574877,373.6203323159534,28.557522148434742,12.698571373035373,70.00395451679343,-0.149840474819203,113.5405648627555,498.8291633534458,15.288,0.0,6.943219375807392,0.0839338685026768,-5.55416063573023e-08,0.0025890692992822,-0.0073919864884156,-0.0001959846630592,10.076091265934467,8.879712084090208,27.10707482953105,36.04434264253329
0.8,31.22216676790972,131.0104349958114,14.631456413820956,-3.867061229509507,-9.186472125795785,36.26796264956603,1.4250296777409237,3.925073302001719,377.42502064505743,28.836866112835224,12.834076393457623,70.00546423215474,-0.161733342805527,113.52790979373736,508.6224952694728,15.288,0.0,6.964983325191739,0.084755153014117,-6.059078757103111e-08,0.0027321775316542,-0.0077346528027595,-0.0002088351106046,9.960774633926704,8.783859510671164,27.400033082368783,36.50756119982333
0.81,31.22216628433233,131.0104362257321,14.906386309603429,-3.776190452888204,-9.092201930409267,23.77271287046888,1.4508020369789516,3.9290390761200698,273.9374926939919,29.14009317522258,12.977815502331913,70.00705460615096,-0.1741727552189731,113.51467326524966,519.3616137807232,15.288,0.0,6.986640680931243,0.0856466409114171,-6.586694673254271e-08,0.0028760530647337,-0.008083670496471,-0.0002221380239527,9.839096422200305,8.68425988124805,27.71788008396549,24.13884943061573
0.82,31.22216579487289,131.01043746844678,15.183986674910098,-3.685732036521719,-8.996153489342019,30.394716607582463,1.4774049255003334,3.93313954137886,328.72500443277005,29.45334274207937,13.124966005787224,70.00872594411841,-0.1871689292433128,113.5008444205425,530.5735303190277,15.288,0.0,7.008172311960372,0.0865675945243222,-7.137274209685175e-08,0.0030205490852401,-0.0084388455545724,-0.0002358000995529,9.716148935551493,8.584625423970266,28.0460293295618,30.683727114239232
0.83,31.2221652995044,131.0104387240027,15.464272868380208,-3.6028938793623246,-8.915838920300406,38.49193832325073,1.501831677687901,3.9361822160238575,395.68750322465047,29.719000982108007,13.255554881762007,70.01047848252895,-0.2007321904215194,113.48641229185856,540.1733074155436,15.288,0.0,7.0295592213771645,0.0873486783873053,-7.711065610276307e-08,0.0031656563609435,-0.0088003151647806,-0.0002493502344441,9.610830097211656,8.499011655578082,28.324149542378716,38.721807095056754
0.84,31.22216479811371,131.01043999268643,15.747328543345311,-3.5203319900242214,-8.833779231728343,23.961551075065856,1.5269790451996914,3.9393255206656046,275.4593748256452,29.993228979892702,13.389060942240029,70.01231238066666,-0.2148726813264296,113.47136610756658,550.173093984228,15.288,0.0,7.050839076325232,0.0881549578512674,-8.30829892377106e-08,0.0033113824324509,-0.0091682695676341,-0.0002632282902312,9.504210448831198,8.413373363404753,28.61111312416752,24.331170964119995
0.85,31.222164290979887,131.0104412737078,16.032930390927238,-3.4345928393062763,-8.741310621136817,26.07971180672863,1.5544715757641347,3.9431818596036687,292.96093233939376,30.306191910883303,13.53591814324568,70.01422774837103,-0.2296005564865598,113.45569508407968,561.6990991661012,15.288,0.0,7.071994847402687,0.0890750936311084,-8.929230844441593e-08,0.0034575009876438,-0.009542311331663,-0.0002777037658758,9.386972394190265,8.320710289577361,28.938430489695044,26.421893062000436
0.86,31.22216377792305,131.01044256753653,16.321214383322783,-3.35382078161818,-8.65865162666306,32.525579261761635,1.5806911751091013,3.946350868127884,346.2265619465587,30.589223821285263,13.672344724186251,70.01622466122932,-0.2449263579884926,113.4393880304236,572.2237508484815,15.288,0.0,7.093041102344969,0.0899072653785488,-9.57408299319137e-08,0.0036041002179253,-0.0099228330892017,-0.0002921738741783,9.28087194737754,8.237254979959431,29.234297048235018,32.802219072474045
0.87,31.222163258957888,131.0104438741096,16.61216457534448,-3.276002226502636,-8.581078116445,30.319186015065767,1.60640651699361,3.949138364729517,327.964078366998,30.857313012710986,13.803537926995164,70.01830324608031,-0.2608606143805065,113.42243376278616,582.28156684097,15.288,0.0,7.113976825147708,0.09069552577042,-1.0243090379104581e-07,0.0037511214193368,-0.010309864753812,-0.0003067490002461,9.180779479664956,8.159223280797509,29.514433818810787,30.61746685043976
0.88,31.22216273411082,131.01044519333269,16.905756183872413,-3.197330619704499,-8.498900944816006,26.26930315214557,1.6334595876986675,3.952232710737272,294.4828134710418,31.144723352247727,13.941351018684214,70.02046347328377,-0.2774138291450247,113.40482113327684,593.1622987654836,15.288,0.0,7.134793152741208,0.0915405827911338,-1.0936484241559872e-07,0.0038984824372819,-0.0107033763384745,-0.000321759769466,9.076295312455484,8.078790214792631,29.814609395218167,26.615120171131892
0.89,31.22216220345311,131.0104465249881,17.20192927990927,-3.1179405726674214,-8.412335691345142,28.75865392365289,1.6618789288653708,3.9556246666144026,315.028134248087,31.451581503111107,14.08581554731958,70.02270526556552,-0.2945966308201226,113.38653886315169,604.8911183652817,15.288,0.0,7.155466057568392,0.0924428093080477,-1.1654495144912289e-07,0.0040460999306178,-0.0111033324365343,-0.000337223958673,8.967662743631223,7.996125268719689,30.13491737751917,29.07694935129493
0.9,31.22216166690294,131.0104478692797,17.50074413319281,-3.045034290833902,-8.340559139515392,31.710083504995687,1.6877829397188342,3.957898311755709,339.37814235421445,31.706565375823807,14.212279877395694,70.02502861538395,-0.3124200071904922,113.36757528707972,614.7211655725278,15.288,0.0,7.176031793068304,0.0931925747167119,-1.2397341804723302e-07,0.0041939868856213,-0.0115099577783894,-0.0003523734132652,8.87533439298097,7.926736467213199,30.401055609478743,32.000671339701675
0.91,31.222161124521936,131.01044922601892,17.802149203270517,-2.971295884317181,-8.264255443129057,24.245590535286137,1.7150461898026654,3.9604699412111217,277.7421810230789,31.98097434202196,14.345389651599204,70.02743341129944,-0.3308945875029765,113.34791912258903,625.3894892950788,15.288,0.0,7.196484312119726,0.0939994427475277,-1.3165244927071653e-07,0.0043420412062311,-0.0119231745616927,-0.0003679594199524,8.778678470045326,7.854941827506538,30.687324717352237,24.626720569193743
0.92,31.22216057649877,131.01045059466563,18.105992714639623,-2.896885349094884,-8.183693941481517,28.76488802862732,1.743693121183721,3.9633299273623774,315.02813424806214,32.27475341091203,14.48511167663446,70.02991938772396,-0.3500310968932846,113.32755899519464,636.9134030429046,15.288,0.0,7.216814005542344,0.094863252260285,-1.395843988101835e-07,0.0044900885977114,-0.0123426947942932,-0.000383989601579,8.677997205938274,7.7809112901841635,30.9936282225474,29.088953798881406
0.93,31.22216002273859,131.01045197546367,18.412346458151816,-2.8280282538387573,-8.116281351670374,34.1167787534349,1.7699133442972748,3.965134364939837,359.1625070654728,32.51952073622995,14.60783898680274,70.03248635229754,-0.3698403874812656,113.30648338835805,646.5915388120784,15.288,0.0,7.237031363558453,0.095583012624195,-1.4777112271062824e-07,0.0046381574494828,-0.0127687966704833,-0.0003996487565704,8.59175134557735,7.718869451941609,31.248877745468576,34.39199727101024
0.94,31.22215946312923,131.01045336870845,18.7212969048678,-2.756419384689424,-8.03880242103175,24.893054459447093,1.7988122854160824,3.967672255939609,283.0687504837787,32.806633411173515,14.745108174978927,70.03513398831664,-0.3903331552426824,113.284680957021,658.0398415645001,15.288,0.0,7.25713619362103,0.0964272448044657,-1.562144462737098e-07,0.0047862343202622,-0.013201657213816,-0.0004160366378017,8.495308363856855,7.649819059511374,31.548040036991097,25.271373312301716
0.95,31.22215889794408,131.010454773625,19.032625493274264,-2.6865130335849314,-7.963814500224122,32.092645094707684,1.8276245366440111,3.969968582636228,342.4218736174873,33.08654051227061,14.879807362169975,70.03786195032899,-0.41152051327057,113.26213991502944,669.2965589689851,15.288,0.0,7.277120477265465,0.0972503063485433,-1.649167867122103e-07,0.0049341157727451,-0.0136408951561964,-0.0004325374000111,8.401972878171037,7.584007498504677,31.83961154172247,32.388867395587134
0.96,31.222158326894057,131.01045619100012,19.346558834034354,-2.619732114678417,-7.895661959215855,31.44880940941616,1.8552761466832897,3.971666170052972,337.09533515678345,33.34049173400745,15.005480869501604,70.04066993199186,-0.4334135567717876,113.2388484898658,679.5896856163284,15.288,0.0,7.296999914503619,0.0979970849274026,-1.7387956572562565e-07,0.0050819260813803,-0.0140870981304235,-0.000448900634925,8.31630744618564,7.525042901170716,32.10416577404976,31.752854911276525
0.97,31.22215774999305,131.01045762078132,19.663084326049177,-2.553013007033153,-7.825455424193814,20.276849625277915,1.8838442422419168,3.97346852889104,245.02188719299323,33.60500565518175,15.134719999138962,70.04355743429322,-0.4560236088493183,113.21479468018036,690.3948129313719,15.288,0.0,7.316772612414986,0.0987749185425227,-1.8310476709417826e-07,0.0052295932613535,-0.014540287687658,-0.0004655952674606,8.228915106879155,7.4655923634139105,32.379604090293846,20.748203585015467
0.98,31.222157167513096,131.01045906219807,19.981984770107427,-2.4840635759807457,-7.7460803985005535,29.32840969749452,1.9151765365229487,3.975967606763227,319.5937466429581,33.911517124151565,15.278339282958996,70.04652406306644,-0.4793620007789121,113.18996646426564,703.0249063328345,15.288,0.0,7.336425262017699,0.0996762038763158,-1.925948695773856e-07,0.0053768836873219,-0.0149999827965829,-0.0004830601718787,8.132323679500207,7.39969232924869,32.698468820319626,29.65858787872695
0.99,31.22215657930626,131.0104605156477,20.30337585865057,-2.421664602366144,-7.684544391138126,32.00929011650696,1.942433602669973,3.976920181125088,341.6609485517054,34.14274439052859,15.395945769931304,70.04956922135689,-0.503440316455064,113.1643515671658,712.6228102545895,15.288,0.0,7.355972832115258,0.1003562146841959,-2.0235134247858786e-07,0.0055238594718273,-0.0154666088142112,-0.0004996328816477,8.054903573280981,7.349800264585381,32.93927463633152,32.31382979763512
1.0,31.22215598536762,131.01046198113443,20.627261206045105,-2.3571220794629206,-7.614116420307749,28.68398812176424,1.9723943675223563,3.9785397117929273,314.2672081822764,34.414872034376764,15.52755196353751,70.05269236150406,-0.5282696631404837,113.13793820955118,724.0051808997955,15.288,0.0,7.375409476645719,0.1011564527225638,-2.1237596861921066e-07,0.0056704294190873,-0.0159401335659483,-0.0005169619299031,7.968566019957915,7.293667854345823,33.22236663477494,29.02568332268612
1.01,31.222155385865207,131.01046345817744,20.953506286771088,-2.294076651626645,-7.546158319304913,29.97926237340612,2.002145036427009,3.979874448653783,324.9203161036979,34.678052575925086,15.655988321581251,70.0558927670972,-0.5538615982550872,113.1107141466956,735.0978433159589,15.288,0.0,7.394732507395414,0.101930400798849,-2.2267081416052186e-07,0.005816446714513,-0.0164203339978436,-0.0005343124572269,7.885228254748543,7.240741452175974,33.49612872539621,30.308483265044135
1.02,31.22215478072249,131.010464946981,21.282171822361143,-2.232730458949244,-7.481486800505446,25.07909026957607,2.0314179724514307,3.9808443896610624,284.59063161540416,34.92796292781116,15.77977175878067,70.05916979085194,-0.5802275144131076,113.082667299469,745.7075706918029,15.288,0.0,7.413946715732723,0.1026653517074208,-2.332373267408869e-07,0.0059618935527651,-0.0169074095254549,-0.0005516029884433,7.805726271608977,7.191723427112068,33.75611042693889,25.474193800453037
1.03,31.22215417000156,131.01046644736385,21.61320863580618,-2.170368664175044,-7.41115656888226,20.546050515241607,2.062707352318384,3.9822202189850726,247.30469339049705,35.206108986867,15.913171145319348,70.06252259351753,-0.6073787164506579,113.05378569279932,757.6075373784195,15.288,0.0,7.43304868298688,0.1034833056453715,-2.440772223322645e-07,0.0061066612007824,-0.0174012662892446,-0.0005694783021652,7.720714942392666,7.13905234338302,34.04521076594887,21.029812915683813
1.04,31.222153553757195,131.01046795916292,21.94657285091144,-2.1107389742856832,-7.347742847607834,32.48076649443241,2.0924736336789684,3.9829054874771215,345.46563688072297,35.45351642621447,16.03590936679139,70.06595030133916,-0.6353269203788591,113.02405691677664,768.2683749073866,15.288,0.0,7.452041194704058,0.1042109163331904,-2.5519216160635653e-07,0.0062506691568855,-0.017901898137725,-0.0005869853335083,7.643303690564672,7.093346470193745,34.30249670476626,32.7908855338745
1.05,31.22215293171884,131.01046948313245,22.28248192865333,-2.05051135444711,-7.27996383737057,19.709685636497657,2.123942045393576,3.983883902609701,240.45625879819983,35.72357623497354,16.166339746335456,70.06945210183326,-0.6640837266695337,112.99346867572572,779.9920359418442,15.288,0.0,7.4709347669609425,0.1050051194026752,-2.665829391880712e-07,0.0063940009655715,-0.0184098880321664,-0.0006049995266982,7.561733764780072,7.045048420950659,34.58311659008452,20.220142646658687
1.06,31.22215230410708,131.01047101864563,22.62075987058135,-1.98999036449986,-7.2086813072845795,27.94729418900979,2.156971295822952,3.985091452888703,308.17968365593924,36.013159555609285,16.30337212514571,70.0730270235029,-0.6936612481777102,112.96200814084936,792.6631149076992,15.288,0.0,7.489721435818579,0.105856718536997,-2.782517866335652e-07,0.0065364590678135,-0.0189248385192325,-0.0006234721638605,7.476913056534894,6.994819563388454,34.88380756276359,28.3122717482358
1.07,31.22215167081053,131.01047256600884,22.961496598354028,-1.9331136300124072,-7.148068244506244,32.85558224635604,2.1871844129681186,3.985238159113434,348.5093681440308,36.25161862470955,16.422755616239236,70.07667405739794,-0.7240718801300449,112.9296621847275,803.1687277014267,15.288,0.0,7.508412055425325,0.1065580524473446,-2.9019985029051735e-07,0.0066780615737591,-0.0194471181969684,-0.0006411754790431,7.403539602798398,6.954829015157074,35.131713082238015,33.16858730166618
1.08,31.222151031733983,131.01047412548792,23.30477049248415,-1.87646139186756,-7.086048754714319,22.20425553244827,2.218237736781471,3.98540613057932,261.00157857466235,36.49827909342343,16.544861384500845,70.08039218752769,-0.7553277634593081,112.89641794523516,814.1087851039437,15.288,0.0,7.527007866301549,0.1072835021211281,-3.0242838050143576e-07,0.0068187734852757,-0.0199769332684632,-0.0006591183689976,7.329066950061765,6.914741104056376,35.38804048797539,22.667884868968258
1.09,31.22215038713358,131.01047569635676,23.650377296732994,-1.8178682592717497,-7.01431026959976,20.4417287976204,2.2528965194527366,3.9863654435100857,246.54375332474407,36.79686597962258,16.684671241007788,70.08418026192552,-0.787441149443655,112.86226244975973,827.4560020147885,15.288,0.0,7.54549794822304,0.1081615940225144,-3.149397230074992e-07,0.0069583654826173,-0.0205137569809717,-0.0006780916764149,7.244906256016015,6.867272354411241,35.69781082646465,20.948291777900096
1.1,31.22214973707865,131.01047727841475,23.99826256540553,-1.7615585597767105,-6.948698659784776,40.737711924570704,2.28606661260604,3.986652449986249,413.1890617385841,37.06597383153857,16.814259553457276,70.08803708150548,-0.8204244128118263,112.82718259514384,839.5751305966513,15.288,0.0,7.563885967343718,0.1089530438550236,-3.2773534850092105e-07,0.0070967477308919,-0.021057569105257,-0.0006966114626553,7.167445293660105,6.826137917960155,35.9771485091033,40.9961055609379
1.11,31.222149081195248,131.01047887272043,24.348730543608223,-1.7087283744567572,-6.894383794090273,29.893453827599565,2.3158121513654577,3.9857550871233447,324.1593910376397,37.276107935547365,16.923539969574996,70.09196138987485,-0.8542901557812641,112.79116503880438,849.0929541186852,15.288,0.0,7.58218951623107,0.1095711528810517,-3.4081523129218493e-07,0.0072340630174885,-0.0216092894008593,-0.0007140918264334,7.101983819597261,6.795984645302948,36.19575219337799,30.24678183340781
1.12,31.222148419543046,131.01048047910862,24.701736824750785,-1.6517442920052945,-6.820994535675343,11.438722232321544,2.3526195911260976,3.986552715794788,172.73281794065943,37.59060952299833,17.068470798936076,70.09595182984198,-0.8890507224859042,112.75419671387168,863.4518516372772,15.288,0.0,7.600400665136114,0.1104960538885274,-3.5418106066462725e-07,0.0073701700326567,-0.0221687553155235,-0.0007336406089995,7.017216249701094,6.750094485064345,36.521699264345976,12.339845534064366
1.13,31.222147752667155,131.01048209602388,25.05684113892384,-1.5981945939207685,-6.758979815097244,35.18088390354236,2.3859341291941147,3.986141715047309,367.5328077900705,37.845268293171,17.19278432751391,70.10000704993357,-0.9247195135376068,112.71626343100716,875.1605903673334,15.288,0.0,7.618507387267894,0.111245058694662,-3.6783621084471044e-07,0.0075047167337272,-0.0227348801502675,-0.0007520687904183,6.944506764854577,6.715213663311404,36.78603096025197,35.486287487927214
1.14,31.22214707995783,131.01048372520785,25.414542259997944,-1.5471113898518432,-6.704980196259768,19.59403136319825,2.416719820622545,3.984819610540731,239.69531773195544,38.05592072789955,17.301935300694495,70.10412552409339,-0.9613087828327108,112.67735222401863,884.8998490232408,15.288,0.0,7.636533729802855,0.111864716930304,-3.817792435282434e-07,0.0076379573018351,-0.0233091309254605,-0.0007696552062324,6.880361640478426,6.688547074294831,37.005107153088815,20.14064018550395
1.15,31.22214640186548,131.01048536538144,25.77447854969989,-1.4922156708306555,-6.632049579248401,19.311936664804804,2.4550009914716493,3.985209958726303,237.41251153546767,38.37537197291441,17.448193883462544,70.10830564645458,-0.998830804931682,112.6374501049322,899.7872482460617,15.288,0.0,7.654457884931725,0.1128041965171153,-3.9601333734358e-07,0.0077695336108448,-0.0238903988259786,-0.0007894584611039,6.797119623438039,6.645914620106695,37.33593680816411,19.871080142475652
1.16,31.222145718516,131.01048701618237,26.136549665964484,-1.442850970934927,-6.580913373554656,50.13124131835213,2.485463341396029,3.983315701370707,490.0437743845894,38.57100700268944,17.551984261907656,70.11254580397011,-1.037298867083742,112.59654301108124,908.9531266817404,15.288,0.0,7.672287525193197,0.1133797279022322,-4.1053978941538e-07,0.007899342752195,-0.0244786119849517,-0.0008067120918641,6.736547818310798,6.623873861292889,37.53955095662047,50.35062748483941
1.17,31.222145029115847,131.01048867989715,26.50140948909184,-1.3918793329582697,-6.520152128056608,9.091006843114783,2.5200074632997302,3.982222773340816,153.70937929486794,38.823057205823126,17.67496406752715,70.11684422076394,-1.0767251987295234,112.55461800786829,920.8391501419632,15.288,0.0,7.690046214225376,0.1141211010337272,-4.253561001053698e-07,0.0080276972049053,-0.0250756689604328,-0.0008251485190235,6.6664339407043895,6.594208071144221,37.801083204341765,10.239870177554028
1.18,31.22214433471808,131.01049035350783,26.868201298058672,-1.338778863375362,-6.446609924182974,24.50340120066104,2.5602079682531405,3.9822658903044057,280.02501822196746,39.15359107300432,17.82462387106864,70.12119908724034,-1.1171227737468217,112.5116613679802,936.5526799275306,15.288,0.0,7.707695730080703,0.1150931879268213,-4.4046836397641974e-07,0.0081539348870306,-0.0256789643596319,-0.0008452300858819,6.5835809669342,6.553744173548502,38.14309517412544,24.956557792739485
1.19,31.222143634851545,131.01049203837178,27.237314491908567,-1.2924588943265956,-6.402855653403305,42.61950234902129,2.588684879506446,3.97914819178436,428.4078130529292,39.30526972622405,17.913073193402504,70.12560853146161,-1.1585049584040008,112.46765895085434,943.7895674384569,15.288,0.0,7.725265256805614,0.1155395333054442,-4.55874591004441e-07,0.0082782759644015,-0.0262899741371957,-0.0008614129360793,6.531466206406468,6.541618637777387,38.30160356811896,42.883060644219384
1.2,31.22214292911871,131.0104937356548,27.609083684476552,-1.2419327658543486,-6.336100447414857,4.610505735381996,2.627065906131972,3.978185811049795,117.1843741360236,39.59771831249258,18.049478969892764,70.13007050236686,-1.2008837653898488,112.42259805679667,957.8520308351184,15.288,0.0,7.742730019263754,0.116399686899003,-4.7157401517797283e-07,0.0084007768489891,-0.0269095469314534,-0.0008806327026354,6.4561810002136655,6.509349561123479,38.60447330934005,6.632058561139912
1.21,31.22214221856673,131.0104954423346,27.98265119075272,-1.192357475234778,-6.271119946873481,34.25791938517464,2.6652535559662582,3.9768808013360464,359.92343213200894,39.88166061035758,18.18283381462312,70.13458292198284,-1.2442727899615127,112.37646430559684,971.6033023946616,15.288,0.0,7.760087815608411,0.1172348452809035,-4.875728359451355e-07,0.0085208280537257,-0.0275350970048641,-0.0008995900607329,6.38302277936264,6.47954444490341,38.898561008011065,34.590810889985654
1.22,31.222141502406096,131.010497160709,28.358674007581783,-1.1471476321389444,-6.226356730145528,24.86640672795728,2.694948818667682,3.973314014622056,283.0687504825761,40.03787395250193,18.272501981468285,70.13914367546941,-1.2886847552248737,112.32924424024289,979.1942258580827,15.288,0.0,7.777374121954337,0.1176945444602281,-5.038668554670855e-07,0.0086387682619909,-0.0281688966786783,-0.0009155809709376,6.330740989537286,6.469717639103457,39.06176396427139,25.325642281178766
