Time,Latitude,Longitude,Altitude,Angle of Attack,Angle of Sideslip,X-Acceleration,Y-Acceleration,Z-Acceleration,Thrust,True Velocity,Ground Velocity,Pitch,Roll,Yaw,Dynamic Pressure,cp,parachute_deploy_gain,Wind Speed,Mach,omega_x,omega_y,omega_z,Cmq,Angle of Attack(total),Angle of Attack(gust),True Velocity(gust),Acceleration
0.0,31.222216000000007,131.010392,3.000000004412624,0.0,0.0,0.0,0.0,0.0,2.2828121974499247,0.0,0.0,71.99999999612658,-1.0292491154817412e-14,119.99999999354436,0.0,15.288,0,0.0,0.0,0.0,0.0,0.0,-0.0,0.0,90.0,0.0,0.0
0.01,31.22221599999862,131.01039200000284,3.0000009727369523,0.0,0.0,0.0,0.0,0.0,34.24218696174923,5.916279387578309e-11,5.734623670548936e-11,71.99999999613168,-5.86671995824671e-13,119.9999999935449,2.1432944861733093e-21,15.288,0,0.0,1.7386402909615473e-13,-3.4220131069073734e-19,7.115076756936125e-19,5.488773498207866e-19,-1.1574302492039043e-31,0.0,89.99999999962336,5.916279387578309e-11,0.0
0.02,31.22221599999738,131.01039200000537,3.0000018317022668,0.0,0.0,0.0,0.0,0.0,25.871876237766408,1.2265415415436536e-10,1.1895038237325684e-10,71.9999999961369,-1.1836364828043265e-12,119.99999999354544,9.211895886571454e-21,15.288,0,0.0,3.6044858651615574e-13,-6.979551485375437e-19,1.4162390878091906e-18,1.0909784360635388e-18,-4.776231873571785e-31,0.0,89.99999999921916,1.2265415415436536e-10,0.0
0.03,31.22221599921969,131.01039200159065,3.0001883335529382,18.80143492628821,-0.0001350810307892,10.931161642028636,-1.75114298675875e-05,3.026590975169265,180.34219359854663,0.0798232026864394,0.0478175828508887,71.99999999765336,-5.341802909786072e-12,119.99999999436793,0.0039016003969354,15.288,0,0.0,0.0002345795854893,3.788270153300133e-17,-7.771883375645477e-10,1.1422790048099072e-11,1.7057759223764537e-13,18.80143492675591,89.51882325913425,0.079801984207741,11.342422482672777
0.04,31.222215995131297,131.01039200995308,3.001692634342189,9.19442604083399,-4.49173898918486e-05,52.29595764159784,6.445392950801871e-06,3.026413589912948,548.6359724538078,0.3504174083926908,0.1601447499964056,72.00000000319055,-3.111420077280171e-11,119.99999999870242,0.0751892535633216,15.288,0,0.0,0.0010297854387864,2.0082066977226968e-15,-1.520937588847922e-08,2.5623342884322286e-11,1.4654248781413086e-11,9.19442604094277,87.798916624545,0.3504103527855857,52.383455068075136
0.05,31.222215983575865,131.01039203366796,3.0074067499493786,5.158590039700252,1.707592688632746e-06,76.26884281015512,5.843947534199429e-05,3.0258124765658088,761.6984298824644,0.9592973585397016,0.3772700771701255,72.0000000004862,-1.3608731808076822e-10,120.0000000109612,0.5634958029902841,15.288,0,0.0,0.0028191251099456,2.086299069701397e-14,-1.0551247853743037e-07,3.973493515691201e-11,2.783064866637575e-10,5.158590039700515,83.94063169874748,0.959297626767734,76.32884071402438
0.06,31.222215961742712,131.0103920785344,3.019291017943491,4.109521257467909,3.140103977270004e-05,57.06876634333886,0.0001151069734147,3.024834864051463,590.4875390737208,1.6257536642597354,0.6118982818704327,71.99999992547217,-3.5903296759057166e-10,120.00000003412836,1.6184272268450337,15.288,0,0.0,0.0047776672697797,1.0694899894620088e-13,-3.741090980393931e-07,5.521401959501359e-11,1.6723176417636091e-09,4.109521257587776,79.78719176344794,1.6257585967235286,57.148873286519276
0.07,31.222215929936205,131.01039214392435,3.0371334573469446,3.649087515174788,5.707077112564807e-05,86.89643797254193,0.0001728541558773,3.0234947746384675,855.2937749779139,2.3057260079826607,0.8506307413593818,71.99999965378231,-6.907496536790437e-10,120.00000006788592,3.255354923652711,15.288,0,0.0,0.0067759305364855,3.495199904512709e-13,-9.036515915819006e-07,7.594816279105379e-11,5.728932851326001e-09,3.6490875156204896,75.6601668283889,2.305734972638426,86.94902215090157
0.08,31.222215886364623,131.01039223353447,3.0621840248716574,3.4254446680114707,8.413075603463509e-05,17.831756866644035,0.0002285946601282,3.021841001032126,241.2171988638848,2.961944911520492,1.0819695676346892,71.99999900671328,-1.141745983122182e-09,120.00000011415082,5.371998197385977,15.288,0,0.0,0.0087043901031071,8.800530155962314e-13,-1.829098470920821e-06,1.0943386634701918e-10,1.4896287129277132e-08,3.4254446690434226,71.81713637501419,2.9619581267487467,18.085991154451033
0.09,31.22221583454733,131.01039234010327,3.0919888289029,3.389560809024919,0.0001118726864415,54.09031716446879,0.0002748660999733,3.020060228038602,563.0937377043176,3.504225426410036,1.2780161667917422,71.99999774508822,-1.634190085504106e-09,120.00000016921716,7.519080503822694,15.288,0,0.0,0.0102980157586766,1.865782139518716e-12,-3.1503298654458527e-06,1.6284478329871028e-10,3.03536411425607e-08,3.389560810868955,68.76526501308032,3.504242999330529,54.17456206384468
0.1,31.22221577423132,131.0103924641528,3.1267248829165366,3.4447939461814814,0.0001419149103147,51.372195336549765,0.0003131602029306,3.0182021883815127,538.7437595981919,3.950569597142709,1.4443465951180965,71.99999562056465,-2.1287748602259068e-09,120.00000023339832,9.55649523509932,15.288,0,0.0,0.0116097108366932,3.485956000178229e-12,-4.949356763187612e-06,2.4573266549165286e-10,5.3761299442583966e-08,3.444793949101151,66.34639928474206,3.9505918890846927,51.460781166288626
0.11,31.222215706113143,131.01039260424562,3.165907002780892,3.4691423802630394,0.0001702373452339,40.591037561894986,0.0003534470100582,3.016051659024047,442.8656393052949,4.421478635995476,1.6182620895289603,71.99999235067894,-2.5564479031457968e-09,120.00000030601664,11.970509656144712,15.288,0,0.0,0.0129935974697161,5.942887149865172e-12,-7.273722517324353e-06,3.67769289312894e-10,8.842679949465076e-08,3.4691423844348632,63.88798785789768,4.421505376815134,40.70293476011277
0.12,31.222215630588888,131.0103927595646,3.2092596514826863,3.4852659299808075,0.0001974376474727,44.30042894095728,0.000394069215595,3.013641598889868,475.58594813540446,4.896982486381051,1.793579340340896,71.99998761802138,-2.8337988279882726e-09,120.00000038673312,14.683611096353944,15.288,0,0.0,0.0143909889875706,9.464337642181618e-12,-1.017558359402848e-05,5.395790443954697e-10,1.3700793350599625e-07,3.4852659355662303,61.5068242157714,4.897013499814194,44.40281567867803
0.13,31.222215548046687,131.0103929293088,3.256512891171917,3.5606043721293616,0.0002276507019012,48.86766833507025,0.0004268800875964,3.0112558910133567,515.9156326236895,5.278566579338586,1.939796541405244,71.99998107389406,-2.8573058577484587e-09,120.00000047523812,17.061052093156064,15.288,0,0.0,0.0155123760833565,1.4300406003001044e-11,-1.3705268062305584e-05,7.724776992181392e-10,1.989112774124932e-07,3.560604379397528,59.67313531776262,5.27860233862722,48.960358155653
0.14,31.222215458587108,131.01039311327068,3.30759734332425,3.6000732663755977,0.0002555702913645,45.540290862247225,0.0004629468001456,3.0085404980032777,486.2390860568404,5.70011779273801,2.098362647205908,71.99997235012626,-2.508533681468686e-09,120.00000057154703,19.894788765881632,15.288,0,0.0,0.0167512184495524,2.071534240530911e-11,-1.7917736259613292e-05,1.0787346240473087e-09,2.8081526258393346e-07,3.6000732754351943,57.72385750323359,5.700157937625502,45.639559681930805
0.15,31.222215362317904,131.01039331122794,3.3624387479639086,3.651605404442164,0.0002842753491325,44.01308509501,0.0004965057129938,3.005703619811542,472.54218587214,6.091938849578711,2.2476968067377374,71.99996103728932,-1.6446954747148112e-09,120.00000067569304,22.723773683610247,15.288,0,0.0,0.0179026934683374,2.9002783512213203e-11,-2.287326399669318e-05,1.47199345427166e-09,3.831202693354572e-07,3.651605415492516,55.98561718911576,6.091983503446133,44.115597174664394
0.16,31.22221525912812,131.01039352340948,3.421115382839859,3.67540086436193,0.0003108411545024,34.83804992586084,0.0005330990866742,3.002517946501868,391.1218908297564,6.521183188362317,2.4085903880902046,71.99994669525161,-1.0153513453738144e-10,120.00000078796704,26.03872642002185,15.288,0,0.0,0.019164148528834,3.9478358970291335e-11,-2.864207894220033e-05,1.9677461746207517e-09,5.135466997084602e-07,3.6754008774883777,54.15946979122355,6.521232015176687,34.96719658394182
0.17,31.2222151493826,131.01039374906244,3.4833737923187487,3.7139589864597298,0.0003384978477213,43.96471427482637,0.0005668629535037,2.999235483723449,471.78125980632376,6.916861975403744,2.559060925010733,71.99992884100092,2.3206494032971838e-09,120.0000009081849,29.29426197817256,15.288,0,0.0,0.0203269651395979,5.248754693205839e-11,-3.5267097947693114e-05,2.580363454062817e-09,6.706952682968329e-07,3.713959001863866,52.549031795895466,6.916915146521327,44.06689817851128
0.18,31.22221503253009,131.01039398932429,3.549599475912623,3.7380363034619775,0.0003650282082698,36.67395661481795,0.0006021794701355,2.9956556354306425,407.10156721191447,7.332140201215607,2.71556808256092,71.99990696207136,5.837017536380516e-09,120.00000103716444,32.917216366714264,15.288,0,0.0,0.0215473823438242,6.839750892601699e-11,-4.285557247677198e-05,3.331016495775474e-09,8.639362741436378e-07,3.738036321259578,50.93050624815799,7.332197539712479,36.796100973258795
0.19,31.22221490871209,131.01039424390297,3.619694897703461,3.747799769666444,0.0003901520189829,41.42208371271829,0.0006393759928961,2.991742733214697,448.9531328318269,7.771071983754382,2.879366399937307,71.99988049019642,1.0709144790974043e-08,120.00000117502664,36.97605053227239,15.288,0,0.0,0.0228373144884866,8.761416506509219e-11,-5.146771415177372e-05,4.238406957677133e-09,1.0996552116864756e-06,3.747799789945131,49.29705748437159,7.771133268690212,41.529983675580546
0.2,31.22221477769685,131.01039451327668,3.693822889232993,3.7700519460961166,0.0004166800650969,37.99697972290605,0.0006740224661302,2.987733789228414,418.51563019916136,8.179966026035371,3.0338260708461373,71.99984881140107,1.723179577184912e-08,120.0000013223286,40.969302182777255,15.288,0,0.0,0.024038975990988,1.1057590044953188e-10,-6.120032215177249e-05,5.3263847350253015e-09,1.376394225587184e-06,3.7700519690893857,47.8457752505109,8.180031477986942,38.11426270718793
0.21,31.222214639876928,131.01039479663547,3.771710975053407,3.7926098867321474,0.0004432924407074,36.46301043881366,0.0007080907240332,2.983530483977461,404.8187610144644,8.582757448615462,3.1863584283669346,71.99981127559042,2.5745201416596626e-08,120.00000147900325,45.103059028532826,15.288,0,0.0,0.0252227064089584,1.3774582723633048e-10,-7.20875523136271e-05,6.61341033873124e-09,1.7010673350603349e-06,3.792609912601061,46.47936953648762,8.582827080829217,36.584868250565684
0.22,31.22221449507626,131.01039509434258,3.8534832466471007,3.782921298925821,0.0004660920499522,44.14577847155813,0.0007479176313898,2.978724032883548,472.5421858721365,9.056569122268344,3.360845972992861,71.99976720416048,3.661811567390422e-08,120.00000164562512,50.21995530074818,15.288,0,0.0,0.0266151520780326,1.6960703048385348e-10,-8.421592474264931e-05,8.124635526119773e-09,2.0969540034515424e-06,3.7829213275976334,44.9464484092354,9.056642335836344,44.24615863872642
0.23,31.22221434283448,131.01039540734791,3.9394622486964206,3.813874679301352,0.0004940771488601,36.66675459308932,0.000779455230549,2.974212905336642,406.3406421461021,9.430647902846331,3.5044030163419806,71.99971583979395,5.0272885112871524e-08,120.00000182313076,54.45382429059888,15.288,0,0.0,0.0277145095638672,2.0669790509245914e-10,-9.77285871729516e-05,9.894576563683824e-09,2.5339062472561444e-06,3.813874711257219,43.79476959007253,9.430725512303388,36.78718303164376
0.24,31.222214184153326,131.01039573358457,4.028950821673608,3.829256049377765,0.0005200487408944,37.802126339316736,0.0008136255607606,2.9692962675112065,416.2328240017114,9.837806876534357,3.658163422426286,71.9996564062533,6.718950080713476e-08,120.0000020109434,59.25679777340223,15.288,0,0.0,0.0289110855155543,2.4956955046738006e-10,-0.0001125744417092,1.1934277804843484e-08,3.0448209172448607e-06,3.829256084638984,42.59361542722471,9.83788856559955,37.91856374864305
0.25,31.22221401888584,131.01039607335582,4.122052964664892,3.851417709838087,0.0005469594058717,38.85163035360012,0.0008459008130282,2.964283881833675,425.36408079150686,10.22297576958679,3.8050691648373967,71.99958811418384,8.786880969336211e-08,120.00000220974424,63.98709205399403,15.288,0,0.0,0.0300430411774988,2.987811646313829e-10,-0.0001288461362054,1.4273117985167728e-08,3.621333387698252e-06,3.8514177486178034,41.50703126619192,10.223061685769354,38.96455005232871
0.26,31.222213847358866,131.0103964259872,4.218542267117083,3.8780574625554745,0.0005745172425185,42.3164797140743,0.0008766626387865,2.959162938653076,455.8015834241788,10.590779679138215,3.946551912391076,71.99951013710364,1.1286401474734325e-07,120.00000241975916,68.67355887153568,15.288,0,0.0,0.0311239685467471,3.5491769188178554e-10,-0.0001465721578858,1.6932703957058654e-08,4.267712643344226e-06,3.8780575050466,40.51245375834074,10.590869924095635,42.41981967733593
0.27,31.22221366913008,131.0103967923915,4.318728802515264,3.886188503202341,0.0005994342651313,38.70936050721014,0.0009111181036949,2.953518013741325,423.84219965987256,11.004860953238978,4.102320296019413,71.99942161756776,1.4276417094868828e-07,120.0000026420792,74.14786134434608,15.288,0,0.0,0.0323408987462391,4.1858405402174807e-10,-0.0001658847815307,1.995072923688136e-08,5.018832267232506e-06,3.886188549362022,39.43841359495857,11.00495511215316,38.8218734782956
0.28,31.22221348431185,131.01039717233687,4.422535913956003,3.90556090261878,0.0006261175699806,44.68030766832924,0.0009425767186621,2.947879457547137,476.3468732012221,11.38358114165448,4.247086834352694,71.999321619057,1.7823531611327881e-07,120.000002877279,79.33831935330025,15.288,0,0.0,0.033453914386159,4.904408325040897e-10,-0.0001868529238516,2.3357766479368094e-08,5.847713054408178e-06,3.9055609527288775,38.49894431917428,11.383679491972384,44.77744842575601
0.29,31.222213292835256,131.0103975659655,4.530013412817602,3.9242599519377537,0.0006528240665589,35.802573724660256,0.0009737210635801,2.942037024315898,397.97031042211177,11.759725774384751,4.391004157029451,71.99920917567837,2.1999186079018322e-07,120.00000312617878,84.66717879828003,15.288,0,0.0,0.0345593650464213,5.711677680739745e-10,-0.0002095620322847,2.7188189988316943e-08,6.77505090435382e-06,3.9242600061534456,37.60352534239979,11.759828319749328,35.92324968749781
0.3,31.222213095024976,131.0103979726075,4.64093665799555,3.936939025755682,0.0006785438093183,33.570228713727204,0.0010059102294455,2.93586442972183,378.1859457108711,12.149968255527943,4.539237002744259,71.99908328532703,2.6880857935396905e-07,120.00000338923812,90.3787563598417,15.288,0,0.0,0.0357062504417728,6.614698865958865e-10,-0.0002340353597042,3.1467140861055e-08,7.817263716758327e-06,3.9369390841381695,36.71173884615234,12.150074840940263,33.698361337808635
0.31,31.22221289105846,131.01039839189684,4.755183729044857,3.9598342215431432,0.0007060286581592,35.396825578217346,0.0010350810412898,2.9297385597941448,394.1656220930212,12.504537499407316,4.6763673222047455,71.99894291513503,3.255120771695107e-07,120.00000366712923,95.72967338626896,15.288,0,0.0,0.0367483036680869,7.620720834468404e-10,-0.0002603234137215,3.622454560346964e-08,8.948994505138873e-06,3.9598342843844345,35.934338386209795,12.504648402129598,35.5178635353378
0.32,31.222212681031937,131.01039882363492,4.872689374180126,3.985461429033668,0.0007340760463279,38.52097867048992,0.0010630242168685,2.9235095146848846,421.55939346242695,12.84534566718622,4.809181081594425,71.99878701464397,3.909756427278764e-07,120.0000039606604,101.01782231644016,15.288,0,0.0,0.0377499198995686,8.737098716736534e-10,-0.0002884807530145,4.1491545539590986e-08,1.0187112828155184e-05,3.98546149652875,35.21473736963424,12.845460975581933,38.631757748577954
0.33,31.22221246496604,131.01039926777932,4.9934410812554,4.010606629086,0.0007621365968788,38.18822026147908,0.0010905599149574,2.917102431053817,418.5156301991682,13.18247167592885,4.940798912752974,71.99861449732019,4.661299779655886e-07,120.000004270781,106.38859400029033,15.288,0,0.0,0.0387407190563976,9.971421990244511e-10,-0.0003185760672934,4.7302669734505256e-08,1.154498667827874e-05,4.010606701382261,34.52805863348922,13.182591392065536,38.299473293007864
0.34,31.222212242662028,131.01039972474007,5.117579377337869,4.019339771238816,0.0007871574969313,29.898022638335373,0.0011220389395318,2.910051232417875,345.46563688075645,13.569536737955724,5.0878303926024735,71.99842423285973,5.519675040347761e-07,120.0000045987411,112.72655675097128,15.288,0,0.0,0.0398782837956187,1.1331556132162459e-09,-0.0003507224668667,5.37022358302301e-08,1.308298593306914e-05,4.019339848191799,33.76700548046532,13.5696603843662,30.039310197084795
0.35,31.22221201433324,131.01040019407705,5.2449575244483055,4.033762873683395,0.000813261106463,32.76415525156106,0.0011515840876071,2.902959820469776,370.5765700527033,13.934300103976534,5.227895396154902,71.99821502296155,6.495674834876441e-07,120.000004945438,118.8669740701126,15.288,0,0.0,0.040950312688979,1.2825853697215452e-09,-0.0003849609961885,6.072234695821837e-08,1.4746020857580124e-05,4.033762955530055,33.07785186209504,13.934427850732408,32.89250745069162
0.36,31.22221177990305,131.01040067594835,5.375631006350063,4.051723629010647,0.0008401329464575,37.01692984301412,0.0011797030485285,2.8957873473716007,407.8625232777193,14.282998147928636,5.362923567977223,71.9979856440668,7.600645476620651e-07,120.00000531213882,124.88900300695136,15.288,0,0.0,0.0419751331662584,1.4462801652534363e-09,-0.0004213876232777,6.84067806399068e-08,1.654507199147348e-05,4.051723715967022,32.44322602189087,14.283130115703262,37.13002398000203
0.37,31.222211539445663,131.01040117020102,5.509550188388412,4.071639898917391,0.0008674922629137,35.12417761390579,0.0012067983861697,2.88849906286036,391.1218908297666,14.620581431527652,5.494447309446232,71.99773482653193,8.846681943540367e-07,120.00000570002652,130.86067091914967,15.288,0,0.0,0.0429672939311924,1.6251202388969355e-09,-0.0004600660652957,7.679415042686734e-08,1.849041957573993e-05,4.071639991174516,31.85023865502424,14.620717696893658,35.24274792557624
0.38,31.222211292895075,131.01040167697127,5.646763233102716,4.08264881385344,0.0008930259828975,36.695642158537446,0.0012360471443664,2.880711738179021,404.8187610144602,14.986392916850402,5.634654729559426,71.99746126698146,1.0246533537040716e-06,120.0000061105033,137.4891296153862,15.288,0,0.0,0.0440424171304414,1.8200057922063743e-09,-0.0005010869196581,8.592980519823866e-08,2.0642694281337543e-05,4.082648911356968,31.228847973200924,14.986533193043764,36.808540518115166
0.39,31.22221104018777,131.0104021963902,5.787316652586672,4.096641430700089,0.0009192713382325,31.335681548387896,0.0012640110027448,2.872831219844713,357.64062493382744,15.337978856701952,5.770390286512262,71.99716358743511,1.1813915463769678e-06,120.00000654506955,144.01394309468844,15.288,0,0.0,0.0450757388736732,2.031886352449547e-09,-0.00054455673306,9.586443829735616e-08,2.295945663566148e-05,4.096641533664766,30.65298398882095,15.338123255506089,31.4670954954126
0.4,31.222210781536543,131.01040272801887,5.931064331106764,4.109028969993624,0.0009451871856381,29.95928076777898,0.0012920492774571,2.8646905607053603,345.465636880754,15.692185018814769,5.906873567965718,71.99684037970908,1.3563276523471372e-06,120.00000700500496,150.74021066990193,15.288,0,0.0,0.0461167659598875,2.2617341782092324e-09,-0.0005905037520737,1.0663253249436129e-07,2.5471259834659164e-05,4.1090290785164525,30.09246700352443,15.692333488470696,30.095929256306363
0.41,31.222210517064383,131.01040327160345,6.077922766619747,4.122888296344507,0.0009714525997821,33.78425365340317,0.0013192264430821,2.85640971467756,378.94687077668647,16.03742529732769,6.0405139809190125,71.99649020751959,1.5509747261474075e-06,120.0000074917568,157.44375780268788,15.288,0,0.0,0.0471314487675864,2.5105374204052982e-09,-0.0006389770219162,1.1827345344180344e-07,2.816813594418537e-05,4.122888410595805,29.56469007160549,16.037577892745222,33.904791300285986
0.42,31.22221024682894,131.0104038270252,6.227854084363214,4.14444025865494,0.0009995884754813,38.04468161607466,0.0013435485656724,2.8482703202464488,416.2328240017114,16.348862540904037,6.163613566771559,71.99611159893284,1.766920641656551e-06,120.00000800692096,163.6157044470786,15.288,0,0.0,0.0480467946810589,2.779304965995011e-09,-0.0006900467934588,1.308321832549104e-07,3.100973487310896e-05,4.144440378988911,29.104646754454564,16.34901955589459,38.15115260238947
0.43,31.222209970843565,131.0104043942566,6.380851271439565,4.1618082623168045,0.0010268052928652,33.45815353250911,0.0013687230309017,2.8397750580998298,375.9031395134336,16.67263197205097,6.290467308135904,71.99570306121484,2.005818691215035e-06,120.00000855220898,170.15779512382937,15.288,0,0.0,0.0489983878509763,3.0690566816849196e-09,-0.0007437862329608,1.443552931671376e-07,3.4086145072160934e-05,4.161808388761201,28.640125213458976,16.672793262249197,33.57845085853367
0.44,31.22220968892116,131.01040497368373,6.537047157143216,4.164954087655709,0.0010505545842624,30.86574023822051,0.0013980747538988,2.830419582421933,353.0750125389216,17.050421620730056,6.433992917638883,71.99526304125902,2.269416145406482e-06,120.00000912964636,177.9537948947602,15.288,0,0.0,0.050108743779844,3.380847125286677e-09,-0.0008003278134917,1.589055036683518e-07,3.750784460406397e-05,4.164954219916419,28.113519280259386,17.050586641458253,30.99524475496968
0.45,31.22220940081287,131.01040556582012,6.696617751072218,4.165241899529329,0.0010735835484822,35.912216710755274,0.0014280646808282,2.820677244966047,397.2093853562869,17.438293672974723,6.580571293039616,71.99478987454265,2.5595995397253085e-06,120.00000974147088,186.13940823302417,15.288,0,0.0,0.0512487363629523,3.7158016249566814e-09,-0.000859850913876,1.745604864109677e-07,4.121350642664912e-05,4.1652420376426775,27.591357195572936,17.43846231108416,36.02281959036367
0.46,31.222209106468902,131.0104061707686,6.859600379555308,4.174585124444534,0.0010989881252456,41.916816790010685,0.0014546917035209,2.811153314474766,449.7140588976434,17.786187321601275,6.714685486378061,71.99428180697711,2.8783880229668832e-06,120.0000103898448,193.6374175079873,15.288,0,0.0,0.0522712438446989,4.0751091178509895e-09,-0.0009224765531151,1.9138630415982226e-07,4.50966024037632e-05,4.1745852688465686,27.13985967570823,17.786359950252297,42.01097612387663
0.47,31.22220880579083,131.01040678873238,7.026066274755745,4.1823089530633855,0.0011240727220223,28.37640408484148,0.0014814747534716,2.801325368441072,331.0078106302534,18.138167428286582,6.849989708801916,71.99373704967608,3.2278903746588286e-06,120.00001107707628,201.37401505997488,15.288,0,0.0,0.0533057667609836,4.459978104761035e-09,-0.0009883252835099,2.094509673354327e-07,4.927107017839778e-05,4.182309103852639,26.69716826759888,18.13834399721685,28.514342615617974
0.48,31.222208499300592,131.0104074186346,7.195654207463586,4.189479568102716,0.0011490100608361,27.95074823096412,0.0015080719422187,2.7912412472910484,327.2031223011574,18.48995085190441,6.98515976370584,71.99315377257649,3.6103201777021456e-06,120.00001180491516,209.25751230436188,15.288,0,0.0,0.0543397174489847,4.8716620260348906e-09,-0.0010573190976925,2.2877013380347535e-07,5.373205427420879e-05,4.189479725385959,26.268461765425428,18.4901313379827,28.089773168283216
0.49,31.222208187201936,131.01040806005494,7.368224738812109,4.202723284133339,0.001175611380853,35.08821363242469,0.0015321405723077,2.781292092003844,389.60000969812296,18.812014261754847,7.111044804193205,71.99253015042137,4.027946338669921e-06,120.0000125755114,216.60722913930897,15.288,0,0.0,0.0552863302793499,5.311396446020465e-09,-0.0011294854492155,2.4938633613154685e-07,5.8398320167141767e-05,4.202723448262914,25.88860807032205,18.81219892635871,35.1982716047702
0.5,31.22220786953184,131.01040871291724,7.5437546994244835,4.220815778795054,0.0012036252596423,36.05491615971072,0.0015540388599792,2.7714444106710974,397.97031042210494,19.10875420627192,7.229005658018125,71.99186435180009,4.483102820610566e-06,120.00001339126192,223.4908652241728,15.288,0,0.0,0.0561585257949344,5.7804122391526605e-09,-0.0012048912160576,2.713531252030471e-07,6.327866493526626e-05,4.220815950099865,25.54902500917784,19.108943271285572,36.161276053538906
0.51,31.222207546379583,131.0104093770373,7.722184419225251,4.232567510615346,0.0012298790840397,27.54004661432325,0.0015777580800203,2.761017323676155,323.3984349720841,19.430597746636646,7.354673636736509,71.99115452520388,4.978202222778502e-06,120.00001425458936,231.07869697977367,15.288,0,0.0,0.0571045034845869,6.2799518101633574e-09,-0.0012835871653678,2.947201005874635e-07,6.854585242460463e-05,4.232567688976395,25.189423168613605,19.430790935591396,27.678103017910345
0.52,31.2222072177642,131.01041005240455,7.903527124118717,7.528202805225866,0.0007058670605445,33.152028857170464,0.0015097930898122,2.5360458774329366,372.0984511843415,20.270332880642783,7.481529927045341,71.99039143940436,1.2099398629292636e-05,120.0000220909237,251.4790361400296,15.288,0,1.2571453537107964,0.059572519469965,6.8183295954755754e-09,-0.0014119891009451,6.541942484472638e-06,7.86600680204599e-05,7.528202838127282,25.03089123819993,20.27044375798137,33.248887926043224
0.53,31.222206883591504,131.01041073920038,8.087897715832604,7.491278388417821,0.0007368540556966,34.81639102239125,0.0015328276937793,2.5195715967097114,386.5562464348624,20.59881409984172,7.606599601292925,71.98954250871064,2.363933091176767e-05,120.00003457928774,259.69092512815547,15.288,0,1.261981735615911,0.0605380194544923,7.418311616775679e-09,-0.0015704343561212,6.5579700673738326e-06,8.89029986675167e-05,7.49127842445015,24.69749202980005,20.59892984460613,34.90743942492134
0.54,31.22220654375944,131.0104114376237,8.275371261794625,7.45571676859135,0.0007675835054545,30.56038970082068,0.0015555445730596,2.5028020904529824,349.2703242098436,20.925349983080643,7.7309467592519265,71.98860138028232,3.5207538548373963e-05,120.00004710311352,267.98468793124493,15.288,0,1.266807092234843,0.0614978084329084,8.083067380536816e-09,-0.0017344431985368,6.575377239203096e-06,9.974230448791173e-05,7.455716807880291,24.375005051418924,20.92547055481573,30.662704371756274
0.55,31.22220619856865,131.0104121470544,8.46574230488238,7.423454174983128,0.0007982447403381,32.39897587784025,0.0015775178482218,2.4858877659870418,365.2500005919907,21.24419442637805,7.852784859841661,71.98756488858086,4.6806331529209696e-05,120.00005966447146,276.208548274493,15.288,0,1.271615476447092,0.06243499898213,8.814695436425542e-09,-0.0019039106467814,6.594205720826413e-06,0.0001111540975788,7.423454217660346,24.06881175856453,21.244319814368648,32.49420376631071
0.56,31.22220584802469,131.01041286748125,8.65901099953113,7.3958225795046815,0.0008290387037437,30.23034104828696,0.0015984206522178,2.468954017717999,346.2265619465787,21.55093084799148,7.970736117647334,71.98642986976742,5.843809854968505e-05,120.00007226583124,284.23698480319337,15.288,0,1.276406580652314,0.0633366110375766,9.615263381210432e-09,-0.0020789601164873,6.614520179534126e-06,0.0001231240177131,7.395822625712128,23.78243518856393,21.551061073086533,30.330994978607244
0.57,31.222205492209063,131.0104135987362,8.855124533262446,7.3658628760465374,0.0008592181985555,29.890747901874608,0.001619715715147,2.451475756269202,343.1828296833023,21.86533964848381,8.090969985345334,71.98519312427969,7.010532309964916e-05,120.0000849096793,292.5854991900262,15.288,0,1.2811781007474952,0.0642607776972435,1.0486860097987658e-08,-0.0022596397024794,6.636378271410379e-06,0.0001357743817775,7.365862925883518,23.49548069695489,21.865474614162828,29.991107784482985
0.58,31.22220513110313,131.01041434085784,9.054099917439997,7.329140158079456,0.0008882277667009,39.4034797849348,0.0016424040557319,2.433055791143224,426.1250058573153,22.201134654539725,8.21776205743349,71.98385139459207,8.181058990338718e-05,120.0000975987152,301.63545383489486,15.288,0,1.285929862481636,0.0652478033265387,1.1431596513316642e-08,-0.0024460798767452,6.659847920562233e-06,0.0001492312982962,7.329140211608319,23.195201566308363,22.20127417703105,39.47852558470329
0.59,31.222204764284967,131.0104150947169,9.25623531552936,7.302188467970998,0.0009181060344215,31.914757360498687,0.0016628221020343,2.415048683159073,360.68438819711065,22.508725006713924,8.335638867296483,71.98240123226373,9.355663280722766e-05,120.00011033622816,310.0454811213124,15.288,0,1.29066903354138,0.0661519437731445,1.2451664968412224e-08,-0.002638781540103,6.6850452427453695e-06,0.0001632149794479,7.302188525375026,22.92880690389737,22.508869222472565,32.00600256649541
0.6,31.222204391983485,131.01041585984126,9.461375401928528,7.262950224993984,0.0009461047009454,28.347670533457727,0.001685910806216,2.3955706826221475,329.4859594986058,22.855363881885264,8.465576613424584,71.9808391148857,0.000105346311301,120.00012312493784,319.6622416252404,15.288,0,1.295390958015885,0.0671708524111524,1.354936048639032e-08,-0.0028376732830206,6.712020848300245e-06,0.0001782163967148,7.262950286285537,22.63324567342238,22.85551249566416,28.44871150704723
0.61,31.222204014151863,131.01041663632765,9.669557022043998,7.222470490517776,0.0009735491378845,33.24371800321139,0.0017092321720388,2.3755138773340687,372.0984511843297,23.20806820968371,8.597288811788303,71.97916141812784,0.0001171826131645,120.00013596799438,329.59784467109614,15.288,0,1.3000962897550337,0.0682075942305718,1.4727008620615721e-08,-0.0030429342857067,6.7408571246705486e-06,0.0001940528436353,7.222470555784371,22.34001053834977,23.20822113442468,33.328484150646915
0.62,31.22220363091536,131.0104174239179,9.880697218181448,7.202357281607318,0.0010034058084311,41.372012936613245,0.001727671517654,2.3569297958540942,442.86563930529206,23.49677556558042,8.708928651855702,71.97736441537215,0.0001290686643871,120.00014886850686,337.8423666805871,15.288,0,1.3047848765011507,0.0690562582148787,1.598700744797997e-08,-0.003254632093471,6.771623743266217e-06,0.0002101308472457,7.2023573511341175,22.109586688266777,23.49693318019623,41.43909477141999
0.63,31.222203242084625,131.01041822300277,10.094931996886228,7.176584466570467,0.0010322561921668,23.395092491709352,0.0017472572914769,2.33743959703057,286.11251274707894,23.803981133693007,8.826217379278752,71.97544440056409,0.0001410154387836,120.00016184070626,346.72713736188814,15.288,0,1.3094534218977985,0.0699592944577066,1.733167542290539e-08,-0.0034730352906459,6.804419865219887e-06,0.0002271587654687,7.176584540419982,21.86839374010955,23.80414328011649,23.511571185658983
0.64,31.22220284827867,131.01041903230532,10.311834354474438,7.1415533894391166,0.0010594182415393,22.965017412844286,0.0017689329243334,2.316613675535571,282.30782441796754,24.142801170424928,8.953258476115343,71.97339771973878,0.0001530106988807,120.00017486594786,356.6604138416293,15.288,0,1.3141034969073948,0.0709552515442125,1.8763457581451316e-08,-0.0036976909390265,6.839242459781697e-06,0.0002452900474953,7.141553467611778,21.60646453975326,24.142967583453157,23.081566819066754
0.65,31.22220244948121,131.01041985185927,10.53141973632182,7.121464604445202,0.001088459278942,40.70940876657171,0.0017868006633003,2.2969062445513257,436.7781447787475,24.432021370873795,9.064723816873975,71.97122062479465,0.0001650656269646,120.00018795849324,365.2491680518916,15.288,0,1.3187233840228048,0.0718054423094347,2.0284691098975893e-08,-0.0039287763270523,6.876175597447538e-06,0.0002637358735642,7.121464687197588,21.390944206202008,24.43219234565751,40.77415533904708
0.66,31.222202045164217,131.01042068275427,10.754059806703635,7.09818601966577,0.0011168101927137,34.6027612912531,0.0018052377715767,2.276486167510285,383.51251517160017,24.73208500138108,9.179450802315086,71.96890934009984,0.0001771837398912,120.00020112256072,374.267927406968,15.288,0,1.3233281218058754,0.0726875085930518,2.189766394533816e-08,-0.0041669160971209,6.91537622838428e-06,0.0002831513941959,7.098186107073849,21.171252063621957,24.732260429515915,34.67756452678292
0.67,31.222201635525987,131.01042152458132,10.979620704078384,7.066803521409744,0.001143617996786,23.771123268523585,0.0018255185286161,2.25476411467999,289.1562440103425,25.06083637093296,9.303010503092825,71.96645985817058,0.0001893687670014,120.0002143618092,384.2756503808079,15.288,0,1.327917966111953,0.0736538951085167,2.36049272216328e-08,-0.004412053500183,6.956902234326454e-06,0.0003037876695088,7.066803613475665,20.933945267576064,25.06101601002781,23.87781954016551
0.68,31.22220122074695,131.0104223769684,11.207981016913651,7.03811905373048,0.0011705501320203,29.72510186621146,0.0018449377061677,2.2329000452656413,340.8999924858462,25.380847916742308,9.423734432655303,71.96386809587287,0.0002016324679613,120.0002276909371,394.1435959554474,15.288,0,1.3324763446082792,0.0745946024574674,2.5409043095074032e-08,-0.0046641685488928,7.000816054231155e-06,0.000325240522942,7.038119150580851,20.70867527611473,25.381031786327068,29.808849809621815
0.69,31.222200800913903,131.01042323973653,11.439084463903797,7.017747470798865,0.001198586172396,36.64473471948904,0.0018620074036886,2.211591602250006,401.0140726853634,25.671276591062075,9.535119219131849,71.96113009139248,0.0002139629633153,120.00024109215272,403.2064909125082,15.288,0,1.3370163893425056,0.0754483723671083,2.7312532718232986e-08,-0.0049233042021682,7.047190018342113e-06,0.0003472312362851,7.017747572641935,20.51033431051341,25.67146486453776,36.71141135320106
0.7,31.22220037588632,131.01042411317584,11.673032823337495,6.997018953511286,0.0012263474952787,30.70402797213156,0.0018789227034286,2.189854400850639,349.27032420985284,25.96275133477861,9.646715838048584,71.95824175217415,0.0002263722144732,120.00025458070972,412.40531504192415,15.288,0,1.3415395428777106,0.0763052236042885,2.9317876493627004e-08,-0.0051897392179508,7.096137873914576e-06,0.0003701699345131,6.997019060445704,20.31514241678689,25.96294396899269,30.78202071893125
0.71,31.22219994572317,131.01042499716488,11.909789112298997,6.971080808122458,0.0012529646346911,25.197680759477063,0.0018969650676891,2.1670647589652656,301.33126406340574,26.273384475839315,9.764179738914542,71.95519886880753,0.0002388723473384,120.00026817182167,422.3232534900585,15.288,0,1.3460323629238302,0.0772183890043282,3.1427665399743764e-08,-0.0054635414118554,7.147740106379744e-06,0.0003943531185523,6.971080920168645,20.11006514887588,26.27358129106388,25.290695698706
0.72,31.22219951042904,131.01042589169424,12.149354215178471,6.938960439008138,0.0012781919371273,30.896577472267943,0.0019164462274988,2.1430202440742825,350.79220534145287,26.60785127790438,9.888970689503392,71.95199724497668,0.0002514518976609,120.00028184821268,433.13429320137817,15.288,0,1.350505909623198,0.0782016099054063,3.3644517561880585e-08,-0.0057448636472993,7.202093614060239e-06,0.0004199277334121,6.938960556156712,19.892548598221477,26.60805205582434,30.97080946535194
0.73,31.22219907000317,131.01042679676578,12.391732861693416,6.921720350173287,0.0013059042911381,39.13858290380479,0.0019316648624579,2.120492905684091,422.320318528234,26.885700072140583,9.995979035514049,71.9486324036169,0.0002641233437796,120.0002956255287,442.21711993448815,15.288,0,1.3549624301863192,0.079018435440226,3.597115167232331e-08,-0.0060338867624851,7.259302763894853e-06,0.0004456495010952,6.921720472764333,19.7186398676763,26.885905203106933,39.195984049547555
0.74,31.222198624380944,131.010427712513,12.636973959615284,6.899661060752006,0.0013325276753053,24.429411949644344,0.0019479113818802,2.0969210880315328,294.48281347105944,27.181631509705127,10.108517552929584,71.94509993651843,0.0002768991825711,120.00030951948942,451.9950369885714,15.288,0,1.359395796777194,0.0798884139735715,3.841022418262472e-08,-0.0063307868987585,7.319473821162959e-06,0.0004727133933585,6.899661188804575,19.53566375334415,27.18184082266288,24.519242444439755
0.75,31.222198173945166,131.01042863814618,12.88481532675492,6.874529359167453,0.0013583052878618,28.55522773037996,0.0019647398597975,2.0724862047950574,330.24688556441487,27.489489200992047,10.224676496495515,71.94139548288013,0.000289768457242,120.00032351296908,462.2805577591659,15.288,0,1.3638003626769457,0.0807934517501283,4.096453738516252e-08,-0.0066352601030763,7.382621147390004e-06,0.00050104758974,6.874529492713404,19.348280602843456,27.48970256308771,28.630337644937565
0.76,31.222197718580464,131.01042957390356,13.135341130619574,6.85456389557419,0.0013848677259546,30.754546644969963,0.0019798488957739,2.048362922574116,349.27032420986166,27.77655810540691,10.334237545880308,71.93751449836644,0.0003027520176258,120.000337633163,471.9746788007152,15.288,0,1.368184796023054,0.0816373972518924,4.36367530050116e-08,-0.0069476071092075,7.448875002884966e-06,0.0005300997355476,6.854564034802585,19.178061119196503,27.77677563992059,30.82268537814334
0.77,31.222197258227588,131.01043051990757,13.388596442536784,6.83582250526122,0.0014114853872425,28.745651739774644,0.0019943060809416,2.024011351640977,331.7687666960708,28.058053522230445,10.441948554854834,71.9334524777163,0.0003158468774439,120.00035187431278,481.57768699359593,15.288,0,1.3725495709270228,0.0824649691183096,4.6429579021849136e-08,-0.0072680457137938,7.518353516516155e-06,0.000560155409284,6.835822650293447,19.01446630194702,28.058275237836583,28.816820086075374
0.78,31.22219679295659,131.0104314760138,13.64453644665784,6.812550619673182,0.0014369654944134,23.577698562815566,0.0020097452853984,1.9985480003281464,286.8734378128899,28.35752905880008,10.55516958885698,71.92920485508795,0.0003290500310965,120.00036623044276,491.9006258105069,15.288,0,1.3768887462672044,0.0833453934678564,4.934580172080399e-08,-0.0075966140157486,7.591140443228237e-06,0.0005917130077342,6.812550770507293,18.842457356151964,28.35775477681209,23.662249843742394
0.79,31.22219632286248,131.01043244202643,13.90309905881866,6.7867255477464825,0.0014616676141126,33.58719052385663,0.0020256243564901,1.9722208251352784,373.6203323159534,28.66742311222009,10.671544181477556,71.92476684833362,0.000342383254741,120.00038072964864,502.6979711889248,15.288,0,1.3812006664841263,0.0842564464662045,5.2388274849923176e-08,-0.0079333445932969,7.66731857753163e-06,0.0006246789356601,6.7867257044104665,18.667213546796532,28.667652710431987,33.64504460350879
0.8,31.222195847711987,131.0104334184269,14.164450170086214,6.769523319361264,0.0014880291222669,34.03485134219454,0.0020386762511443,1.946838666703712,377.42502064505743,28.940546792355487,10.776320151025876,71.9201336554424,0.000355843639483,120.00039536629498,512.3094703291441,15.288,0,1.3854944034622791,0.0850594353076385,5.555976550130755e-08,-0.0082787293770865,7.74707163760727e-06,0.0006580689577748,6.7695234821436046,18.51748927690329,28.940780531423403,34.09048680842876
0.81,31.222195367615328,131.010434404988,14.428517054734774,6.7467717704865775,0.0015129943029775,22.103134898813767,0.0020530179133773,1.9201118946899407,273.9374926939919,29.2365460345898,10.888138559687746,71.91530040062868,0.0003694372637734,120.0004101467174,522.8294406925536,15.288,0,1.3897677504474857,0.0859296654978536,5.88632260511682e-08,-0.0086327352692631,7.830474205037594e-06,0.0006932094274938,6.746771939349673,18.35661328893356,29.23678369517913,22.186378845097085
0.82,31.222194882774087,131.01043540129396,14.695163602316208,6.721742599671464,0.0015372183579709,28.43213635036484,0.0020677125112638,1.8925194255621305,328.72500443277005,29.54205801148032,11.002832236858149,71.91026219915638,0.0003831614661933,120.0004250650548,533.799642095551,15.288,0,1.3940187799579116,0.0868278625365654,6.230165281679037e-08,-0.0089952465095687,7.917580959999155e-06,0.0007298484127851,6.721742774640194,18.19302466219995,29.542299477175312,28.495052403834997
0.83,31.222194393171737,131.01043640737905,14.964405099266196,6.7070241731377696,0.0015635999565102,36.17015449668044,0.0020789748632416,1.86629636230106,395.68750322465047,29.801642387432857,11.10306603826386,71.9050139581705,0.0003970388937383,120.00044015051728,543.2077451430023,15.288,0,1.3982441212099244,0.087591080083441,6.587797740595041e-08,-0.0093664732389088,8.008519909651086e-06,0.0007666266598867,6.707024354564532,18.058731146633544,29.80188799713965,36.2182708414939
0.84,31.22219389869632,131.0104374234744,15.23632277663262,6.6901615646251695,0.0015893457747043,22.295300208090065,0.0020905003554127,1.839296062008072,275.4593748256452,30.06936505240865,11.205739352104503,71.8995507013126,0.0004110752132256,120.00045540898182,552.9969419506699,15.288,0,1.402445216258445,0.0883782245475325,6.959506192201477e-08,-0.009746685232553,8.103436634858707e-06,0.0008048917569738,6.690161752552527,17.92183293388128,30.06961470625911,22.37103988961557
0.85,31.222193399663546,131.01043844892888,15.510701285775324,6.664836551730748,0.0016128775399413,24.322535147750383,0.0021042351159953,1.8102760615575155,292.96093233939376,30.37422415077828,11.31993669454963,71.89386748892773,0.0004252610367579,120.00047082505652,564.2520658554702,15.288,0,1.4066224200804955,0.0892745260191734,7.345600005733213e-08,-0.0101355601108971,8.202338035652421e-06,0.0008454691875747,6.664836746006404,17.766370171914065,30.374477500989777,24.38980975449391
0.86,31.222192895888657,131.01043948412376,15.787672399130315,6.645730997519085,0.0016377079330711,30.48331780940733,0.0021157012782409,1.7819634660197576,346.2265619465587,30.65018522555201,11.424995470299704,71.88795908187015,0.0004396100715132,120.00048641565492,574.5362368303572,15.288,0,1.4107786139142704,0.0900858996682989,7.746368779297848e-08,-0.0105335694133715,8.305420161605888e-06,0.0008866290371721,6.645731198403517,17.629408742275924,30.650442476112534,30.535357586570868
0.87,31.222192387398408,131.01044052900397,16.0672211073444,6.629504963720879,0.0016630865451772,28.380156280466373,0.0021258839432426,1.7537864928400235,327.964078366998,30.91167858925837,11.525427313387103,71.88182024902656,0.0004541298640263,120.00050218892544,584.3657277960148,15.288,0,1.4149135892066325,0.0908547579333925,8.162116083808563e-08,-0.0109408230887038,8.412796564662931e-06,0.0009287401282879,6.629505171391178,17.502352982638158,30.91193982628196,28.43429341632293
0.88,31.22219187423177,131.01044158348932,16.349323833527155,6.609038516914526,0.0016872424480674,24.51641410134528,0.0021369823588669,1.7243257992922525,294.4828134710418,31.191636303766888,11.631543868419769,71.87544569067569,0.0004688344540333,120.00051816191562,594.9823867669792,15.288,0,1.41902635661821,0.0916778937760713,8.593149669518387e-08,-0.0113573704911508,8.52456693386017e-06,0.0009728050384001,6.6090387313292265,17.367321730678817,31.191901335190835,24.5769783418841
0.89,31.22219135647682,131.0104426473983,16.633923059766015,6.584453391491759,0.0017101479144776,26.898407716695548,0.0021489811608161,1.6935354076782034,315.028134248087,31.490164695238978,11.743387000412367,71.86883013826478,0.0004837153406969,120.00053432046803,606.4092071028135,15.288,0,1.4231165777463932,0.0925556202387062,9.039780029898872e-08,-0.011783253737598,8.640829620402905e-06,0.0010189154583189,6.584453612597359,17.224673031868058,31.49043332464517,26.951667935190326
0.9,31.222190834053947,131.01044372089515,16.921077368177667,6.570103147363112,0.0017355354027272,29.721764200807364,0.0021573355830213,1.6644461454006698,339.37814235421445,31.73876432239777,11.839496455186351,71.86196800036362,0.0004987947167083,120.0005506928701,616.0046271574183,15.288,0,1.4271821600823675,0.093286604364406,9.502315647142517e-08,-0.0122187838324262,8.76175425063693e-06,0.0010648881845335,6.570103375583981,17.109991836116528,31.73903693966129,29.768333054328558
0.91,31.222190307039263,131.01044480382308,17.210737307301702,6.551565647913492,0.0017596806721689,22.597266012175464,0.0021665849300172,1.6340342748496264,277.7421810230789,32.00592520778773,11.941329164514732,71.85485389085804,0.0005140737738438,120.00056727825636,626.4012791686172,15.288,0,1.431224377812008,0.0940721513309096,9.981071002210797e-08,-0.0126639626454122,8.887432858703918e-06,0.0011129456017633,6.551565883198392,16.98738989890703,32.00620161778131,22.656268535010216
0.92,31.22218977564897,131.0104458957362,17.50275663816875,6.528994039545161,0.0017825535392526,26.91818037578105,0.0021767038919802,1.602260798943894,315.02813424806214,32.29158110536015,12.048878388410984,71.84748232662777,0.000529556625806,120.00058407958136,637.6146748341956,15.288,0,1.4352428945220912,0.0949120668715405,1.047637567741886e-07,-0.0131185659101899,9.017895448535272e-06,0.0011631545455976,6.528994281828469,16.857279073985005,32.291861108215286,26.965824280910756
0.93,31.22218923978704,131.01044699683277,17.79720501466721,6.515697130080814,0.0018077897786339,32.034248096696565,0.0021833994872434,1.5721541074982488,359.1625070654728,32.53010177279518,12.141560324770658,71.83984771603056,0.0005452537307635,120.00060110883608,647.0506029688397,15.288,0,1.4392397808804205,0.0956134492925337,1.0988531679519717e-07,-0.0135829642866784,9.153332592416477e-06,0.0012131917542909,6.515697379785799,16.752303907686898,32.53038573974952,32.07280350118562
0.94,31.222188699336503,131.01044810735422,18.09416620128808,6.493921309144186,0.0018305447912598,23.2301542170979,0.0021923793193097,1.5396360901971575,283.0687504837787,32.809170605351575,12.246873069260587,71.83194450109156,0.0005611727736794,120.00061837417664,658.1812702966558,15.288,0,1.4432149901012563,0.0964340198864426,1.1517844774971865e-07,-0.0140574305702812,9.29391372456686e-06,0.0012663048834159,6.493921566040846,16.628883767139463,32.80945814665494,23.281120012725246
0.95,31.222188154607046,131.0104492266618,18.39342949226932,6.473299873827555,0.0018534291673647,30.110904340073844,0.0022005416713144,1.5069111195813392,342.4218736174873,33.081229849878646,12.349911927808275,71.82376694341626,0.0005773176707682,120.00063587800489,669.1227976290988,15.288,0,1.447166925538312,0.0972339955770804,1.20646624359501e-07,-0.0145416355535696,9.439640522565592e-06,0.0013207466049925,6.473300138033628,16.51057912655816,33.081520985851405,30.14858779680699
0.96,31.222187605285708,131.0104503554012,18.695213938512858,6.457263575942728,0.0018774830550566,29.501076409822847,0.0022067286352483,1.4748540892005872,337.09533515678345,33.32830735342303,12.445021176437216,71.8153091987299,0.0005937086597298,120.00065364588988,679.1355442745925,15.288,0,1.4510986888241175,0.0979605516350524,1.262927560795664e-07,-0.0150362928106699,9.590811534782288e-06,0.0013758340216675,6.457263847730139,16.40566719656989,33.32860226777163,29.53791984538331
0.97,31.222187051393885,131.01045149352848,18.999507636166967,6.438914001501878,0.0019007422810293,18.83707782347874,0.0022131884454505,1.4417764654296554,245.02188719299323,33.58543446617923,12.543200112833876,71.80656542953925,0.0006103373015867,120.0006716633645,689.6348414812094,15.288,0,1.455009896311503,0.0987166539495513,1.3212015113871428e-07,-0.0155415128130211,9.747559928807706e-06,0.001432991391682,6.438914280865665,16.297328977471043,33.585733034078494,18.89217364948418
0.98,31.222186493239445,131.01045264040863,19.306101177126745,6.412594640493187,0.0019214658969417,27.48650358384811,0.0022218144543351,1.406140304072079,319.5937466429581,33.88273790788088,12.653934975936645,71.79752959280705,0.0006272299666152,120.0006899636828,701.8777212542259,15.288,0,1.4588979034010638,0.0995908535185509,1.3813247314845605e-07,-0.0160568550583179,9.90985559267348e-06,0.0014935697702152,6.412594927163572,16.171916441234618,33.883039731038124,27.522447470312127
0.99,31.222185930664327,131.01045379636787,19.61510650546385,6.399705743870849,0.0019460448344083,30.052007400693245,0.0022254839650139,1.3735866565733,341.6609485517054,34.10778854536765,12.741881312781231,71.78819565371009,0.0006443815094959,120.00070853699168,711.2113833095449,15.288,0,1.462765666243908,0.100252689909339,1.4433282136856948e-07,-0.0165828641814602,1.0077959667300024e-05,0.001552697121322,6.399706038519389,16.080997157142985,34.108094229375354,30.08338235749459
1.0,31.222185363666807,131.0104549614098,19.926527294568046,6.379064743198659,0.0019681541205193,26.881902498266363,0.0022312317219106,1.3385084344550813,314.2672081822764,34.371965582141144,12.84205369789973,71.77855766234838,0.0006618024211591,120.0007273948778,722.2496197080162,15.288,0,1.466612017843675,0.101029537914763,1.507245191663249e-07,-0.0171195943174918,1.0251991796485007e-05,0.0016153196991538,6.37906504556371,15.97350197929522,34.37227473906739,26.91520558594717
1.01,31.222184792439087,131.01045613513816,20.24023395396261,6.359720073308746,0.0019904984712555,28.12437023116098,0.0022360406965716,1.3033178950032944,324.9203161036979,34.627487729671394,12.93943672427538,71.76860943295083,0.0006795041595575,120.00074654995478,733.0058960452827,15.288,0,1.4704364172773905,0.101780954596228,1.5731113347231045e-07,-0.0176668800103024,1.0432003555157414e-05,0.001679300472394,6.359720383526748,15.87115513807844,34.627800396440044,28.154552801185243
1.02,31.22218421689942,131.01045731772157,20.55628526905034,6.342370975762592,0.0020133268768377,23.45066603070243,0.0022396555147841,1.2682437661892705,284.59063161540416,34.8702204417972,13.032723395015466,71.75834478418211,0.0006975052250635,120.000766024848,743.2958401632129,15.288,0,1.4742398042005087,0.1024947870496273,1.6409589461760854e-07,-0.0182250271203814,1.0618193044885772e-05,0.0017444449123881,6.342371294012247,15.775571212887414,34.870536694443416,23.484935268168734
1.03,31.222183637120008,131.01045850901124,20.87463395593221,6.319762564296011,0.0020343385606405,19.12775498044572,0.0022445242984975,1.23116824306288,247.30469339049705,35.13992486053929,13.13444137162964,71.74775766370331,0.0007157963879496,120.0007858036452,754.8152992174165,15.288,0,1.4780214927379651,0.1032879060721172,1.7108222919740164e-07,-0.0187940167331902,1.081065928333524e-05,0.0018127651430377,6.319762890394973,15.669431325176562,35.140244413693075,19.167336561780875
1.04,31.222183053165875,131.0104597088732,21.195237876439126,6.30214906323811,0.002056794898493,30.530265149956527,0.0022471614467413,1.1950966791994586,345.46563688072297,35.380112487995085,13.22679835527119,71.73684167091615,0.0007343960580563,120.00080590855256,765.1455952778675,15.288,0,1.4817820255686107,0.1039942734794449,1.7827361409183685e-07,-0.0193739237257408,1.1009531275498364e-05,0.0018814146678163,6.302149397515425,15.577103274990362,35.380435568582165,30.553647102253084
1.05,31.22218246473449,131.01046091793145,21.51830694182461,6.280299265754972,0.0020777504612676,18.3410712800898,0.0022506870671061,1.157264725778895,240.45625879819983,35.641923044558894,13.32590290539908,71.72559041272471,0.0007533251006015,120.0008263655528,776.4874550970552,15.288,0,1.4855234750633106,0.1047642063409389,1.856730491874168e-07,-0.0199654989754219,1.1215163039233112e-05,0.001953149788043,6.280299608074879,15.476668298235335,35.64224941683808,18.37754505945936
1.06,31.222181872076323,131.0104621356695,21.843671533066136,6.2548748091255,0.0020973529585126,26.213188340177727,0.0022548857742966,1.1177735025971014,308.17968365593924,35.92234963066889,13.4308287433722,71.71399738223066,0.0007725754084949,120.00084715984195,788.7295028231733,15.288,0,1.489244256066215,0.1055888668412081,1.932844449532139e-07,-0.020568378567148,1.142754816755874e-05,0.002027895046887,6.254875159364405,15.369704762841469,35.92267908210114,26.237009464595
1.07,31.222181275068124,131.01046336234165,22.171418530295977,6.237675843904463,0.0021195617712621,30.90612252529773,0.002255684685675,1.0804166322410442,348.5093681440308,36.153763467465566,13.52022466325734,71.70205578426625,0.0007921643108987,120.000868312116,798.8991665880062,15.288,0,1.492946508004716,0.1062694694080174,2.0111115700155202e-07,-0.0211830709904578,1.1646969990196192e-05,0.0021018873876385,6.237676202594076,15.284034526731006,36.15409640744996,30.925001450865807
1.08,31.22218067360224,131.01046459817,22.501623606529687,6.218699245037021,0.0021410691723366,20.741733053049987,0.0022565019484236,1.0420251777110423,261.00157857466235,36.392965975783326,13.612011859124946,71.68975893145132,0.0008121020400692,120.00088983322853,809.4799046404866,15.288,0,1.4966304670234192,0.1069729738890778,2.0915662628167789e-07,-0.0218099095757407,1.1873660906561052e-05,0.0021783344119377,6.218699612168631,15.196014031003346,36.39330229414238,20.767891361589196
1.09,31.222180067968903,131.01046584255607,22.834089890941502,6.190900769551556,0.0021593849265262,19.0651892320705,0.0022597915494664,1.0001473198257385,246.54375332474407,36.681793272622144,13.719437406535576,71.67710004108653,0.000832399031869,120.00091173382268,822.3532596009619,15.288,0,1.500293963425088,0.1078223533167878,2.174249926467485e-07,-0.0224483766722034,1.2107562535971632e-05,0.0022598253026371,6.19090114468137,15.0891041457022,36.68213246801314,19.091404878181947
1.1,31.222179458247748,131.01046709533563,23.16876499693695,6.167625570825604,0.0021790835970113,38.45109293069729,0.0022609250677917,0.9592547694647072,413.1890617385841,36.94233793145748,13.817885021206132,71.66407223622609,0.0008530659197385,120.00093402497993,834.0500113847559,15.288,0,1.503937714015499,0.1085886076126367,2.259199407878725e-07,-0.0230985330768135,1.2348811445707552e-05,0.0023417157808384,6.167625954283568,14.994617712468244,36.9426802211084,38.463056591873226
1.11,31.22217884401241,131.0104683573881,23.505942309688088,6.153378535640896,0.0022018691460153,28.10307548447716,0.0022582861483605,0.9210916846543,324.1593910376397,37.146400831831535,13.89839507576322,71.65066849916559,0.0008741135799011,120.00095671858564,843.2624368660014,15.288,0,1.5075651899523483,0.1091888472152602,2.3464435470082657e-07,-0.02376154908668,1.2597942478361396e-05,0.0024221600198771,6.153378928073501,14.923029956665392,37.146746700628114,28.118166132904484
1.12,31.222178225327305,131.01046962858075,23.845578999612155,6.122186084595742,0.0022184883667711,10.488808974118356,0.0022609282618946,0.8762888390423069,172.73281794065943,37.45024551269557,14.010447768881612,71.63688187774001,0.0008955529285939,120.00097982604326,857.0860839480732,15.288,0,1.5111748132971077,0.1100823960489645,2.436021459864886e-07,-0.0244373395868819,1.2855057196628237e-05,0.0025113414531943,6.122186485020168,14.813659431482025,37.450593992033234,10.525350394964175
1.13,31.222177602816977,131.01047090762546,24.187250823668183,6.100143662951194,0.0022382026963183,33.164825252530264,0.0022597607898864,0.8342865386825292,367.5328077900705,37.69677696606892,14.104326071418644,71.62270492246067,0.0009173955075489,120.00100335881729,868.3789600439383,15.288,0,1.514764197458351,0.1108074853806951,2.527983219515345e-07,-0.0251247012148513,1.31198447847172e-05,0.0025988908788952,6.100144072007854,14.727343783456387,37.69712854212623,33.17531722781283
1.14,31.22217697577877,131.01047219597154,24.531438463930886,6.084477168361658,0.0022601676756894,18.28932375087447,0.0022556915720271,0.7942490635871212,239.69531773195544,37.90116874702795,14.184781270919142,71.60813062771057,0.0009396524856805,120.00102732941131,877.7921621884155,15.288,0,1.51833808867285,0.1114087158726227,2.6223508053639213e-07,-0.0258254755281362,1.3393104592256883e-05,0.0026857741537952,6.0844775865685525,14.657581447374676,37.90152377333615,18.306561663170243
1.15,31.2221763447254,131.01047349256154,24.87779337545136,6.051729134841092,0.0022756483697645,18.02701228899992,0.0022569860179883,0.7470612936977756,237.41251153546767,38.20954105938517,14.298205372706844,71.59315193499191,0.0009623351910575,120.0010517491942,892.1044132198392,15.288,0,1.5218921657118611,0.1123156008880199,2.719173353052357e-07,-0.0265384390547219,1.3674517190094557e-05,0.0027822830380638,6.051729561107948,14.549827930816509,38.209898517395104,18.042485353694524
1.16,31.22217570980161,131.010474797097,25.22621896714987,6.037477033705748,0.0022978926855962,47.45943388397532,0.0022511125534162,0.7066879007964351,490.0437743845894,38.39946250900087,14.373998345620093,71.5777612987661,0.0009854555663675,120.00107663058373,900.9647521685408,15.288,0,1.5254279378087208,0.1128743121299455,2.818490426176177e-07,-0.0272635842213822,1.3964203161506771e-05,0.0028724182150933,6.03747746938051,14.48661515327109,38.39982346113976,47.46469506321582
1.17,31.22217507008251,131.0104761114854,25.577345034372744,6.014200180673645,0.0023166714044805,8.282743992555814,0.002247712095977,0.6622295956822771,153.70937929486794,38.64327434035925,14.46684745450722,71.56195158564086,0.0010090251932265,120.0011019867729,912.4113898963094,15.288,0,1.5289455599265038,0.1135914413549779,2.9203193772375666e-07,-0.0280033174285553,1.4263214331478156e-05,0.0029689872328327,6.014200625224847,14.40421276714591,38.6436382422524,8.309175719397599
1.18,31.22217442678356,131.0104774332201,25.93034627702185,5.978983913884838,0.0023306366628425,23.00512452351733,0.0022478792375335,0.6121848304304252,280.02501822196746,38.96204443123099,14.583552195932846,71.5457152902913,0.0010330561672493,120.00112782920029,927.4950700886812,15.288,0,1.532440905534086,0.1145289184665345,3.02472821546884e-07,-0.0287545697371137,1.4570511675049032e-05,0.0030736811444961,5.978984366481424,14.295816442439532,38.9624105267818,23.01326855668505
1.19,31.222173779355035,131.01047876343483,26.28559777592872,5.9697290057863,0.0023545621324873,40.30851106896716,0.0022381583035539,0.5726979128559958,428.4078130529292,39.10980380734484,14.64579891911843,71.52904468171603,0.0010575609129161,120.00115417155608,934.5113697939036,15.288,0,1.5359208168804708,0.1149637180190678,3.13173922325596e-07,-0.029519223515953,1.4886953135244271e-05,0.0031672762817537,5.969729468444376,14.248990920834643,39.11017366109963,40.312579333327086
1.2,31.222173127321888,131.0104801031092,26.64342152365944,5.939384791027686,0.0023701412356013,4.027595086317492,0.0022351657653795,0.5236049674649629,117.1843741360236,39.39205737987098,14.750834136570576,71.51193257813816,0.0010825513267538,120.00118102689964,948.016104101729,15.288,0,1.5393857169558136,0.1157938732431618,3.241381055043569e-07,-0.0302984421417703,1.5213146252863178e-05,0.003274231758955,5.939385262240917,14.155162948648384,39.392429680785554,4.061488561752795
1.21,31.222172471904337,131.0104814497269,27.00299163968948,5.910033165306176,0.0023858737928784,32.340105110635925,0.002231147416308,0.474328912546046,359.92343213200894,39.66611659389642,14.853292655416231,71.49437104167815,0.0011080402550372,120.00120840747572,961.2199025379864,15.288,0,1.542829813849692,0.1165999498663545,3.353724535370834e-07,-0.0310891205139992,1.554799542110917e-05,0.0033829343792066,5.910033645184224,14.065160921673083,39.66649136607531,32.34358346662094
1.22,31.22217181216964,131.01048280521144,27.364940555901534,5.898456136605823,0.0024086753854211,23.381470414438983,0.0022200916309563,0.4327343405505871,283.0687504825761,39.8180805474062,14.916753319076676,71.47635247867393,0.0011340402206787,120.00123632751064,968.5653486984568,15.288,0,1.5462601076429876,0.1170471313914066,3.468780129744152e-07,-0.0318941675083398,1.5892805320931116e-05,0.0034837095939256,5.8984566266668645,14.017652300086276,39.81845890125087,23.385474608816136
1.23,31.22217114848668,131.01048416880212,27.72901822784745,5.8672014574479245,0.0024233580921169,9.001272719086714,0.0022152698367503,0.3815367910944433,159.79687382222795,40.09937431896546,15.02150411118276,71.45786963982357,0.0011605634309998,120.00126479950526,982.2641404925688,15.288,0,1.5496726342174612,0.1178744920748025,3.5865983025832205e-07,-0.0327124380888149,1.62472611926153e-05,0.0035982031035682,5.867201956162941,13.926438894833426,40.09975497916431,9.009355459396295
