Time,Latitude,Longitude,Altitude,Angle of Attack,Angle of Sideslip,X-Acceleration,Y-Acceleration,Z-Acceleration,Thrust,True Velocity,Ground Velocity,Pitch,Roll,Yaw,Dynamic Pressure,cp,parachute_deploy_gain,Wind Speed,Mach,omega_x,omega_y,omega_z,Cmq,Angle of Attack(total),Angle of Attack(gust),True Velocity(gust),Acceleration
0.0,31.222186000000004,131.010384,3.000000003643237,0.0,0.0,0.0,0.0,0.0,2.2828121974499247,0.0,0.0,69.99999999623421,0.0,113.69999999388332,0.0,15.288,0.0,0.0,0.0,0.0,0.0,0.0,-0.0,0.0,90.0,0.0,0.0
0.01,31.22218600000153,131.01038399999584,2.99999882256592,0.0,0.0,0.0,0.0,0.0,34.24218696174923,7.502283530665459e-11,7.190531319924593e-11,69.99999999623329,-4.83564628150269e-13,113.69999999388072,3.446445726795683e-21,15.288,0.0,0.0,2.204725565824978e-13,-3.659182332138578e-19,7.589415207398531e-19,4.811147140404426e-19,-1.5108918610345807e-31,0.0,89.9999999995224,7.502283530665459e-11,0.0
0.02,31.22218600000288,131.01038399999217,2.999997775701936,0.0,0.0,0.0,0.0,0.0,25.871876237766408,1.5320717031631675e-10,1.4674636035870463e-10,69.99999999623222,-9.67129256300373e-13,113.69999999387804,1.4372842949972735e-20,15.288,0.0,0.0,4.5023593667086093e-13,-7.284483346386986e-19,1.5178830414797062e-18,9.757819552369542e-19,-6.170906918166791e-31,0.0,89.99999999902465,1.5320717031631675e-10,0.0
0.03,31.22218599928065,131.01038400193067,3.000201659671132,18.81500467334555,-0.00012974450181,11.96616230539064,-1.8916256735984712e-05,3.349833086198469,180.34219359854663,0.0882870268161719,0.0553390044312322,69.99999999799445,-4.212591857125379e-12,113.69999999488518,0.0047728553458352,15.288,0.0,0.0,0.0002594525584132,3.2187251995663407e-17,-7.20264389268894e-10,1.2365134327422308e-11,1.6874092354518158e-13,18.815004673776716,89.46786891739345,0.0882666465974854,12.426199017587786
0.04,31.22218599548236,131.0103840121632,3.001799604587872,9.46752327608497,-4.6177622759613696e-05,55.21900012092241,3.931876292165237e-06,3.349616504302861,548.6359724538078,0.3767519978512604,0.1853356633749705,70.00000000507204,-2.4624598767003407e-11,113.70000000019972,0.086915163246288,15.288,0.0,0.0,0.0011071759353184,1.6174128009138757e-15,-1.3693172015529268e-08,2.7753303060112748e-11,1.3689612277852356e-11,9.467523276196548,87.63554493451223,0.3767447442872393,55.32050167054111
0.05,31.222185984749512,131.01038404118162,3.00777936418888,5.376730308971262,-2.257790939128127e-06,80.28807156553681,5.266841443842784e-05,3.348887800834877,761.6984298824644,1.018787885905993,0.4366201147110198,70.00000000894464,-1.1355399380652658e-10,113.70000001523856,0.635552918586145,15.288,0.0,0.0,0.0029939522895272,1.6418815498809788e-14,-9.32122351075408e-08,4.303264669380585e-11,2.5199270302492604e-10,5.3767303089717045,83.57022052969386,1.0187875312530217,80.35788377762394
0.06,31.22218596447235,131.01038409608267,3.0201664202003013,4.296730121134882,2.4863835723705905e-05,60.21296515808257,0.0001057204249726,3.347700952379021,590.4875390737208,1.721098934225416,0.7081674028809783,69.99999995523842,-3.0560354507026086e-10,113.70000004366592,1.8138247671743823,15.288,0.0,0.0,0.0050578622752421,8.328976953118383e-14,-3.2824985336199985e-07,5.923438275930214e-11,1.4991363363716091e-09,4.296730121206683,79.20467073327266,1.7211028398275985,60.305955550063224
0.07,31.22218593493329,131.01038417609837,3.038741944736831,3.8204913578752526,4.8016684030909405e-05,91.4060317508128,0.0001597686613101,3.346072557365335,855.2937749779139,2.4375792548422868,0.9844712334613328,69.99999973536046,-5.939103491363046e-10,113.7000000850886,3.6383156301599167,15.288,0.0,0.0,0.007163413150771,2.709313825263564e-13,-7.906546256197275e-07,7.920022733617308e-11,5.114174483651565e-09,3.820491358176508,74.87999294483174,2.437586797285377,91.46725557277466
0.08,31.222185894468456,131.01038428575305,3.0647976109320942,3.588632851766762,7.220043782492885e-05,19.18449428359557,0.0002119618497595,3.3440615022685813,241.2171988638848,3.1292508166901074,1.2522236515868983,69.99999919480445,-9.914748373602156e-10,113.7000001418522,5.996012698481753,15.288,0.0,0.0,0.0091960591623389,6.80386533246681e-13,-1.5973238302190878e-06,1.0839624626357699e-10,1.3263625118823921e-08,3.58863285249208,70.86684630658345,3.1292621579083604,19.473766155861934
0.09,31.22218584634549,131.01038441616095,3.0957981580345013,3.551302481506045,9.685468678862004e-05,57.102946699906326,0.0002554087225869,3.341892818148368,563.0937377043176,3.701810007254615,1.479132491047967,69.99999812344194,-1.4359264356978275e-09,113.7000002093888,8.390904013834115,15.288,0.0,0.0,0.010878666406854,1.440096519545733e-12,-2.748643691533636e-06,1.5214952332699618e-10,2.6999776649034504e-08,3.5513024828250237,67.68737872952666,3.701825221153239,57.20065357568538
0.1,31.222185790329306,131.01038456796124,3.1319266121977414,3.608446747536112,0.0001234669721807,54.26147302645416,0.0002914860332524,3.3396271157106168,538.7437595981919,4.174070299823608,1.6716491241860567,69.9999963052332,-1.902380107712657e-09,113.70000028805804,10.668380938744466,15.288,0.0,0.0,0.0122665227999911,2.687800116751415e-12,-4.315796035622946e-06,2.1749089204950437e-10,4.7802076800548326e-08,3.608446749645647,65.17160335282355,4.174089693970246,54.36414778470795
0.11,31.222185727066616,131.0103847393952,3.172681775073216,3.633547373470009,0.0001485939126744,42.987553988990406,0.0003293995000288,3.337005588796181,442.8656393052949,4.672024955140527,1.8729475711242067,69.99999349387662,-2.3433348587116544e-09,113.70000037699285,13.365573690709628,15.288,0.0,0.0,0.0137298902182575,4.5789425819531184e-12,-6.340230783164189e-06,3.1157625832417107e-10,7.860218435507205e-08,3.6335473765043056,62.62546922225161,4.672048296217748,43.116880735560244
0.12,31.22218565692512,131.0103849294629,3.2177790417108385,3.650108937861461,0.0001727442530266,46.86777100765684,0.000367618259785,3.334068179146888,475.58594813540446,5.17479364099247,2.0758708919414386,69.99998941286465,-2.702771525550512e-09,113.70000047573096,16.396890189902592,15.288,0.0,0.0,0.0152074069417046,7.288473386564583e-12,-8.86736416607888e-06,4.42271554299792e-10,1.217615295152289e-07,3.6501089419435786,60.16906436414164,5.174820775596283,46.986210423745625
0.13,31.222185580265183,131.0103851371844,3.2669395832841857,3.7280113734654137,0.0001995014041665,51.64515456841877,0.0003986198234033,3.3311573548369657,515.9156326236895,5.579364582999854,2.2451120211463422,69.99998375846928,-2.9114380666036422e-09,113.70000058383452,19.060875702782603,15.288,0.0,0.0,0.0163963474924215,1.100846422415094e-11,-1.1941028436408576e-05,6.179653149059831e-10,1.7678562106638216e-07,3.728011378795934,58.279338776943774,5.579395920607139,51.75247433579817
0.14,31.22218549718016,131.01038536230575,3.320091807147376,3.768719651034081,0.0002242721760019,48.1660778383537,0.0004326225136175,3.32784677779744,486.2390860568404,6.025734265159953,2.428648685938864,69.99997621008868,-2.890941335368725e-09,113.70000070125378,22.232643351545065,15.288,0.0,0.0,0.0177081261985351,1.5941871344608664e-11,-1.560901486259027e-05,8.477542742712431e-10,2.495765160917323e-07,3.7687196576976176,56.27980129251342,6.025769493750979,48.280903250602165
0.15,31.22218540777004,131.01038560455507,3.377159065217065,3.821894709649632,0.000249725644238,46.56959330999435,0.0004643042952466,3.324387732286376,472.54218587214,6.441023336496372,2.6014999612196745,69.99996641132823,-2.546763407193136e-09,113.70000082794672,25.402620271850456,15.288,0.0,0.0,0.0189285691155931,2.2314099732464315e-11,-1.992367942778425e-05,1.1417519574710292e-09,3.4051816697623295e-07,3.821894717796148,54.501255563441134,6.441062563308839,46.68809885900716
0.16,31.22218531193176,131.01038586421257,3.4382223512025254,3.8463320955387794,0.0002733212404609,36.974247749122085,0.0004987816203583,3.3205066466509234,391.1218908297564,6.895451966878468,2.7877331692857847,69.99995397923414,-1.77088415515292e-09,113.70000096417354,29.113317717489338,15.288,0.0,0.0,0.0202640360420561,3.0367358387834494e-11,-2.4945905791363795e-05,1.5114297685186711e-09,4.5643121540033697e-07,3.846332105235269,52.641145594326446,6.895494900078523,37.12304892183151
0.17,31.222185210004127,131.010386140357,3.503019838429153,3.8860314262554336,0.000297865039677,46.520531453299206,0.0005306403365217,3.31650761597812,471.78125980632376,7.314788342774694,2.9619016331667103,69.99993849340957,-4.3039914767238207e-10,113.70000110959404,32.761746921137856,15.288,0.0,0.0,0.0214963781445172,4.0366633128431416e-11,-3.0713078585132897e-05,1.96747427715988e-09,5.961228045584824e-07,3.886031437653654,51.00464968745696,7.314835131305714,46.63860064094784
0.18,31.22218510147516,131.01038643438045,3.571950002194137,3.9107265153396016,0.0003214293682635,38.895647526122765,0.0005639254295027,3.312149448254175,407.10156721191447,7.754626295791602,3.1430587898572058,69.9999195084231,1.6149322372810674e-09,113.70000126508234,36.81988229018681,15.288,0.0,0.0,0.0227889722876034,5.2593391349219385e-11,-3.731786027786564e-05,2.525509173087448e-09,7.6786585232224e-07,3.9107265285284982,49.36615848311875,7.754676785798701,39.036415444581515
0.19,31.222184986476247,131.0103867459258,3.644912152926752,3.920599115663931,0.0003437679584038,43.86258669386953,0.0005989384366483,3.307389681300437,448.9531328318269,8.219206165926856,3.332657190859447,69.99989653019398,4.538529095696477e-09,113.70000143063515,41.36350714675367,15.288,0.0,0.0,0.02415428010977,6.735860419174937e-11,-4.481243905342629e-05,3.199401151670645e-09,9.773118416308382e-07,3.92059913071168,47.71893898797248,8.21926016487149,43.987104227715655
0.2,31.222184864792144,131.01038707557822,3.722074668489528,3.943376465171875,0.000367328732016,40.28070981710589,0.0006315894240138,3.30251450988504,418.51563019916136,8.65238089736321,3.511445117640573,69.99986902534273,8.534090245934178e-09,113.7000016067622,45.83799876721736,15.288,0.0,0.0,0.025427299120469,8.499785987217288e-11,-5.328041996372527e-05,4.006766070954748e-09,1.2232205148646746e-06,3.9433764822533854,46.2587826635041,8.652438597225508,40.41586552155969
0.21,31.22218473678744,131.01038742234647,3.803156063113743,3.9664546506877016,0.000390962054969,38.67679184347145,0.0006636984664108,3.297405915846789,404.8187610144644,9.079179692250786,3.688002035198235,69.99983642883521,1.3827831253856693e-08,113.70000179318536,50.47126980736161,15.288,0.0,0.0,0.0266815841422463,1.0586558589671407e-10,-6.275155280099118e-05,4.961340042512481e-09,1.5117124669161171e-06,3.9664546699249135,44.88773728276958,9.079241104426773,38.817098210937615
0.22,31.2221846022986,131.01038778667507,3.8882846911135607,3.956175711337521,0.0004112685792646,46.713636108302936,0.0007011135033803,3.291572407481395,472.5421858721365,9.580256326712124,3.889976788904857,69.99979815126248,2.0662823443484168e-08,113.70000199039316,56.195522894218605,15.288,0.0,0.0,0.0281541581291438,1.3033127211465288e-10,-7.330053770532661e-05,6.0817207473359025e-09,1.8632831045819008e-06,3.956175732680424,43.35679625546934,9.580320928629488,46.8294591882524
0.23,31.222184460898035,131.01038816972698,3.977794004014759,3.9879066397329104,0.0004360962274406,38.89105719050748,0.0007308686121188,3.286096544282012,406.3406421461021,9.977039034039262,4.056142701351626,69.99975353557706,2.9316661139418326e-08,113.70000219928508,60.9462612310605,15.288,0.0,0.0,0.0293202403623685,1.5880617816859538e-10,-8.505067486192354e-05,7.393319440773217e-09,2.2514912291167663e-06,3.987906663538912,42.20670487756048,9.97710753587448,39.0296395118868
0.24,31.222184313516166,131.01038856897196,4.070963590490852,4.003523997322975,0.000459165577055,40.0792299321398,0.0007630441688766,3.280134925833028,416.2328240017114,10.408422364424831,4.234121060914368,69.99970190737699,4.010976417051318e-08,113.70000241888,66.32994780718496,15.288,0.0,0.0,0.030588009649109,1.91711512587616e-10,-9.795845222523724e-05,8.904557280909524e-09,2.7052895870113487e-06,4.003524023611085,41.011349410369874,10.408494489985014,40.21323112692186
0.25,31.22218416001652,131.01038898478134,4.167901030441617,4.0261356185860135,0.0004830526730531,41.17760020658354,0.0007934613160587,3.2740610008587527,425.36408079150686,10.816813039390448,4.4041629376391525,69.99964258149416,5.3372865854010094e-08,113.70000264972064,71.63651430352668,15.288,0.0,0.0,0.0317882126436337,2.2947426169209347e-10,-0.0001121037688082,1.0637152702866709e-08,3.217380562698304e-06,4.026135647516394,39.93186687113378,10.816888917126896,41.30755663120434
0.26,31.222184000702686,131.0103894163294,4.26837241014618,4.053359329950934,0.000507503069958,44.80261175215926,0.0008224724146494,3.2678597736729302,455.8015834241788,11.207047269494833,4.567925492611352,69.99957484039399,6.947299261165984e-08,113.70000289176392,76.89781807056055,15.288,0.0,0.0,0.0329350617559806,2.7254099134167665e-10,-0.0001275114371842,1.260720913253598e-08,3.7915697709142366e-06,4.053359361668992,38.945390435244384,11.207126987890645,44.921630958721536
0.27,31.22218383516388,131.01038986473338,4.372698316214008,4.0614460923241,0.0005296455772492,41.029837477288126,0.0008548809954683,3.2610328932384265,423.84219965987256,11.645685385842508,4.748226940060522,69.99949794024376,8.879821051920497e-08,113.70000314600205,83.0342688744587,15.288,0.0,0.0,0.0342241635563461,3.2137296827284217e-10,-0.0001442952656441,1.4842505534226832e-08,4.458527942364847e-06,4.061446126801262,37.8838346421185,11.645768582375233,41.15922617924542
0.28,31.222183663504484,131.01039032970942,4.48079961904222,4.081133040992532,0.0005533279247169,47.27661484082626,0.0008845140695959,3.254218495915602,476.3468732012221,12.047344998676092,4.915789434712848,69.99941106884992,1.1178948978424788e-07,113.70000341275257,88.85982357848233,15.288,0.0,0.0,0.0354045979054623,3.764736350660473e-10,-0.0001625146963723,1.7365685655384934e-08,5.194620655212288e-06,4.081133078439725,36.956255322213885,12.047431915223257,47.38848224631549
0.29,31.22218348566054,131.0103908114315,4.592727908358551,4.1001100265020245,0.0005770279952742,37.989969791857405,0.0009138463939581,3.247164755122801,397.97031042211177,12.446314684600782,5.082367374004485,69.99931338876085,1.3891902435864665e-07,113.70000369260468,94.8417675268915,15.288,0.0,0.0,0.0365771315767517,4.3836067907166327e-10,-0.0001822432988888,2.0202163500922312e-08,6.018074062137429e-06,4.100110067036654,36.07377590258778,12.446405323946324,38.12849176886316
0.3,31.222183301933686,131.01039130907952,4.708251093558373,4.112858061667493,0.0005998635114143,35.655053282557844,0.000944131403186,3.2397207148238625,378.1859457108711,12.860033399289696,5.253940723820665,69.99920403105713,1.707002607527005e-07,113.7000039856728,101.2505662360602,15.288,0.0,0.0,0.03779301412572,5.075709863465428e-10,-0.0002035013069687,2.3370674033523645e-08,6.94335970778e-06,4.112858105337573,35.19685285507256,12.860127625629724,35.80193592228613
0.31,31.222183112488807,131.0103918222051,4.827243246502713,4.136140889545823,0.0006242383343011,37.56633644061071,0.0009716215464757,3.232339252743767,394.1656220930212,13.2364445751808,5.4126574282679245,69.99908210036875,2.0768081583188525e-07,113.7000042923011,107.26326115439352,15.288,0.0,0.0,0.0388992619788015,5.846561731689753e-10,-0.0002263323252403,2.6893437641668458e-08,7.948283231812338e-06,4.1361409365698805,34.43286455705216,13.236542630309057,37.70514091683033
0.32,31.22218291741533,131.01039235056504,4.949637017503345,4.1622282001352975,0.0006491019906456,40.83513712643371,0.0009979686925508,3.224840963348891,421.55939346242695,13.59846554462374,5.566374262777002,69.99894668612772,2.504388718903276e-07,113.70000461297312,113.2095365840355,15.288,0.0,0.0,0.0399632243410653,6.701756367872645e-10,-0.00025078340164,3.0793566854276295e-08,9.047716714467492e-06,4.16222825066026,33.72644865222576,13.598567505326,40.96227562489027
0.33,31.222182716732533,131.01039289410716,5.075419569102976,4.187801887681037,0.0006739743721461,40.48743503284469,0.0010239291638211,3.217136801802925,418.5156301991682,13.956637761217308,5.718704299733134,69.99879684673242,2.995902922462564e-07,113.70000494831164,119.25032483364384,15.288,0.0,0.0,0.0410158804634189,7.647061680070125e-10,-0.0002769136723495,3.509664608790402e-08,1.0253455741189656e-05,4.187801941818244,33.053267359159875,13.956743628864118,40.61505097607
0.34,31.222182510255863,131.01039345333336,5.204736257784645,4.19642921746386,0.0006961879027693,31.814592723444047,0.0010535137542081,3.208669900766693,345.46563688075645,14.367047160772364,5.88887983533068,69.99863160305904,3.557915789971256e-07,113.70000529927128,126.36523219087664,15.288,0.0,0.0,0.042222056531773,8.688448410811866e-10,-0.0003048202762282,3.9835373705550826e-08,1.1618525957862828e-05,4.196429275109305,32.30947868183619,14.367156517712404,31.97598901989736
0.35,31.222182298183583,131.0103940277045,5.337435501771672,4.210915783240843,0.0007193441544952,34.813487415034444,0.0010813034848195,3.200164272309822,370.5765700527033,14.754132934586384,6.050986755458457,69.99844991734221,4.1975736284587617e-07,113.70000566632532,133.26448209504355,15.288,0.0,0.0,0.0433596939127697,9.832256819293898e-10,-0.0003345386312107,4.503361101379695e-08,1.309465610343774e-05,4.210915844572415,31.63649055965014,14.75424592890194,34.96026256388454
0.36,31.222182080444604,131.0103946174141,5.4735747500461605,4.22903876037745,0.0007431682866607,39.2632255716727,0.0011077666085529,3.1915717453569297,407.8625232777193,15.124417129017054,6.2072589919251575,69.99825073022951,4.922382611919288e-07,113.70000605036684,140.03566173682628,15.288,0.0,0.0,0.0444479595865755,1.1084921261805627e-09,-0.0003661511460057,5.0723697896912267e-08,1.4691545926915382e-05,4.229038825557203,31.017264542603208,15.124533865618538,39.39272792946638
0.37,31.22218185710795,131.01039522227452,5.613102797925907,4.249164960780052,0.0007674149135003,37.28328237034959,0.001133274451316,3.1828514669894137,391.1218908297666,15.483077353331511,6.359470679857624,69.99803294268581,5.740349991123437e-07,113.70000645214331,146.75405277514704,15.288,0.0,0.0,0.0455020695186381,1.245311285088233e-09,-0.0003997125883071,5.6934243389647934e-08,1.641828325195534e-05,4.2491650299519,30.439178816713017,15.483197898584232,37.418894813348615
0.38,31.2221816281124,131.0103958424523,5.756069531572451,4.260095806433531,0.0007900626414612,38.9278000801764,0.0011607546399008,3.1735466295306622,404.8187610144602,15.87126705947922,6.521735074464384,69.99779542676283,6.659911329739736e-07,113.70000687263192,154.20298254405043,15.288,0.0,0.0,0.0466429667223463,1.3943646956867835e-09,-0.0004353006984059,6.369875435270817e-08,1.8328108041903096e-05,4.260095879559656,29.83470194713067,15.87139116222873,39.05694584372078
0.39,31.22218139339905,131.0103964781077,5.9025231349944285,4.274091258047817,0.0008133283308351,33.320076729592266,0.0011870382950339,3.164143363712209,357.64062493382744,16.24457853509073,6.678818328235205,69.9975369905506,7.690136753559805e-07,113.70000731287368,161.54010621938565,15.288,0.0,0.0,0.0477401448128051,1.5563705124515804e-09,-0.0004730068442167,7.105463478762673e-08,2.0383860516746246e-05,4.274091335289374,29.274934656826048,16.244706292406182,33.46997636540994
0.4,31.22218115316572,131.01039712870306,6.0523126585892895,4.286421841403391,0.0008363022448449,31.88018820767003,0.0012133780841982,3.1544430614236454,345.465636880754,16.62063299903514,6.836764518435374,69.99725641601981,8.840594270905819e-07,113.70000777359816,169.10340080049767,15.288,0.0,0.0,0.0488453895716005,1.7320643186450851e-09,-0.0005128553637434,7.9027539265021e-08,2.2612406375611563e-05,4.286421922834417,28.730746964325096,16.620764365084565,32.03586915718869
0.41,31.22218090752676,131.01039779392735,6.205351877049411,4.30025870409831,0.0008595777771371,35.882550741685804,0.0012389121673015,3.1445895889870297,378.94687077668647,16.987310563534386,6.99141560549392,69.9969524610574,1.0121301778427253e-06,113.70000825570062,176.64448930727934,15.288,0.0,0.0,0.0499230826371405,1.922193031274436e-09,-0.0005548883906878,8.764667734700782e-08,2.5005077415911235e-05,4.300258789847355,28.21875643368965,16.987445585695873,36.020076248499606
0.42,31.222180656535848,131.0103984736348,6.36160173428776,4.322008670726048,0.0008844838439129,40.34064925656127,0.001261804338223,3.134918999355981,416.2328240017114,17.318628721060172,7.133856886815013,69.99662385300175,1.154276942054023e-06,113.70000876021427,183.59942989625057,15.288,0.0,0.0,0.0508968652507098,2.1275184665783874e-09,-0.0005991661829955,9.694534598491077e-08,2.752657757470936e-05,4.322008761057615,27.772396468009568,17.318767655457478,40.462275036947325
0.43,31.222180400205527,131.0103991677914,6.521055075967404,4.339436441324956,0.0009085827200945,35.541853595187746,0.0012854696362701,3.124839917627212,375.9031395134336,17.662848429084132,7.280642039343927,69.99626930133451,1.3115939750280808e-06,113.70000928827632,190.96736675963504,15.288,0.0,0.0,0.0519085689713619,2.3488101247838237e-09,-0.0006457514522491,1.0695800287133593e-07,3.0255957891170616e-05,4.339436536261635,27.322335771349252,17.662991148924057,35.67895714766603
0.44,31.22218013836212,131.0103998768696,6.683849332059896,4.342209064313268,0.0009296474314902,32.82948243168077,0.0013129688908547,3.113754688841357,353.0750125389216,18.063580761318697,7.446730341918701,69.99588746395321,1.4852372182848018e-06,113.7000098413532,199.7278270846888,15.288,0.0,0.0,0.0530863610987301,2.586862292117705e-09,-0.0006947575786514,1.1773083546077225e-07,3.329010177793299e-05,4.342209163639375,26.81344244367223,18.06372678999575,32.9768158972058
0.45,31.22217987077456,131.0104006014978,6.850166573233225,4.3420317510315165,0.0009500780330031,38.11022602597878,0.001341042003417,3.1022288449712887,397.2093853562869,18.47486275310604,7.616350301328129,69.99547690348253,1.6764536248320808e-06,113.70001042108892,208.92306716049887,15.288,0.0,0.0,0.0542951637545535,2.842521175226318e-09,-0.0007463379956615,1.2932090054593452e-07,3.657529369088674e-05,4.342031854775571,26.30944884471334,18.47501199101448,38.23628058998621
0.46,31.22217959739673,131.01040134180155,7.020045503401754,4.351169003849846,0.0009725797783515,44.3937050866137,0.0013660055515545,3.09098240974522,449.7140588976434,18.844323061800488,7.771531995684422,69.99503610583268,1.8865779683531e-06,113.70001102895836,217.3591612614144,15.288,0.0,0.0,0.0553810645782081,3.1166808800591503e-09,-0.000800596194505,1.417768495237597e-07,4.001824400409673e-05,4.351169112337076,25.873596578896564,18.844475834274814,44.50118229261506
0.47,31.22217931813738,131.01040209802923,7.193559875579052,4.358630093683735,0.0009947969928181,30.22514089990685,0.0013910994973101,3.079396422776949,331.0078106302534,19.2180591098146,7.9280875671397615,69.99456352718363,2.1170044481277104e-06,113.70001166656292,226.0625808853568,15.288,0.0,0.0,0.0564795377574197,3.4102493884459798e-09,-0.0008576351980594,1.551487523304888e-07,4.3718862242359527e-05,4.35863020698899,25.44665981168229,19.218215372160817,30.381603425148434
0.48,31.22217903348153,131.01040286886197,7.370336324605091,4.365514409145237,0.001016880998596,29.779838936311712,0.001416009414045,3.067527859335786,327.2031223011574,19.5915905767454,8.084483592791102,69.99405758812365,2.369198154608765e-06,113.70001233476164,234.93171707892955,15.288,0.0,0.0,0.057577416115756,3.7241711041759195e-09,-0.0009173883913609,1.6944871263079066e-07,4.767297940601472e-05,4.365514527349481,25.03354780044292,19.59175030803913,29.937410312943754
0.49,31.22217874361868,131.01040365378466,7.5502307795521535,4.3786401372577615,0.0010404145545081,37.2489281064929,0.0014385799934191,3.0558405437943126,389.60000969812296,19.93403005898306,8.23012235628909,69.99351671352461,2.644660619562788e-06,113.700013034871,243.21198709852868,15.288,0.0,0.0,0.0585839249886784,4.059374595909599e-09,-0.0009798792959512,1.8470833984680338e-07,5.180951737438081e-05,4.378640260624215,24.667474291142685,19.934193486919103,37.37406598941686
0.5,31.22217844858332,131.0104044527036,7.733219389747018,-5.349571987747497,-10.531694310032528,38.392482896226575,0.6147409230651721,3.6325473172940783,397.97031042210494,19.388272970811823,8.366189013561664,69.99293932307316,2.9449363413826395e-06,113.70001376847225,230.0728534613432,15.288,0.0,5.010313955797237,0.0569801224687819,4.416703151082342e-09,-0.0010538516203957,2.098572043595796e-05,5.419420113593937e-05,11.798783207199891,14.893936145340245,17.74325832794488,38.568848172481395
0.51,31.222178148152143,131.0104052655801,7.919240217148259,-5.1872096610209,-10.374712411181148,29.48113352251152,0.6298340717836296,3.6350868505492135,323.3984349720841,19.717721541018463,8.518033666623106,69.99235488445038,-6.724139074404998e-05,113.69993949535716,237.9539007599908,15.288,0.0,5.030196378297235,0.0579484592352341,4.752458034518772e-09,-0.0009815108541635,-0.0001254582416029,5.13308320564678e-05,11.58649754623549,14.660851875728431,18.096956300204305,29.71107169290882
0.52,31.222177841874743,131.0104060925778,8.108296277307057,-5.0292577819295134,-10.219854064221726,35.3172193076545,0.6455446222794226,3.6377496645324654,372.0984511843415,20.056292678747155,8.672477267906915,69.99181209646369,-0.0003704841792764,113.6996172033991,246.19135785706115,15.288,0.0,5.050007404233158,0.0589436124761383,4.976327407201082e-09,-0.0009084208307549,-0.0002756652242113,4.832327138064329e-05,11.378484028996867,14.42711013199572,18.45946073117224,35.50994128559105
0.53,31.22217752960771,131.01040693408297,8.300499078525133,-4.877398295223358,-10.071321840843163,37.05751568899199,0.661329579564471,3.640262141838515,386.5562464348624,20.39147019330332,8.825664799974726,69.99131140648237,-0.0009128672271482,113.69904041665367,254.4840390488432,15.288,0.0,5.0697502729928825,0.0599287985196283,5.086079849730925e-09,-0.0008345452043929,-0.0004298152974922,4.513453516218486e-05,11.17921752020537,14.201448894692277,18.817604801328287,37.24175525286096
0.54,31.222177211241355,131.01040779036083,8.49592528948031,-4.730884920826734,-9.927957238211638,32.60201869661005,0.6772481705189827,3.6426523890798377,349.2703242098436,20.724882788787472,8.978170497206857,69.99085325939089,-0.0017006433326587,113.69820247940278,262.86906949945273,15.288,0.0,5.089439389408177,0.0609088040920273,5.0794480569021366e-09,-0.0007598738955732,-0.0005880430517962,4.1767264055221775e-05,10.987313651430911,13.982681243873058,19.173194950525463,32.81187596901847
0.55,31.222176887039737,131.01040866066083,8.694361916104771,-4.5907242818283045,-9.792247112514753,34.52454813248447,0.6930957292356915,3.644830341903388,365.2500005919907,21.050564381005564,9.127915169483138,69.99043807389187,-0.002740108121546,113.69709668997407,271.1905392963528,15.288,0.0,5.109051779749823,0.0618660952248158,4.95420712804805e-09,-0.0006845420678638,-0.0007501792801996,3.821712660630061e-05,10.805423304405354,13.773644177728375,19.519878952686643,34.7233292422167
0.56,31.222176556993247,131.01040954497773,8.895808587615475,-4.45744576137429,-9.665783042254857,32.25330302368126,0.7087081098962161,3.6467302816614224,346.2265619465787,21.36391172291429,9.273302736800558,69.9900662188011,-0.0040374559043182,113.69571645507514,279.3188178898714,15.288,0.0,5.128587174391757,0.0627871432199034,4.708207607543647e-09,-0.000608575004866,-0.0009162839040622,3.44810617149416e-05,10.635189890409738,13.576200439429948,19.85280552326756,32.46654377770486
0.57,31.222176221163167,131.01041044311407,9.100210165917655,-4.326272890392988,-9.538813141894028,31.896160587132023,0.7247854364244,3.6486512278013215,343.1828296833023,21.68542580296135,9.421474086762444,69.98973803055958,-0.0055988827672385,113.69405517960465,287.78359276058967,15.288,0.0,5.148037079953106,0.063732199091377,4.339346471806146e-09,-0.0005320335516149,-0.0010863416341895,3.059737681763465e-05,10.465767320323469,13.379726436283086,20.193984550745025,32.11235011504302
0.58,31.222175879517835,131.01041135512543,9.3075837207172,-4.194469337292928,-9.405356687056589,41.850239699158486,0.7418354134244675,3.650794105527003,426.1250058573153,22.029348674276385,9.5773791910071,69.98945382341503,-0.0074306468197838,113.69210620277936,296.97834838342067,15.288,0.0,5.167401536186746,0.0647431197720422,3.845529366770513e-09,-0.0004549418693937,-0.0012604176259375,2.657823497033584e-05,10.290575161151196,13.177551132443549,20.558584892630098,42.01572539250729
0.59,31.222175531650315,131.01041228208643,9.51823703944966,-4.0721351272672655,-9.287674240277104,34.01085836974065,0.7580762453610491,3.6524240037467184,360.68438819711065,22.344187280817728,9.723113573503507,69.9892139461011,-0.0095394193011612,113.68986242488188,305.5215261112461,15.288,0.0,5.186704666201648,0.0656685702583942,3.2244976362840086e-09,-0.0003771687494032,-0.0014389318295835,2.234910066408305e-05,10.133983998212852,12.994339500494505,20.891663601350537,34.21481211030515
0.6,31.22217517775838,131.0104132234275,9.7320089704944,-3.945834348722889,-9.156115737037313,30.275658654128105,0.775949963138466,3.654527218474108,329.4859594986058,22.699785136833384,9.88295637439192,69.98901872661143,-0.0119319668057265,113.68731664407522,315.31691371063926,15.288,0.0,5.205929350449932,0.0667138173925389,2.474023964148676e-09,-0.0002988333410013,-0.0016217481100252,1.7988778280332604e-05,9.96349638564918,12.797126304289808,21.267659519024438,30.505297482193885
0.61,31.22217481778361,131.01041417927556,9.9489370746974,-3.8222782670862383,-9.025530911371076,35.39804843325473,0.7942793442937788,3.656614458118316,372.0984511843297,23.06189769848228,10.044996135008528,69.98886848415411,-0.0146152240077978,113.68446148023963,325.45040046085035,15.288,0.0,5.225081653744871,0.0677782185036572,1.5918377735410295e-09,-0.0002199476575045,-0.0018089721734205,1.3451050647404216e-05,9.795352965468686,12.602357968017216,21.650026641355783,35.595274150582675
0.62,31.222174451827275,131.0104151493229,10.168935027861137,-3.7133069111347887,-8.923978015999067,43.90348132697872,0.8104654509745021,3.6576841005136926,442.86563930529206,23.35765710122187,10.18393741370862,69.98876352638632,-0.0175962898081807,113.68128937849778,333.8444111551834,15.288,0.0,5.244169380858327,0.068647616801719,5.75643362492296e-10,-0.000140569814212,-0.0020006036137277,8.706708417292e-06,9.659933784057342,12.441712781212804,21.961542637279734,44.06303643480262
0.63,31.222174079699624,131.010416134056,10.392142977765262,-3.603905171971552,-8.817095198771613,25.08590850361269,0.8275352444764331,3.6589176735001088,286.11251274707894,23.67281306483916,10.329563622796078,69.98870408626405,-0.0208820099249154,113.67779305409869,342.9067087210553,15.288,0.0,5.263157485013696,0.0695740281228599,-5.766888143541769e-10,-6.068428002716118e-05,-0.0021968257919062,3.809337174444681e-06,9.519799668450467,12.276701475653752,22.293286902481444,25.36484375220809
0.64,31.22217370196136,131.01041713191907,10.618118810478803,-3.4923759241841106,-8.70043423274652,24.633543865347377,0.846006620072481,3.6604925247982254,282.30782441796754,24.021032069639087,10.486599333470808,69.98869037068411,-0.0244793050584432,113.67396514170233,353.06132490067654,15.288,0.0,5.282064664312556,0.0705976183212568,-1.867280481486385e-09,1.945301404800453e-05,-0.0023971552417129,-1.2390604133895513e-06,9.370183076851806,12.102018821201858,22.65961726315475,24.918395134745406
0.65,31.22217331858401,131.01041814296096,10.846878008835825,-3.391262357064848,-8.604870039242638,43.20405185922139,0.8628239338690621,3.66127086735309,436.7781447787475,24.317796146070524,10.625729424166352,69.9887225279854,-0.0283949382397336,113.66979844489444,361.8309457907018,15.288,0.0,5.300861972700866,0.0714699899808872,-3.29814147645896e-09,9.983070809623448e-05,-0.0026016973561356,-6.437136869984399e-06,9.244340563405665,11.952883734815586,22.97122167715257,43.3674932012363
0.66,31.22217292906481,131.01041916852253,11.078804483532016,-3.290929077089963,-8.507087845292402,36.81012550982837,0.880259353427007,3.6620998595082432,383.51251517160017,24.6259880294796,10.768773773555452,69.98880068297574,-0.032635751032899,113.66528568465752,371.052136178522,15.288,0.0,5.319576835044912,0.0723759551352642,-4.8712472440701495e-09,0.000180588581247,-0.0028109573895718,-1.1791760676170732e-05,9.117073979191607,11.802776420718825,23.29460221261564,37.00231306228873
0.67,31.222172533574007,131.0104202081107,11.31375929462251,-3.189093236906768,-8.401038065785315,25.470256643800607,0.8990156381886557,3.663217366243305,289.1562440103425,24.964202961949937,10.9221678603939,69.98892499093266,-0.0372090679361523,113.6604190673702,381.30563123882496,15.288,0.0,5.338228155192476,0.0733701657247948,-6.588760184102567e-09,0.0002616192697859,-0.0030248177330773,-1.7316987420168838e-05,8.981912508564697,11.644605860923283,23.649294395354342,25.748036121054422
0.68,31.22217213226548,131.0104212612774,11.551616367735685,-3.0909647623020167,-8.300203897123701,31.700014325178163,0.9176655893820704,3.6641038088760136,340.8999924858462,25.293474165035462,11.072401736966803,69.98909556705709,-0.0421222032101573,113.65519081066168,391.4216659844956,15.288,0.0,5.356756799775084,0.0743380981955342,-8.452794209828349e-09,0.0003428325147298,-0.0032431977273134,-2.299140320139496e-05,8.853276626681074,11.493960819289272,23.994236663418555,31.92426467552004
0.69,31.222171725206785,131.01042232781077,11.79231701442698,-2.998950060195164,-8.21135296661979,38.94066048937805,0.935383384344319,3.664487148095212,401.0140726853634,25.59205273012336,11.211949840658956,69.98931243825258,-0.0473823683131653,113.64959324485751,400.70807588037735,15.288,0.0,5.37519811948618,0.0752158316685327,-1.046536608756551e-08,0.0004241604391375,-0.0034660739032533,-2.8780625699559563e-05,8.738326427450485,11.35857828226728,24.30662726440856,39.12388589446696
0.7,31.22217131225556,131.01042340807228,12.035966052691627,-2.908852176399309,-8.123666957473185,32.7197703221898,0.953355567380501,3.664781581414976,349.27032420985284,25.89184296831685,11.351865721251007,69.98957569495195,-0.0529967281713012,113.64361874199732,410.141408881888,15.288,0.0,5.393567926084268,0.0760971335946722,-1.2628406421638194e-08,0.0005056094556406,-0.003693629588914,-3.470826780933411e-05,8.625462320716636,11.225974283818417,24.620051480201717,32.93816753880195
0.71,31.222170893454127,131.0104245019198,12.282524779411991,-2.818464501332856,-8.031199598384879,26.95333859137722,0.9723034320171284,3.6652134552332303,301.33126406340574,26.211744746668003,11.498684258382864,69.98988530323672,-0.0589726148243819,113.63725950484113,420.3289157898085,15.288,0.0,5.411812547354332,0.0770375516566726,-1.4943882736127747e-08,0.0005871160722531,-0.0039258603322214,-4.0800398487968665e-05,8.508337476507586,11.08937569831849,24.954333896974408,27.218773390029163
0.72,31.22217046879448,131.01042560934843,12.531993639215523,-2.727559817709308,-7.932929015170906,32.91620776513897,0.9924436431691088,3.665839675727115,350.79220534145287,26.556638563373035,11.654087315451903,69.9902412481247,-0.065317534691982,113.63050754819966,431.4527176777232,15.288,0.0,5.429973468700011,0.0780514304952179,-1.7413783990883448e-08,0.0006686430908106,-0.0041628360887605,-4.7076218006391234e-05,8.385901167407608,10.947384830649828,25.31451446559451,33.134574971633434
0.73,31.22217003826326,131.01042673036713,12.78437706222606,-2.6448435492074385,-7.85400589474109,41.54128310971021,1.0105503293651987,3.665631320964184,422.320318528234,26.84258644927072,11.789046584150368,69.99064350970414,-0.0720392782451439,113.62335458498922,440.7833673368904,15.288,0.0,5.448062429267764,0.0788920717951399,-2.004016516318061e-08,0.0007501614056525,-0.0044046515365501,-5.338296019350128e-05,8.284728752628842,10.829311986206704,25.61274210325864,41.714940577094296
0.74,31.222169601789272,131.01042786514506,13.039725219384248,-2.561934508135386,-7.770726324737265,26.140866681850188,1.0296000753083936,3.6655375991162615,294.48281347105944,27.147516334756546,11.930513855119676,69.99109195887401,-0.0791453711119182,113.61579261326813,450.8437299148179,15.288,0.0,5.466048624922315,0.0797885100168713,-2.2824907716953936e-08,0.0008316346455396,-0.0046513919170573,-5.98515776390538e-05,8.17969425058364,10.70761132059268,25.9306320960421,26.416683233969312
0.75,31.222169159715065,131.01042901272237,13.297766439209996,-2.479597322694042,-7.685216376280772,30.457017380675893,1.0493689667938355,3.6654742063129593,330.24688556441487,27.465016210587795,12.07626223370728,69.99158654416341,-0.086643441002333,113.60781351391836,461.4395183531101,15.288,0.0,5.483919582217507,0.0807219000723224,-2.576998594804554e-08,0.0009128930918741,-0.0049027349501059,-6.646636747646711e-05,8.073043526572791,10.584702021364093,26.261441849252822,30.694735446203296
0.76,31.22216871192295,131.01043017339603,13.558587377156888,-2.400974168353528,-7.607108236365862,32.75647097626296,1.068516772790618,3.665037358404279,349.27032420986166,27.76092334152559,12.21448875839356,69.99212705916864,-0.0945410506857412,113.5994092463915,471.4243401517813,15.288,0.0,5.501706158758273,0.0815918351167057,-2.8877179765039485e-08,0.0009939386181506,-0.0051588754173475,-7.314501913108085e-05,7.9748891102178785,10.471822368601876,26.56950908758621,32.97818396684377
0.77,31.22216825834752,131.010431347321,13.822234251411844,-2.3244226469675366,-7.531688285733034,30.650516011307275,1.0876617966674005,3.6644186454274106,331.7687666960708,28.051111683477487,12.350681468176068,69.99271326709416,-0.1028458652494086,113.59057166168358,481.31937815440654,15.288,0.0,5.519410292683259,0.0824449698287888,-3.2148271513860546e-08,0.0010747452191024,-0.0054199336420766,-7.991639586515913e-05,7.880235347605334,10.363447069118676,26.87144113305354,30.887944314121803
0.78,31.22216779904305,131.01043253432607,14.088660303248911,-2.247795727994641,-7.452264051873037,25.23731596380724,1.107782067948853,3.6638921589430944,286.8734378128899,28.36018703058521,12.49333370783439,69.99334500687672,-0.1115656234165882,113.58129252414317,491.9718591700287,15.288,0.0,5.536994002296938,0.0833536231572375,-3.5585071396914435e-08,0.0011552379156266,-0.005685877950794,-8.684597663518502e-05,7.782049729196449,10.251745663956202,27.1928859032738,25.52593590682766
0.79,31.22216733408677,131.01043373417704,14.35780089027144,-2.171888879888145,-7.371192824015768,35.71297949542235,1.1285877477440158,3.6633639000195664,373.6203323159534,28.68025637235658,12.639714618753544,69.99402197543185,-0.1207081550762149,113.57156351009633,503.1261771678476,15.288,0.0,5.554476962119503,0.0842945971542018,-3.918937817604795e-08,0.0012353420142346,-0.0059566736426497,-9.391353643305577e-05,7.682807370927096,10.139386331168584,27.525583481940416,35.918113115930545
0.8,31.22216686325327,131.0104349474672,14.629827265462648,-2.1004267937115246,-7.301115623188515,36.178553958479846,1.148081058620415,3.6622830531024064,377.42502064505743,28.962003487278903,12.772806825798126,69.99474385292095,-0.1302815317037401,113.56137603965036,513.046480876955,15.288,0.0,5.571883550144616,0.085122945830363,-4.296290262514139e-08,0.001315093605848,-0.0062326641892843,-0.0001009559397255,7.595668136256259,10.041360978959958,27.818248188834385,36.38156365255405
0.81,31.2221663866344,131.01043617392358,14.904663802875792,-2.028583188014736,-7.225921754471956,23.68392840682027,1.1687807347108283,3.661342673070692,273.9374926939919,29.26774876696688,12.914116683174967,69.99551038273765,-0.1402938189176478,113.55072153069308,523.9220588842433,15.288,0.0,5.5892048931323455,0.0860218361396821,-4.690745951963987e-08,0.0013943966625967,-0.0065137564651959,-0.0001081709884654,7.503815858117989,9.93850830019448,28.13571010799556,23.99374800557153
0.82,31.22216590440613,131.0104374130429,15.18216928093842,-1.9574738844148432,-7.149332465447352,30.30658111884015,1.190144938055037,3.660380518979088,328.72500443277005,29.58353667093868,13.0588210279609,69.99632111745075,-0.1507530798832278,113.53959141547809,535.2746266919002,15.288,0.0,5.6064271236976415,0.0869502513530767,-5.102483650010172e-08,0.0014731403756745,-0.006799793949232,-0.0001155095244684,7.411123402197628,9.835227547390955,28.46343408878979,30.550019470208817
0.83,31.22216541654376,131.01043866487151,15.462359144784948,-1.8908486405666447,-7.085239212597863,38.40449293520006,1.2097591755036616,3.658768660163203,395.68750322465047,29.8514087976502,13.186932078321412,69.99717568574457,-0.1616674855989614,113.5279770036801,544.9974255319784,15.288,0.0,5.623532246992104,0.0877378432654135,-5.531670966957327e-08,0.0015512892582735,-0.0070908860985352,-0.0001227353038507,7.331962822981716,9.748233468191843,28.74129638362411,38.597346838625306
0.84,31.222164922935928,131.01043992969525,15.745317122312418,-1.8248193791411595,-7.019770908644865,23.874823722907568,1.2299494882709214,3.657121226800125,275.4593748256452,30.12787232445939,13.3179418142397,69.99807365577654,-0.1730450510354532,113.51586977165915,555.123879672086,15.288,0.0,5.64055177497055,0.0885506944389552,-5.978461305589298e-08,0.0016288147064282,-0.0073871849999578,-0.0001300589451563,7.251928699478805,9.660835982042336,29.027965840830973,24.18459259965154
0.85,31.22216442386441,131.0104412067229,16.030820013007762,-1.7576370074369,-6.9460556593528056,25.993720860230507,1.2520198847272324,3.6557454336719295,292.96093233939376,30.44325987909437,13.462296653650675,69.99901443616328,-0.18489376716488,113.50326122995372,566.7915767324828,15.288,0.0,5.657472091067782,0.089477957757631,-6.443024918108858e-08,0.0017055646536222,-0.007688370820815,-0.0001376092150054,7.16392537410943,9.564694728114016,29.35484666994013,26.27937504255282
0.86,31.222163919151004,131.01044249642365,16.319003853691623,-1.6934647586627347,-6.8801323290518805,32.44036197082409,1.2730658754837971,3.6539207956941375,346.2265619465587,30.72851104547049,13.596193707912896,69.99999753350227,-0.1972219567746008,113.49014252836176,577.4469495208308,15.288,0.0,5.674304853423419,0.0903166534884213,-6.925508506397126e-08,0.0017815530276498,-0.0079947580842278,-0.0001450829661855,7.084507431973189,9.47913417636551,29.65037776442084,32.67030637601394
0.87,31.22216340881239,131.0104437987336,16.60985279263,-1.6312233294720155,-6.81825101508901,30.23477672010792,1.2937046051400864,3.6518085966797824,327.964078366998,30.998707658063367,13.724834162329923,70.00102236216803,-0.2100378941397956,113.47650487169454,587.630194478872,15.288,0.0,5.691049254338624,0.091111109212905,-7.426065812748065e-08,0.00185671504796,-0.0083063700587294,-0.0001525291570165,7.009769141880136,9.399658567906332,29.93022530159346,30.481979938103184
0.88,31.222162892876955,131.01044511355772,16.903342125243874,-1.569012626729721,-6.752729574722912,26.185727794230072,1.3154148102388017,3.6497514604375207,294.4828134710418,31.28830039927239,13.860083826086608,70.0020882903284,-0.2233498406826837,113.46233947876723,598.643995013626,15.288,0.0,5.707699946596602,0.0919625819977806,-7.944848263100054e-08,0.0019309737703702,-0.0086231819503556,-0.0001601069300707,6.93179253610634,9.316934495655037,30.230038034730107,26.471557225812663
0.89,31.22216237141799,131.01044644067758,17.199412014000405,-1.506918432766221,-6.683735503032664,28.67593904919758,1.3382185322486948,3.6477341540455575,315.028134248087,31.59741043474268,14.001976619328149,70.00319464574929,-0.237166148835242,113.44763747201011,610.5135667026004,15.288,0.0,5.724234287332488,0.0928714285542242,-8.482006309228006e-08,0.0020042520758659,-0.0089451646125116,-0.0001678198265024,6.850752751998898,9.2311575437705,30.549911216561373,28.93797286701228
0.9,31.222161844355348,131.01044778029635,17.498122800219296,-1.4483881211079097,-6.626473582463638,31.6282738309574,1.359001078558545,3.645070151903792,339.37814235421445,31.85434997664995,14.125832498845062,70.00434072459528,-0.2514954329964239,113.43238969614758,620.4651189239092,15.288,0.0,5.740682968565963,0.0936269434188553,-9.037680293766498e-08,0.0020765201659811,-0.0092724975873147,-0.0001752798025525,6.782228112138687,9.160851268507685,30.8157848312666,31.866614596939034
0.91,31.22216131175244,131.01044913222495,17.799423029941455,-1.389892738453249,-6.565629435825718,24.16471337473242,1.3808718217568452,3.6424479850451057,277.7421810230789,32.13078760660602,14.256325763064032,70.00552575703429,-0.2663460101494318,113.41658731214304,631.2625893347082,15.288,0.0,5.757041156932219,0.0944397755007337,-9.61201120549698e-08,0.0021476901621725,-0.0096051176967689,-0.0001828552385649,6.710501343841742,9.087287947928491,31.101716573688293,24.476674749541715
0.92,31.222160773800272,131.0104504959222,18.10316102409804,-1.3315374659386123,-6.50141775664467,28.684969988230407,1.4038502347188453,3.6398534918293466,315.02813424806214,32.426661422730945,14.393426877865425,70.00674892181807,-0.2817262794321225,113.4002213945093,642.9232251289378,15.288,0.0,5.773301169281446,0.0953097433481346,-1.0205151339866625e-07,0.0022176414619292,-0.0099427930271168,-0.0001905440133615,6.635797506810552,9.010663652453076,31.407611229990938,28.94903853583365
0.93,31.22216023040526,131.0104518716316,18.409408644128085,-1.2761474583195291,-6.447632786378603,34.03786513621371,1.4248788931575147,3.636658225195604,359.1625070654728,32.673262588927614,14.51349648558442,70.00800936156413,-0.2976447110424134,113.38328294240648,652.7199292918539,15.288,0.0,5.789471399762297,0.096034895234708,-1.0817214689876937e-07,0.002286349628888,-0.0102857459925405,-0.0001979356909395,6.572186883390719,8.948002287112638,31.66260703532772,34.26122919479278
0.94,31.2221596814561,131.0104532596482,18.718252415773268,-1.219953031530953,-6.385876633202473,24.81516805862377,1.4480541663506468,3.6336925434169536,283.0687504837787,32.962384299710685,14.648114206908364,70.00930614980983,-0.3141096435002602,113.36576309637904,664.3030117895138,15.288,0.0,5.805551697043378,0.0968850339253367,-1.1448312611153764e-07,0.0023537675219927,-0.0106341179132952,-0.000205569304734,6.500887472039072,8.87656032601055,31.96136860774957,25.12156739032242
0.95,31.222159127228863,131.01045465919603,19.029473887871017,-1.1649563291655507,-6.3261003875608735,32.01582046337985,1.4711571945812687,3.6305006832255855,342.4218736174873,33.244239469192074,14.780147541514507,70.01063830130737,-0.3311297331896095,113.3476526609124,675.6920469277961,15.288,0.0,5.821535650208166,0.0977138228317606,-1.209859926721141e-07,0.0024197629265861,-0.0109876019890065,-0.000213133796863,6.432040888011602,8.80860972377174,32.25255569180648,32.254574848313254
0.96,31.222158567434487,131.01045607106204,19.34329971085415,-1.111735883628476,-6.271744393375715,31.373087654961942,1.4933263981422251,3.626927037473,337.09533515678345,33.49999894597089,14.903127488136672,70.01200488073663,-0.3487136130177407,113.32894245879211,686.1080260690154,15.288,0.0,5.837435819602121,0.0984659178766226,-1.2768155256476568e-07,0.0024843490983302,-0.0113466688743328,-0.0002204994074676,6.36912819029054,8.748477499345416,32.516801842799296,31.617325194779944
0.97,31.222158002088168,131.01045749519315,19.659717362163192,-1.058961106298014,-6.215765774255289,20.20226301763052,1.5162281442017715,3.6232851600096176,245.02188719299323,33.76634601654878,15.029665776910718,70.01340477111661,-0.3668700816769939,113.30962314717668,697.0402353392071,15.288,0.0,5.853250693189378,0.099249141177707,-1.3457101583101973e-07,0.0025474495324764,-0.0117113350003351,-0.0002278906295012,6.304977393899006,8.687371946140292,32.79188985502688,20.580538723987214
0.98,31.222157431464584,131.01045893081792,19.97850973901845,-1.0057219545073484,-6.1525305157189285,29.25500187580269,1.54134228836259,3.6198198461190776,319.5937466429581,34.07484377923655,15.170600874013031,70.01483689518925,-0.385607920958592,113.28968539394344,709.8133511502908,15.288,0.0,5.868969627866413,0.1001562663792593,-1.4165594726905348e-07,0.002608920672919,-0.0120812135860552,-0.0002355148318339,6.2338766099360985,8.618131247144252,33.11026278650833,29.518366596434014
0.99,31.22215685541627,131.0104603783336,20.29979260246007,-0.9555500335117,-6.103427884668874,31.93714140359181,1.5631821152029015,3.6155716000920393,341.6609485517054,34.30771944017738,15.285465270841314,70.01630014908521,-0.4049361311313412,113.26911963438384,719.5263703172071,15.288,0.0,5.8846045984040245,0.1008411239257807,-1.489371808700885e-07,0.0026687437449918,-0.0124566430842328,-0.000242554221609,6.177495560793059,8.567721250459925,33.35080739773744,32.179137610472104
1.0,31.222156273939152,131.0104618377441,20.623569622528,-0.9049470901730428,-6.047287246018764,28.6130812840848,1.5871925548024537,3.6114826195319214,314.2672081822764,34.5816436991952,15.414345665166628,70.01779322826596,-0.4248632595013334,113.24791679526952,731.0393820529786,15.288,0.0,5.900150930244548,0.1016466444132743,-1.564157384267979e-07,0.0027268334389688,-0.0128375981790832,-0.0002498048412455,6.114373971903675,8.50942245768518,33.63350067839991,28.88373949970546
1.01,31.222155687203312,131.01046330856786,20.94970638007541,-0.8553469335030525,-5.993106346927234,29.90963561098275,1.6110316693603188,3.607147289844217,324.9203161036979,34.846562511303674,15.540042286814064,70.01931491144552,-0.4453982514898077,113.22606737084928,742.2595458896694,15.288,0.0,5.915606474979607,0.1024257034953313,-1.6409288048588888e-07,0.0027830844820634,-0.0132238994319229,-0.0002569030950004,6.053616427546072,8.454584951563684,33.9068832692147,30.169408959939535
1.02,31.222155095132624,131.01046479100916,21.27826364236721,-0.8067948459891151,-5.941530990604934,25.010783807773755,1.6344848008117407,3.602535811671064,284.59063161540416,35.09813908947588,15.661067783881157,70.020863861956,-0.4665498671398255,113.20356205720078,752.9920340906762,15.288,0.0,5.930975066040442,0.1031655536978514,-1.7196937962642088e-07,0.0028374410563537,-0.0136157058494361,-0.0002638033082606,5.995863032674677,8.404054958027189,34.16651738633504,25.321712254854628
1.03,31.22215449779025,131.01046628488626,21.60919230894358,-0.7583092864165482,-5.885479313204818,20.47909390754206,1.6595523123599103,3.5979507940273905,247.30469339049705,35.37803825121614,15.791723986187984,70.02243865289451,-0.4883267933986363,113.18039163066624,765.0254631711507,15.288,0.0,5.9462539700486605,0.103988662334884,-1.8004620960947429e-07,0.0028898116537597,-0.0140129412469793,-0.0002708063099305,5.933959535244061,8.348735619430956,34.455174271598295,20.858874635694704
1.04,31.22215389523225,131.0104677900358,21.94244857618228,-0.7112033090587081,-5.834906010619879,32.415204051408914,1.6833954580815886,3.592960032168327,345.46563688072297,35.62706285856318,15.911688792084547,70.0240379417866,-0.510738057299012,113.15654649633444,775.8085021197245,15.288,0.0,5.961445415966712,0.104721028214156,-1.8832431612172376e-07,0.0029401164306759,-0.0144155996588134,-0.0002774509024857,5.877940836588337,8.301405768558602,34.712101398904444,32.65713759280696
1.05,31.22215328718656,131.01046930721265,22.278249915004302,-0.6643305193971257,-5.780880329860183,19.645550875563487,1.7086006909478129,3.5879419607981906,240.45625879819983,35.89880341366038,16.03935665222135,70.0256601357324,-0.5337925111742877,113.13201726018248,787.662977121447,15.288,0.0,5.97655781488156,0.1055201734017503,-1.968039536423159e-07,0.0029883287000081,-0.0148241476395576,-0.0002841423209537,5.8187983138336445,8.25055616111059,34.99228472553839,20.04346060538242
1.06,31.22215267387609,131.01047083578916,22.61642042835993,-0.6178273488714698,-5.724085223799264,27.884619370328576,1.7350546414848065,3.582859112085463,308.17968365593924,36.190114168357546,16.173639986643796,70.02730377219304,-0.557499459427026,113.1067940334795,800.472260720515,15.288,0.0,5.991584798270992,0.1063768519345898,-2.054864743415117e-07,0.003034325278448,-0.0152382654404346,-0.0002908476549918,5.757220813578379,8.196983652366535,35.29247190789874,28.167344416080397
1.07,31.222152055189262,131.01047237607187,22.957050075686272,-0.5728951090878824,-5.675736380221688,32.79441980967544,1.7592473091481424,3.5772428077307725,348.5093681440308,36.43010230609323,16.290222703311425,70.0289671667343,-0.5818683754410316,113.08086676121832,811.0972942939615,15.288,0.0,6.006535047389594,0.107082682227154,-2.143723926154608e-07,0.003078054325518,-0.0156582474732759,-0.0002969859748948,5.704482271790347,8.155346136443914,35.54001711411384,33.03582279667693
1.08,31.22215143103035,131.01047392832697,23.300217274280765,-0.528447376543089,-5.62627652332373,22.14464354857561,1.7841107347238927,3.571489040562388,261.00157857466235,36.678303744889554,16.4095283330522,70.03064873837016,-0.6069085313729529,113.05422558938976,822.1599953164499,15.288,0.0,6.021409554681019,0.1078126633136703,-2.234623105158358e-07,0.003119441510093,-0.0160842580117602,-0.0003030198251574,5.6509597389959945,8.113192829258924,35.795949931866126,22.501640450733486
1.09,31.22215080165798,131.01047549182732,23.64571788620457,-0.4839201105407154,-5.569129403405001,20.3836933261863,1.8118621227381289,3.5658490247008787,246.54375332474407,36.97858363238388,16.54658795565044,70.0323466584706,-0.632629239727472,113.02686063494164,835.6491737253671,15.288,0.0,6.036199587020992,0.1086957335519645,-2.3275761550453245e-07,0.0031583563213545,-0.0165158737174257,-0.0003093014374656,5.590048571167331,8.061748430351605,36.10516366075346,20.772411444865647
1.1,31.222150167142622,131.01047706637215,23.99349752938659,-0.4404827100844155,-5.516832567500416,40.68129951294279,1.8384167289820257,3.559814978070263,413.1890617385841,37.249265715344166,16.6733965594872,70.03405921687393,-0.6590399264399253,112.99876188078454,847.8994761602297,15.288,0.0,6.050908076270633,0.109491812659845,-2.422590644688369e-07,0.003194712223219,-0.0169530771597077,-0.0003151414234241,5.534335245512959,8.017543808954565,36.38402209910343,40.87811381178508
1.11,31.2221495271069,131.01047865302138,24.343860413148214,-0.3983392346657718,-5.473473957083012,29.838722341568545,1.8622224092917423,3.5532380437561004,324.1593910376397,37.46077151334101,16.77982805183394,70.0357845174857,-0.6861501507796279,112.96991917823834,857.5269032888417,15.288,0.0,6.065549092033759,0.1101139556747684,-2.5196627786633333e-07,0.0032284781316608,-0.0173966044215982,-0.0003202697963082,5.48790564077845,7.98617547890193,36.60230735136879,30.107187246145823
1.12,31.222148881610767,131.01048025160972,24.696762185576112,-0.3557004298051422,-5.415028784628436,11.385686659643486,1.8916869373313925,3.547029926384356,172.73281794065943,37.77695103383872,16.922023685865444,70.03752058253664,-0.71396924229752,112.94032262316884,872.0339709485575,15.288,0.0,6.080116292231853,0.1110437908778412,-2.618801418961082e-07,0.0032595429384252,-0.0178463242039277,-0.0003260695955799,5.426664039863328,7.935436903609099,36.92762600410789,12.074508746906439
1.13,31.222148231205555,131.01048186057963,25.05176279248131,-0.3142969790732473,-5.365583090217898,35.12959901992611,1.918347859437964,3.5402674966701,367.5328077900705,38.03308358862718,17.04353832641685,70.03926551309647,-0.7425073779363942,112.9099613991941,883.8689213236963,15.288,0.0,6.094600059107584,0.111797129852574,-2.72002798325211e-07,0.0032877589442073,-0.0183013640793513,-0.0003311108342183,5.37475353410907,7.897581929916623,37.191491123901706,35.35961368225878
1.14,31.2221475752746,131.01048348167544,25.40936086756808,-0.2738105895607578,-5.322477405509445,19.54455271952329,1.942978129290774,3.533067358275781,239.69531773195544,38.24506590243259,17.149832650927024,70.04101719163947,-0.7717737697045766,112.87882572828576,893.7183949303321,15.288,0.0,6.109019622607764,0.1124206993067052,-2.823328014297775e-07,0.0033131032159698,-0.0187628985912418,-0.0003355114510475,5.329495491187104,7.869228446138445,37.410215031865455,19.95613364294901
1.15,31.22214691427288,131.01048511361634,25.769194949513096,-0.2331356937419524,-5.264402251710916,19.264277719306143,1.9736142643838304,3.5261721203828422,237.41251153546767,38.56614320367966,17.2933747965212,70.04277342111057,-0.8017776203508185,112.8469058413837,908.7559707804847,15.288,0.0,6.123357542667518,0.1133649607493394,-2.928721221753228e-07,0.0033354262914999,-0.0192300380499143,-0.0003405959766781,5.269547445778583,7.821240620165229,37.74037585185529,19.683532181336247
1.16,31.22214624832803,131.01048675603965,26.131164795661608,-0.1938001825900269,-5.223563049305846,50.08547484285492,1.9979790551917973,3.5184583032057217,490.0437743845894,38.76303639071737,17.394292903182325,70.0445320952204,-0.8325289476308558,112.81419109111836,918.0267485760616,15.288,0.0,6.137619954762812,0.1139441926225425,-3.0362134388523494e-07,0.0033546382684899,-0.0197027232709926,-0.0003442947032693,5.227146958432321,7.797684092057489,37.94365719586315,50.24864435356078
1.17,31.22214557663584,131.01048841123605,26.495924040772696,-0.1546945915547588,-5.175113525404544,9.047166591435612,2.025612581543282,3.510778766835105,153.70937929486794,39.01648919005489,17.514470646584073,70.04629083637697,-0.8640368616052719,112.78067181151351,930.038476607469,15.288,0.0,6.151825700765566,0.1146896908604977,-3.1457820773705817e-07,0.003370693056798,-0.0201824745531968,-0.0003481921957103,5.177418787931891,7.764534682417439,38.20468911484797,9.913621801004682
1.18,31.22214490026233,131.01049007618263,26.862616373390463,-0.1158980352202178,-5.116561125695271,24.461506860036025,2.057777093608297,3.503172750116342,280.02501822196746,39.348614618922674,17.661451555726675,70.04804733837061,-0.8963110697225943,112.74633768727612,945.9063377907484,15.288,0.0,6.165944215996036,0.1156664583615433,-3.2574683729653573e-07,0.0033834196117527,-0.0206672028982488,-0.0003524695867085,5.117870102149403,7.718000772079824,38.54597486387488,24.796612344183757
1.19,31.22214421873004,131.01049175223946,27.23163107127928,-0.0781667868462585,-5.081556293776934,42.5796438516595,2.080539922644369,3.4946040571384342,428.4078130529292,39.50140004652536,17.746965741561944,70.04979914597976,-0.929361549607976,112.7111781233191,953.2324645889591,15.288,0.0,6.179996079842948,0.1161160593817682,-3.37125338220807e-07,0.0033927590779581,-0.021158089169366,-0.000354802323675,5.082155879609512,7.7052140780890594,38.70423707717703,42.77343772038962
1.2,31.222143531634394,131.01049344057515,27.603302610094858,-0.0406255758202221,-5.0283718183223,4.5726965971701805,2.1112388343806088,3.4863316017451265,117.1843741360236,39.7953055684485,17.880646184394134,70.0515437436705,-0.9631971798778126,112.67518369196314,967.4355214450612,15.288,0.0,6.193966970651667,0.1169804979529438,-3.4871273347575815e-07,0.003398607297749,-0.0216558123157121,-0.000358045540749,5.028535506611178,7.66776406730434,39.00646430411096,6.12547072663769
1.21,31.22214284003728,131.0104951381619,27.9767737581338,-0.0036856533626255,-4.976592145946737,34.222202011170104,2.1417793710030044,3.477751665099412,359.92343213200894,40.080661544166304,18.011280103658383,70.05327853540012,-0.9978280763323542,112.6383436468102,981.3242316328189,15.288,0.0,6.207852394590766,0.117819814202543,-3.605131919934277e-07,0.0034008423004617,-0.0221582991615655,-0.0003608371414282,4.97659350730609,7.632915206655412,39.29992283020995,34.46507052091278
1.22,31.22214214313657,131.0104968473025,28.35270122097077,0.0327599830688609,-4.9407919772152935,24.832861555287696,2.1655095021997965,3.468502545304396,283.0687504825761,40.23796438438439,18.09802292114213,70.05500084688545,-1.0332636143826448,112.6006480314746,989.006351856235,15.288,0.0,6.221680717406144,0.1182827183733742,-3.72523163242192e-07,0.0033993733326151,-0.0226673683663423,-0.0003620837546426,4.9409003144253125,7.621715512490677,39.46282810056152,25.16725957141513
