Time,Latitude,Longitude,Altitude,Angle of Attack,Angle of Sideslip,X-Acceleration,Y-Acceleration,Z-Acceleration,Thrust,True Velocity,Ground Velocity,Pitch,Roll,Yaw,Dynamic Pressure,cp,parachute_deploy_gain,Wind Speed,Mach,omega_x,omega_y,omega_z,Cmq,Angle of Attack(total),Angle of Attack(gust),True Velocity(gust),Acceleration
0.0,31.222216000000007,131.010392,3.000000004412624,0.0,0.0,0.0,0.0,0.0,2.2828121974499247,0.0,0.0,71.99999999612658,-1.0292491154817412e-14,119.99999999354436,0.0,15.288,0.0,0.0,0.0,0.0,0.0,0.0,-0.0,0.0,90.0,0.0,0.0
0.01,31.22221599999862,131.01039200000284,3.0000009727369523,0.0,0.0,0.0,0.0,0.0,34.24218696174923,5.916279387578309e-11,5.734623670548936e-11,71.99999999613168,-5.86671995824671e-13,119.9999999935449,2.1432944861733093e-21,15.288,0.0,0.0,1.7386402909615473e-13,-3.4220131069073734e-19,7.115076756936125e-19,5.488773498207866e-19,-1.1574302492039043e-31,0.0,89.99999999962336,5.916279387578309e-11,0.0
0.02,31.22221599999738,131.01039200000537,3.0000018317022668,0.0,0.0,0.0,0.0,0.0,25.871876237766408,1.2265415415436536e-10,1.1895038237325684e-10,71.9999999961369,-1.1836364828043265e-12,119.99999999354544,9.211895886571454e-21,15.288,0.0,0.0,3.6044858651615574e-13,-6.979551485375437e-19,1.4162390878091906e-18,1.0909784360635388e-18,-4.776231873571785e-31,0.0,89.99999999921916,1.2265415415436536e-10,0.0
0.03,31.22221599921969,131.01039200159065,3.0001883335529382,18.80143492628821,-0.0001350810307892,10.931161642028636,-1.75114298675875e-05,3.026590975169265,180.34219359854663,0.0798232026864394,0.0478175828508887,71.99999999765336,-5.341802909786072e-12,119.99999999436793,0.0039016003969354,15.288,0.0,0.0,0.0002345795854893,3.788270153300133e-17,-7.771883375645477e-10,1.1422790048099072e-11,1.7057759223764537e-13,18.80143492675591,89.51882325913425,0.079801984207741,11.342422482672777
0.04,31.222215995131297,131.01039200995308,3.001692634342189,9.19442604083399,-4.49173898918486e-05,52.29595764159784,6.445392950801871e-06,3.026413589912948,548.6359724538078,0.3504174083926908,0.1601447499964056,72.00000000319055,-3.111420077280171e-11,119.99999999870242,0.0751892535633216,15.288,0.0,0.0,0.0010297854387864,2.0082066977226968e-15,-1.520937588847922e-08,2.5623342884322286e-11,1.4654248781413086e-11,9.19442604094277,87.798916624545,0.3504103527855857,52.383455068075136
0.05,31.222215983575865,131.01039203366796,3.0074067499493786,5.158590039700252,1.707592688632746e-06,76.26884281015512,5.843947534199429e-05,3.0258124765658088,761.6984298824644,0.9592973585397016,0.3772700771701255,72.0000000004862,-1.3608731808076822e-10,120.0000000109612,0.5634958029902841,15.288,0.0,0.0,0.0028191251099456,2.086299069701397e-14,-1.0551247853743037e-07,3.973493515691201e-11,2.783064866637575e-10,5.158590039700515,83.94063169874748,0.959297626767734,76.32884071402438
0.06,31.222215961742712,131.0103920785344,3.019291017943491,4.109521257467909,3.140103977270004e-05,57.06876634333886,0.0001151069734147,3.024834864051463,590.4875390737208,1.6257536642597354,0.6118982818704327,71.99999992547217,-3.5903296759057166e-10,120.00000003412836,1.6184272268450337,15.288,0.0,0.0,0.0047776672697797,1.0694899894620088e-13,-3.741090980393931e-07,5.521401959501359e-11,1.6723176417636091e-09,4.109521257587776,79.78719176344794,1.6257585967235286,57.148873286519276
0.07,31.222215929936205,131.01039214392435,3.0371334573469446,3.649087515174788,5.707077112564807e-05,86.89643797254193,0.0001728541558773,3.0234947746384675,855.2937749779139,2.3057260079826607,0.8506307413593818,71.99999965378231,-6.907496536790437e-10,120.00000006788592,3.255354923652711,15.288,0.0,0.0,0.0067759305364855,3.495199904512709e-13,-9.036515915819006e-07,7.594816279105379e-11,5.728932851326001e-09,3.6490875156204896,75.6601668283889,2.305734972638426,86.94902215090157
0.08,31.222215886364623,131.01039223353447,3.0621840248716574,3.4254446680114707,8.413075603463509e-05,17.831756866644035,0.0002285946601282,3.021841001032126,241.2171988638848,2.961944911520492,1.0819695676346892,71.99999900671328,-1.141745983122182e-09,120.00000011415082,5.371998197385977,15.288,0.0,0.0,0.0087043901031071,8.800530155962314e-13,-1.829098470920821e-06,1.0943386634701918e-10,1.4896287129277132e-08,3.4254446690434226,71.81713637501419,2.9619581267487467,18.085991154451033
0.09,31.22221583454733,131.01039234010327,3.0919888289029,3.389560809024919,0.0001118726864415,54.09031716446879,0.0002748660999733,3.020060228038602,563.0937377043176,3.504225426410036,1.2780161667917422,71.99999774508822,-1.634190085504106e-09,120.00000016921716,7.519080503822694,15.288,0.0,0.0,0.0102980157586766,1.865782139518716e-12,-3.1503298654458527e-06,1.6284478329871028e-10,3.03536411425607e-08,3.389560810868955,68.76526501308032,3.504242999330529,54.17456206384468
0.1,31.22221577423132,131.0103924641528,3.1267248829165366,3.4447939461814814,0.0001419149103147,51.372195336549765,0.0003131602029306,3.0182021883815127,538.7437595981919,3.950569597142709,1.4443465951180965,71.99999562056465,-2.1287748602259068e-09,120.00000023339832,9.55649523509932,15.288,0.0,0.0,0.0116097108366932,3.485956000178229e-12,-4.949356763187612e-06,2.4573266549165286e-10,5.3761299442583966e-08,3.444793949101151,66.34639928474206,3.9505918890846927,51.460781166288626
0.11,31.222215706113143,131.01039260424562,3.165907002780892,3.4691423802630394,0.0001702373452339,40.591037561894986,0.0003534470100582,3.016051659024047,442.8656393052949,4.421478635995476,1.6182620895289603,71.99999235067894,-2.5564479031457968e-09,120.00000030601664,11.970509656144712,15.288,0.0,0.0,0.0129935974697161,5.942887149865172e-12,-7.273722517324353e-06,3.67769289312894e-10,8.842679949465076e-08,3.4691423844348632,63.88798785789768,4.421505376815134,40.70293476011277
0.12,31.222215630588888,131.0103927595646,3.2092596514826863,3.4852659299808075,0.0001974376474727,44.30042894095728,0.000394069215595,3.013641598889868,475.58594813540446,4.896982486381051,1.793579340340896,71.99998761802138,-2.8337988279882726e-09,120.00000038673312,14.683611096353944,15.288,0.0,0.0,0.0143909889875706,9.464337642181618e-12,-1.017558359402848e-05,5.395790443954697e-10,1.3700793350599625e-07,3.4852659355662303,61.5068242157714,4.897013499814194,44.40281567867803
0.13,31.222215548046687,131.0103929293088,3.256512891171917,3.5606043721293616,0.0002276507019012,48.86766833507025,0.0004268800875964,3.0112558910133567,515.9156326236895,5.278566579338586,1.939796541405244,71.99998107389406,-2.8573058577484587e-09,120.00000047523812,17.061052093156064,15.288,0.0,0.0,0.0155123760833565,1.4300406003001044e-11,-1.3705268062305584e-05,7.724776992181392e-10,1.989112774124932e-07,3.560604379397528,59.67313531776262,5.27860233862722,48.960358155653
0.14,31.222215458587108,131.01039311327068,3.30759734332425,3.6000732663755977,0.0002555702913645,45.540290862247225,0.0004629468001456,3.0085404980032777,486.2390860568404,5.70011779273801,2.098362647205908,71.99997235012626,-2.508533681468686e-09,120.00000057154703,19.894788765881632,15.288,0.0,0.0,0.0167512184495524,2.071534240530911e-11,-1.7917736259613292e-05,1.0787346240473087e-09,2.8081526258393346e-07,3.6000732754351943,57.72385750323359,5.700157937625502,45.639559681930805
0.15,31.222215362317904,131.01039331122794,3.3624387479639086,3.651605404442164,0.0002842753491325,44.01308509501,0.0004965057129938,3.005703619811542,472.54218587214,6.091938849578711,2.2476968067377374,71.99996103728932,-1.6446954747148112e-09,120.00000067569304,22.723773683610247,15.288,0.0,0.0,0.0179026934683374,2.9002783512213203e-11,-2.287326399669318e-05,1.47199345427166e-09,3.831202693354572e-07,3.651605415492516,55.98561718911576,6.091983503446133,44.115597174664394
0.16,31.22221525912812,131.01039352340948,3.421115382839859,3.67540086436193,0.0003108411545024,34.83804992586084,0.0005330990866742,3.002517946501868,391.1218908297564,6.521183188362317,2.4085903880902046,71.99994669525161,-1.0153513453738144e-10,120.00000078796704,26.03872642002185,15.288,0.0,0.0,0.019164148528834,3.9478358970291335e-11,-2.864207894220033e-05,1.9677461746207517e-09,5.135466997084602e-07,3.6754008774883777,54.15946979122355,6.521232015176687,34.96719658394182
0.17,31.2222151493826,131.01039374906244,3.4833737923187487,3.7139589864597298,0.0003384978477213,43.96471427482637,0.0005668629535037,2.999235483723449,471.78125980632376,6.916861975403744,2.559060925010733,71.99992884100092,2.3206494032971838e-09,120.0000009081849,29.29426197817256,15.288,0.0,0.0,0.0203269651395979,5.248754693205839e-11,-3.5267097947693114e-05,2.580363454062817e-09,6.706952682968329e-07,3.713959001863866,52.549031795895466,6.916915146521327,44.06689817851128
0.18,31.22221503253009,131.01039398932429,3.549599475912623,3.7380363034619775,0.0003650282082698,36.67395661481795,0.0006021794701355,2.9956556354306425,407.10156721191447,7.332140201215607,2.71556808256092,71.99990696207136,5.837017536380516e-09,120.00000103716444,32.917216366714264,15.288,0.0,0.0,0.0215473823438242,6.839750892601699e-11,-4.285557247677198e-05,3.331016495775474e-09,8.639362741436378e-07,3.738036321259578,50.93050624815799,7.332197539712479,36.796100973258795
0.19,31.22221490871209,131.01039424390297,3.619694897703461,3.747799769666444,0.0003901520189829,41.42208371271829,0.0006393759928961,2.991742733214697,448.9531328318269,7.771071983754382,2.879366399937307,71.99988049019642,1.0709144790974043e-08,120.00000117502664,36.97605053227239,15.288,0.0,0.0,0.0228373144884866,8.761416506509219e-11,-5.146771415177372e-05,4.238406957677133e-09,1.0996552116864756e-06,3.747799789945131,49.29705748437159,7.771133268690212,41.529983675580546
0.2,31.22221477769685,131.01039451327668,3.693822889232993,3.7700519460961166,0.0004166800650969,37.99697972290605,0.0006740224661302,2.987733789228414,418.51563019916136,8.179966026035371,3.0338260708461373,71.99984881140107,1.723179577184912e-08,120.0000013223286,40.969302182777255,15.288,0.0,0.0,0.024038975990988,1.1057590044953188e-10,-6.120032215177249e-05,5.3263847350253015e-09,1.376394225587184e-06,3.7700519690893857,47.8457752505109,8.180031477986942,38.11426270718793
0.21,31.222214639876928,131.01039479663547,3.771710975053407,3.7926098867321474,0.0004432924407074,36.46301043881366,0.0007080907240332,2.983530483977461,404.8187610144644,8.582757448615462,3.1863584283669346,71.99981127559042,2.5745201416596626e-08,120.00000147900325,45.103059028532826,15.288,0.0,0.0,0.0252227064089584,1.3774582723633048e-10,-7.20875523136271e-05,6.61341033873124e-09,1.7010673350603349e-06,3.792609912601061,46.47936953648762,8.582827080829217,36.584868250565684
0.22,31.22221449507626,131.01039509434258,3.8534832466471007,3.782921298925821,0.0004660920499522,44.14577847155813,0.0007479176313898,2.978724032883548,472.5421858721365,9.056569122268344,3.360845972992861,71.99976720416048,3.661811567390422e-08,120.00000164562512,50.21995530074818,15.288,0.0,0.0,0.0266151520780326,1.6960703048385348e-10,-8.421592474264931e-05,8.124635526119773e-09,2.0969540034515424e-06,3.7829213275976334,44.9464484092354,9.056642335836344,44.24615863872642
0.23,31.22221434283448,131.01039540734791,3.9394622486964206,3.813874679301352,0.0004940771488601,36.66675459308932,0.000779455230549,2.974212905336642,406.3406421461021,9.430647902846331,3.5044030163419806,71.99971583979395,5.0272885112871524e-08,120.00000182313076,54.45382429059888,15.288,0.0,0.0,0.0277145095638672,2.0669790509245914e-10,-9.77285871729516e-05,9.894576563683824e-09,2.5339062472561444e-06,3.813874711257219,43.79476959007253,9.430725512303388,36.78718303164376
0.24,31.222214184153326,131.01039573358457,4.028950821673608,3.829256049377765,0.0005200487408944,37.802126339316736,0.0008136255607606,2.9692962675112065,416.2328240017114,9.837806876534357,3.658163422426286,71.9996564062533,6.718950080713476e-08,120.0000020109434,59.25679777340223,15.288,0.0,0.0,0.0289110855155543,2.4956955046738006e-10,-0.0001125744417092,1.1934277804843484e-08,3.0448209172448607e-06,3.829256084638984,42.59361542722471,9.83788856559955,37.91856374864305
0.25,31.22221401888584,131.01039607335582,4.122052964664892,3.851417709838087,0.0005469594058717,38.85163035360012,0.0008459008130282,2.964283881833675,425.36408079150686,10.22297576958679,3.8050691648373967,71.99958811418384,8.786880969336211e-08,120.00000220974424,63.98709205399403,15.288,0.0,0.0,0.0300430411774988,2.987811646313829e-10,-0.0001288461362054,1.4273117985167728e-08,3.621333387698252e-06,3.8514177486178034,41.50703126619192,10.223061685769354,38.96455005232871
0.26,31.222213847358866,131.0103964259872,4.218542267117083,3.8780574625554745,0.0005745172425185,42.3164797140743,0.0008766626387865,2.959162938653076,455.8015834241788,10.590779679138215,3.946551912391076,71.99951013710364,1.1286401474734325e-07,120.00000241975916,68.67355887153568,15.288,0.0,0.0,0.0311239685467471,3.5491769188178554e-10,-0.0001465721578858,1.6932703957058654e-08,4.267712643344226e-06,3.8780575050466,40.51245375834074,10.590869924095635,42.41981967733593
0.27,31.22221366913008,131.0103967923915,4.318728802515264,3.886188503202341,0.0005994342651313,38.70936050721014,0.0009111181036949,2.953518013741325,423.84219965987256,11.004860953238978,4.102320296019413,71.99942161756776,1.4276417094868828e-07,120.0000026420792,74.14786134434608,15.288,0.0,0.0,0.0323408987462391,4.1858405402174807e-10,-0.0001658847815307,1.995072923688136e-08,5.018832267232506e-06,3.886188549362022,39.43841359495857,11.00495511215316,38.8218734782956
0.28,31.22221348431185,131.01039717233687,4.422535913956003,3.90556090261878,0.0006261175699806,44.68030766832924,0.0009425767186621,2.947879457547137,476.3468732012221,11.38358114165448,4.247086834352694,71.999321619057,1.7823531611327881e-07,120.000002877279,79.33831935330025,15.288,0.0,0.0,0.033453914386159,4.904408325040897e-10,-0.0001868529238516,2.3357766479368094e-08,5.847713054408178e-06,3.9055609527288775,38.49894431917428,11.383679491972384,44.77744842575601
0.29,31.222213292835256,131.0103975659655,4.530013412817602,3.9242599519377537,0.0006528240665589,35.802573724660256,0.0009737210635801,2.942037024315898,397.97031042211177,11.759725774384751,4.391004157029451,71.99920917567837,2.1999186079018322e-07,120.00000312617878,84.66717879828003,15.288,0.0,0.0,0.0345593650464213,5.711677680739745e-10,-0.0002095620322847,2.7188189988316943e-08,6.77505090435382e-06,3.9242600061534456,37.60352534239979,11.759828319749328,35.92324968749781
0.3,31.222213095024976,131.0103979726075,4.64093665799555,3.936939025755682,0.0006785438093183,33.570228713727204,0.0010059102294455,2.93586442972183,378.1859457108711,12.149968255527943,4.539237002744259,71.99908328532703,2.6880857935396905e-07,120.00000338923812,90.3787563598417,15.288,0.0,0.0,0.0357062504417728,6.614698865958865e-10,-0.0002340353597042,3.1467140861055e-08,7.817263716758327e-06,3.9369390841381695,36.71173884615234,12.150074840940263,33.698361337808635
0.31,31.22221289105846,131.01039839189684,4.755183729044857,3.9598342215431432,0.0007060286581592,35.396825578217346,0.0010350810412898,2.9297385597941448,394.1656220930212,12.504537499407316,4.6763673222047455,71.99894291513503,3.255120771695107e-07,120.00000366712923,95.72967338626896,15.288,0.0,0.0,0.0367483036680869,7.620720834468404e-10,-0.0002603234137215,3.622454560346964e-08,8.948994505138873e-06,3.9598342843844345,35.934338386209795,12.504648402129598,35.5178635353378
0.32,31.222212681031937,131.01039882363492,4.872689374180126,3.985461429033668,0.0007340760463279,38.52097867048992,0.0010630242168685,2.9235095146848846,421.55939346242695,12.84534566718622,4.809181081594425,71.99878701464397,3.909756427278764e-07,120.0000039606604,101.01782231644016,15.288,0.0,0.0,0.0377499198995686,8.737098716736534e-10,-0.0002884807530145,4.1491545539590986e-08,1.0187112828155184e-05,3.98546149652875,35.21473736963424,12.845460975581933,38.631757748577954
0.33,31.22221246496604,131.01039926777932,4.9934410812554,4.010606629086,0.0007621365968788,38.18822026147908,0.0010905599149574,2.917102431053817,418.5156301991682,13.18247167592885,4.940798912752974,71.99861449732019,4.661299779655886e-07,120.000004270781,106.38859400029033,15.288,0.0,0.0,0.0387407190563976,9.971421990244511e-10,-0.0003185760672934,4.7302669734505256e-08,1.154498667827874e-05,4.010606701382261,34.52805863348922,13.182591392065536,38.299473293007864
0.34,31.222212242662028,131.01039972474007,5.117579377337869,4.019339771238816,0.0007871574969313,29.898022638335373,0.0011220389395318,2.910051232417875,345.46563688075645,13.569536737955724,5.0878303926024735,71.99842423285973,5.519675040347761e-07,120.0000045987411,112.72655675097128,15.288,0.0,0.0,0.0398782837956187,1.1331556132162459e-09,-0.0003507224668667,5.37022358302301e-08,1.308298593306914e-05,4.019339848191799,33.76700548046532,13.5696603843662,30.039310197084795
0.35,31.22221201433324,131.01040019407705,5.2449575244483055,4.033762873683395,0.000813261106463,32.76415525156106,0.0011515840876071,2.902959820469776,370.5765700527033,13.934300103976534,5.227895396154902,71.99821502296155,6.495674834876441e-07,120.000004945438,118.8669740701126,15.288,0.0,0.0,0.040950312688979,1.2825853697215452e-09,-0.0003849609961885,6.072234695821837e-08,1.4746020857580124e-05,4.033762955530055,33.07785186209504,13.934427850732408,32.89250745069162
0.36,31.22221177990305,131.01040067594835,5.375631006350063,4.051723629010647,0.0008401329464575,37.01692984301412,0.0011797030485285,2.8957873473716007,407.8625232777193,14.282998147928636,5.362923567977223,71.9979856440668,7.600645476620651e-07,120.00000531213882,124.88900300695136,15.288,0.0,0.0,0.0419751331662584,1.4462801652534363e-09,-0.0004213876232777,6.84067806399068e-08,1.654507199147348e-05,4.051723715967022,32.44322602189087,14.283130115703262,37.13002398000203
0.37,31.222211539445663,131.01040117020102,5.509550188388412,4.071639898917391,0.0008674922629137,35.12417761390579,0.0012067983861697,2.88849906286036,391.1218908297666,14.620581431527652,5.494447309446232,71.99773482653193,8.846681943540367e-07,120.00000570002652,130.86067091914967,15.288,0.0,0.0,0.0429672939311924,1.6251202388969355e-09,-0.0004600660652957,7.679415042686734e-08,1.849041957573993e-05,4.071639991174516,31.85023865502424,14.620717696893658,35.24274792557624
0.38,31.222211292895075,131.01040167697127,5.646763233102716,4.08264881385344,0.0008930259828975,36.695642158537446,0.0012360471443664,2.880711738179021,404.8187610144602,14.986392916850402,5.634654729559426,71.99746126698146,1.0246533537040716e-06,120.0000061105033,137.4891296153862,15.288,0.0,0.0,0.0440424171304414,1.8200057922063743e-09,-0.0005010869196581,8.592980519823866e-08,2.0642694281337543e-05,4.082648911356968,31.228847973200924,14.986533193043764,36.808540518115166
0.39,31.22221104018777,131.0104021963902,5.787316652586672,4.096641430700089,0.0009192713382325,31.335681548387896,0.0012640110027448,2.872831219844713,357.64062493382744,15.337978856701952,5.770390286512262,71.99716358743511,1.1813915463769678e-06,120.00000654506955,144.01394309468844,15.288,0.0,0.0,0.0450757388736732,2.031886352449547e-09,-0.00054455673306,9.586443829735616e-08,2.295945663566148e-05,4.096641533664766,30.65298398882095,15.338123255506089,31.4670954954126
0.4,31.222210781536543,131.01040272801887,5.931064331106764,4.109028969993624,0.0009451871856381,29.95928076777898,0.0012920492774571,2.8646905607053603,345.465636880754,15.692185018814769,5.906873567965718,71.99684037970908,1.3563276523471372e-06,120.00000700500496,150.74021066990193,15.288,0.0,0.0,0.0461167659598875,2.2617341782092324e-09,-0.0005905037520737,1.0663253249436129e-07,2.5471259834659164e-05,4.1090290785164525,30.09246700352443,15.692333488470696,30.095929256306363
0.41,31.222210517064383,131.01040327160345,6.077922766619747,4.122888296344507,0.0009714525997821,33.78425365340317,0.0013192264430821,2.85640971467756,378.94687077668647,16.03742529732769,6.0405139809190125,71.99649020751959,1.5509747261474075e-06,120.0000074917568,157.44375780268788,15.288,0.0,0.0,0.0471314487675864,2.5105374204052982e-09,-0.0006389770219162,1.1827345344180344e-07,2.816813594418537e-05,4.122888410595805,29.56469007160549,16.037577892745222,33.904791300285986
0.42,31.22221024682894,131.0104038270252,6.227854084363214,4.14444025865494,0.0009995884754813,38.04468161607466,0.0013435485656724,2.8482703202464488,416.2328240017114,16.348862540904037,6.163613566771559,71.99611159893284,1.766920641656551e-06,120.00000800692096,163.6157044470786,15.288,0.0,0.0,0.0480467946810589,2.779304965995011e-09,-0.0006900467934588,1.308321832549104e-07,3.100973487310896e-05,4.144440378988911,29.104646754454564,16.34901955589459,38.15115260238947
0.43,31.222209970843565,131.0104043942566,6.380851271439565,4.1618082623168045,0.0010268052928652,33.45815353250911,0.0013687230309017,2.8397750580998298,375.9031395134336,16.67263197205097,6.290467308135904,71.99570306121484,2.005818691215035e-06,120.00000855220898,170.15779512382937,15.288,0.0,0.0,0.0489983878509763,3.0690566816849196e-09,-0.0007437862329608,1.443552931671376e-07,3.4086145072160934e-05,4.161808388761201,28.640125213458976,16.672793262249197,33.57845085853367
0.44,31.22220968892116,131.01040497368373,6.537047157143216,4.164954087655709,0.0010505545842624,30.86574023822051,0.0013980747538988,2.830419582421933,353.0750125389216,17.050421620730056,6.433992917638883,71.99526304125902,2.269416145406482e-06,120.00000912964636,177.9537948947602,15.288,0.0,0.0,0.050108743779844,3.380847125286677e-09,-0.0008003278134917,1.589055036683518e-07,3.750784460406397e-05,4.164954219916419,28.113519280259386,17.050586641458253,30.99524475496968
0.45,31.22220940081287,131.01040556582012,6.696617751072218,4.165241899529329,0.0010735835484822,35.912216710755274,0.0014280646808282,2.820677244966047,397.2093853562869,17.438293672974723,6.580571293039616,71.99478987454265,2.5595995397253085e-06,120.00000974147088,186.13940823302417,15.288,0.0,0.0,0.0512487363629523,3.7158016249566814e-09,-0.000859850913876,1.745604864109677e-07,4.121350642664912e-05,4.1652420376426775,27.591357195572936,17.43846231108416,36.02281959036367
0.46,31.222209106468902,131.0104061707686,6.859600379555308,4.174585124444534,0.0010989881252456,41.916816790010685,0.0014546917035209,2.811153314474766,449.7140588976434,17.786187321601275,6.714685486378061,71.99428180697711,2.8783880229668832e-06,120.0000103898448,193.6374175079873,15.288,0.0,0.0,0.0522712438446989,4.0751091178509895e-09,-0.0009224765531151,1.9138630415982226e-07,4.50966024037632e-05,4.1745852688465686,27.13985967570823,17.786359950252297,42.01097612387663
0.47,31.22220880579083,131.01040678873238,7.026066274755745,4.1823089530633855,0.0011240727220223,28.37640408484148,0.0014814747534716,2.801325368441072,331.0078106302534,18.138167428286582,6.849989708801916,71.99373704967608,3.2278903746588286e-06,120.00001107707628,201.37401505997488,15.288,0.0,0.0,0.0533057667609836,4.459978104761035e-09,-0.0009883252835099,2.094509673354327e-07,4.927107017839778e-05,4.182309103852639,26.69716826759888,18.13834399721685,28.514342615617974
0.48,31.222208499300592,131.0104074186346,7.195654207463586,4.189479568102716,0.0011490100608361,27.95074823096412,0.0015080719422187,2.7912412472910484,327.2031223011574,18.48995085190441,6.98515976370584,71.99315377257649,3.6103201777021456e-06,120.00001180491516,209.25751230436188,15.288,0.0,0.0,0.0543397174489847,4.8716620260348906e-09,-0.0010573190976925,2.2877013380347535e-07,5.373205427420879e-05,4.189479725385959,26.268461765425428,18.4901313379827,28.089773168283216
0.49,31.222208187201936,131.01040806005494,7.368224738812109,4.202723284133339,0.001175611380853,35.08821363242469,0.0015321405723077,2.781292092003844,389.60000969812296,18.812014261754847,7.111044804193205,71.99253015042137,4.027946338669921e-06,120.0000125755114,216.60722913930897,15.288,0.0,0.0,0.0552863302793499,5.311396446020465e-09,-0.0011294854492155,2.4938633613154685e-07,5.8398320167141767e-05,4.202723448262914,25.88860807032205,18.81219892635871,35.1982716047702
0.5,31.22220786953184,131.01040871291724,7.5437546994244835,4.220815778795054,0.0012036252596423,36.05491615971072,0.0015540388599792,2.7714444106710974,397.97031042210494,19.10875420627192,7.229005658018125,71.99186435180009,4.483102820610566e-06,120.00001339126192,223.4908652241728,15.288,0.0,0.0,0.0561585257949344,5.7804122391526605e-09,-0.0012048912160576,2.713531252030471e-07,6.327866493526626e-05,4.220815950099865,25.54902500917784,19.108943271285572,36.161276053538906
0.51,31.222207546379583,131.0104093770373,7.722184419225251,4.232567510615346,0.0012298790840397,27.54004661432325,0.0015777580800203,2.761017323676155,323.3984349720841,19.430597746636646,7.354673636736509,71.99115452520388,4.978202222778502e-06,120.00001425458936,231.07869697977367,15.288,0.0,0.0,0.0571045034845869,6.2799518101633574e-09,-0.0012835871653678,2.947201005874635e-07,6.854585242460463e-05,4.232567688976395,25.189423168613605,19.430790935591396,27.678103017910345
0.52,31.22220721785875,131.01041005230087,7.903538548035392,16.348705451784976,-0.0008718905102452,33.3967480729203,0.0012266918199778,1.833153377116728,372.0984511843415,22.159450865550355,7.477477839534344,71.99036758779839,3.3161654425114275e-05,120.0000442381956,300.537045711374,15.288,0.0,5.028582313702171,0.0651244518812251,6.841018335515693e-09,-0.0015635613784147,2.644715205832583e-05,9.522171963153118e-05,16.34870547439989,27.24667188103893,22.159313909309272,33.44702131214248
0.53,31.22220688404916,131.0104107384886,8.087963871328492,16.198251132356347,-0.0008285687054081,35.063521263350964,0.0012476836736839,1.7995779111682115,386.5562464348624,22.490691767527338,7.59659397085317,71.98937049137555,7.974953021090624e-05,120.00009357986222,309.58361106512893,15.288,0.0,5.047933067759248,0.0660980739077661,7.556925481993997e-09,-0.0019608716172634,2.6426055516428047e-05,0.000121201048022,16.198251152980102,26.928461033074637,22.49056161625945,35.109671112110185
0.54,31.222206544851502,131.0104114357566,8.275537616790995,16.05255802416299,-0.0007860373419886,30.80992766703705,0.0012684391705704,1.76550632995796,349.2703242098436,22.820136962093663,7.714875971646797,71.98814282802516,0.000126294027124,120.00014288147204,318.71390064458905,15.288,0.0,5.06724415584898,0.0670664249379793,8.436873752384664e-09,-0.002369623674596,2.640548446298801e-05,0.0001486086900203,16.052558042901538,26.619938420781374,22.820013491636715,30.860470784777647
0.55,31.222206200571254,131.01041214347487,8.46605488894321,15.915284086807024,-0.0007444667986773,32.65092315323526,0.0012886176943441,1.7312765888793038,365.2500005919907,23.142198094613963,7.830544713546611,71.98667811739068,0.000172794350747,120.00019214181324,327.76741874254685,15.288,0.0,5.086491584837971,0.0680130811541842,9.48506651646003e-09,-0.0027894848048797,2.638551395435296e-05,0.0001774055658211,15.915284103768776,26.326603670101743,23.14208115404269,32.696790408940934
0.56,31.22220585121868,131.01041286162268,8.659516395907131,15.788891795012216,-0.0007039103442148,30.48470147513557,0.0013079561745713,1.6971649598555232,346.2265619465787,23.45257172445177,7.942222857992141,71.98496993114497,0.000219249750734,120.00024136003633,336.6118846148567,15.288,0.0,5.105673935676057,0.068925395013732,1.0705624230413956e-08,-0.0032206601673438,2.636619141018672e-05,0.000207570648122,15.78889181030411,26.05212643277321,23.45246115447346,30.531907811989793
0.57,31.222205496879862,131.01041359002275,8.855869874911802,15.659752130498216,-0.0006637431154706,30.14750331613481,0.0013276259635086,1.6620065913871611,343.1828296833023,23.77043617212881,8.05608296585546,71.98301180549858,0.000265659511073,120.0002905352444,345.791738447084,15.288,0.0,5.124781818874552,0.0698597301493714,1.2102672892072032e-08,-0.0036631786074751,2.6347573573070818e-05,0.0002392861836965,15.659752144212671,25.775931984409446,23.770331911604043,30.19328110472203
0.58,31.22220513754068,131.0104143287045,9.055132870124831,15.519278987318287,-0.000623642647513,39.662598032479295,0.0013484321156301,1.624933180122469,426.1250058573153,24.109123235956776,8.17640213424947,71.98079718918801,0.0003120229408719,120.00033966667309,355.7089851144097,15.288,0.0,5.143814377959252,0.0708552681691047,1.3680365388276728e-08,-0.0041172598625418,2.6329709418417448e-05,0.0002727744972125,15.519278999540903,25.48504839025419,24.109025274398785,39.69586996583099
0.59,31.222204772783886,131.01041507852926,9.257604083777034,15.3993901496002,-0.0005848208037771,32.176255949677945,0.0013674357949135,1.58893105813366,360.68438819711065,24.420470991587862,8.287695546752985,71.9783190964285,0.0003583472772686,120.00038876491332,364.9485393575226,15.288,0.0,5.162800137355128,0.0717704644937616,1.5443063296320006e-08,-0.0045839722852756,2.6312616518972404e-05,0.0003076108459317,15.39939016043634,25.22749832784824,24.420379128150824,32.215464465324224
0.6,31.22220440284305,131.0104158390153,9.463128737977112,15.257494751283248,-0.0005456810836205,28.611495922259383,0.001388604082024,1.549866120700612,329.4859594986058,24.76983104015129,8.410950063625151,71.975570544616,0.0004046159400641,120.00043780704756,375.4577520835188,15.288,0.0,5.181720339133296,0.0727973838682052,1.739523791814858e-08,-0.0050630632943944,2.629637048595548e-05,0.0003446144270183,15.257494760809587,24.939104523723376,24.769745324767115,28.653442826818946
0.61,31.22220402767607,131.01041661025005,9.671744202973166,15.114887571483337,-0.0005070584242944,33.509851357620505,0.0014099828146635,1.5097087933938464,372.0984511843297,25.12516962185023,8.535878173693073,71.97254424552354,0.0004508362203624,120.00048680331568,386.2996300387621,15.288,0.0,5.200577473530262,0.0738418812519447,1.9541444277340162e-08,-0.0055548546973709,2.6281024686496887e-05,0.0003835041429066,15.114887579790262,24.65190241965587,25.1250899732992,33.543842365458424
0.62,31.22220364741288,131.01041739196566,9.88336807275253,15.01281508476752,-0.000470231350521,41.640506643342256,0.0014274563375198,1.4729255511701276,442.86563930529206,25.4182797051108,8.640627831852738,71.96923272890088,0.0004970155361034,120.00053576393864,395.35730797443057,15.288,0.0,5.219370816784772,0.0747034985580714,2.1886352696617043e-08,-0.0060594115860999,2.6266643587788547e-05,0.0004232102097622,15.012815091962509,24.427935481124905,25.418205841342985,41.666548995941
0.63,31.222203261868376,131.01041818454445,10.098136836940869,14.901312076536504,-0.0004334995283052,23.66590673406568,0.001445870447987,1.4343291964893683,286.11251274707894,25.729413883053446,8.750925167089939,71.9656288348082,0.0005431372112939,120.00058466627172,405.0869866178892,15.288,0.0,5.2380864518424834,0.0756180950169202,2.4434412390101905e-08,-0.0065772529795101,2.625327840768045e-05,0.0004649914975729,14.90131208269922,24.19196503577255,25.729345789106773,23.709332421642294
0.64,31.22220287166612,131.01041898670016,10.315624027626372,14.773602474224084,-0.0003967998190403,23.23810381077612,0.0014659895443442,1.3930026231152557,282.30782441796754,26.07138758789873,8.870894456403734,71.96172513721727,0.0005892169954257,120.00063353143828,415.9180112404962,15.288,0.0,5.256732846093991,0.0766233350652487,2.7190284948024092e-08,-0.0071072712802131,2.62410304279994e-05,0.000509129827523,14.773602479434214,23.9337029039712,26.07132525872891,23.279818022861324
0.65,31.22220247679392,131.0104197984583,10.535845566302172,14.675573253402792,-0.0003613428440241,40.98479934887967,0.001483060811241,1.3542597209781984,436.7781447787475,26.36503967286601,8.975192724574873,71.95751448184653,0.0006352379841093,120.00068233625365,425.33107131057983,15.288,0.0,5.2752569032935,0.0774865657247005,3.015838228682331e-08,-0.0076497828634845,2.622995440362248e-05,0.0005541532130199,14.675573257753571,23.722217416752795,26.3649829132648,41.007167657121364
0.66,31.22220207672741,131.01042062090107,10.759173569494529,14.572763302264276,-0.0003261276876717,34.88042358715233,0.0015006107523402,1.314134209840374,383.51251517160017,26.66928288087984,9.082656224220894,71.95298944316465,0.0006812159895425,120.0007311031356,435.194716291015,15.288,0.0,5.29372739572436,0.0783809306939744,3.3343064564472606e-08,-0.0082060982209344,2.622008432263728e-05,0.0006012997920436,14.5727633058345,23.50555405279868,26.66923165286245,34.905170112642026
0.67,31.222201671669136,131.0104214536108,10.985474668674568,14.455915758692653,-0.0002910196631771,24.05100542359041,0.0015196713739237,1.2713746853301295,289.1562440103425,27.001538304011262,9.198869081996037,71.9481422548306,0.0007271422763979,120.00077981990336,446.0961904268904,15.288,0.0,5.312136414407691,0.0793576308435566,3.6749137741340025e-08,-0.0087760015410513,2.6211498281916654e-05,0.0006510566287924,14.455915761559554,23.269787988729544,27.001492590749468,24.084585480872924
0.68,31.222201261803807,131.01042229620697,11.214627926431207,14.345363409316333,-0.0002564837158513,30.00718863714715,0.0015380603201054,1.228482728679115,340.8999924858462,27.325282555064017,9.312159148428128,71.94296507686441,0.0007730172526532,120.00082848697076,456.8475146632505,15.288,0.0,5.330425162562659,0.0803093241317181,4.0381397401558653e-08,-0.0093593606360366,2.6204270805329087e-05,0.0007026432101179,14.345363411561069,23.045516812493343,27.325242266696144,30.032324953050594
0.69,31.222200847222144,131.01042314850264,11.446577531600392,14.251583618667462,-0.0002226425544283,36.92903339164384,0.0015545705270925,1.1869373433104322,401.0140726853634,27.620171302333222,9.416017516244922,71.93745012456716,0.0008188403798224,120.00087710352798,466.7507301367351,15.288,0.0,5.348644433072993,0.0811762180206369,4.42445566102345e-08,-0.0099561840155941,2.619847282163137e-05,0.0007554985234776,14.251583620370532,22.84830075596899,27.62013632972256,36.94810319779326
0.7,31.22220042778713,131.01042401078067,11.68142568289928,14.1582149635688,-0.0001891574125652,30.990510940400807,0.0015709763908806,1.1446345550722148,349.27032420985284,27.91609075183917,9.52000222325196,71.93158964178795,0.0008646111490104,120.00092566903136,476.7949854383693,15.288,0.0,5.366795982586011,0.0820461483918247,4.834319816622283e-08,-0.0105669982499934,2.6194167816584875e-05,0.0008104211751651,14.158214964806568,22.65354988943427,27.916061039062285,31.011642315100538
0.71,31.222200003561465,131.0104248829122,11.91913583971116,14.056148161198704,-0.0001559310005034,25.486297367559608,0.0015883187278169,1.1002632014057143,301.33126406340574,28.2307189193151,9.629780947330104,71.92537562386717,0.0009103372569364,120.00097419401764,487.5918506874652,15.288,0.0,5.384825062286399,0.0829710716279858,5.2682092311393225e-08,-0.0111918635549815,2.6191429629994948e-05,0.000867998498992,14.056148162046162,22.44767784158304,28.230694425730817,25.51003596906127
0.72,31.2221995745534,131.0104257648804,12.159709306850363,13.943673224797264,-0.0001230029423018,31.18727634812353,0.0016068546473583,1.0534010685329307,350.79220534145287,28.56867146589005,9.746820779474987,71.91880000169424,0.0009560025516141,120.00102265619849,499.32420472478327,15.288,0.0,5.402784844127721,0.0839645538889695,5.7266064549776064e-08,-0.0118310257705872,2.6190330767833328e-05,0.0009285323547874,13.943673225329032,22.228015322590903,28.56865214463305,31.205061486999085
0.73,31.22219914076589,131.01042665667956,12.403151243402794,13.859866675992883,-9.06925977447636e-05,39.43139367776824,0.0016219541391939,1.0099074407217292,422.320318528234,28.8512893662022,9.84596849325226,71.91185424781777,0.0010016227563516,120.00107107721088,509.2403755789577,15.288,0.0,5.420678758092008,0.084795412941467,6.210011771250476e-08,-0.0124847881842747,2.619094543567651e-05,0.0009895115060786,13.859866676283788,22.053025637344383,28.85127512024226,39.44432434509053
0.74,31.22219870213748,131.01042755843673,12.649510948726512,13.768040522162003,-5.864866097990204e-05,24.724278361973862,0.0016379108315445,0.964376715406467,294.48281347105944,29.151580225906727,9.950576979235075,71.9045301542463,0.0010471903719522,120.00111944672652,519.8838247197257,15.288,0.0,5.438470737424181,0.0856782212518385,6.718906328000348e-08,-0.0131534420000994,2.6193350750604367e-05,0.0010533329858759,13.768040522284492,21.86780559556663,29.1515710133966,24.743079146548013
0.75,31.222198259055087,131.01042846935394,12.898526688891408,13.671478069595963,-2.695939294242835e-05,28.852105383438428,0.0016543666534151,0.9171980077047736,330.24688556441487,29.463542664276268,10.058747624643887,71.89681937034858,0.0010927049720505,120.00116776366174,531.0576217018485,15.288,0.0,5.456160122396888,0.0865953406216784,7.253797818276604e-08,-0.0138362421654697,2.619762959540714e-05,0.0011198423893513,13.671478069622053,21.677215958815637,29.463538429504727,28.86668044613553
0.76,31.222197811406268,131.0104293896636,13.150282989184452,13.585343028704589,4.359499945391762e-06,31.053422030620247,0.0016694469012524,0.8708376972669839,349.27032420986166,29.75516681710217,10.16023642946047,71.88871354923234,0.0011381661594475,120.0012160274901,541.609153771248,15.288,0.0,5.473770924220901,0.0874526920874157,7.815162925008493e-08,-0.0145337483676497,2.6203857120280234e-05,0.0011879093752306,13.585343028705257,21.50386125804917,29.75516750189082,31.065630218842255
0.77,31.22219735913468,131.01043031948203,13.404825273739842,13.502308632526155,3.5366344728293986e-05,29.046493703353267,0.0016840196892714,0.8241608466934162,331.7687666960708,30.041333111191143,10.259800374869045,71.88020421528383,0.0011835735780681,120.0012642376618,552.0634599212532,15.288,0.0,5.491304952818065,0.0882940100931634,8.403487259100859e-08,-0.015246338010855,2.6212113312092107e-05,0.0012581065187622,13.502308632571625,21.33675179245086,30.041338666523583,29.058183707797117
0.78,31.22219690231347,131.01043125865874,13.662109096416224,13.411773486619245,6.602768830811025e-05,23.880446358311108,0.0016994188969057,0.7753359256417972,286.8734378128899,30.34509277563465,10.364824873813898,71.87128275161278,0.0012289388570056,120.00131241000112,563.2702447491037,15.288,0.0,5.50872326841321,0.0891870442373459,9.019268638851321e-08,-0.0159740023016658,2.622248013281212e-05,0.0013314478163079,13.411773486778795,21.160091729769416,30.34510314723968,23.89302967306134
0.79,31.222196441040804,131.01043220699142,13.922072741761168,13.317424766090928,9.631396473811596e-05,33.89179457760093,0.0017152056950222,0.7248836652981258,373.6203323159534,30.659065996750343,10.4729545230458,71.86194051243113,0.0012742517669573,120.00136053013377,574.9722291319372,15.288,0.0,5.526048350374952,0.090110104969457,9.66301088620538e-08,-0.0167167213091769,2.623503942148712e-05,0.0014077356784205,13.31742476643292,20.979323156635456,30.659081125712547,33.8995457043372
0.8,31.2221959750856,131.0104331649571,14.184882377084945,13.23959331633616,0.0001264090050984,34.341307048495246,0.0017287072652981,0.6765616665646889,377.42502064505743,30.93700904282621,10.569381384302062,71.85216855567936,0.0013195090268775,120.00140859360152,585.4296524012921,15.288,0.0,5.543302287140681,0.0909272773868132,1.0335205071116301e-07,-0.0174754456331838,2.6249881111020712e-05,0.0014849325180083,13.239593316928849,20.8247217053919,30.9370288991063,34.3479709513695
0.81,31.222195504561025,131.0104341323226,14.450465632443924,13.152432581999255,0.0001561178792589,22.41137211254639,0.0017432901671517,0.6256212586269994,273.9374926939919,31.237372540656352,10.672815211287928,71.84195788882121,0.0013647159561462,120.0014566074187,596.8373382434047,15.288,0.0,5.560476174405266,0.0918103538968618,1.1036371594991997e-07,-0.0182500122079585,2.626709192124681e-05,0.0015657654794339,13.15243258290947,20.65772202569376,31.23739706359548,22.420102697475063
0.82,31.222195029672008,131.01043510866535,14.718686755161404,13.06190368217634,0.0001854471643004,28.742101578653354,0.001758192252781,0.5730671246264318,328.72500443277005,31.54706645280587,10.779085438270137,71.83129942986703,0.0014098833466616,120.00150458603768,608.7146654990094,15.288,0.0,5.577558211673433,0.0927208617392799,1.1767037951308001e-07,-0.0190400856524476,2.628675483943741e-05,0.0016497029427253,13.061903683469913,20.487195500674705,31.54709558277832,28.747814041735335
0.83,31.22219455040452,131.0104360940146,14.989561337739632,12.990695153592128,0.0002147462220742,36.48184541980403,0.0017703057934258,0.5235147162864114,395.68750322465047,31.811693664485727,10.870782767117657,71.82018413716804,0.001454991855926,120.00155250252156,618.9535950479593,15.288,0.0,5.5945268533150685,0.0934989206970232,1.2527712234281386e-07,-0.0198460149187156,2.630896048009223e-05,0.0017339105073252,12.990695155336567,20.34693163911132,31.81172739674341,36.485601489171415
0.84,31.222194066648285,131.01043708859808,15.263170838748636,12.916283088389251,0.0002437399678472,22.608655229175287,0.0017826595530344,0.472526577816242,275.4593748256452,32.084292013996226,10.964873864375145,71.80860289018857,0.0015000597974352,120.00160038200109,629.5902814778809,15.288,0.0,5.611414720875858,0.0943004156577104,1.331888972251597e-07,-0.0206682709053099,2.633380509503888e-05,0.0018211753662233,12.916283090649952,20.20331713380867,32.084330300580845,22.61359272243871
0.85,31.22219357872253,131.01043809175744,15.539300283224565,12.827326518016545,0.0002721497757259,24.637465893900806,0.0017968592430225,0.4175663824959157,292.96093233939376,32.39333046256228,11.07050436785817,71.79654668419762,0.001545076586994,120.001648209216,641.7602013734613,15.288,0.0,5.628208215577056,0.095209021373545,1.414110612513632e-07,-0.0215060901374536,2.6361364450365788e-05,0.0019132014789475,12.827326520855186,20.03946407406078,32.393373211749086,24.641004252781972
0.86,31.222193086443816,131.01043910387142,15.8180816412934,12.750196859793768,0.0003005014272691,30.799800693086645,0.0018092215994394,0.3642351705215402,346.2265619465587,32.67400015133831,11.166905931836425,71.78400610977576,0.0015900467780774,120.00169599033109,652.9118694082416,15.288,0.0,5.644918782913788,0.0960342551814419,1.499485719759363e-07,-0.0223603598361986,2.639174449855522e-05,0.0020063796398874,12.75019686327629,19.894578815282077,32.67404735399213,30.801954374139772
0.87,31.22219258984094,131.01044012488077,16.09950015299316,12.678827300061483,0.0003287225542492,28.698149370441524,0.0018205535582136,0.3113550137643499,327.964078366998,32.94045117766745,11.258610139119655,71.77097178099314,0.0016349712334609,120.00174372615967,663.5861290398938,15.288,0.0,5.661545516391072,0.0968177059458599,1.5880661899828356e-07,-0.0232312124894745,2.642504088933553e-05,0.0021014627687616,12.678827304253076,19.759605302319795,32.940502813285526,28.699838371447054
0.88,31.2221920889548,131.01044115470128,16.38353248286976,12.600486721560616,0.0003564985909001,24.835839164936303,0.0018326697126563,0.2560316014111011,294.4828134710418,33.22502527295238,11.35599230461719,71.75743429116136,0.0016798508922795,120.0017914175818,675.0827424858875,15.288,0.0,5.67808438901756,0.0976544315822827,1.679904315547537e-07,-0.0241186554930495,2.646134729547713e-05,0.0022005277367861,12.600486726522163,19.61560575404474,33.22508127162009,24.837158906891574
0.89,31.22219158387569,131.01044219314704,16.670121359418044,12.515402137530412,0.0003837853404876,27.219182499350087,0.0018455615471571,0.1981917348516856,315.028134248087,33.52783125913246,11.4591060007955,71.74338411242653,0.0017246867702492,120.00183906550453,687.4250230187945,15.288,0.0,5.694513911605813,0.0985447524619485,1.775052958258739e-07,-0.0250226811350115,2.650075716376277e-05,0.0023037523080327,12.51540214332091,19.462931997859418,33.52789154399277,27.219904101645675
0.9,31.22219107452525,131.01044324037977,16.959325545537478,12.4490643799933,0.0004113705875847,30.043879364305504,0.0018554697656811,0.1439898746734135,339.37814235421445,33.78156334007441,11.546346126237868,71.72881142897157,0.0017694799591915,120.0018866710962,697.8496066507436,15.288,0.0,5.710858329066902,0.0992908439065192,1.8735639853303414e-07,-0.02594382934258,2.654338155268189e-05,0.0024065685663602,12.44906438668277,19.339388397002192,33.78162795801521,30.04422446633826
0.91,31.22219056098132,131.01044429623914,17.251095795409885,12.375845025813994,0.0004384900071268,22.92064640316996,0.0018661473642546,0.0872859692067946,277.7421810230789,34.0535236839566,11.639316022359155,71.71370668017757,0.0018142316329499,120.00193423544285,709.11111824226,15.288,0.0,5.727116343962031,0.1000905198439225,1.9754902409496362e-07,-0.0268820075340469,2.6589315278277165e-05,0.0025135990464191,12.375845033460916,19.20689410260248,34.05359256180585,22.920812678918573
0.92,31.22219004346296,131.0104453602735,17.54528616518826,12.296046926916215,0.0004650944205546,27.242837141001,0.0018775785657487,0.0280358175008581,315.02813424806214,34.343659940678094,11.738026308508578,71.6980601921081,0.001858943046434,120.00198175956368,721.2254782348436,15.288,0.0,5.74328024819638,0.1009436268381085,2.080887211752247e-07,-0.0278366588871338,2.663863524690135e-05,0.0026249658606177,12.296046935576795,19.06587928983078,34.34373299753884,27.242851631638487
0.93,31.222189521874625,131.01044643268008,17.841966420940416,12.23308996639308,0.000492073287041,32.36014805129238,0.0018861979651172,-0.027664611066055,359.1625070654728,34.58742973207995,11.82172755681954,71.68186219308767,0.0019036155322019,120.00202924489795,731.4794251096087,15.288,0.0,5.759358253119049,0.1016604605847706,2.189804609118714e-07,-0.0288084346019102,2.669146086959104e-05,0.0027358076021937,12.23308997613897,18.95107404422816,34.58750702677113,32.36015993146526
0.94,31.22218899609913,131.01044751370074,18.141220395589524,12.155730760665708,0.0005182449817753,23.557197611356976,0.0018967470496481,-0.0880363389966265,283.0687504837787,34.87106994074703,11.91814060874273,71.66510300567319,0.0019482505015085,120.00207669299073,743.5044959798972,15.288,0.0,5.775350107684371,0.1024944908842091,2.302292525818021e-07,-0.0297977893774785,2.6747910103465687e-05,0.002852886139251,12.155730771546835,18.81612230331937,34.8711513464784,23.55736218881809
0.95,31.22218846644981,131.0104486026893,18.44283771428638,12.080898393442045,0.0005442404126946,30.439026463753496,0.001906649602738,-0.1486283752805749,342.4218736174873,35.147807107886315,12.012251809606155,71.64777260314804,0.0019928494588004,120.00212410502228,755.3303597976854,15.288,0.0,5.791249369393797,0.103308239798466,2.418409076763027e-07,-0.0308039612348057,2.6808051435351737e-05,0.0029725374974825,12.080898405518765,18.686103495931008,35.14789259697043,30.439389384321377
0.96,31.22218793261156,131.01044970029605,18.74703734722532,12.014548327750612,0.0005703783419088,29.830219303169308,0.0019149385782455,-0.2076884421525095,337.09533515678345,35.39994705242622,12.098339346685064,71.62986096826143,0.0020374139848314,120.00217148292911,766.1838771935504,15.288,0.0,5.8070683717611935,0.1040496996185625,2.538200677338118e-07,-0.0318282842737972,2.6872044332923976e-05,0.0030933259973566,12.014548341090624,18.56984661681278,35.40003664724666,29.830942355734727
0.97,31.2221873946064,131.0104508064754,19.05380749775992,11.944612321068607,0.000596127549594,19.167155965552404,0.0019234878630239,-0.268600913981468,245.02188719299323,35.66196355102676,12.187507924535955,71.61135785832441,0.0020819457551135,120.00221882838508,777.5449261841264,15.288,0.0,5.82280552116079,0.1048201974444747,2.6617216757977084e-07,-0.0328708765002489,2.694000174830184e-05,0.0032182041567945,11.944612335728158,18.449442881747466,35.66205719052328,19.169038002951748
0.98,31.222186852745768,131.01045192058533,19.362939081735234,11.861295413638684,0.0006209401205157,27.817413391291147,0.0019338854164777,-0.3344238241271274,319.5937466429581,35.9635313585626,12.28936508796842,71.59225303361953,0.0021264465345715,120.00226614284696,790.7273365813744,15.288,0.0,5.838450192538009,0.1057069558647979,2.789032691358928e-07,-0.0339307585050554,2.701198154211753e-05,0.0033499633717354,11.86129542965898,18.310342099591587,35.96362889560864,27.819423624799285
0.99,31.222186306870487,131.01045304295417,19.67454401620248,11.801704809962123,0.000646734977914,30.38367982178528,0.0019401669730833,-0.3939010810687461,341.6609485517054,36.19393565674185,12.368180253500716,71.57253600450629,0.0021709181800785,120.00231342837507,800.8675852044264,15.288,0.0,5.854014140052454,0.1063845530989894,2.92018325573982e-07,-0.0350089110813847,2.708813820222437e-05,0.0034784484823062,11.801704827431378,18.207550540409937,36.19403724563462,30.38623308899405
1.0,31.22218575697863,131.01045417358603,19.988626000230568,11.729108386695454,0.0006716141292721,27.214157305369003,0.0019482228171293,-0.4582240091369473,314.2672081822764,36.462860989624446,12.45935321472088,71.55219666688726,0.00221536261975,120.00236068693576,812.7883658994829,15.288,0.0,5.869492643649777,0.1071753830704247,3.055226791542521e-07,-0.0361053472587521,2.716858209301233e-05,0.003613934940928,11.729108405654534,18.086601354352744,36.46296648652517,27.218014822530517
1.01,31.222185203264765,131.01045531207978,20.30505565394783,11.659162928100589,0.0006963953099104,28.457125384853807,0.001955526202465,-0.5225624629131239,324.9203161036979,36.7232483312672,12.547709857146147,71.53122451126255,0.0022597818901039,120.00240792039872,824.4132723215946,15.288,0.0,5.884883487259774,0.1079411256791695,3.19422129373284e-07,-0.0372196372375987,2.725339760967522e-05,0.0037519590370975,11.659162948610392,17.97068199206951,36.72335772078668,28.461922994081398
1.02,31.22218464564597,131.01045645860648,20.62389170690681,11.593040413678478,0.0007211771644566,23.783839661804883,0.0019618604207494,-0.5864627517712042,284.59063161540416,36.97101780732888,12.631921716684216,71.5096091665662,0.0023041781048981,120.00245513101416,835.5497431604899,15.288,0.0,5.900190369981728,0.1086697887181096,3.337217606320704e-07,-0.0383522808861914,2.7342722832367045e-05,0.00389210158954,11.593040435802909,17.8615244276568,36.97113108957296,23.791069153498636
1.03,31.222184084194925,131.01045761301637,20.94508693568512,11.518284684216248,0.0007451913850487,19.46122251572781,0.0019692879864513,-0.6541181185586957,247.30469339049705,37.245359673712926,12.724687202758052,71.48734029430577,0.0023485534647741,120.00250232095712,847.9699134955741,15.288,0.0,5.915410498311814,0.1094765650535154,3.484270564413888e-07,-0.0395031366030641,2.743666037161688e-05,0.0040385170274521,11.518284707996232,17.740642864157422,37.24547672810196,19.47221241147993
1.04,31.222183518977268,131.0104587751741,21.268599266564856,11.452459233922834,0.000769536834878,30.86395964045452,0.0019748720632348,-0.719570913821227,345.46563688072297,37.490591827830166,12.8079789818228,71.4644072074779,0.0023929102805702,120.0025494925274,859.1464424222189,15.288,0.0,5.930545988463448,0.1101977866325483,3.635435274836541e-07,-0.0406722453093474,2.7535323790343163e-05,0.004185285751586,11.452459259431713,17.634068857419575,37.49071270639352,30.872346701987894
1.05,31.22218294968533,131.01045994571413,21.594638242760222,11.379772532696544,0.000793214399286,18.674862896865264,0.0019812452643481,-0.7882839207394756,240.45625879819983,37.757132965175806,12.898122822759712,71.44079931817461,0.002437250941674,120.0025966485098,871.378864758803,15.288,0.0,5.945605065399793,0.1109816513267144,3.790756872204996e-07,-0.0418609676804545,2.763891917783824e-05,0.0043380978420307,11.379772559977155,17.51838935279487,37.75725756300228,18.6914927087631
1.06,31.222182376572565,131.01046112411396,21.92303447175964,11.301389063820228,0.0008162434876104,26.546954188007607,0.0019882329779987,-0.8600403124394258,308.17968365593924,38.04203109257214,12.994203289388532,71.41650558592865,0.002481577968427,120.00264379122538,884.5506315745041,15.288,0.0,5.960581349408024,0.1118194826900802,3.9502988150085053e-07,-0.0430684823772777,2.774751022424196e-05,0.0044967695986636,11.30138909291356,17.395298733951286,38.04215930779935,26.56088194981985
1.07,31.222181799513177,131.0104623106329,22.253874650580016,11.23733889135654,0.0008400684479571,31.239802365290604,0.0019923808836556,-0.9273681333847262,348.5093681440308,38.27857168981528,13.074530236762763,71.39151472432161,0.0025258939916981,120.00269092352072,895.556421742602,15.288,0.0,5.975483335632969,0.1125151823228252,4.114112622781153e-07,-0.0442956651740362,2.78612787072748e-05,0.0046535086191156,11.237338922353338,17.294529365553185,38.27870364745851,31.253564075906855
1.08,31.222181218396404,131.01046350549944,22.587234218419248,11.170600877560275,0.0008635069883224,21.0752031662522,0.0019965848288795,-0.9965064208536232,261.00157857466235,38.52278070820353,13.157298863068547,71.36581565058856,0.0025702017205659,120.00273804831008,906.9907433541838,15.288,0.0,5.990311918673196,0.1132334308416846,4.282251311588494e-07,-0.0455430462595481,2.7980389950892004e-05,0.0048149232536985,11.170600910511617,17.190819995281544,38.52291634756406,21.098749193541316
1.09,31.22218063351607,131.01046470810766,22.922916558801063,11.08931194859002,0.0008855893777743,19.39828115564976,0.0020029374222108,-1.0722458781900437,246.54375332474407,38.81595812637001,13.256010548921545,71.33939716356373,0.0026145039735473,120.00278516818952,920.818881924,15.288,0.0,6.005058389702592,0.1140956254648044,4.4547816647076403e-07,-0.0468095103636617,2.8104884879608864e-05,0.0049863191330776,11.089311983508829,17.066509352015526,38.81609723442417,19.427893015679555
1.1,31.22218004495215,131.01046591829282,23.260869294898622,11.016011634177996,0.0009080367681847,38.783719214164655,0.0020075021913032,-1.1458092242259,413.1890617385841,39.08122010445516,13.345633646700854,71.31224794638956,0.0026588036735089,120.00283228609696,933.4170394607376,15.288,0.0,6.019725566340991,0.1148757746107648,4.631760891665996e-07,-0.0480950599016201,2.823488513171328e-05,0.0051581046329763,11.016011671139914,16.955067214439524,39.081362738537166,38.80064121753081
1.11,31.22217945226892,131.01046713695317,23.6013850958654,10.958190788006029,0.0009315654416323,28.43516615728512,0.0020088889155302,-1.213802514798741,324.1593910376397,39.290704392866765,13.417004814780167,71.28435647794696,0.002703103855391,120.00287940564532,943.4196588915144,15.288,0.0,6.034327261405072,0.1154919788604495,4.813229524310477e-07,-0.0494018238574891,2.8370692952704e-05,0.0053264782341305,10.958190827118637,16.867679806218096,39.29085072282415,28.46106103034424
1.12,31.222178855529528,131.01046836395835,23.94442101959988,10.872278152336836,0.0009525234899282,10.820128985905228,0.0020148435476513,-1.2945076260796102,172.73281794065943,39.59871259540413,13.520559578217336,71.25571143192117,0.0027474076350522,120.00292652999796,958.2373959554084,15.288,0.0,6.048857131188704,0.1163977956764427,4.999248617738488e-07,-0.0507295161622948,2.851242376633554e-05,0.005512325263257,10.87227819356024,16.739512973164704,39.59886221744404,10.89729073326023
1.13,31.222178255369936,131.01046959799743,24.28955362422951,10.802013131694167,0.0009745584709869,33.49530942355214,0.0020175856504118,-1.3694960259744828,367.5328077900705,39.8501187980705,13.605646936998625,71.2263006019599,0.0027917183323218,120.002973661921,970.4112560141524,15.288,0.0,6.063305611570482,0.1171372438011245,5.189900793268943e-07,-0.0520757143965035,2.8659997840982623e-05,0.0056943414900072,10.802013175134425,16.635596908697618,39.85027188135714,33.5232945399958
1.14,31.222177651070616,131.0104708405537,24.63726231010303,10.742658739930112,0.0009973986948985,18.618875763180824,0.002017882178871,-1.440418058897888,239.69531773195544,40.05988147201344,13.677056159197612,71.1961126978511,0.0028360392477753,120.0030208056192,980.6214738584258,15.288,0.0,6.077691602634806,0.1177542917599455,5.385211627282623e-07,-0.0534438047613653,2.8813849248279525e-05,0.0058745036084047,10.74265878568787,16.548961871883957,40.060038143034056,18.67451051409407
1.15,31.22217704315252,131.010472090553,24.98719909880973,10.655184707523844,0.0010174213977195,18.35538414204733,0.0020228467902612,-1.5249620975802711,237.41251153546767,40.37237867794478,13.782209192852484,71.16513640027549,0.0028803737919172,120.0030679640821,995.9468384183411,15.288,0.0,6.091997819706809,0.118673332452593,5.585261483858569e-07,-0.0548313388504568,2.8973894411836927e-05,0.0060738314563227,10.655184755537332,16.421370190894795,40.37253849412421,18.418622111685995
1.16,31.22217643176219,131.0104733476933,25.33926748161449,10.598701220165063,0.0010401323991874,47.786614867652105,0.0020216831654619,-1.5960327579443665,490.0437743845894,40.56781452200985,13.84895566487364,71.13335953752846,0.0029247255784906,120.00311514092054,1005.5785888382424,15.288,0.0,6.106230249776453,0.1192482837382905,5.790110538560549e-07,-0.056238176583757,2.914024902343342e-05,0.0062596161672153,10.59870127061971,16.340973664693223,40.56797790562504,47.81326055772544
1.17,31.222175815949782,131.0104746139324,25.69409533684133,10.527534383451666,0.0010612795181477,8.608515407557947,0.0020227057307876,-1.6747556667447077,153.70937929486794,40.81650134354973,13.933174667733992,71.10077078864492,0.002969098197387,120.00316234090091,1017.910378896963,15.288,0.0,6.120407398704361,0.1199797741418206,5.999773803590454e-07,-0.0576687353054962,2.9313488033787708e-05,0.0064579735361275,10.52753443634204,16.239692456897927,40.8166680489466,8.76991152502661
1.18,31.22217519695713,131.01047588671042,26.050859273121723,10.436974179903382,0.0010801994134684,23.3292644594108,0.0020268795917513,-1.7639849821799105,280.02501822196746,41.13930341863956,14.041930022599155,71.06735820792517,0.0030134954418269,120.0032095666523,1034.0391344439922,15.288,0.0,6.134499059634316,0.1209291351059473,6.214368651901445e-07,-0.059117100833208,2.949316852994424e-05,0.0066722949494076,10.43697423518262,16.110324861736427,41.13947309596664,23.39585919223154
1.19,31.222174574218943,131.01047716719253,26.40993314027236,10.38942675867257,0.0011033218750453,40.63105003845742,0.0020225268873193,-1.8325775846359385,428.4078130529292,41.2930015934712,14.094928326168146,71.03310949895078,0.0030579212408876,120.0032568228942,1041.7440623274558,15.288,0.0,6.148527677545363,0.1213814233370902,6.433918859698592e-07,-0.0605866790266486,2.9679770892885603e-05,0.0068634708821483,10.389426816613604,16.046285410403673,41.29317490286605,40.6723563605793
1.2,31.222173947243306,131.0104784563923,26.77163758950132,10.30744060956942,0.0011226833376965,4.3482132723846165,0.002024081202163,-1.9193883708825097,117.1843741360236,41.57968522261876,14.19185915006416,70.99801347089675,0.003102379457995,120.00330411420047,1056.222543226332,15.288,0.0,6.16247501166927,0.1222246332692304,6.658461367338713e-07,-0.0620795153768638,2.987366865577148e-05,0.0070811634667885,10.30744067004961,15.931719472588291,41.579861573305045,4.7530005761966265
1.21,31.22217331728048,131.010479751733,27.135148919430268,10.227379358494415,0.0011419530888347,32.658660441220185,0.0020248063525325,-2.0062487923715024,359.92343213200894,41.85827523992129,14.28626964712872,70.9620575983599,0.0031468742755358,120.00335144361506,1070.3862746346458,15.288,0.0,6.176338410105398,0.1230440611038429,6.888117803446841e-07,-0.0635896722431541,3.007436781534726e-05,0.0073017650680921,10.22737942156906,15.820912078342175,41.85845461749301,32.72022524573529
1.22,31.22217268336877,131.0104810551963,27.50109730093485,10.176579312715647,0.0011642929487347,23.69792232674052,0.0020194361262645,-2.078086304802357,283.0687504825761,42.016057621642666,14.340655803167833,70.92523007431959,0.0031914098442477,120.00339881653,1078.433091877618,15.288,0.0,6.190145755149024,0.1235083787652557,7.122886968752226e-07,-0.0651224327952447,3.028259223731909e-05,0.0075056894056486,10.176579378616642,15.755024361957023,42.01624050835137,23.788862296725252
