Time,Latitude,Longitude,Altitude,Angle of Attack,Angle of Sideslip,X-Acceleration,Y-Acceleration,Z-Acceleration,Thrust,True Velocity,Ground Velocity,Pitch,Roll,Yaw,Dynamic Pressure,cp,parachute_deploy_gain,Wind Speed,Mach,omega_x,omega_y,omega_z,Cmq,Angle of Attack(total),Angle of Attack(gust),True Velocity(gust),Acceleration
0.0,31.222186000000004,131.010384,3.000000003643237,0.0,0.0,0.0,0.0,0.0,2.2828121974499247,0.0,0.0,69.99999999623421,0.0,113.69999999388332,0.0,15.288,0.0,0.0,0.0,0.0,0.0,0.0,-0.0,0.0,90.0,0.0,0.0
0.01,31.22218600000153,131.01038399999584,2.99999882256592,0.0,0.0,0.0,0.0,0.0,34.24218696174923,7.502283530665459e-11,7.190531319924593e-11,69.99999999623329,-4.83564628150269e-13,113.69999999388072,3.446445726795683e-21,15.288,0.0,0.0,2.204725565824978e-13,-3.659182332138578e-19,7.589415207398531e-19,4.811147140404426e-19,-1.5108918610345807e-31,0.0,89.9999999995224,7.502283530665459e-11,0.0
0.02,31.22218600000288,131.01038399999217,2.999997775701936,0.0,0.0,0.0,0.0,0.0,25.871876237766408,1.5320717031631675e-10,1.4674636035870463e-10,69.99999999623222,-9.67129256300373e-13,113.69999999387804,1.4372842949972735e-20,15.288,0.0,0.0,4.5023593667086093e-13,-7.284483346386986e-19,1.5178830414797062e-18,9.757819552369542e-19,-6.170906918166791e-31,0.0,89.99999999902465,1.5320717031631675e-10,0.0
0.03,31.22218599928065,131.01038400193067,3.000201659671132,18.81500467334555,-0.00012974450181,11.96616230539064,-1.8916256735984712e-05,3.349833086198469,180.34219359854663,0.0882870268161719,0.0553390044312322,69.99999999799445,-4.212591857125379e-12,113.69999999488518,0.0047728553458352,15.288,0.0,0.0,0.0002594525584132,3.2187251995663407e-17,-7.20264389268894e-10,1.2365134327422308e-11,1.6874092354518158e-13,18.815004673776716,89.46786891739345,0.0882666465974854,12.426199017587786
0.04,31.22218599548236,131.0103840121632,3.001799604587872,9.46752327608497,-4.6177622759613696e-05,55.21900012092241,3.931876292165237e-06,3.349616504302861,548.6359724538078,0.3767519978512604,0.1853356633749705,70.00000000507204,-2.4624598767003407e-11,113.70000000019972,0.086915163246288,15.288,0.0,0.0,0.0011071759353184,1.6174128009138757e-15,-1.3693172015529268e-08,2.7753303060112748e-11,1.3689612277852356e-11,9.467523276196548,87.63554493451223,0.3767447442872393,55.32050167054111
0.05,31.222185984749512,131.01038404118162,3.00777936418888,5.376730308971262,-2.257790939128127e-06,80.28807156553681,5.266841443842784e-05,3.348887800834877,761.6984298824644,1.018787885905993,0.4366201147110198,70.00000000894464,-1.1355399380652658e-10,113.70000001523856,0.635552918586145,15.288,0.0,0.0,0.0029939522895272,1.6418815498809788e-14,-9.32122351075408e-08,4.303264669380585e-11,2.5199270302492604e-10,5.3767303089717045,83.57022052969386,1.0187875312530217,80.35788377762394
0.06,31.22218596447235,131.01038409608267,3.0201664202003013,4.296730121134882,2.4863835723705905e-05,60.21296515808257,0.0001057204249726,3.347700952379021,590.4875390737208,1.721098934225416,0.7081674028809783,69.99999995523842,-3.0560354507026086e-10,113.70000004366592,1.8138247671743823,15.288,0.0,0.0,0.0050578622752421,8.328976953118383e-14,-3.2824985336199985e-07,5.923438275930214e-11,1.4991363363716091e-09,4.296730121206683,79.20467073327266,1.7211028398275985,60.305955550063224
0.07,31.22218593493329,131.01038417609837,3.038741944736831,3.8204913578752526,4.8016684030909405e-05,91.4060317508128,0.0001597686613101,3.346072557365335,855.2937749779139,2.4375792548422868,0.9844712334613328,69.99999973536046,-5.939103491363046e-10,113.7000000850886,3.6383156301599167,15.288,0.0,0.0,0.007163413150771,2.709313825263564e-13,-7.906546256197275e-07,7.920022733617308e-11,5.114174483651565e-09,3.820491358176508,74.87999294483174,2.437586797285377,91.46725557277466
0.08,31.222185894468456,131.01038428575305,3.0647976109320942,3.588632851766762,7.220043782492885e-05,19.18449428359557,0.0002119618497595,3.3440615022685813,241.2171988638848,3.1292508166901074,1.2522236515868983,69.99999919480445,-9.914748373602156e-10,113.7000001418522,5.996012698481753,15.288,0.0,0.0,0.0091960591623389,6.80386533246681e-13,-1.5973238302190878e-06,1.0839624626357699e-10,1.3263625118823921e-08,3.58863285249208,70.86684630658345,3.1292621579083604,19.473766155861934
0.09,31.22218584634549,131.01038441616095,3.0957981580345013,3.551302481506045,9.685468678862004e-05,57.102946699906326,0.0002554087225869,3.341892818148368,563.0937377043176,3.701810007254615,1.479132491047967,69.99999812344194,-1.4359264356978275e-09,113.7000002093888,8.390904013834115,15.288,0.0,0.0,0.010878666406854,1.440096519545733e-12,-2.748643691533636e-06,1.5214952332699618e-10,2.6999776649034504e-08,3.5513024828250237,67.68737872952666,3.701825221153239,57.20065357568538
0.1,31.222185790329306,131.01038456796124,3.1319266121977414,3.608446747536112,0.0001234669721807,54.26147302645416,0.0002914860332524,3.3396271157106168,538.7437595981919,4.174070299823608,1.6716491241860567,69.9999963052332,-1.902380107712657e-09,113.70000028805804,10.668380938744466,15.288,0.0,0.0,0.0122665227999911,2.687800116751415e-12,-4.315796035622946e-06,2.1749089204950437e-10,4.7802076800548326e-08,3.608446749645647,65.17160335282355,4.174089693970246,54.36414778470795
0.11,31.222185727066616,131.0103847393952,3.172681775073216,3.633547373470009,0.0001485939126744,42.987553988990406,0.0003293995000288,3.337005588796181,442.8656393052949,4.672024955140527,1.8729475711242067,69.99999349387662,-2.3433348587116544e-09,113.70000037699285,13.365573690709628,15.288,0.0,0.0,0.0137298902182575,4.5789425819531184e-12,-6.340230783164189e-06,3.1157625832417107e-10,7.860218435507205e-08,3.6335473765043056,62.62546922225161,4.672048296217748,43.116880735560244
0.12,31.22218565692512,131.0103849294629,3.2177790417108385,3.650108937861461,0.0001727442530266,46.86777100765684,0.000367618259785,3.334068179146888,475.58594813540446,5.17479364099247,2.0758708919414386,69.99998941286465,-2.702771525550512e-09,113.70000047573096,16.396890189902592,15.288,0.0,0.0,0.0152074069417046,7.288473386564583e-12,-8.86736416607888e-06,4.42271554299792e-10,1.217615295152289e-07,3.6501089419435786,60.16906436414164,5.174820775596283,46.986210423745625
0.13,31.222185580265183,131.0103851371844,3.2669395832841857,3.7280113734654137,0.0001995014041665,51.64515456841877,0.0003986198234033,3.3311573548369657,515.9156326236895,5.579364582999854,2.2451120211463422,69.99998375846928,-2.9114380666036422e-09,113.70000058383452,19.060875702782603,15.288,0.0,0.0,0.0163963474924215,1.100846422415094e-11,-1.1941028436408576e-05,6.179653149059831e-10,1.7678562106638216e-07,3.728011378795934,58.279338776943774,5.579395920607139,51.75247433579817
0.14,31.22218549718016,131.01038536230575,3.320091807147376,3.768719651034081,0.0002242721760019,48.1660778383537,0.0004326225136175,3.32784677779744,486.2390860568404,6.025734265159953,2.428648685938864,69.99997621008868,-2.890941335368725e-09,113.70000070125378,22.232643351545065,15.288,0.0,0.0,0.0177081261985351,1.5941871344608664e-11,-1.560901486259027e-05,8.477542742712431e-10,2.495765160917323e-07,3.7687196576976176,56.27980129251342,6.025769493750979,48.280903250602165
0.15,31.22218540777004,131.01038560455507,3.377159065217065,3.821894709649632,0.000249725644238,46.56959330999435,0.0004643042952466,3.324387732286376,472.54218587214,6.441023336496372,2.6014999612196745,69.99996641132823,-2.546763407193136e-09,113.70000082794672,25.402620271850456,15.288,0.0,0.0,0.0189285691155931,2.2314099732464315e-11,-1.992367942778425e-05,1.1417519574710292e-09,3.4051816697623295e-07,3.821894717796148,54.501255563441134,6.441062563308839,46.68809885900716
0.16,31.22218531193176,131.01038586421257,3.4382223512025254,3.8463320955387794,0.0002733212404609,36.974247749122085,0.0004987816203583,3.3205066466509234,391.1218908297564,6.895451966878468,2.7877331692857847,69.99995397923414,-1.77088415515292e-09,113.70000096417354,29.113317717489338,15.288,0.0,0.0,0.0202640360420561,3.0367358387834494e-11,-2.4945905791363795e-05,1.5114297685186711e-09,4.5643121540033697e-07,3.846332105235269,52.641145594326446,6.895494900078523,37.12304892183151
0.17,31.222185210004127,131.010386140357,3.503019838429153,3.8860314262554336,0.000297865039677,46.520531453299206,0.0005306403365217,3.31650761597812,471.78125980632376,7.314788342774694,2.9619016331667103,69.99993849340957,-4.3039914767238207e-10,113.70000110959404,32.761746921137856,15.288,0.0,0.0,0.0214963781445172,4.0366633128431416e-11,-3.0713078585132897e-05,1.96747427715988e-09,5.961228045584824e-07,3.886031437653654,51.00464968745696,7.314835131305714,46.63860064094784
0.18,31.22218510147516,131.01038643438045,3.571950002194137,3.9107265153396016,0.0003214293682635,38.895647526122765,0.0005639254295027,3.312149448254175,407.10156721191447,7.754626295791602,3.1430587898572058,69.9999195084231,1.6149322372810674e-09,113.70000126508234,36.81988229018681,15.288,0.0,0.0,0.0227889722876034,5.2593391349219385e-11,-3.731786027786564e-05,2.525509173087448e-09,7.6786585232224e-07,3.9107265285284982,49.36615848311875,7.754676785798701,39.036415444581515
0.19,31.222184986476247,131.0103867459258,3.644912152926752,3.920599115663931,0.0003437679584038,43.86258669386953,0.0005989384366483,3.307389681300437,448.9531328318269,8.219206165926856,3.332657190859447,69.99989653019398,4.538529095696477e-09,113.70000143063515,41.36350714675367,15.288,0.0,0.0,0.02415428010977,6.735860419174937e-11,-4.481243905342629e-05,3.199401151670645e-09,9.773118416308382e-07,3.92059913071168,47.71893898797248,8.21926016487149,43.987104227715655
0.2,31.222184864792144,131.01038707557822,3.722074668489528,3.943376465171875,0.000367328732016,40.28070981710589,0.0006315894240138,3.30251450988504,418.51563019916136,8.65238089736321,3.511445117640573,69.99986902534273,8.534090245934178e-09,113.7000016067622,45.83799876721736,15.288,0.0,0.0,0.025427299120469,8.499785987217288e-11,-5.328041996372527e-05,4.006766070954748e-09,1.2232205148646746e-06,3.9433764822533854,46.2587826635041,8.652438597225508,40.41586552155969
0.21,31.22218473678744,131.01038742234647,3.803156063113743,3.9664546506877016,0.000390962054969,38.67679184347145,0.0006636984664108,3.297405915846789,404.8187610144644,9.079179692250786,3.688002035198235,69.99983642883521,1.3827831253856693e-08,113.70000179318536,50.47126980736161,15.288,0.0,0.0,0.0266815841422463,1.0586558589671407e-10,-6.275155280099118e-05,4.961340042512481e-09,1.5117124669161171e-06,3.9664546699249135,44.88773728276958,9.079241104426773,38.817098210937615
0.22,31.2221846022986,131.01038778667507,3.8882846911135607,3.956175711337521,0.0004112685792646,46.713636108302936,0.0007011135033803,3.291572407481395,472.5421858721365,9.580256326712124,3.889976788904857,69.99979815126248,2.0662823443484168e-08,113.70000199039316,56.195522894218605,15.288,0.0,0.0,0.0281541581291438,1.3033127211465288e-10,-7.330053770532661e-05,6.0817207473359025e-09,1.8632831045819008e-06,3.956175732680424,43.35679625546934,9.580320928629488,46.8294591882524
0.23,31.222184460898035,131.01038816972698,3.977794004014759,3.9879066397329104,0.0004360962274406,38.89105719050748,0.0007308686121188,3.286096544282012,406.3406421461021,9.977039034039262,4.056142701351626,69.99975353557706,2.9316661139418326e-08,113.70000219928508,60.9462612310605,15.288,0.0,0.0,0.0293202403623685,1.5880617816859538e-10,-8.505067486192354e-05,7.393319440773217e-09,2.2514912291167663e-06,3.987906663538912,42.20670487756048,9.97710753587448,39.0296395118868
0.24,31.222184313516166,131.01038856897196,4.070963590490852,4.003523997322975,0.000459165577055,40.0792299321398,0.0007630441688766,3.280134925833028,416.2328240017114,10.408422364424831,4.234121060914368,69.99970190737699,4.010976417051318e-08,113.70000241888,66.32994780718496,15.288,0.0,0.0,0.030588009649109,1.91711512587616e-10,-9.795845222523724e-05,8.904557280909524e-09,2.7052895870113487e-06,4.003524023611085,41.011349410369874,10.408494489985014,40.21323112692186
0.25,31.22218416001652,131.01038898478134,4.167901030441617,4.0261356185860135,0.0004830526730531,41.17760020658354,0.0007934613160587,3.2740610008587527,425.36408079150686,10.816813039390448,4.4041629376391525,69.99964258149416,5.3372865854010094e-08,113.70000264972064,71.63651430352668,15.288,0.0,0.0,0.0317882126436337,2.2947426169209347e-10,-0.0001121037688082,1.0637152702866709e-08,3.217380562698304e-06,4.026135647516394,39.93186687113378,10.816888917126896,41.30755663120434
0.26,31.222184000702686,131.0103894163294,4.26837241014618,4.053359329950934,0.000507503069958,44.80261175215926,0.0008224724146494,3.2678597736729302,455.8015834241788,11.207047269494833,4.567925492611352,69.99957484039399,6.947299261165984e-08,113.70000289176392,76.89781807056055,15.288,0.0,0.0,0.0329350617559806,2.7254099134167665e-10,-0.0001275114371842,1.260720913253598e-08,3.7915697709142366e-06,4.053359361668992,38.945390435244384,11.207126987890645,44.921630958721536
0.27,31.22218383516388,131.01038986473338,4.372698316214008,4.0614460923241,0.0005296455772492,41.029837477288126,0.0008548809954683,3.2610328932384265,423.84219965987256,11.645685385842508,4.748226940060522,69.99949794024376,8.879821051920497e-08,113.70000314600205,83.0342688744587,15.288,0.0,0.0,0.0342241635563461,3.2137296827284217e-10,-0.0001442952656441,1.4842505534226832e-08,4.458527942364847e-06,4.061446126801262,37.8838346421185,11.645768582375233,41.15922617924542
0.28,31.222183663504484,131.01039032970942,4.48079961904222,4.081133040992532,0.0005533279247169,47.27661484082626,0.0008845140695959,3.254218495915602,476.3468732012221,12.047344998676092,4.915789434712848,69.99941106884992,1.1178948978424788e-07,113.70000341275257,88.85982357848233,15.288,0.0,0.0,0.0354045979054623,3.764736350660473e-10,-0.0001625146963723,1.7365685655384934e-08,5.194620655212288e-06,4.081133078439725,36.956255322213885,12.047431915223257,47.38848224631549
0.29,31.22218348566054,131.0103908114315,4.592727908358551,4.1001100265020245,0.0005770279952742,37.989969791857405,0.0009138463939581,3.247164755122801,397.97031042211177,12.446314684600782,5.082367374004485,69.99931338876085,1.3891902435864665e-07,113.70000369260468,94.8417675268915,15.288,0.0,0.0,0.0365771315767517,4.3836067907166327e-10,-0.0001822432988888,2.0202163500922312e-08,6.018074062137429e-06,4.100110067036654,36.07377590258778,12.446405323946324,38.12849176886316
0.3,31.222183301933686,131.01039130907952,4.708251093558373,4.112858061667493,0.0005998635114143,35.655053282557844,0.000944131403186,3.2397207148238625,378.1859457108711,12.860033399289696,5.253940723820665,69.99920403105713,1.707002607527005e-07,113.7000039856728,101.2505662360602,15.288,0.0,0.0,0.03779301412572,5.075709863465428e-10,-0.0002035013069687,2.3370674033523645e-08,6.94335970778e-06,4.112858105337573,35.19685285507256,12.860127625629724,35.80193592228613
0.31,31.222183112488807,131.0103918222051,4.827243246502713,4.136140889545823,0.0006242383343011,37.56633644061071,0.0009716215464757,3.232339252743767,394.1656220930212,13.2364445751808,5.4126574282679245,69.99908210036875,2.0768081583188525e-07,113.7000042923011,107.26326115439352,15.288,0.0,0.0,0.0388992619788015,5.846561731689753e-10,-0.0002263323252403,2.6893437641668458e-08,7.948283231812338e-06,4.1361409365698805,34.43286455705216,13.236542630309057,37.70514091683033
0.32,31.22218291741533,131.01039235056504,4.949637017503345,4.1622282001352975,0.0006491019906456,40.83513712643371,0.0009979686925508,3.224840963348891,421.55939346242695,13.59846554462374,5.566374262777002,69.99894668612772,2.504388718903276e-07,113.70000461297312,113.2095365840355,15.288,0.0,0.0,0.0399632243410653,6.701756367872645e-10,-0.00025078340164,3.0793566854276295e-08,9.047716714467492e-06,4.16222825066026,33.72644865222576,13.598567505326,40.96227562489027
0.33,31.222182716732533,131.01039289410716,5.075419569102976,4.187801887681037,0.0006739743721461,40.48743503284469,0.0010239291638211,3.217136801802925,418.5156301991682,13.956637761217308,5.718704299733134,69.99879684673242,2.995902922462564e-07,113.70000494831164,119.25032483364384,15.288,0.0,0.0,0.0410158804634189,7.647061680070125e-10,-0.0002769136723495,3.509664608790402e-08,1.0253455741189656e-05,4.187801941818244,33.053267359159875,13.956743628864118,40.61505097607
0.34,31.222182510255863,131.01039345333336,5.204736257784645,4.19642921746386,0.0006961879027693,31.814592723444047,0.0010535137542081,3.208669900766693,345.46563688075645,14.367047160772364,5.88887983533068,69.99863160305904,3.557915789971256e-07,113.70000529927128,126.36523219087664,15.288,0.0,0.0,0.042222056531773,8.688448410811866e-10,-0.0003048202762282,3.9835373705550826e-08,1.1618525957862828e-05,4.196429275109305,32.30947868183619,14.367156517712404,31.97598901989736
0.35,31.222182298183583,131.0103940277045,5.337435501771672,4.210915783240843,0.0007193441544952,34.813487415034444,0.0010813034848195,3.200164272309822,370.5765700527033,14.754132934586384,6.050986755458457,69.99844991734221,4.1975736284587617e-07,113.70000566632532,133.26448209504355,15.288,0.0,0.0,0.0433596939127697,9.832256819293898e-10,-0.0003345386312107,4.503361101379695e-08,1.309465610343774e-05,4.210915844572415,31.63649055965014,14.75424592890194,34.96026256388454
0.36,31.222182080444604,131.0103946174141,5.4735747500461605,4.22903876037745,0.0007431682866607,39.2632255716727,0.0011077666085529,3.1915717453569297,407.8625232777193,15.124417129017054,6.2072589919251575,69.99825073022951,4.922382611919288e-07,113.70000605036684,140.03566173682628,15.288,0.0,0.0,0.0444479595865755,1.1084921261805627e-09,-0.0003661511460057,5.0723697896912267e-08,1.4691545926915382e-05,4.229038825557203,31.017264542603208,15.124533865618538,39.39272792946638
0.37,31.22218185710795,131.01039522227452,5.613102797925907,4.249164960780052,0.0007674149135003,37.28328237034959,0.001133274451316,3.1828514669894137,391.1218908297666,15.483077353331511,6.359470679857624,69.99803294268581,5.740349991123437e-07,113.70000645214331,146.75405277514704,15.288,0.0,0.0,0.0455020695186381,1.245311285088233e-09,-0.0003997125883071,5.6934243389647934e-08,1.641828325195534e-05,4.2491650299519,30.439178816713017,15.483197898584232,37.418894813348615
0.38,31.2221816281124,131.0103958424523,5.756069531572451,4.260095806433531,0.0007900626414612,38.9278000801764,0.0011607546399008,3.1735466295306622,404.8187610144602,15.87126705947922,6.521735074464384,69.99779542676283,6.659911329739736e-07,113.70000687263192,154.20298254405043,15.288,0.0,0.0,0.0466429667223463,1.3943646956867835e-09,-0.0004353006984059,6.369875435270817e-08,1.8328108041903096e-05,4.260095879559656,29.83470194713067,15.87139116222873,39.05694584372078
0.39,31.22218139339905,131.0103964781077,5.9025231349944285,4.274091258047817,0.0008133283308351,33.320076729592266,0.0011870382950339,3.164143363712209,357.64062493382744,16.24457853509073,6.678818328235205,69.9975369905506,7.690136753559805e-07,113.70000731287368,161.54010621938565,15.288,0.0,0.0,0.0477401448128051,1.5563705124515804e-09,-0.0004730068442167,7.105463478762673e-08,2.0383860516746246e-05,4.274091335289374,29.274934656826048,16.244706292406182,33.46997636540994
0.4,31.22218115316572,131.01039712870306,6.0523126585892895,4.286421841403391,0.0008363022448449,31.88018820767003,0.0012133780841982,3.1544430614236454,345.465636880754,16.62063299903514,6.836764518435374,69.99725641601981,8.840594270905819e-07,113.70000777359816,169.10340080049767,15.288,0.0,0.0,0.0488453895716005,1.7320643186450851e-09,-0.0005128553637434,7.9027539265021e-08,2.2612406375611563e-05,4.286421922834417,28.730746964325096,16.620764365084565,32.03586915718869
0.41,31.22218090752676,131.01039779392735,6.205351877049411,4.30025870409831,0.0008595777771371,35.882550741685804,0.0012389121673015,3.1445895889870297,378.94687077668647,16.987310563534386,6.99141560549392,69.9969524610574,1.0121301778427253e-06,113.70000825570062,176.64448930727934,15.288,0.0,0.0,0.0499230826371405,1.922193031274436e-09,-0.0005548883906878,8.764667734700782e-08,2.5005077415911235e-05,4.300258789847355,28.21875643368965,16.987445585695873,36.020076248499606
0.42,31.222180656535848,131.0103984736348,6.36160173428776,4.322008670726048,0.0008844838439129,40.34064925656127,0.001261804338223,3.134918999355981,416.2328240017114,17.318628721060172,7.133856886815013,69.99662385300175,1.154276942054023e-06,113.70000876021427,183.59942989625057,15.288,0.0,0.0,0.0508968652507098,2.1275184665783874e-09,-0.0005991661829955,9.694534598491077e-08,2.752657757470936e-05,4.322008761057615,27.772396468009568,17.318767655457478,40.462275036947325
0.43,31.222180400205527,131.0103991677914,6.521055075967404,4.339436441324956,0.0009085827200945,35.541853595187746,0.0012854696362701,3.124839917627212,375.9031395134336,17.662848429084132,7.280642039343927,69.99626930133451,1.3115939750280808e-06,113.70000928827632,190.96736675963504,15.288,0.0,0.0,0.0519085689713619,2.3488101247838237e-09,-0.0006457514522491,1.0695800287133593e-07,3.0255957891170616e-05,4.339436536261635,27.322335771349252,17.662991148924057,35.67895714766603
0.44,31.22218013836212,131.0103998768696,6.683849332059896,4.342209064313268,0.0009296474314902,32.82948243168077,0.0013129688908547,3.113754688841357,353.0750125389216,18.063580761318697,7.446730341918701,69.99588746395321,1.4852372182848018e-06,113.7000098413532,199.7278270846888,15.288,0.0,0.0,0.0530863610987301,2.586862292117705e-09,-0.0006947575786514,1.1773083546077225e-07,3.329010177793299e-05,4.342209163639375,26.81344244367223,18.06372678999575,32.9768158972058
0.45,31.22217987077456,131.0104006014978,6.850166573233225,4.3420317510315165,0.0009500780330031,38.11022602597878,0.001341042003417,3.1022288449712887,397.2093853562869,18.47486275310604,7.616350301328129,69.99547690348253,1.6764536248320808e-06,113.70001042108892,208.92306716049887,15.288,0.0,0.0,0.0542951637545535,2.842521175226318e-09,-0.0007463379956615,1.2932090054593452e-07,3.657529369088674e-05,4.342031854775571,26.30944884471334,18.47501199101448,38.23628058998621
0.46,31.22217959739673,131.01040134180155,7.020045503401754,4.351169003849846,0.0009725797783515,44.3937050866137,0.0013660055515545,3.09098240974522,449.7140588976434,18.844323061800488,7.771531995684422,69.99503610583268,1.8865779683531e-06,113.70001102895836,217.3591612614144,15.288,0.0,0.0,0.0553810645782081,3.1166808800591503e-09,-0.000800596194505,1.417768495237597e-07,4.001824400409673e-05,4.351169112337076,25.873596578896564,18.844475834274814,44.50118229261506
0.47,31.22217931813738,131.01040209802923,7.193559875579052,4.358630093683735,0.0009947969928181,30.22514089990685,0.0013910994973101,3.079396422776949,331.0078106302534,19.2180591098146,7.9280875671397615,69.99456352718363,2.1170044481277104e-06,113.70001166656292,226.0625808853568,15.288,0.0,0.0,0.0564795377574197,3.4102493884459798e-09,-0.0008576351980594,1.551487523304888e-07,4.3718862242359527e-05,4.35863020698899,25.44665981168229,19.218215372160817,30.381603425148434
0.48,31.22217903348153,131.01040286886197,7.370336324605091,4.365514409145237,0.001016880998596,29.779838936311712,0.001416009414045,3.067527859335786,327.2031223011574,19.5915905767454,8.084483592791102,69.99405758812365,2.369198154608765e-06,113.70001233476164,234.93171707892955,15.288,0.0,0.0,0.057577416115756,3.7241711041759195e-09,-0.0009173883913609,1.6944871263079066e-07,4.767297940601472e-05,4.365514527349481,25.03354780044292,19.59175030803913,29.937410312943754
0.49,31.22217874361868,131.01040365378466,7.5502307795521535,4.3786401372577615,0.0010404145545081,37.2489281064929,0.0014385799934191,3.0558405437943126,389.60000969812296,19.93403005898306,8.23012235628909,69.99351671352461,2.644660619562788e-06,113.700013034871,243.21198709852868,15.288,0.0,0.0,0.0585839249886784,4.059374595909599e-09,-0.0009798792959512,1.8470833984680338e-07,5.180951737438081e-05,4.378640260624215,24.667474291142685,19.934193486919103,37.37406598941686
0.5,31.22217844858332,131.0104044527036,7.733219389747018,4.3942130966327255,-20.365112881843487,38.750978954124186,1.407283323294631,3.044246001979969,397.97031042210494,21.60091278614973,8.36606535597106,69.99293932307316,2.9449363413826395e-06,113.70001376847225,285.5823312758063,15.288,0.0,7.5154709336958545,0.0634828412951085,4.416640996685587e-09,-0.0010584230784109,3.2419929184031423e-05,6.064089883831557e-05,20.81409475986316,4.219446572952305,18.468901299003885,38.89583846603091
0.51,31.22217814792709,131.01040526518167,7.919273479823334,4.405558828462409,-20.08432627641712,29.842213698563423,1.44051845929031,3.0318866670713858,323.3984349720841,21.93153138152216,8.513390973365144,69.99231623258105,-0.000182522630111,113.69981680968088,294.38608918421806,15.288,0.0,7.545298923084432,0.0644546303213301,4.733953856104626e-09,-0.0011265148331231,-0.000303073322673,6.552881872818235e-05,20.54232816863167,4.242040407898284,18.84090631735784,30.030403737283454
0.52,31.22217784091492,131.010406091012,8.108417085845412,4.413557205526763,-19.80651187870654,35.68096891994479,1.475051907679413,3.0191582716299754,372.0984511843415,22.271274470475696,8.663405673507665,69.99165338787355,-0.0009016821891271,113.69905188528564,303.5719370478316,15.288,0.0,7.575028275061506,0.0654532417607557,4.882388189888489e-09,-0.0011975499576938,-0.0006468737366236,7.073873502594188e-05,20.273009378647306,4.260456852829162,19.221670796531647,35.83884258546258
0.53,31.222177527401243,131.01040693056828,8.300762523304458,4.421707089645095,-19.539117553905584,37.423917245208685,1.509755673353337,3.006206835587085,386.5562464348624,22.607913799926624,8.812077901301246,69.99094905285551,-0.0021679303816404,113.69770473340054,312.8127437636128,15.288,0.0,7.6046632748568515,0.0664427381766928,4.858642978860339e-09,-0.0012716621855508,-0.000999365526164,7.625051901517106e-05,20.014106330391296,4.278148791211841,19.59786063987804,37.574808365549664
0.54,31.22217720726832,131.01040778409944,8.496387108998329,4.42965066378379,-19.280214731152384,32.971052182193446,1.544754852596598,2.9930039332505385,349.2703242098436,22.94300092917804,8.959979871251198,69.99020142594483,-0.0039950102459493,113.6957607227726,322.14822880588764,15.288,0.0,7.634225206351813,0.0674276795869183,4.65936268788806e-09,-0.0013489704449728,-0.0013608362847929,8.208334720713249e-05,19.76365156569301,4.294949582329855,19.971304775888115,33.14264054205695
0.55,31.22217688077222,131.01040865083888,8.69507847808696,4.4386238536402365,-19.034176433758205,34.89620131416018,1.579619937854989,2.979653005728923,365.2500005919907,23.270791915037087,9.105039655893457,69.98940865963652,-0.0063967393818241,113.69320514155456,331.41284904725063,15.288,0.0,7.663679268606882,0.0683911848705253,4.281238073823183e-09,-0.0014294498379168,-0.0017309237323706,8.822145115124332e-05,19.52615718254514,4.311743468148042,20.335603104091412,35.058784881125206
0.56,31.22217654789563,131.01040953076574,8.896836883046806,4.449508866069288,-18.803856678510776,32.62756677815643,1.6140054437019309,2.966243338868983,346.2265619465787,23.586841421108087,9.24566134954437,69.98856888636072,-0.0093867017229988,113.6900235261988,340.46947212542045,15.288,0.0,7.693024745829379,0.0693201894296987,3.7210695963016086e-09,-0.0015131837224668,-0.0021097553699971,9.465578227665484e-05,19.30458265929611,4.3292111498496295,20.68587668514006,32.801855541733325
0.57,31.222176208692268,131.0104104236673,9.101607800091903,4.458130160389843,-18.572359775977816,32.27299202560429,1.6493805261442875,2.952410480656805,343.1828296833023,23.91081500274131,9.388988414823883,69.98768019989578,-0.0129784656617389,113.68620142877768,349.8797618623918,15.288,0.0,7.722248609476619,0.0702724890009214,2.975717157231038e-09,-0.0016002195453174,-0.002497298321913,0.0001014731428231,19.081566210179552,4.344667327090437,21.04429649442346,32.44970258802127
0.58,31.222175863123063,131.0104113295841,9.309408903291873,4.461767647215368,-18.32922223484972,42.229575363906,1.6868131772711508,2.9378748133535963,426.1250058573153,24.25642542446264,9.539971322057657,69.98674064428174,-0.0171857118921142,113.68172428109882,360.0601015796364,15.288,0.0,7.7513506531024925,0.0712883849656053,2.042052696710661e-09,-0.0016906446356543,-0.0028936915901314,0.0001087545980337,18.846318141577992,4.356245467360785,21.426135618654666,42.36523908264616
0.59,31.22217551077332,131.01041224957496,9.520548592394263,4.47060317966689,-18.11332596097015,34.392708059602285,1.7225604616799783,2.9235879295841607,360.68438819711065,24.574158298498325,9.680695106406048,69.98574814840543,-0.0220229838009413,113.67657659641952,369.5471827364449,15.288,0.0,7.780364112776,0.0722223575450201,9.167281965514279e-10,-0.0017847282370638,-0.003299831882243,0.0001163082274537,18.638892079947748,4.370887816480112,21.776080852715808,34.55970122265506
0.6,31.22217515183319,131.01041318305457,9.73486633206528,4.471053900166352,-17.872831117132776,30.65992727877828,1.761754533476138,2.908225022583867,329.4859594986058,24.931222124448723,9.83544669461714,69.98470058050893,-0.0275050035611697,113.6707426958358,380.35645515031496,15.288,0.0,7.809267974544033,0.0732719293936978,-4.035860874994713e-10,-0.0018824613255221,-0.0037154288942552,0.0001244573024557,18.405855472928504,4.379280256069155,22.16907397372987,30.8478960799303
0.61,31.22217478623656,131.01041413013402,9.952400284520753,4.46993410870935,-17.633674738490125,35.78469348062475,1.8019239428722007,2.892410909420858,372.0984511843297,25.294691778337608,9.992313788501871,69.98359569754186,-0.0336468204459073,113.66420655439876,391.5194724730637,15.288,0.0,7.838068916380733,0.0743403355496692,-1.9222686662750852e-09,-0.0019839575780419,-0.0041407073808599,0.0001330771387433,18.17392861739036,4.386075160017339,22.56832121971066,35.94658896567379
0.62,31.22217441407696,131.01041509048963,10.173064739854468,4.480823100732016,-17.44531246911109,44.29256455024934,1.8376014185590497,2.877601143436439,442.86563930529206,25.594273649240545,10.12600046752184,69.98243129085226,-0.0404638307739304,113.65695176792556,400.8399496520948,15.288,0.0,7.866774869306599,0.0752209848801982,-3.6427579810964974e-09,-0.0020892757977077,-0.004575663905721,0.0001417983121042,17.99422506579765,4.401022426460023,22.89611539735114,44.42396472347106
0.63,31.22217403515756,131.01041606459327,10.397000413406358,4.487519645938669,-17.247378938655395,25.47735423547084,1.8751502305221328,2.8621144821912203,286.11251274707894,25.91260063246776,10.266289706369188,69.98120504581209,-0.0479708374555772,113.64896257140563,410.8639578325375,15.288,0.0,7.895341756790638,0.0761567329998454,-5.568235341339527e-09,-0.0021985761638561,-0.0050206915098879,0.0001510691052025,17.804429150500685,4.412732886380386,23.24411965685386,25.70609784731747
0.64,31.222173650031618,131.0104170508738,10.623765789627267,4.487718032374198,-17.031943390640798,25.027267149992447,1.9156643980216093,2.845638819138496,282.30782441796754,26.262927508948763,10.417923555250942,69.97991458688476,-0.056182770704183,113.640223061949,422.03926197042966,15.288,0.0,7.923792732055402,0.0771865357416427,-7.701907208254252e-09,-0.0023116564395446,-0.0054747548176434,0.0001609830336678,17.596298749384232,4.419411695868181,23.62678416727544,25.261265434889175
0.65,31.2221732586638,131.0104180493659,10.853376899024065,4.496773958799037,-16.853589556675026,43.60008455963558,1.952708899364345,2.829924127674281,436.7781447787475,26.56359186613016,10.5515806230465,69.97855763655369,-0.0651142156142646,113.63071769488724,431.74827121383504,15.288,0.0,7.952074101908782,0.0780703881354704,-1.0046811169681438e-08,-0.0024286292954342,-0.0059380758484719,0.0001710614447634,17.426348597254698,4.432367855022247,23.954248281869383,43.73544233480923
0.66,31.22217286054516,131.01041906139747,11.086218184049242,4.503226481156305,-16.671164315213733,37.20840321643417,1.9910694435555865,2.813670073453269,383.51251517160017,26.875335206758816,10.68907311176428,69.97713170828466,-0.0747798602591875,113.6204308264744,441.9316222876132,15.288,0.0,7.98024571803792,0.0789868092004931,-1.2605894636172656e-08,-0.0025498366486467,-0.0064117358505745,0.0001817023924426,17.251985230466662,4.44322396841475,24.29342931127751,37.36771824353283
0.67,31.222172455838788,131.01042008646053,11.322151260377316,4.503917178047273,-16.473874758451235,25.870691234896324,2.03222741718874,2.796450625039834,289.1562440103425,27.216182376422445,10.83684494486819,69.97563431720974,-0.0851954179727699,113.60934570779564,453.2020571815784,15.288,0.0,8.008326890564973,0.0799887744644705,-1.5382429223074166e-08,-0.0026752755203058,-0.0068954824275738,0.0001930546557606,17.061989781656784,4.449544622606323,24.663979289781235,26.1006273745441
0.68,31.22217204469162,131.0104211240924,11.561050611241663,4.505782183427103,-16.285618742723692,32.10256752738848,2.073172144539343,2.77909434510955,340.8999924858462,27.54841513639672,10.981387372893169,69.97406278211967,-0.096376509586527,113.59744569806828,464.3235745827213,15.288,0.0,8.036214801718515,0.0809654298237987,-1.8379596272704583e-08,-0.0028049607794578,-0.0073891401321577,0.0002048792644825,16.88115870843385,4.456586781592344,25.0245830383174,32.289259049573296
0.69,31.222171627164567,131.01042217406723,11.802858080944704,4.512475593788492,-16.11856245558191,39.34532705213149,2.1121682152392487,2.7621089839680346,401.0140726853634,27.8509677423364,11.115174086635564,69.97241450386174,-0.1083385345753784,113.5847143818415,474.5674994601507,15.288,0.0,8.063988752153762,0.0818548622389795,-2.1600462675691013e-08,-0.0029389392950728,-0.0078926561172873,0.0002170178296034,16.722148247163986,4.467162553446936,25.352334569444544,39.49867417329313
0.7,31.222171203109223,131.01042323673383,12.047678990396872,4.518447466976423,-15.953443261798308,33.12649575254119,2.151712297430172,2.744787817121885,349.27032420985284,28.154721606668907,11.249259648352826,69.9706868072789,-0.1210966912502819,113.57113555928346,484.964195803345,15.288,0.0,8.091655310999842,0.0827478328662753,-2.504793262978974e-08,-0.0030773803434128,-0.0084064216548014,0.000229713602363,16.56496716009141,4.477082331684636,25.681016040166817,33.309584909077785
0.71,31.22217077256168,131.01042431193684,12.295475137406791,4.520566459843548,-15.77962263634439,27.362036224672472,2.193324028330794,2.7266759170844264,301.33126406340574,28.47798139868242,11.390185023418912,69.96887693329812,-0.1346665398823268,113.55669264235898,496.1525997337733,15.288,0.0,8.119128859782402,0.0836981400826176,-2.8725001552394857e-08,-0.0032203446533418,-0.0089304253843352,0.0002431395011269,16.398551755211724,4.483952937711121,26.03053926378601,27.584895472166465
0.72,31.222170335507688,131.0104253996581,12.546247480447812,4.518159832444245,-15.595273004540012,33.32679279641037,2.237470539031252,2.707625591842437,350.79220534145287,28.825541448013844,11.53963539784934,69.96698202678729,-0.1490639466249613,113.54136871588904,508.32486743351177,15.288,0.0,8.146493038358736,0.0847198752679406,-3.2634684360791506e-08,-0.0033679373478593,-0.0094648152286571,0.0002573801112747,16.220957570429935,4.487144601545333,26.40597823308696,33.511380587100604
0.73,31.22216989192764,131.01042649989293,12.800000941614403,4.525024140186532,-15.445428543756252,41.953780247837045,2.277337209063224,2.6896535627882785,422.320318528234,29.115932455476703,11.668565081055975,69.96499911816008,-0.1643053339235113,113.5251462700324,518.6056360206225,15.288,0.0,8.17375304098744,0.0855735956330768,-3.678009067741269e-08,-0.0035202785632828,-0.010009789379429,0.0002717256635644,16.079132148219056,4.497547431030342,26.719048462661927,42.10154603022798
0.74,31.22216944174476,131.01042761279862,13.05678616293526,4.52830836196567,-15.287616656371158,26.555180868002804,2.319199204755088,2.6708987607020407,294.48281347105944,29.42475198743924,11.803941401368911,69.96292519646322,-0.1804065110428896,113.50800844857712,529.6521485261832,15.288,0.0,8.200839683490113,0.0864814866174318,-4.116408623652302e-08,-0.0036774873167617,-0.0105655294021033,0.0002868641050321,15.92883108978664,4.505106836730946,27.051770822388068,26.789737140808203
0.75,31.22216898529493,131.01042873740116,13.316331984787366,4.529155452611399,-15.12571180295629,30.873075809860914,2.3625987473049075,2.651487860862532,330.24688556441487,29.745804388718824,11.943547730155773,69.96075729775131,-0.1973834234666421,113.48993823786472,541.2597430256374,15.288,0.0,8.227778046478948,0.0874253389829055,-4.578969464006696e-08,-0.00383942847056,-0.0111313419798021,0.0003027566480537,15.77407498366644,4.510673684643771,27.397364695733508,31.07666440721216
0.76,31.222168522455323,131.01042987398617,13.57872549791582,4.533012332784264,-14.976993561094506,33.174240308148995,2.4046974075666414,2.63228230383658,349.27032420986166,30.045893229991368,12.075569219739268,69.95849225829659,-0.2152518367007827,113.47091882546005,552.221851174401,15.288,0.0,8.25459310131735,0.0883075859252914,-5.0659626351805055e-08,-0.0040062864629058,-0.0117076404754132,0.0003190932118391,15.632919966877209,4.5186245849047975,27.7200127160198,33.365276857413704
0.77,31.222168053155368,131.01043102269747,13.844013348837295,4.537302045698487,-14.832992368013226,31.06993784316552,2.446797992556092,2.6128898467619024,331.7687666960708,30.34042866568656,12.205497034365866,69.95612694105462,-0.2340276953946681,113.4509331970176,563.0872696639819,15.288,0.0,8.281276461824987,0.0891735189966126,-5.5776618610250016e-08,-0.0041782030679262,-0.012294679898014,0.0003360397384723,15.4965347741423,4.526927905055913,28.036406732074585,31.275470441639353
0.78,31.222167577443976,131.01043218335198,14.112149221074263,4.538209404454131,-14.681657626725558,25.65829352690485,2.490968602951728,2.5926613858733623,286.8734378128899,30.653333478319865,12.34183618667268,69.95365810515761,-0.2537269781427233,113.4299643013867,574.7467455216355,15.288,0.0,8.307774939062531,0.090093449723502,-6.114343239845376e-08,-0.0043552246262782,-0.0128923892974806,0.000353880366218,15.352311740914056,4.5325060831451305,28.372298998711017,25.908972275169415
0.79,31.22216709539295,131.0104333557036,14.383068909505912,4.537043702542286,-14.527263569644692,36.13543486758804,2.536605987007764,2.571776206679007,373.6203323159534,30.976963374383736,12.481857964271937,69.95108241273873,-0.2743658378672866,113.40799489933364,586.9315917834912,15.288,0.0,8.334141639953986,0.0910449111478847,-6.676283677993547e-08,-0.004537394182527,-0.0135006907318741,0.0003725651701874,15.204701834659636,4.536370600477753,28.719397451028392,36.315534635473306
0.8,31.22216660677272,131.01043454033615,14.656944041743325,4.541299808015669,-14.392619365132967,36.60246595366111,2.5794760076450847,2.551569172546142,377.42502064505743,31.26329428946905,12.608519015143798,69.94839643243586,-0.2959608777980848,113.38500726730187,597.816443545758,15.288,0.0,8.360396428601769,0.0918867550597405,-7.263744938176425e-08,-0.0047250031175201,-0.0141203151024046,0.0003915455704667,15.077635648677266,4.544710665753899,29.02620824793525,36.78185307465116
0.81,31.22216611166995,131.0104357369651,14.93369941121368,4.541492090155063,-14.248633893185332,24.10919036221676,2.62490912846954,2.530356077528031,273.9374926939919,31.57300905077531,12.743355839290324,69.9455965960773,-0.3185285451202377,113.36098384993365,609.703635275764,15.288,0.0,8.386525861097915,0.0927973354689633,-7.877003828381697e-08,-0.0049180605647545,-0.0147510605933376,0.0004115700665111,14.940602217236927,4.549718688589413,29.357837399036807,24.38331211573627
0.82,31.22216561025507,131.01043694507493,15.213194217708793,4.539811758906222,-14.101953735559624,30.733104738307,2.6717502664923933,2.508485597718424,328.72500443277005,31.8925175177828,12.881547063206936,69.94267940583023,-0.3420853000536436,113.3359070632284,622.0893761119618,15.288,0.0,8.412472424794332,0.0937367095759025,-8.516339144350254e-08,-0.00511652980078,-0.0153925871774585,0.000432500474077,14.800572967701717,4.55321203006766,29.699684766958697,30.95083967093964
0.83,31.222165102498863,131.01043816470167,15.4954442909315,4.544796637995621,-13.97787830299874,38.8322656732184,2.714901382615935,2.4876087825733784,395.68750322465047,32.165309600196885,13.00307401090258,69.93964108970381,-0.3666476609559798,113.30975927197052,632.7597983211657,15.288,0.0,8.438280212171067,0.0945387859209696,-9.182006242868914e-08,-0.0053205512416355,-0.0160451228680456,0.0004535810177592,14.684164215111728,4.562335028207628,29.991384351609263,39.00645772545723
0.84,31.222164588286542,131.01043939612305,15.780533679712995,4.548044924109874,-13.851238263004214,24.303751146531216,2.7592794789822515,2.4661446155918174,275.4593748256452,32.44647032095351,13.127455364428856,69.93647806091636,-0.3922317735751485,113.28252321732944,643.8525716232181,15.288,0.0,8.463961690369583,0.0953654672225587,-9.874242910393101e-08,-0.0055302995489757,-0.016708990751951,0.0004755703049497,14.56491707640593,4.570079198985905,30.29185390007535,24.583893351148888
0.85,31.22216406789418,131.0104406385352,16.06823960092652,4.545243241302561,-13.709549499915278,26.423676843965247,2.8076525616055927,2.4431689754259844,292.96093233939376,32.765612679385576,13.265167680585137,69.93318650710006,-0.4188536603219861,113.25418177896564,656.562543652382,15.288,0.0,8.489496313448566,0.0963037912722333,-1.0593315384272029e-07,-0.0057456241774209,-0.017383501474342,0.00049893287756,14.429658223756425,4.572776845241621,30.632612039697516,26.68450272168248
0.86,31.222163541140585,131.01044189239997,16.358698386468827,4.546391140158221,-13.581920457582063,32.871303238019365,2.853861380153611,2.4207028046230974,346.2265619465587,33.05534985001276,13.392361763437629,69.92976246577516,-0.446529907374459,113.2247172326162,668.2068414813082,15.288,0.0,8.514901436870375,0.0971556972294518,-1.1339447915310255e-07,-0.0059668109336513,-0.0180693221083533,0.0005227072630976,14.30906906961886,4.57888757971919,30.94183123654864,33.08363497881188
0.87,31.2221630080386,131.01044315764435,16.651894510508484,4.549242584582453,-13.461548918657464,30.666635351718813,2.899209420384055,2.3983249856706745,327.964078366998,33.330377883966065,13.514247541745483,69.92620205576358,-0.4752769492587868,113.1941119995018,679.3532352441215,15.288,0.0,8.540166353072305,0.0979643788222396,-1.2112880505765137e-07,-0.0061939478671343,-0.0187664973927821,0.0005471042067278,14.196004225023954,4.586549747495716,31.23524308126055,30.896600165640002
0.88,31.22216246861293,131.01044443416464,16.94780358343128,4.548926207760203,-13.334435675254976,26.61838766105488,2.946827958188861,2.3749823087278017,294.4828134710418,33.624336677381564,13.642718533907011,69.9225011484063,-0.5051110535680333,113.1623486872342,691.3696039448423,15.288,0.0,8.56526307432295,0.0988287101119304,-1.2913847541825733e-07,-0.0064270896554537,-0.0194749693878113,0.0005726879068989,14.075681099579093,4.591619131720495,31.54862535304756,26.886109753107313
0.89,31.222161922932905,131.01044572173288,17.246366089628893,4.545510970850439,-13.200977583551644,29.10928860392425,2.996784365747107,2.3506386385658766,315.028134248087,33.93737040437175,13.7778150773292,69.91865565268978,-0.5360486062659682,113.12940976171544,704.2822690992456,15.288,0.0,8.590223280832046,0.099749115426615,-1.3742584040878856e-07,-0.0066662867774442,-0.0201946697124208,0.0005995144522754,13.948491770285523,4.594112550920113,31.882063072392917,29.35739943473296
0.9,31.22216137091557,131.01044702054514,17.54764263765278,4.548910200609296,-13.08881710271731,32.06235819608689,3.0424389857035727,2.3275526945467204,339.37814235421445,34.199406357731675,13.894795276276676,69.91466125933442,-0.5681064285982346,113.0952772256062,715.1793177031299,15.288,0.0,8.615056329189775,0.1005196362651157,-1.4599307343185694e-07,-0.0069117397418312,-0.0209259737084993,0.0006263698625094,13.843711681006033,4.602595288143495,32.161255521084094,32.29038168900766
0.91,31.22216081262101,131.01044833040413,17.851582055695655,4.549186959263739,-12.97006295684494,24.59945532028013,3.090398227792927,2.3034763070252207,277.7421810230789,34.48049375613302,14.018396758930503,69.9105136804987,-0.6013005905575286,113.05993387421395,726.9626306530515,15.288,0.0,8.639754858521961,0.1013461619989046,-1.5484237920779272e-07,-0.0071634756281849,-0.0216687354407249,0.0006544997666133,13.731816259306708,4.608506515313992,32.460516518166976,24.899593698649596
0.92,31.222160248235564,131.0104496507579,18.158033022405288,4.546433114917682,-12.845094212477736,29.12026274595572,3.140712900268459,2.2783740754931694,315.02813424806214,34.780590418712244,14.148600639390398,69.9062085271487,-0.6356472176398276,113.02336243766946,739.6499838843614,15.288,0.0,8.66430724011166,0.1022285691244304,-1.6397614114099985e-07,-0.0074213953315282,-0.0224224511101394,0.0006839462405512,13.613188152311546,4.611903835237666,32.77974720270068,29.37762359931941
0.93,31.222159677663864,131.01045098184474,18.46706760778825,4.549906305108996,-12.739091027412217,34.47365883717888,3.186891377800426,2.2545015989105845,359.1625070654728,35.03246730809352,14.261695898484744,69.90174131056705,-0.6711624624413374,112.98554561149489,750.3794167292707,15.288,0.0,8.688725948939473,0.1029692552868747,-1.733961383661555e-07,-0.0076857348022936,-0.0231875875088403,0.0007134157289726,13.514573228970985,4.62087741961493,33.04786175345689,34.693979416255935
0.94,31.222159100793704,131.0104523239564,18.778772501410828,4.54725969428072,-12.618467137934068,25.2513259183632,3.2376297933657607,2.2288253377355405,283.0687504837787,35.325948451133534,14.389355813033518,69.8971074967983,-0.7078620776150533,112.94646651068632,762.9817006962256,15.288,0.0,8.71301064984105,0.103832235563585,-1.831041225192595e-07,-0.0079566768625055,-0.0239644429108898,0.0007447304475657,13.400289210248122,4.624643740498536,33.35982843027649,25.555417619370314
0.95,31.222158517895604,131.0104536763041,19.09292963667105,4.545204392448893,-12.501391729816437,32.45225359747287,3.288217732486956,2.202982238962365,342.4218736174873,35.6123144423222,14.514405786872896,69.89230237585224,-0.7457623713798877,112.90610765137212,775.3785009090891,15.288,0.0,8.737151629028402,0.1046743114358359,-1.9310251423956581e-07,-0.0082340624324244,-0.0247523512422665,0.0007769173305088,13.289644850899702,4.629072336184349,33.66414448703258,32.692725034112954
0.96,31.222157928681984,131.01045503967603,19.40976569955717,4.546157755658766,-12.394163643002322,31.809716128351248,3.3368227679168694,2.1776296497458807,337.09533515678345,35.87311307153285,14.630344602528096,69.88732116511883,-0.7848794227291642,112.86445178756928,786.7527568561612,15.288,0.0,8.761167610206563,0.1054412467457043,-2.0339256288459497e-07,-0.0085183258662086,-0.0255523114396106,0.0008096001031449,13.189364150548744,4.636322946432216,33.94139052364671,32.05829841464188
0.97,31.222157333166088,131.0104564140134,19.72926837010808,4.545295709316485,-12.28388603534362,20.63896996417809,3.386979815454921,2.1515092316903006,245.02188719299323,36.144266287690144,14.749829658326902,69.8821589371461,-0.8252295836132715,112.82148137483593,798.6668153405817,15.288,0.0,8.785042682273561,0.1062386259119497,-2.1397618108682086e-07,-0.0088095600883086,-0.0263643516739382,0.0008435824708533,13.085714452406286,4.642154119984661,34.22946596097417,21.025406189336582
0.98,31.22215673161726,131.01045779853254,20.051220906240115,4.538626212596332,-12.160256118570231,29.691629869623792,3.4418454075515,2.123467440969727,319.5937466429581,36.45672614101248,14.883756050768143,69.87681068496417,-0.8668289808361759,112.77717910045293,812.5100020231276,15.288,0.0,8.80877297811139,0.1071574265807921,-2.2485581583026813e-07,-0.0091075418304119,-0.027187636618414,0.0008796285617395,12.967675362276635,4.6429886933071804,34.560905392751835,29.965785457702882
0.99,31.22215612388831,131.01045919362917,20.37573914630761,4.54124247214775,-12.062449955030146,32.37356908989094,3.4897647359870487,2.097717455780874,341.6609485517054,36.69504899738232,14.99148789137262,69.87127124544679,-0.9096940503576828,112.73152731506802,823.1420563890091,15.288,0.0,8.832380051156067,0.1078583250340734,-2.360327666211043e-07,-0.0094126123589476,-0.0280228818749838,0.0009150073674602,12.87710621253083,4.652291859538578,34.81424964107311,32.62862013715518
1.0,31.222155509974456,131.01046059930394,20.702826883408683,4.538207269348265,-11.951695807991136,29.049144693097684,3.5423029185038577,2.0700684950139148,314.2672081822764,36.97360330244993,15.11327811819153,69.8655354884105,-0.953840178817878,112.6845094783693,835.660276667818,15.288,0.0,8.855856892294593,0.108677485125415,-2.475086727853265e-07,-0.0097248356262939,-0.0288700317174905,0.0009525051850387,12.772573974782455,4.65674510072812,35.10982054657136,29.337448780373105
1.01,31.222154890041967,131.01046201506583,21.032349948725727,4.535915840881886,-11.844477315951323,30.345229412442954,3.594474487353802,2.0423263596738304,324.9203161036979,37.24331650515718,15.231861228059929,69.85959807599251,-0.9992833826569494,112.63610837040672,847.8697754513422,15.288,0.0,8.879200233100752,0.1094706672926743,-2.592855076597255e-07,-0.0100441460632654,-0.0297286907100419,0.0009909253158889,12.671705857420235,4.662067375968001,35.39601375592647,30.62554965863387
1.02,31.222154264015188,131.0104634411181,21.364369169937568,4.534876810152048,-11.741983099599702,25.445803395457016,3.645820588141612,2.0146641829726484,284.59063161540416,37.49992560557112,15.345739686027636,69.85345362638448,-1.046039146440034,112.58630732910548,859.5663805113176,15.288,0.0,8.902415656548706,0.1102253409457664,-2.7136450417876085e-07,-0.0103707507877991,-0.0305991892292458,0.0010301638623006,12.575787940719804,4.668737486733826,35.66838276715258,25.784487390121257
1.03,31.222153631955884,131.0104648772742,21.69883557063986,4.529930144647292,-11.63122169387571,20.91338381756184,3.7006022306178776,1.985495267326845,247.30469339049705,37.78432005978606,15.469290565165668,69.84709668015417,-1.094122645045679,112.53509001275768,872.6254591271878,15.288,0.0,8.925499032583113,0.11106169445948,-2.8374721720720374e-07,-0.0107046693091947,-0.0314813553539707,0.0010713629455134,12.470878447235286,4.672094685316511,35.96981491513439,21.330876002323222
1.04,31.22215299391849,131.01046632336548,22.03570549214021,4.528387585282051,-11.530460266602365,32.848680908074456,3.752771463366224,1.9570683840509244,345.46563688072297,38.038397494338014,15.582090681032296,69.84052157984678,-1.1435495375408766,112.48243955423531,884.3720924738097,15.288,0.0,8.948453574896412,0.1118089443689163,-2.964351205554738e-07,-0.0110459751847733,-0.0323751636755276,0.0011129200796951,12.37659536375983,4.678770027315584,36.2393977048949,33.120224149552534
1.05,31.222152349636204,131.01046778015512,22.375196207257414,4.523660989671272,-11.42330523519969,20.07805371832297,3.8078370689005054,1.927319601621696,240.45625879819983,38.314768775312885,15.70262537859692,69.83372260760513,-1.194335020225474,112.42833956975733,897.2404837890825,15.288,0.0,8.971291642543752,0.1126217334159767,-3.094286650403773e-07,-0.0113951392649832,-0.0332816040755847,0.0011564034724606,12.275318158246348,4.682792042211944,36.53226430421981,20.526627221878194
1.06,31.222151699327583,131.01046924700475,22.71713208418216,4.516212731562085,-11.311004766573063,28.315998982207223,3.865560268693663,1.8963177376573128,308.17968365593924,38.61036279480538,15.829815538138588,69.82669380781267,-1.2464949722077527,112.372772936919,911.1081761022688,15.288,0.0,8.99400373634509,0.1134910350076708,-3.227299505340669e-07,-0.0117519803622884,-0.0341999804946324,0.0012017779089719,12.168370624825693,4.684561356057886,36.845152414450624,28.6414799811989
1.07,31.22215104288321,131.01047072422287,23.061603019470773,4.514521304722843,-11.214169000691816,33.22460281245251,3.9184547221429193,1.8669106227321663,348.5093681440308,38.85552761538577,15.939195316727307,69.81942904914627,-1.3000455095551655,112.3157222703322,922.68493679658,15.288,0.0,9.016602619252266,0.1142121147643112,-3.363398153805412e-07,-0.0121168292167004,-0.0351309085690645,0.0012469145845853,12.07797436310947,4.691868825693523,37.10523523383319,33.506922788104276
1.08,31.22215038021029,131.01047221207932,23.408687333737,4.511415303123799,-11.115239043200171,22.573480364,3.9727702839493353,1.8367245378412684,261.00157857466235,39.10874599317371,16.051306939882384,69.81192216560568,-1.3550020469372164,112.2571709203756,934.7190891738215,15.288,0.0,9.039089681741183,0.1149568762736601,-3.5025919802071786e-07,-0.0124899165113766,-0.0360747294352341,0.0012936412481655,11.985213068314156,4.698161483395676,37.37369939300659,22.993879109468082
1.09,31.22214971156253,131.01047370983483,23.75818115826208,4.5018029290310295,-11.002119045528495,20.810982475602,4.03323735843212,1.8039155332427883,246.54375332474407,39.41315496380033,16.181297317098764,69.80416685140135,-1.4113799599967578,112.19710226664004,949.294911834124,15.288,0.0,9.061451935327932,0.1158521178093515,-3.644902886488069e-07,-0.012870969969465,-0.0370305259722095,0.0013434401615578,11.876996470495378,4.69871272079261,37.69554726324812,21.274823299861755
1.1,31.22214903700928,131.01047521728415,24.11003020022368,4.495312887642378,-10.89786300023996,41.10693940989612,4.091142735443694,1.7718352099270724,413.1890617385841,39.688468002840686,16.300980112017903,69.79615665979448,-1.4691945695574613,112.13549973509777,962.5709351741264,15.288,0.0,9.083693644892262,0.1166618437858035,-3.790342587704533e-07,-0.0132600578252051,-0.0379982443468786,0.0013936731229896,11.77823746334874,4.702425043804266,37.98693864016892,41.34800257015787
1.11,31.22214835618352,131.01047673550536,24.46453819045024,4.49523632256176,-10.810000378583954,30.26263093628016,4.14316862551288,1.7418027561535423,324.1593910376397,39.905563943213615,16.400133880549728,69.78788497175518,-1.5284613141856207,112.07234661412868,973.0971262879256,15.288,0.0,9.105835544410276,0.1173004534050576,-3.93890553305837e-07,-0.0136579101051863,-0.0389794445738998,0.0014432916042333,11.697128783519952,4.712425793551699,38.217589106017904,30.59455105547848
1.12,31.22214766914603,131.01047826433248,24.821660755916582,4.4827321073562,-10.694300791835868,11.807584248395004,4.207255312901418,1.706783605036058,172.73281794065943,40.22562475884576,16.535322797845385,69.7793451241253,-1.5891949295414327,112.00762692720002,988.7351705536956,15.288,0.0,9.12785612608574,0.1182417330502566,-4.0906057137067204e-07,-0.0140645139660696,-0.0399738376574604,0.001498128311814,11.585722226670622,4.711141265870418,38.55550489262787,12.650421073043495
1.13,31.222146976434168,131.01047980217754,25.18095853322638,4.4767468223310765,-10.595103008533696,35.54941397837603,4.2653424737788725,1.6738523135100885,367.5328077900705,40.486606114417725,16.649696950912027,69.77053004910819,-1.6514116240564851,111.94132311374617,1001.5719265697976,15.288,0.0,9.149745159942752,0.119009360622799,-4.245475988589728e-07,-0.0144791838933007,-0.0409795359474035,0.0015522510146482,11.492102361703674,4.716262277943303,38.831800056139805,35.84348981603245
1.14,31.22214627745052,131.0104813508208,25.542929234144847,4.475295619817062,-10.507525325497747,19.962174703971503,4.319075916728084,1.6423963799110908,239.69531773195544,40.70411355455168,16.748724701544564,69.76143287317622,-1.7151254204438175,111.87341992990515,1012.3271859114736,15.288,0.0,9.171537009144831,0.1196492070321195,-4.4034944023647093e-07,-0.0149030588828919,-0.0419990365661389,0.0016062203136681,11.41101361531398,4.726011023281266,39.062831557868535,20.490004918376307
1.15,31.22214557263996,131.01048290895892,25.907211887306005,4.461252792964976,-10.39232180252254,19.67941849439699,4.385617941277958,1.6055610746396067,237.41251153546767,41.029023231289166,16.885338265238364,69.75204659930552,-1.7803500796115332,111.80390239463117,1028.5169572601048,15.288,0.0,9.193205492254666,0.1206047705707511,-4.5646915459864425e-07,-0.0153354424346019,-0.0430304269708654,0.0016659566119315,11.29974787062376,4.724201256421389,39.405537212799295,20.22599771009755
1.16,31.22214486212753,131.0104844762213,26.27370637907451,4.460627993317312,-10.308817218613544,50.49813211414687,4.438748158562173,1.573829215518982,490.0437743845894,41.23164045051181,16.978978038820827,69.74236382451664,-1.8471007384634064,111.7327540455334,1038.6639041109288,15.288,0.0,9.214759736616834,0.1212008649656636,-4.729076177278293e-07,-0.0157763633391706,-0.0440735548734194,0.0017222588411345,11.222907732684549,4.735460812853237,39.6210578473742,50.71726304358893
1.17,31.222144145137783,131.0104860549536,26.643064924145733,4.453291540215209,-10.211234921022168,9.457085648569018,4.498836745975903,1.5390362413970609,153.70937929486794,41.48994589721065,17.09204739170683,69.73237731922296,-1.915390481630952,111.65996059329564,1051.6812690822967,15.288,0.0,9.236227886229582,0.1219606650757917,-4.896613869099286e-07,-0.0162273145973676,-0.0451316606671225,0.0017825225159074,11.130616627758052,4.740743335626913,39.89444637894994,10.585113772824869
1.18,31.22214342270555,131.010487642068,27.014432726122617,4.437065648639955,-10.09497973900509,24.868437449739066,4.5685873394383245,1.500025792882043,280.02501822196746,41.825776120314735,17.232223706238987,69.72207951648583,-1.9852332963430128,111.5855067674027,1068.7371991172972,15.288,0.0,9.25756412547176,0.1229483611512876,-5.067367814316565e-07,-0.0166864778793043,-0.0462002616876841,0.0018477307759844,11.017801164189343,4.737862240111241,40.24825195180342,25.329059375526995
1.19,31.22214269437116,131.01048923895732,27.38819817861749,4.4398477171195605,-10.022081781739145,42.98363565326085,4.618227745332313,1.468937471664472,428.4078130529292,41.984865217308574,17.31034434440063,69.71146260428847,-2.0566434963964864,111.50937693452892,1076.8441237448526,15.288,0.0,9.27880545862385,0.1234165298242529,-5.241308864885815e-07,-0.0171550296072003,-0.0472818530952514,0.0019067714870193,10.952298309375264,4.753623838501517,40.41861583209247,43.25596766662022
1.2,31.22214195974951,131.01049084682654,27.764694764778827,4.426987569451288,-9.915657402696649,4.973384271278605,4.684811016016765,1.430636294520588,117.1843741360236,42.28302951132805,17.43713106707942,69.7005190328841,-2.129632838804336,111.43155816960773,1092.1537998644162,15.288,0.0,9.299954413176694,0.1242935262327034,-5.418421955831605e-07,-0.0176337218810498,-0.0483778789411373,0.0019738256559452,10.849993338695858,4.754760009825249,40.73324483055912,6.9805963622596785
1.21,31.222141219867105,131.01049246257432,28.143066968795143,4.414750704200737,-9.81177297363044,34.61943572365762,4.751034096382622,1.392171604648189,359.92343213200894,42.57278184351024,17.560898872531038,69.68924065385646,-2.2042153434309864,111.35203511481974,1107.1332186854115,15.288,0.0,9.320976348452406,0.1251458051689655,-5.598770840347232e-07,-0.0181206992598331,-0.0494838839146453,0.0020421606469873,10.750346227327082,4.756859654801501,41.03907407408535,34.97164274932249
1.22,31.22214047395537,131.01049408856773,28.52396980972392,4.415589506323878,-9.73729485210174,25.226607977244782,4.802668534032303,1.359475581763917,283.0687504825761,42.736238964480606,17.640304204426553,69.67761944444233,-2.280403220809317,111.27079432565576,1115.6103374732652,15.288,0.0,9.341910068666738,0.1256268393809719,-5.782300816495201e-07,-0.0186177779023837,-0.0506037271887255,0.0021061590954958,10.68289264664246,4.7721311624404485,41.21406036119927,25.715667382799662
