Time,Latitude,Longitude,Altitude,Angle of Attack,Angle of Sideslip,X-Acceleration,Y-Acceleration,Z-Acceleration,Thrust,True Velocity,Ground Velocity,Pitch,Roll,Yaw,Dynamic Pressure,cp,cg,parachute_deploy_gain,Wind Speed,Wind Direction,Mach,omega_x,omega_y,omega_z,Cmq,Angle of Attack(total),Angle of Attack(gust),True Velocity(gust),Acceleration
0.0,31.222216000000007,131.010392,3.000000004412624,0.0,0.0,0.0,0.0,0.0,2.2828121974499247,0.0,0.0,69.99999999623412,0.0,119.9999999935444,0.0,1.274,1.0271675151847728,0,0.0,0.0,0.0,0.0,0.0,0.0,-0.0,0.0,90.0,0.0,0.0
0.01,31.22221599999084,131.01039200000497,3.000002745347096,0.0,0.0,0.0,0.0,0.0,34.242186961749226,3.465174813755316e-14,2.8705476994166025e-14,69.9999999962611,-2.1713911667908447e-11,119.99999999352175,7.352495975525499e-28,1.274,1.0271659134330349,0,0.0,0.0,1.0183245502395064e-16,-3.3305335486039093e-18,7.169286865560398e-18,5.624298769768554e-18,-7.715917190115602e-34,0.0,89.99999999999979,3.465174813755316e-14,0.0
0.02,31.222215999994315,131.0103920000094,3.0000030495639742,0.0,0.0,0.0,0.0,0.0,25.871876237766216,3.8197434737535036e-11,2.4171837235633357e-11,69.99999999628672,-1.1921727947863515e-11,119.99999999353136,8.93414285188691e-22,1.274,1.027164492361118,0,0.0,0.0,1.1225230367947217e-13,-6.657678965418802e-18,1.4338573731120796e-17,1.1241821275959074e-17,-1.7010872994127372e-30,0.0,89.99999999975682,3.8197434737535036e-11,0.0
0.03,31.222215999994315,131.0103920000094,3.0000030495639742,0.0,0.0,9.81877837424427,-2.5122800045972096e-05,3.3498614629347925,180.34219359854663,1.2659015405517447e-10,1.1364406173918436e-10,69.99999999631459,-1.6431898037347223e-11,119.99999999352724,9.812605835254651e-21,1.274,1.0271551940870716,0,0.0,0.0,3.720154642239108e-13,-9.991600645811728e-18,2.150108433310316e-17,1.6859343782149594e-17,-8.453698244545225e-30,0.0,89.99999999919412,1.2659015405517447e-10,10.374487003414373
0.04,31.222215999994315,131.0103920000094,3.0000030495639742,18.83801224594347,-0.0001111777826462,48.68248476615645,-1.016330065874988e-05,3.3497854396877287,548.635972453808,0.1556173050466994,0.0975908358443652,69.99999999633813,-2.0932768807056278e-11,119.99999999352085,0.0148286043323172,1.274,1.027133720825283,0,0.0,0.0,0.0004573186944143,-1.3322134194415637e-17,-1.04744143520903e-11,1.336824254131964e-11,5.0626055458604615e-15,18.83801224625964,89.06236267790787,0.1555998412814392,48.79759610369246
0.05,31.22221599164764,131.01039201704114,3.002326315126219,5.772385609593056,-4.395076213712875e-06,71.20344550265034,4.905512691849684e-05,3.349217396035405,761.6984298824663,0.8326471944351852,0.3620326097059287,70.00000001316391,-1.0866255162484559e-10,120.00000000231074,0.4245281043148827,1.274,1.027093426565204,0,0.0,0.0,0.0024469331205246,-5.0245994431125096e-18,-7.32924164976824e-07,2.217344936947165e-11,1.895424184525467e-09,5.772385609594774,84.74112356985832,0.8326465040582279,71.28217104309611
0.06,31.22221596664444,131.01039206837547,3.015081730143309,4.056581213689704,3.169093567502233e-05,53.16249142470188,0.0001203825427859,3.3481235983850643,590.4875390737236,1.657216205300742,0.6755452977614796,69.99999964391398,-3.9285905645317736e-10,120.0000000287861,1.6816755551786196,1.274,1.027050317124926,0,0.0,0.0,0.0048701272653724,3.095757869075056e-13,-7.483541766772344e-06,3.074135420506017e-11,3.8518749565858254e-08,4.056581213813337,79.59316473687034,1.657221183301277,53.26781792157489
0.07,31.22221592883117,131.0103921460222,3.034593611434361,4.115662018628709,6.450869598349036e-05,81.18203554989698,0.0001593212642178,3.347059402768047,855.2937749779172,2.099899704220947,0.8579771146174259,69.99999543281565,-8.233801910783518e-10,120.00000006883089,2.700101932075157,1.274,1.027003201295312,0,0.0,0.0,0.006171060252819,3.4704292086287e-12,-2.6327204536316785e-05,1.9541142932033486e-10,1.7170712165327165e-07,4.115662019133419,76.90111966094352,2.099909837223217,81.2510043180746
0.08,31.22221588914193,131.01039222747755,3.0542761843835606,3.459696193892355,8.037433511260004e-05,16.298214211652088,0.0002413456836072,3.344878926597744,241.2171988638792,3.051964775152957,1.2149999716613011,69.99998042886442,-1.0128995578004475e-09,120.00000011111383,5.703497661025892,1.274,1.0269597189470347,0,0.0,0.0,0.0089689344021769,1.458982438104473e-11,-5.702803872814215e-05,7.043261397829576e-10,5.405702492731987e-07,3.459696194824858,71.30331929508368,3.051977400323993,16.63790856991177
0.09,31.2222158241468,131.01039236098703,3.0886872184095737,4.313676956300389,0.0001337561018991,50.35975918308536,0.0002293282821279,3.344215841840564,563.0937377043203,2.893161298572128,1.191209213966114,69.99994788602814,-7.098432023887522e-10,120.00000018106356,5.125380275808925,1.274,1.026918932011013,0,0.0,0.0,0.0085022553945842,3.8672912027154325e-11,-0.0001115933708951,2.016054215232918e-09,1.0027525988343615e-06,4.313676958370176,72.2316578138625,2.893182308931483,50.47067588835877
0.1,31.2222157788302,131.01039245392113,3.109877853389092,4.035124630954496,0.0001457499816535,47.804664812504015,0.0002878217657545,3.341734392237128,538.7437595981891,3.5677148583138303,1.4531247507621967,69.99988403958329,1.9248461973355822e-09,120.0000002323013,7.7939962029572305,1.274,1.0268846934974103,0,0.0,0.0,0.0104845969583028,8.579678749070606e-11,-0.0001726817043215,3.984565639703107e-09,1.913455350430327e-06,4.0351246335824245,68.43243098813296,3.567737752667411,47.92132267234452
0.11,31.222215703308,131.01039260899836,3.148841432727305,4.043401107254707,0.0001752764476999,37.67622367577205,0.0003286462930162,3.3392563999062723,442.86563930529127,4.034183355956686,1.6436552022667772,69.99978525353545,7.302513231814865e-09,120.00000031883242,9.96528118825134,1.274,1.026848594915519,0,0.0,0.0,0.0118554331868328,1.5870341853361987e-10,-0.0002596204409236,7.232030302688121e-09,3.252930323390323e-06,4.04340111104746,65.92012987243639,4.034210888316708,37.82391391539392
0.12,31.222215627491828,131.01039276462643,3.186995101203875,4.17874459224363,0.0002066711490009,41.15991989399172,0.0003576945202315,3.336766085769504,475.58594813540793,4.361857560629481,1.7865750500940407,69.99963665601238,1.781774420198147e-08,120.00000041104812,11.649831899889556,1.274,1.0268114448194128,0,0.0,0.0,0.0128183893919737,2.682972478760441e-10,-0.0003710216542429,1.2215991071490164e-08,5.026311388647148e-06,4.178744597345269,64.21681651392016,4.361890024457652,41.29495143136631
0.13,31.22221554594398,131.01039293200228,3.2277173449026786,4.202734874672792,0.0002327160860324,45.44886120763352,0.0003953741266062,3.333578629398489,515.9156326236897,4.792165672014363,1.9646716520715424,69.99942424225341,3.613383418913551e-08,120.00000051758742,14.061726603124043,1.274,1.026779572895131,0,0.0,0.0,0.0140829618979635,4.248908088871395e-10,-0.0005056103199642,1.908859219307828e-08,7.5253154423526356e-06,4.202734881104192,62.048594618540655,4.792202226971676,45.570952718869485
0.14,31.222215454191247,131.01039312033683,3.2737880595608355,4.184830647080848,0.000257138757548,42.32232525579263,0.0004369426767266,3.329727443445437,486.2390860568421,5.269261304374574,2.158791628597544,69.99913473613935,6.515851355725497e-08,120.00000064630268,17.000925061330125,1.274,1.0267449573927567,0,0.0,0.0,0.0154850332441425,6.382432869666793e-10,-0.0006690086306358,2.8426433029675884e-08,1.0948547100483978e-05,4.184830654966803,59.74181173116622,5.269301695636157,42.45310707234106
0.15,31.222215353826755,131.0103933263496,3.3242182719560263,4.21963947489699,0.0002846467688673,40.886944113003565,0.0004726792395108,3.325585650885676,472.5421858721398,5.6781946837482895,2.329510773545807,69.99875162806286,1.0876776246115984e-07,120.00000079954532,19.742017654108928,1.274,1.0267115958081523,0,0.0,0.0,0.0166867950518804,9.204756288136623e-10,-0.000865746478554,4.08948221429571e-08,1.526771148078443e-05,4.219639484480408,57.84996018384879,5.678239395958187,41.02196629910223
0.16,31.222215247130432,131.01039354534575,3.3775922280208457,4.253495568077899,0.0003118339050386,32.26872905470846,0.0005078415214353,3.32090791922544,391.1218908297597,6.081244877834229,2.4981889727471702,69.99825581174558,1.7187028096464329e-07,120.0000009800088,22.644030778355887,1.274,1.026675762255412,0,0.0,0.0,0.0178712695992133,1.2856146928958252e-09,-0.0010961187242953,5.6923362293832417e-08,2.0702404729358337e-05,4.253495579487569,56.06022383757386,6.081293860589489,32.43916312841722
0.17,31.22221513260033,131.01039378041813,3.4348437275053194,4.364838523348639,0.0003448792023946,40.840448242802736,0.0005326487904353,3.3162727284953744,471.78125980632416,6.362544479165355,2.6250789114832647,69.99762801982864,2.5997588617291615e-07,120.00000119506798,24.78723182122683,1.274,1.0266409836796937,0,0.0,0.0,0.0186979513961862,1.747791994374917e-09,-0.0013624931601664,7.706724512977917e-08,2.6923621797558364e-05,4.364838536947241,54.85936171416122,6.362598652663785,40.97486885600156
0.18,31.222215014088988,131.01039402363364,3.4935801365785646,4.353948305387995,0.0003681615230806,33.992183768165326,0.0005718025428208,3.310131992647221,407.1015672119096,6.81502088160835,2.810667639293692,69.99684761766231,3.794979223522764e-07,120.00000144728236,28.437950785509614,1.274,1.0266048342046536,0,0.0,0.0,0.020027681385988,2.3221419748804155e-09,-0.0016616990447559,1.0147209890543081e-07,3.517105786247627e-05,4.353948320923495,52.99157233768714,6.815078712285162,34.152972512863755
0.19,31.22221488419521,131.01039429023237,3.558399965607869,4.432620772533925,0.0003996774584738,38.45149959021069,0.0005986099513107,3.304145139297767,448.95313283182486,7.1223367465208405,2.946425726785696,69.99589577323147,5.440084577183829e-07,120.00000176148238,31.060341085698347,1.274,1.026566130444714,0,0.0,0.0,0.0209308229359413,3.022391489754689e-09,-0.0020041563310821,1.3135864879722746e-07,4.433199397898183e-05,4.432620790516937,51.77883352025967,7.122399527709208,38.59320142454953
0.2,31.222214751373183,131.01039456280608,3.624052454705669,4.443889400961181,0.0004246617145652,35.23432408779927,0.0006337972852267,3.2968110145188256,418.5156301991588,7.530482904611057,3.1167566004785483,69.99474776398331,7.478025600151903e-07,120.00000211715036,34.72195181863731,1.274,1.026529240027363,0,0.0,0.0,0.0221302820454282,3.866698391504749e-09,-0.0023849544920781,1.668144671071589e-07,5.57780533277244e-05,4.443889421210987,50.22448880200342,7.530549610317194,35.38822625098952
0.21,31.222214608673173,131.01039485566503,3.6948551453492566,4.493351735844891,0.0004538195602194,33.79371564104691,0.0006629296043866,3.2891790438445727,404.8187610144608,7.868284042829251,3.2629204975089228,69.99338155599101,1.0150082652278477e-06,120.00000255293388,37.906665490338085,1.274,1.0264923657015164,0,0.0,0.0,0.0231230169900677,4.871073773182836e-09,-0.0028117605859743,2.089322918608601e-07,6.870935089180403e-05,4.493351758715364,48.992529909481824,7.868355328639073,33.95340801819282
0.22,31.22221446109996,131.01039515850383,3.767700382407304,4.5412639153933885,0.000482649303782,41.008966751568416,0.0006914639179131,3.2808061382386606,472.5421858721387,8.20057841132235,3.4071691679735228,69.9917708347139,1.3454961520984431e-06,120.00000305929996,41.175744234065135,1.274,1.0264494137127138,0,0.0,0.0,0.0240995709751246,6.054779813287368e-09,-0.0032829112061357,2.580881224843564e-07,8.3609968899004e-05,4.54126394098788,47.82515604752711,8.2006542256977,41.13999323561041
0.23,31.22221430675399,131.0103954752338,3.843768625625224,4.52371495179584,0.0005047555656171,33.98493478127787,0.0007294889663961,3.2705214710765107,406.340642146096,8.647938096586296,3.5908865300848416,69.98989017772566,1.7539876018835507e-06,120.00000365514876,45.79040229326471,1.274,1.0264133390858623,0,0.0,0.0,0.0254142776666487,7.436335125872812e-09,-0.0038001790077148,3.1489825108822685e-07,0.0001020628978177,4.523714979897577,46.31461705147579,8.648017383405135,34.14194053232237
0.24,31.222214142622448,131.0103958120587,3.92493179063287,4.57837522350066,0.0005351929930195,35.051650311058864,0.0007555049947555,3.26053011385611,416.2328240017099,8.954297884844461,3.72617527247482,69.98771316795013,2.25257161141768e-06,120.0000043564586,49.09180568115741,1.274,1.0263750048312463,0,0.0,0.0,0.0263146218848643,9.034877387788232e-09,-0.0043732521010013,3.809642748985157e-07,0.00012161410144,4.578375254714954,45.32798984252032,8.954381952763216,35.20297212911011
0.25,31.22221397517227,131.0103961556623,4.0071748888306855,4.6034117733065,0.0005618935542827,36.03738579534623,0.000785606492708,3.249069743648399,425.3640807915084,9.311611941121669,3.8789349536029696,69.98520781816889,2.8559738498748624e-06,120.00000517181904,53.08749562138344,1.274,1.0263373768840591,0,0.0,0.0,0.0273647110956883,1.0873791100894836e-08,-0.0049950711786164,4.5609738277273444e-07,0.0001444478241125,4.603411807525074,44.2165428352526,9.311700203154778,36.183554686886296
0.26,31.22221379934012,131.01039651647062,4.09364247475714,4.621386912291471,0.0005881033207375,39.29107511182762,0.0008162761165496,3.236407051295005,455.80158342417656,9.67833954512075,4.034902068846398,69.98234620927953,3.5784678110229355e-06,120.00000612171208,57.350948423913096,1.274,1.0263006300381676,0,0.0,0.0,0.0284424679130479,1.2973286442992724e-08,-0.0056712051373577,5.414206381221602e-07,0.0001704578711045,4.621386949630312,43.12063533194282,9.678431924174348,39.42414126789902
0.27,31.222213616776543,131.01039689108487,4.183310605341074,4.617158109135719,0.0006115457810536,35.90419462403674,0.0008503454714941,3.221982799915672,423.8421996598744,10.088790784535757,4.205862468567124,69.97909721779352,4.436165972465058e-06,120.000007221354,62.31798301949865,1.274,1.026260090595354,0,0.0,0.0,0.0296487219805601,1.5355910600537293e-08,-0.0064045199323113,6.379142666348734e-07,0.0002006609239367,4.617158149547818,41.94410287616451,10.08888684592241,36.048472443180565
0.28,31.22221342607797,131.0103972823952,4.277051150896916,4.642105655370123,0.0006389739579882,41.51133203546672,0.0008785747638736,3.2071101123224945,476.3468732012228,10.432377224420517,4.35383399240675,69.97542808435722,5.446665372087172e-06,120.00000849080963,66.63429581008447,1.274,1.0262212716723291,0,0.0,0.0,0.0306584788590473,1.8045308789081613e-08,-0.0072006835403936,7.469524967369969e-07,0.0002332868227611,4.642105699250441,41.0023231023774,10.432477594215127,41.63503624837164
0.29,31.22221323001776,131.01039768469093,4.373143569786686,4.62134615173668,0.0006600657405645,33.17552944492765,0.0009148746278066,3.1894209319791806,397.9703104221098,10.876662296046485,4.536381530986506,69.9713027936179,6.629751536885327e-06,120.00000994797426,72.43000748232016,1.274,1.026183007522519,0,0.0,0.0,0.0319641703260467,2.1067646517035105e-08,-0.0080566154554079,8.688043379161898e-07,0.000272130659453,4.621346198772975,39.83162628795024,10.876765978930557,33.32848872465723
0.3,31.22221302403368,131.01039810736614,4.4744193758467325,4.664362353358112,0.0006905183788532,31.08096762732793,0.0009381960428197,3.172549142946348,378.1859457108735,11.168362145070317,4.66647911311536,69.96668711012893,8.005507138509574e-06,120.00001161892672,76.36634300732833,1.274,1.0261430389738484,0,0.0,0.0,0.0328214509167604,2.4447409007156216e-08,-0.0089829108229115,1.0056222251461646e-06,0.0003115527202986,4.664362404357781,39.09908960432563,11.168470611443622,31.242464973103964
0.31,31.22221281503337,131.01039853619727,4.576593712520673,4.700143580504286,0.0007196683316923,32.79732593144512,0.0009620705970519,3.154230688182399,394.1656220930229,11.470279728974068,4.800072153432283,69.96154070456518,9.597499105113692e-06,120.00001352112182,80.55022837857167,1.274,1.0261054058068628,0,0.0,0.0,0.0337087616009043,2.8214060606649844e-08,-0.0099686353219717,1.1565909895184251e-06,0.0003550834484269,4.700143635477137,38.36463422765983,11.47039277421126,32.94865339301887
0.32,31.222212598991007,131.01039897947376,4.68216432480395,4.718667719113184,0.0007464384342556,35.7316568886908,0.0009885845337584,3.133859770838664,421.5593934624264,11.808280530415894,4.946054328851105,69.95582953472353,1.14278227255889e-05,120.00001568218067,85.36654007972253,1.274,1.026068246703101,0,0.0,0.0,0.0347021168382987,3.2392058795580455e-08,-0.0110163301561155,1.3226102501723267e-06,0.0004039614423012,4.718667778018562,37.5686120062341,11.808397780690962,35.8688218659563
0.33,31.222212376029034,131.0103994369436,4.791055524254013,4.72141404831576,0.0007708346814671,35.42013590291081,0.0010176135371143,3.1111955852784385,418.5156301991632,12.181577273013426,5.104163223586657,69.94951809396906,1.351997394754887e-05,120.00001812674968,90.84831229869296,1.274,1.0260310883392356,0,0.0,0.0,0.0357992034445943,3.700677535501642e-08,-0.0121310534481307,1.5051409581878843e-06,0.0004588955105349,4.721414111097893,36.7208578211118,12.181698355442045,35.55651229220977
0.34,31.222212145785647,131.0103999093516,4.903491659547144,4.73024573449122,0.0007962944975467,27.63851074646407,0.0010446307681611,3.0871492806781062,345.4656368807584,12.53557620048282,5.2556261014174765,69.94256797855994,1.5899658158227497e-05,120.000020882338,96.20413272674828,1.274,1.0259901535019136,0,0.0,0.0,0.0368395817555172,4.208561016221623e-08,-0.0133180771902383,1.7057647550599631e-06,0.0005184333231541,4.730245801363397,35.94841996438923,12.535701282129995,27.810389570354005
0.35,31.222211909310875,131.01040039453565,5.018822212845608,4.780248518778662,0.0008286678570753,30.332092807652543,0.0010618579815451,3.063967690608957,370.5765700527057,12.774786382148209,5.367579971644358,69.93493776125636,1.8594985713558667e-05,120.00002397748868,99.9096898192772,1.274,1.025950003202184,0,0.0,0.0,0.0375426220587071,4.7658312175989686e-08,-0.0145774693288123,1.9252724355785177e-06,0.0005782798420984,4.780248590437683,35.44790728185619,12.774916548990808,30.486451961956565
0.36,31.22221166933814,131.0104008868675,5.135354490370708,4.798132156899578,0.0008554457330409,34.32674769697476,0.0010851169437774,3.0374319611165923,407.8625232777224,13.09301701329486,5.506730645516068,69.92658597246795,2.163521613217148e-05,120.0000274401514,104.94818266210537,1.274,1.0259105142325406,0,0.0,0.0,0.0384778908056978,5.3755109608570216e-08,-0.0158991451700967,2.162609490834569e-06,0.0006464142451675,4.798132232978766,34.796094028187134,13.09315138639638,34.46087058603792
0.37,31.222211421355144,131.01040139563804,5.255882891363927,4.797392186816851,0.0008791822061288,32.551601855236584,0.00111162791192,3.0078619428913056,391.1218908297639,13.457513730739372,5.661815946371007,69.91747693543164,2.5047738471809164e-05,120.0000313040604,110.87154396328836,1.274,1.025872170958032,0,0.0,0.0,0.0395491312153729,6.040098808671168e-08,-0.0172926678053148,2.420031948898497e-06,0.0007226353721561,4.797392267189059,34.07332166419882,13.457651832357364,32.69027405888565
0.38,31.22221116634284,131.01040191882743,5.379799334000849,4.811698494594017,0.0009057112478668,34.02947987649063,0.0011338447913587,2.9774881690446744,404.81876101445977,13.77554886562956,5.800899861213392,69.90756948297444,2.886339581486796e-05,120.00003560072224,116.17243393848278,1.274,1.02583050512925,0,0.0,0.0,0.0404838339452728,6.762496638941508e-08,-0.0187646375218858,2.69955777313946e-06,0.0008026686661094,4.8116985796350695,33.46655348088405,13.775691134419684,34.15949264475229
0.39,31.222210906095896,131.01040245274032,5.505993307722699,4.813508003664984,0.000929862892873,29.00025983045028,0.0011579891265804,2.9442136901860865,357.6406249338268,14.124492165837273,5.950648592462506,69.8968186645841,3.311602501056718e-05,120.00004036395212,122.13093644173792,1.274,1.02579027384009,0,0.0,0.0,0.0415093739609825,7.545934774906889e-08,-0.020311592409804,3.0013532510753577e-06,0.0008908380763632,4.813508093268025,32.821616487639595,14.124638228358922,29.149330452482886
0.4,31.222210638473225,131.0104030017851,5.635788650457906,4.841647069358873,0.0009592124397379,27.71178845184976,0.0011749448424961,2.91135549588368,345.4656368807565,14.390874239274588,6.07193451174791,69.8851815212744,3.783947407715338e-05,120.00004563180136,126.77947425345651,1.274,1.0257493418632293,0,0.0,0.0,0.0422922854866381,8.39343718693383e-08,-0.021938519432511,3.3271332720311508e-06,0.0009803271643914,4.841647164150728,32.348088166612904,14.391024912012275,27.864299944624147
0.41,31.22221036681104,131.01040355909262,5.767123077463226,4.86553909860892,0.0009876699832274,31.306062598221665,0.0011918093836199,2.876450850006428,378.9468707766882,14.663028799871563,6.195223154320929,69.87261222561014,4.307011032901644e-05,120.0000514391194,131.6183642808765,1.274,1.025708445186429,0,0.0,0.0,0.0430921644173401,9.308325447883581e-08,-0.0236371933433427,3.6760977501392174e-06,0.0010761942383903,4.865539198612839,31.87689439156756,14.663183942709727,31.437931330109585
0.42,31.22221008906472,131.01040412887247,5.901259531771367,4.867510642114694,0.0010118258958528,35.308283402190774,0.0012128114559048,2.8374461227958245,416.23282400171047,14.9952917972178,6.33928625560071,69.85906967380902,4.884273094936628e-05,120.00005782486392,137.64909586091787,1.274,1.0256701057426505,0,0.0,0.0,0.0440686959134695,1.0293499639582845e-07,-0.0254093547296826,4.049238334851429e-06,0.0011830797791891,4.867510747027452,31.315270489291198,14.995450734457847,35.422111438762386
0.43,31.222209804115888,131.01040471342728,6.038886819939341,4.854590670645608,0.0010330089741511,31.00586934514032,0.0012363751872706,2.794478603999558,375.90313951343126,15.369430568701889,6.497852263156962,69.8445117629242,5.519340856908871e-05,120.00006482835984,144.60167924299955,1.274,1.0256308158337524,0,0.0,0.0,0.0451682983415116,1.135186446762958e-07,-0.0272634397889413,4.449073329427772e-06,0.0013010625065656,4.854590780289497,30.70250814963406,15.369592833372094,31.13154422839874
0.44,31.22220951192321,131.01040531284193,6.180028459770617,4.866912332640401,0.0010595850174406,28.57707721036899,0.0012525768202179,2.752165534925872,353.07501253892326,15.659290812546615,6.627318538707029,69.82889155423543,6.216182865383864e-05,120.00007249162944,150.1053167542629,1.274,1.025586171750536,0,0.0,0.0,0.0460202245100907,1.2486676023179565e-07,-0.0292060158163984,4.8779154055816594e-06,0.001420032405556,4.866912447705031,30.24619499837236,15.659457251771938,28.709297424144207
0.45,31.222209215425703,131.01040592106523,6.322872201489905,4.881836476567178,0.0010866574689855,33.31904824532484,0.0012669045761511,2.7082028218433374,397.2093853562887,15.934249290371609,6.751662050993672,69.81215834018458,6.97909417564726e-05,120.00008085697964,155.42080512416243,1.274,1.0255397023523487,0,0.0,0.0,0.0468283602442113,1.3701614206272197e-07,-0.0312276295846745,5.334643585560923e-06,0.0015449645531859,4.8818365972149325,29.82567893138932,15.934419982127675,33.428929688274074
0.46,31.22220891307435,131.0104065412864,6.468371919199588,4.869610441729251,0.0011078049156487,38.95909776354321,0.0012868374716666,2.6582856015412624,449.7140588976424,16.292139278621757,6.904766425053949,69.79426683863348,7.812149592850748e-05,120.00008996920153,162.4785746623087,1.274,1.02549635315424,0,0.0,0.0,0.0478802236363867,1.499987870203256e-07,-0.0333272350234362,5.819761874615242e-06,0.0016858511402973,4.869610567434908,29.29014635640275,16.292313292210977,39.04968351401366
0.47,31.22220860266524,131.01040717804253,6.6178810515614845,4.838450928223533,0.0011247917292402,26.253747818137555,0.0013104398935566,2.6026193242279367,331.0078106302504,16.710658191447514,7.078951441335346,69.77517236812905,8.719457259907165e-05,120.0000998741591,170.9309671061642,1.274,1.025453319323251,0,0.0,0.0,0.0491102725711187,1.6384464803343264e-07,-0.0355167087264168,6.3368207228363735e-06,0.0018427306558807,4.838451058652396,28.68386015667837,16.710834873319172,26.382435512333956
0.48,31.222208284201663,131.0104078313267,6.771393590864176,4.869339340099417,0.0011561785713505,25.860860976019296,0.0013165328518772,2.5543454292827983,327.20312230115803,16.911139899671,7.177575416403102,69.75482343794755,9.70562828082882e-05,120.00011062072316,175.0543877818846,1.274,1.0254092882449153,0,0.0,0.0,0.0496995461609974,1.7858865391586845e-07,-0.0378054080201581,6.88909442277235e-06,0.0019849793891693,4.869339477030596,28.40887970825325,16.911321511776286,25.986704537635287
0.49,31.22220796480208,131.01040848648364,6.924537656029012,4.881367714530694,0.0011829003785372,32.565703383222065,0.0013261973190012,2.5011623511055703,389.6000096981238,17.169005224738054,7.296160258358563,69.73316318155707,0.0001077573203115,120.000122255028,180.4309832312717,1.274,1.025367445590036,0,0.0,0.0,0.05045746454003,1.942747077649401e-07,-0.0401641298712614,7.47069711110948e-06,0.002140948887153,4.881367857509675,28.058569663954906,17.169191034294997,32.66161128464712
0.5,31.222207637929923,131.01040915697027,7.081324512896956,4.862566137860805,0.001202418260511,33.47759680712428,0.0013425340759632,2.4399894027711366,397.970310422106,17.52898693231981,7.450304424940405,69.71015149227495,0.0001193385310595,120.0001348274002,188.0736471953394,1.274,1.0253278572281015,0,0.0,0.0,0.0515154948878309,2.109295159784217e-07,-0.0426011733481599,8.084173008518589e-06,0.0023184335011768,4.862566286171007,27.57768313050809,17.529175807738486,33.56639745442473
0.51,31.22220730314019,131.01040984370235,7.24202048914867,4.8479762258125,0.001223054804074,25.49162310288008,0.0013562860883156,2.3767006597692686,323.39843497208153,17.86914397471067,7.597652147346554,69.68574349602717,0.0001318441288964,120.00014838524436,195.4407439266201,1.274,1.025286455263166,0,0.0,0.0,0.0525152689856776,2.2858192086249162e-07,-0.0451315948093539,8.734206149830708e-06,0.002503767471626,4.847976379721193,27.13799345359824,17.86933609171003,25.602178740977283
0.52,31.222206962738102,131.01041054193402,7.405210501673173,4.865306299521403,0.0012516517170965,30.733671928447727,0.0013599291289974,2.317711624364424,372.098451184342,18.08534843773428,7.701914987606457,69.65988568649581,0.0001453248538387,120.00016298000436,200.19561780583155,1.274,1.0252426840672306,0,0.0,0.0,0.0531507657929359,2.4726951523704535e-07,-0.0477531686556663,9.421346966092632e-06,0.0026812161964639,4.865306460134566,26.8699055233151,18.085545046726228,30.820940596104087
0.53,31.222206619320115,131.01041124632013,7.569307468221277,4.848802699234936,0.0012715119568563,32.301199055744725,0.0013711327835325,2.2490252325653923,386.55624643486095,18.41963113311156,7.8474319110539055,69.6325258319474,0.0001598315062727,120.0001786629144,207.6614205945027,1.274,1.0251993415311351,0,0.0,0.0,0.0541332845214831,2.67031759303889e-07,-0.0504479325599339,1.0141887756417996e-05,0.0028848299490111,4.848802865552398,26.45837260670532,18.419830861742675,32.37940050117613
0.54,31.22220626697288,131.01041196903336,7.737918664599091,4.831496690588052,0.0012913635058467,28.31291960103712,0.0013809098107221,2.177242866245296,349.2703242098436,18.75116898748492,7.992112829440902,69.60362200959217,0.0001754082864028,120.00019548734956,215.20067397992847,1.274,1.0251561018460285,0,0.0,0.0,0.0551077428911958,2.878941684235108e-07,-0.0532336286085667,1.090122304443916e-05,0.003098869611663,4.831496862756785,26.061835558272342,18.751371834390056,28.396510432451375
0.55,31.222205908994248,131.01041270328463,7.909026079894722,11.26915367789886,12.12314324897902,30.280788740501023,-0.715987249178397,1.7136977663832424,365.2500005919912,20.6732111531256,8.113323699629928,69.57312211246325,0.0001921068626005,120.00021350480982,261.57466467513893,1.274,1.025112921033824,0,5.012807131891703,0.0,0.0607565429524601,3.0989272306468813e-07,-0.0561100530405476,1.1700476995263424e-05,0.003601060098754,16.494202625284505,36.86929337798087,22.56333263297584,30.33769214232267
0.56,31.222205546564343,131.01041344664463,8.081909946161325,4.796317738920641,14.561722959088776,28.218193952078856,-0.962154742215166,1.9392503528060785,346.22656194657776,19.9694903563404,8.246362755413777,69.54097415464405,0.0002099796112633,120.00023276987916,244.06558746872,1.274,1.0250709539098009,0,5.031095570890197,30.0000128556565,0.0586884909087314,3.330095088065315e-07,-0.0638209163462282,0.0086918130477972,0.0039564397554913,15.315050021878662,38.41640867675609,22.23229568120401,28.30111134913195
0.57,31.222205178926508,131.01041420507835,8.258332077308209,4.791709801483086,14.389539642576777,27.90757084931152,-1.1643757608097651,1.8614844847232908,343.1828296833045,20.23592301664236,8.372619134122704,69.5044076151286,0.0135342732551156,120.01445598648584,250.6174269750778,1.274,1.0250279191823897,0,5.049241129622549,30.000012855656493,0.0594716302923247,3.6406008917020026e-07,-0.0668530285441653,0.0183234821495233,0.0041996325004105,15.150390585110342,37.98634975188208,22.472540476026232,27.993810139182
0.58,31.222204806292943,131.0104149740788,8.436594411513628,4.77784722903435,14.213238327987169,36.84222720914786,-1.374041499561331,1.7805617968153475,426.12500585731766,20.507868055049613,8.499161145639858,69.46609936903751,0.0415430187236706,120.04436142827484,257.3942406704704,1.274,1.024981594484354,0,5.067416257180974,30.000012855656493,0.0602709744800447,4.015230253291946e-07,-0.0699681777090074,0.028102124047548,0.0044543139827611,14.97910425046676,37.55157108299852,22.71765040317725,36.91081272588386
0.59,31.222204428594704,131.01041575534583,8.61756004200803,4.729905842523933,13.945404263656952,29.82032052515008,-1.601457244777558,1.68487724173309,360.68438819710633,20.910966007902623,8.673408564937105,69.42599365889404,0.0843674307561972,120.0900974379452,267.6075989658423,1.274,1.0249386802161349,0,5.085461593215206,30.000012855656493,0.0614557723973256,4.4549921031101494e-07,-0.0731631491884145,0.0380277872475265,0.004749180648988,14.710628186813594,36.90817953796811,23.079940943120317,29.91078388891284
0.6,31.222204041873248,131.01041655687814,8.803409702573342,4.7155859409921845,13.77711492818156,26.48092262772263,-1.8268851834608248,1.598304816728095,329.4859594986072,21.169180558231663,8.795199253500654,69.38403206650182,0.1421294010010988,120.15180311348472,274.25249888530846,1.274,1.024891335813742,0,5.103462799280778,30.000012855656493,0.0622147761766653,4.960821130503749e-07,-0.0764592007438502,0.0481621758586668,0.0050243311249572,14.547000525704403,36.50723157088284,23.312490492485388,26.591941466845878
0.61,31.222203653394416,131.0104173637448,8.98978191304254,4.702497172178818,13.616609434354116,31.082858522903127,-2.0576467940928302,1.5101832636609032,372.0984511843332,21.413021727619448,8.911868695494308,69.34013916582252,0.2150346213243376,120.22970783577392,280.6019225707988,1.274,1.0248423929069768,0,5.121626578702167,30.000012855656493,0.062931541036195,5.534203071748366e-07,-0.0798315232958173,0.0584280270145528,0.0053062664550968,14.391228225737052,36.13153945452143,23.531836506575612,31.187475976325715
0.62,31.222203259600047,131.01041818321727,9.178808549026808,4.668003662880047,13.400268661671031,38.71481744362016,-2.3039646419914046,1.4109201417622863,442.86563930529206,21.73997132103375,9.058941812332597,69.2942489536523,0.3031604410890461,120.32390468808352,289.23095915380173,1.274,1.0247996097896497,0,5.1395247764166365,30.000012855656493,0.0638925618336945,6.176047224029081e-07,-0.0832767991734967,0.0688139948728455,0.0056196826181312,14.175984057498564,35.63100505414337,23.825743504842144,38.80896853062206
0.63,31.22220285855599,131.01041901921903,9.371627346528014,4.612029032665936,13.129677661179656,21.850242471015253,-2.5701000095211888,1.2986824974364273,286.11251274707456,22.15586775843888,9.238599301617777,69.2462923966016,0.4065564256103615,120.43445784544645,300.3975122557631,1.274,1.024756158874558,0,5.157355765997307,30.000012855656493,0.0651149998812534,6.887127101155147e-07,-0.0868080861198168,0.0793560204610732,0.0059699363688805,13.902713763711333,35.0070596546674,24.20026968994741,22.039171634393323
0.64,31.22220244935872,131.01041987353233,9.568748399461825,4.61690999678253,13.02889254075969,21.454370145772,-2.8101353486430063,1.2120977443676102,282.3078244179702,22.28939252554136,9.315440185444936,69.19618774865206,0.5253152287586612,120.56147839063549,304.0234251037098,1.274,1.024708534665538,0,5.175234508732549,30.000012855656493,0.0655075682439252,7.668443838049819e-07,-0.0904395944265953,0.0900929423836858,0.0062570463857924,13.809382972661632,34.79926806592436,24.31837386706873,21.67154909025626
0.65,31.2222020422008,131.01042072548333,9.764145157962524,4.602528208401446,12.878581007874908,38.10824030980061,-3.063723549363927,1.1154115753475773,436.7781447787504,22.49910281729249,9.420201107158404,69.14383951666083,0.6595754849545985,120.70512751942472,309.76534880918985,1.274,1.0246641738210605,0,5.193199846865029,30.000012855656493,0.0661240435525289,8.521556665056981e-07,-0.0941213114714068,0.1008778058537642,0.0065729080639392,13.663198984249892,34.47958816071294,24.50507414929985,38.24746428822254
0.66,31.222201627914977,131.01042159357544,9.963208517492737,4.533684971533888,12.584727118355689,32.37862700719938,-3.360308482374173,0.9880042614580566,383.5125151715984,22.95361980665248,9.61477321327792,69.08917638849168,0.8092428348761567,120.86531810601952,322.4010891798527,1.274,1.0246195561629028,0,5.210706262687957,30.000012855656493,0.0674600039218416,9.446761450335372e-07,-0.0978648730053275,0.1117431539742904,0.0069722685549661,13.36405295870622,33.82005184813642,24.914567627959677,32.56751928515152
0.67,31.22220120229312,131.0104224861045,10.168334923882709,4.498130604065949,12.383977412026184,22.218115455356607,-3.6422984157593983,0.874890326484771,289.15624401033847,23.24386994484255,9.749419657907996,69.032115135802,0.9742603042154222,121.04200385850532,330.5996973591099,1.274,1.024572383541697,0,5.228244587454715,30.000012855656493,0.0683131985046783,1.0444387801627288e-06,-0.101711502335458,0.1228032226434822,0.007337802822534,13.16358171406638,33.39414968142293,25.174029703305525,22.53167604108439
0.68,31.22220077539489,131.01042338289392,10.373659943898163,4.484930241001805,12.245773588996313,27.807136239046336,-3.910197975215248,0.7732140178224153,340.89999248584934,23.4138265196872,9.840072878830734,68.97254245671398,1.154727822237695,121.2353074544995,335.44537453937767,1.274,1.0245245285832842,0,5.246010701868102,30.000012855656493,0.0688128563601919,1.151594923022243e-06,-0.1056306193883523,0.1339690966305159,0.0076761100308876,13.02943706044253,33.12890948574368,25.322776796695848,28.09135692592329
0.69,31.22220034573468,131.01042428693123,10.580056237697168,4.442903088374647,12.033722769909655,34.29798073286808,-4.206059018820813,0.6528765676546555,401.0140726853658,23.71503555256885,9.9791798099412,68.91035779636745,1.3505987456687545,121.44519571088269,344.12479684460527,1.274,1.024479631064582,0,5.263490807961062,30.0000128556565,0.0696982671119543,1.2662347142727008e-06,-0.109599041944417,0.14517487618901,0.008066792747858,12.816343174214513,32.69042104483905,25.59142185016765,34.56108595855441
0.7,31.222199907483468,131.01042520959075,10.790814041000928,4.385837680231143,11.785385407134166,28.72072580618676,-4.522895634488439,0.5201050304142076,349.270324209851,24.084182165304394,10.143599223693377,68.84546951363377,1.5617158828744375,121.67151798488932,354.914240578058,1.274,1.0244351749185203,0,5.280788547275073,30.000012855656493,0.070783353845343,1.38837262380261e-06,-0.1136378168228914,0.1564769136750088,0.0084940801944261,12.564184121655993,32.1693779823534,25.92239943033559,29.07932573147629
0.71,31.22219946214924,131.01042614772862,11.005015333779411,4.348709110606795,11.592132796883352,23.551814492741286,-4.825310232972366,0.3983266412085254,301.3312640634036,24.34032886867196,10.26659116974882,68.77776807560346,1.7879916407057184,121.9141992192102,362.49629246578365,1.274,1.0243880468141104,0,5.298177596847418,30.000012855656493,0.0715363412648719,1.5180674552866685e-06,-0.1177566364728211,0.1678993280883431,0.0088953793362247,12.370528366721228,31.79281968148519,26.14881960499838,24.04433922689544
0.72,31.222199014008943,131.0104270929859,11.220242955846528,4.3183336905969645,11.41856774455596,28.894743042695907,-5.122449692084631,0.2803910704900679,350.7922053414578,24.54818931466294,10.371941609691884,68.70713265464413,2.0293587660196017,122.17318729999567,368.7063670551232,1.274,1.024337302174265,0,5.3155287797299735,30.000012855656493,0.0721474192785,1.655422441602607e-06,-0.1219329150364822,0.1793786326680672,0.0092893234152084,12.197707340074238,31.474009276864425,26.32996435773041,29.34662306814486
0.73,31.222198561564174,131.0104280482188,11.43732322102819,4.266603255180532,11.19245086767173,36.61862869487176,-5.447515350426912,0.1452694065319146,422.3203185282354,24.859843814903705,10.516012187643511,68.6334513566398,2.2856425275317926,122.44831595289052,378.11982479490814,1.274,1.024292465384646,0,5.332694976755917,30.0000128556565,0.0730635544832726,1.800489937769428e-06,-0.1261555015998323,0.1908831116965718,0.0097328314020003,11.968401380683684,31.030574886326,26.606789729441275,37.02189209355049
0.74,31.22219810097137,131.01042902057125,11.658313974565004,4.19761121877742,10.925389723680851,22.80830585063106,-5.8010045808391695,-0.0063438666435425,294.4828134710563,25.259062571002765,10.692959640653044,68.55661471900747,2.5566083652901384,122.73935573489852,390.3533380445096,1.274,1.0242470321640116,0,5.349744302473312,30.000012855656493,0.0742370510970517,1.9532730813335977e-06,-0.1304399054484401,0.2024524304198194,0.010224759404466,11.6948676424145,30.48967905866226,26.964837646743103,23.534453683217126
0.75,31.222197631939423,131.01043001033753,11.883294915022471,4.168695088023793,10.762020576181428,26.669726741491736,-6.102342892231329,-0.125892105406833,330.24688556441737,25.418025575742497,10.780798188662912,68.47649897925983,2.8420646121523867,123.0461243402981,395.27348427243567,1.274,1.0241984712898409,0,5.366833386275688,30.000012855656493,0.0747044371753134,2.113801658063999e-06,-0.1347984770596126,0.2141170858253718,0.0106326815935714,11.532310247162105,30.222937207284623,27.098596913610933,27.359253682482084
0.76,31.222197163917343,131.01043099987606,12.107184223999743,4.115978100925884,10.541054794905936,28.71897860136857,-6.438315950748775,-0.2664104509315378,349.2703242098581,25.701651453059128,10.915367394232772,68.39296775233615,3.141847466679971,123.36847061058744,404.13529347724256,1.274,1.0241522053390697,0,5.38392699548498,30.000012855656493,0.0755382140267816,2.2821985191488764e-06,-0.1391852600587145,0.2257539571004338,0.0111009704952732,11.30767330409366,29.81518289561645,27.34811164604538,29.43301919130787
0.77,31.222196686211795,131.01043200884496,12.335643442156815,4.059362628669584,10.312019503819648,26.817867096559983,-6.782565565572674,-0.4117523002890909,331.76876669606884,25.996800025848945,11.05461720523132,68.30591040696775,3.455603399507459,123.70604056277551,413.461407787169,1.274,1.0241065975906936,0,5.400682118851929,30.000012855656493,0.076405864793066,2.45842171861225e-06,-0.1436189747562198,0.2374109397288677,0.0115858756008671,11.074195308233328,29.394995596095804,27.60787752035997,27.665334467828867
0.78,31.222196203083115,131.01043302917407,12.566345918051011,4.006864500440874,10.095581634362995,21.95198500106797,-7.121038331499817,-0.5538860687732523,286.8734378128874,26.254332379485326,11.180098358038876,68.21520063404664,3.783033453814504,124.05853990120096,421.684394092578,1.274,1.0240588105546735,0,5.417523359604047,30.000012855656493,0.0771629657954524,2.6424870185161995e-06,-0.1480979650027423,0.2490811226651187,0.0120652852495556,10.85399377657023,29.015245726383064,27.831949629709104,23.08474869222067
0.79,31.22219571513283,131.01043405967735,12.798951331352516,3.961978497479493,9.899437099324688,31.321744740112926,-7.444308965117159,-0.6879195202367641,373.6203323159581,26.449890156816974,11.282578799019388,68.12070987020067,4.123814957821032,124.42564989350612,427.98013872099807,1.274,1.0240083170932772,0,5.434275855317173,30.000012855656493,0.0777379251541035,2.8344190808768605e-06,-0.15261177645754,0.2607361420565548,0.0125253463428468,10.655494735455294,28.69806753888564,27.997164955662495,32.20159410338622
0.8,31.222195223499632,131.01043509824615,13.03285428200305,3.8897036049139815,9.638481975666556,31.715590767434968,-7.819525650764952,-0.8518033373408554,377.42502064505805,26.807863204691383,11.446662006109344,68.02231362323005,4.477572466576553,124.80699600342577,439.63323042324777,1.274,1.0239625010683884,0,5.45090224508948,30.000012855656493,0.0787902388436818,3.034232338727353e-06,-0.1571457285244687,0.2723369085447575,0.0130717233323848,10.386871312486274,28.214565835160226,28.314741670521823,32.67643260908207
0.81,31.22219472094239,131.0104361573071,13.27162366847874,3.821858156890124,9.390332146201745,20.49588435633793,-8.187937298330214,-1.0121316810276213,273.9374926939922,27.126098933115703,11.59621217962128,67.9198951687752,4.843864817616705,125.202133784457,450.1226210064147,1.274,1.0239149950770308,0,5.467355802686045,30.000012855656493,0.0797257713158066,3.241843237100081e-06,-0.1617238429949751,0.2839424141831947,0.0136119236333684,10.131825266312568,27.773057247850755,28.594534341271352,22.094071677477302
0.82,31.22219421335528,131.0104372263639,13.512243894564907,3.776422844269745,9.19788397604308,26.40497125606281,-8.504673252419815,-1.1447150347544213,328.725004432774,27.277271351608167,11.682745303487632,67.81331931232218,5.222319908115868,125.61069417689492,455.1431061352234,1.274,1.0238644186635044,0,5.483905455408324,30.000012855656493,0.0801702967690745,3.45727142712487e-06,-0.1663344848641499,0.295520970391999,0.014077686707972,9.936784343662932,27.49248755933992,28.715873931290645,27.764407911474024
0.83,31.22219370460874,131.0104382988591,13.752835162110935,3.70809873515756,8.95235559947321,33.62865657719055,-8.869260587903215,-1.3046827355005337,395.6875032246518,27.57142366193043,11.823989485112508,67.70245705935953,5.612510342946988,126.03224942091552,465.0016244404746,1.274,1.0238188483711983,0,5.500339882750999,30.000012855656493,0.0810350562134776,3.6805646986614256e-06,-0.1709443844606054,0.3069886238937072,0.0146235249557399,9.684139525547447,27.07302846622589,28.97194153646813,34.803053366092286
0.84,31.222193185216625,131.0104393905292,13.99791397765112,3.6272279977761297,8.678965350300345,20.575812930580216,-9.264343815035028,-1.4819967118930224,275.45937482564227,27.94382968696006,11.995643046053312,67.58720198454265,6.013886588560917,126.46624056386844,477.63673029126767,1.274,1.0237739661568126,0,5.516534525542411,30.000012855656493,0.0821298203020104,3.911597503021121e-06,-0.1755732918310919,0.3183926187997624,0.0152220167764176,9.401085756227852,26.58238199166673,29.30191087999061,22.613899671031344
0.85,31.22219265710724,131.01044049772256,14.246431646709864,3.575309882167286,8.475280523423443,22.440237384094857,-9.58022659327942,-1.6176198246764506,292.9609323393965,28.088134340211816,12.08040712605764,67.46743354373787,6.425954672898816,126.912169273318,482.5710756607394,1.274,1.0237227741398531,0,5.532794379725703,30.000012855656493,0.0825541781511037,4.150295475391458e-06,-0.180229064157972,0.3297495660864303,0.0157059848817421,9.193466563073608,26.29810102574269,29.414578640982054,24.45325518883514
0.86,31.22219212996572,131.01044160466097,14.493864609648003,3.508778724087412,8.238944922947777,28.17568541749832,-9.927866229969712,-1.7718241257537648,346.2265619465616,28.324990039226385,12.201024581725704,67.34302537719655,6.848234081066088,127.36955243957765,490.7323769543306,1.274,1.023674789281455,0,5.549041086493506,30.000012855656493,0.0832505560316023,4.39672921092163e-06,-0.1848683311538656,0.3409530139395337,0.0162457370921903,8.950237205959144,25.92816894108032,29.614705056326617,29.926094589147503
0.87,31.22219159327953,131.010442728135,14.745030078935583,3.430556438165805,7.97680401400535,26.15490330356065,-10.304329985690597,-1.942767135672212,327.9640783669946,28.63821069134936,12.351602864785724,67.21388340653904,7.280099655317039,127.83775077760087,501.63342280883904,1.274,1.0236288969245204,0,5.564968065503473,30.000012855656493,0.084171387763564,4.650755395766065e-06,-0.1895014513752763,0.3520267823072519,0.0168366265520923,8.67882290396579,25.490762019190285,29.887160339911155,28.17858277870018
0.88,31.222191048271736,131.01044386575197,14.999242305945431,3.3577351313041914,7.728821641258352,22.4809336017034,-10.658887845898263,-2.1034779714171146,294.4828134710421,28.893861301135875,12.480448557002635,67.07990776803314,7.720954873953814,128.3161561529785,510.6170004124673,1.274,1.0235805388426191,0,5.580907964121771,30.000012855656493,0.0849230213895729,4.912248578667371e-06,-0.1941353190282109,0.3629847149905267,0.0174018809617044,8.42262350556913,25.102366846542186,30.104223288269736,24.968557933766856
0.89,31.22219049848432,131.01044501182972,15.254873920183783,3.2881607068099163,7.489605729463013,24.662389525392303,-10.994225730527804,-2.2556982706260693,315.02813424808807,29.10570125424116,12.592729987983368,66.94099548787463,8.170218636672585,128.80417729287987,518.1190678185512,1.274,1.0235293752791452,0,5.59681512214816,30.000012855656493,0.0855458947996155,5.18115871261699e-06,-0.1987547611980184,0.3737894280819782,0.0179461379831064,8.175850325683394,24.74853666165805,30.27881820491772,27.09602611461845
0.9,31.222189943340823,131.01044616715606,15.512152756528591,3.210578416975636,7.233665204059421,27.25197886135277,-11.347713527282195,-2.4192365012402,339.3781423542166,29.36880891023961,12.72547299695441,66.7970574531845,8.627262017019131,129.30117098541086,527.515684780279,1.274,1.0234837388140003,0,5.612588500268996,30.000012855656493,0.0863194570874269,5.4574047895613244e-06,-0.2033471186976476,0.3844099824145238,0.0185263139839283,7.910681993540008,24.35122680162287,30.502054236801715,29.6191434617177
0.91,31.22218937980994,131.0104473360113,15.772307896420775,3.1280337235878446,6.968174146423598,20.508226224577754,-11.711010486812787,-2.5896860945684126,277.7421810230785,29.6603679699828,12.869939173733687,66.64801753004544,9.091420025994443,129.80645452161397,538.0280631932822,1.274,1.023436404813438,0,5.628244399494497,30.000012855656493,0.0871766500007482,5.740830049361433e-06,-0.2079144239406369,0.3948492507759659,0.0191299998613982,7.63490326945317,23.930969284889844,30.752229961515877,23.757979366290787
0.92,31.222188808399164,131.01044851731763,16.03503245350411,3.0559240759759057,6.72693322666426,24.49746194395156,-12.023130124652054,-2.735354360602109,315.0281342480675,29.839680237514788,12.97082513617155,66.49380202660133,9.562035868280248,130.31935360495842,544.53930343531,1.274,1.0233859136578225,0,5.64385816736397,30.000012855656493,0.0877039379257884,6.031288440907183e-06,-0.2124547394084412,0.4051007359680465,0.0196654298490051,7.385617479462108,23.596151300213627,30.893918523923475,27.425598683852566
0.93,31.222188234228355,131.01044970355844,16.298173239147864,2.9719354155811217,6.461146102742507,29.225634555593885,-12.370947077443684,-2.9016921402275337,359.16250706547066,30.112560415174336,13.109119424320898,66.33434311618888,10.038450823680524,130.83919120561345,554.5303174482025,1.274,1.0233407575091376,0,5.659410878606575,30.000012855656493,0.0885062423439429,6.328718849637975e-06,-0.2169449178507259,0.4151107400366019,0.020264180486574,7.109242644869462,23.188652121711364,31.1253251813495,31.86844621324821
0.94,31.22218764941793,131.0104509057182,16.56488275625513,2.881182855100359,6.182245217340923,20.895688792199888,-12.738065318818911,-3.0801240194825965,283.06875048378083,30.436904114729767,13.268516882252824,66.16959617619997,10.519950822984892,131.36522900136782,566.5258804594793,1.274,1.0232914783978162,0,5.674777172625468,30.000012855656493,0.0894598161445682,6.632887677535735e-06,-0.2213925170887555,0.4248944520298451,0.020901823188311,6.818293365550221,22.74356977986739,31.406125667184742,24.665264688268778
0.95,31.222187055366486,131.0104521213952,16.834475045128677,2.8032001156607134,5.931906247501261,27.2741732425294,-13.033933874212648,-3.22381547118019,342.421873617488,30.614686918220247,13.370204738352744,65.99951637872776,11.00585149580962,131.89675988650222,573.1485559754607,1.274,1.0232418269359267,0,5.690142884430661,30.000012855656493,0.089982627130701,6.943592562689663e-06,-0.2257980712802056,0.4344504350584597,0.0214417170903472,6.558760735482551,22.403317427856464,31.544804878706397,30.39994974491036
0.96,31.222186459322103,131.0104533405792,17.104080905401666,2.710424694172477,5.651977603173696,26.62109006677955,-13.386492410270607,-3.399192491268696,337.09533515678265,30.929784249102187,13.52736112931998,65.82406443865196,11.495479238412065,132.43308721916756,584.9922245083932,1.274,1.0231951201821403,0,5.705466860815279,30.000012855656493,0.0909090371267057,7.260775733128573e-06,-0.2301339152002811,0.4437170953211765,0.0220777993768077,6.266370931463958,21.965635219275587,31.81615564076733,29.99058393873849
0.97,31.22218584966472,131.01045457865564,17.378117517142847,2.6199708533677715,5.378182955632568,16.53760671975988,-13.714421712455293,-3.564227968487508,245.0218871929888,31.2044392564796,13.66906250089278,65.64322984502044,11.98810547963356,132.97345254672703,595.412088650995,1.274,1.0231476260761452,0,5.720587802747926,30.000012855656493,0.0917165886247603,7.584120388100172e-06,-0.2344121482674836,0.452718369972998,0.0226873271492243,5.980712682679584,21.556172636856825,32.04800221091705,21.77800541683882
0.98,31.222185233925828,131.0104558252636,17.65361492141602,2.540560312078145,5.128137500683508,24.565963621850905,-13.96435162249972,-3.691475329156409,319.593746642963,31.33295137320886,13.752335170894886,65.45699946953796,12.483047010897412,133.5171451962145,600.3105845732873,1.274,1.0230935628253934,0,5.735755387614904,30.000012855656493,0.0920945997779454,7.913460690179927e-06,-0.2386197958186584,0.4614241504009615,0.0231890586672824,5.721450378754489,21.2426588537955,32.137402278816324,28.497660869142983
0.99,31.222184616315,131.01045707499543,17.929022803617634,2.445066136076337,4.846913812200095,26.88059617036337,-14.287510975193555,-3.8591780025511166,341.66094855170127,31.6323891903926,13.905469715535196,65.26537815990702,12.97960662834348,134.06343703101965,611.8231346590121,1.274,1.0230490803133316,0,5.750803651042924,30.000012855656493,0.0929750038733408,8.248702317138856e-06,-0.2427311934785245,0.4697800930072455,0.0238134020367206,5.4273983204591145,20.81617551805611,32.39283288666168,30.685382109333503
1.0,31.22218398391826,131.01045834394407,18.208965335691303,2.348785015092981,4.565519438482292,23.814850934887616,-14.600509833316128,-4.024341016078593,314.2672081822764,31.92749931393136,14.057731273109356,65.06839980465435,13.477051319351416,134.61155800672438,623.2754715607587,1.274,1.022999484445133,0,5.765651511669679,30.000012855656493,0.0938426980978083,8.589438090501027e-06,-0.2467611815207672,0.4778142047490169,0.0244339638045404,5.133135140254173,20.393555720959952,32.64389075479549,28.22263866220469
1.01,31.222183343980205,131.01045962258647,18.49071158065633,2.255523007811376,4.291637646828432,24.885049871251383,-14.876124673370892,-4.172971182527145,324.92031610370094,32.16640660277163,14.187755659255684,64.86609456545798,13.974703552612404,135.16079635170755,632.6209505640917,1.274,1.0229507481225095,0,5.780550504348282,30.0000128556565,0.0945452053848954,8.935426624311133e-06,-0.2507015617733946,0.4855069289464363,0.0250092124529164,4.847269225862561,20.006296695887013,32.83990527914442,29.291269704172002
1.02,31.22218269723613,131.01046090992574,18.773977707665725,2.158560032278398,4.012089420988217,20.40428614510368,-15.1574338962439,-4.3274369286321885,284.59063161543185,32.43766375881723,14.331849447943943,64.65850790872025,14.471890951602823,135.7104430706168,643.3181370962552,1.274,1.0229039803623294,0,5.79535333557023,30.000012855656493,0.0953428035194943,9.286462801999918e-06,-0.2545379650999746,0.492828003264053,0.0256053519241335,4.555065767349472,19.599719211365105,33.06736638446012,25.78389818824072
1.03,31.222182039936737,131.0104622102082,19.059987418907976,2.0652791321393527,3.740609884616625,16.252656736369616,-15.390829045211156,-4.460078451378828,247.3046933904342,32.63771092532901,14.447225867359029,64.44570597494288,14.967938187906052,136.2597826727674,651.2595629606566,1.274,1.022853416101322,0,5.81004701117724,30.000012855656493,0.0959311042139926,9.642232678655138e-06,-0.258266477436833,0.4997671928911707,0.0261399296529396,4.272174845509289,19.23475717885633,33.22486724270593,22.823644964852345
1.04,31.222181377372834,131.01046351697948,19.346888394170136,1.9731463890886167,3.4722686706746946,26.844041747633767,-15.59101271347286,-4.578503110272986,345.4656368807608,32.7991106181427,14.54711458955336,64.22776726713923,15.462189774100548,136.8081180922964,657.6985711212587,1.274,1.0228049544826707,0,5.824696428620566,30.0000128556565,0.0964058138789706,1.0002518697226845e-05,-0.261872031199887,0.5062938138194202,0.0266351962511026,3.993142694548588,18.89086347141167,33.34419950761527,31.37905265477523
1.05,31.22218070854061,131.01046483130335,19.634989125243013,1.8685877373152544,3.183360505038028,15.309830273094049,-15.872050888324903,-4.7420377593934,240.4562587980608,33.14078964489957,14.723237905128588,64.00479211621368,15.953991846743053,137.3547502627341,671.4542859524907,1.274,1.022755494436122,0,5.83920786561717,30.000012855656493,0.0974104213353126,1.0367051271319266e-05,-0.2653440212363734,0.5123867174879865,0.0272687266293409,3.690773692670232,18.44732200238522,33.64057351834694,22.556591597669076
1.06,31.22218002288693,131.01046616467227,19.927600386440343,1.7764497700697464,2.917008462844033,22.589912977381424,-16.02141466067864,-4.840331799995313,308.1796836557233,33.25817209145228,14.80588685550024,63.77689912696848,16.442704243347638,137.89899121579944,676.2001970554696,1.274,1.0227013895379469,0,5.853600189887672,30.000012855656493,0.0977557652600666,1.0735296783784592e-05,-0.2686932027127388,0.5180611638044581,0.0277099377536124,3.414964854001921,18.12597540855341,33.71617679366513,28.114386139290325
1.07,31.22217933968248,131.0104674955194,20.21851845819211,1.673710532252331,2.634535997704252,26.882789306434905,-16.244520961481058,-4.980257134087845,348.5093681440431,33.5432441875508,14.960120908556584,63.54420753245358,16.92773533719183,138.44020272495172,687.8227453272916,1.274,1.0226540159946436,0,5.86803926870369,30.000012855656493,0.0985940014979934,1.11071903047904e-05,-0.2718911598653782,0.5232662101624967,0.0282792905678262,3.12091528673456,17.71635546261941,33.95693032349432,31.802071996708033
1.08,31.22217863885584,131.01046884559102,20.51400655360656,1.56888615329983,2.3503242995288183,17.244619158304463,-16.46851888433004,-5.124171270054049,261.0015785751465,33.85741323771906,15.12786777954562,63.30686950838455,17.40848191525418,138.97772920299147,700.747615326494,1.274,1.0226061614050743,0,5.882220087620079,30.000012855656493,0.0995177736284485,1.1482173209543125e-05,-0.2749462286785621,0.5280125687970838,0.0288640703758437,2.825605640953863,17.29441683345731,34.22649778441791,24.38946771381745
1.09,31.222177927578567,131.01047020664802,20.811697146791083,1.4714129766931452,2.0790253351234367,15.569574659928756,-16.58799274080389,-5.216798330775345,246.54375332456465,34.00695834106795,15.226039887651428,63.065039857180565,17.884386742877282,139.51096170439547,706.9313495236894,1.274,1.0225512795791307,0,5.896451468161748,30.000012855656493,0.099957670323247,1.1859849450003304e-05,-0.2778528373179853,0.532286260275426,0.029297208464611,2.546851419137897,16.955976014247007,34.333459217484005,23.340697142202902
1.1,31.22217721431561,131.01047156982474,21.109038212807693,1.3718160777099204,1.8057765522388547,33.64018343660709,-16.703112957602247,-5.310483770350767,413.1890617384087,34.18066268197504,15.335214005042891,62.81888753727553,18.35491583955609,140.03931255283203,714.1512755557054,1.274,1.0224981043155532,0,5.910617789682622,30.000012855656493,0.100468581786746,1.2240059847174444e-05,-0.2805908414990482,0.5360546512306616,0.0297361803978202,2.2676166230259844,16.605942205917472,34.46426644320712,37.93227072030032
1.11,31.222176490613435,131.01047294373433,21.408514311443188,1.259884065710509,1.5177791752011065,23.82633960986489,-16.953380849030133,-5.479221874120258,324.1593910379213,34.63467556586544,15.567010221556156,62.56860694542923,18.81954468325436,140.5621997037323,733.2279555838135,1.274,1.0224548851875197,0,5.924600646716569,30.000012855656493,0.1018034239501825,1.2622383712895874e-05,-0.2831561190381048,0.5393090400451724,0.0304057552733993,1.972457899572578,16.12764628459308,34.87305987855451,29.75119247631456
1.12,31.222175742503257,131.01047434178943,21.71399748799389,1.157237923757655,1.2439536738020411,7.210008943987938,-17.057217336007614,-5.574555542971886,172.7328179403806,34.852465336128084,15.697264066653084,62.314404878591965,19.277779067874057,141.07907002030487,742.4565315378005,1.274,1.0223979224661404,0,5.938520325091345,30.000012855656493,0.1024439373913808,1.3006035054432012e-05,-0.2855596153031719,0.5420554323007059,0.0308557615655722,1.6989437666738112,15.761641794532665,35.04784977166535,19.339300962595917
1.13,31.222174995236514,131.0104757387277,22.01820663039541,1.0608965288008851,0.978598893681606,28.370913062574207,-17.032951536065312,-5.605255330420185,367.5328077894322,34.87130400853015,15.740719259211533,62.05648923191151,19.729164243736864,141.58940962609816,743.2376656824698,1.274,1.0223460397860296,0,5.952554408265767,30.000012855656493,0.1024996628904282,1.3390936928510892e-05,-0.2877781254494952,0.544261051437779,0.0311113785607938,1.4432767550464916,15.483997172898462,35.02501448966718,33.562613625182664
1.14,31.22217424754544,131.01047713614778,22.321603047633324,0.950783413608648,0.7008716268633858,14.318510860240712,-17.20879850643095,-5.746437805027812,239.6953177322812,35.29151147418354,15.9621543352815,61.79509462776812,20.17325683638091,142.09271224192744,761.2357855146009,1.274,1.0223022138470996,0,5.966369478005809,30.000012855656493,0.1037351632389433,1.3776961097397288e-05,-0.2897952865813299,0.5459083871598489,0.031706054976008,1.1811710487239775,15.035901405052291,35.401601386297564,23.11242191413146
1.15,31.22217346874882,131.010478562712,22.63246069304926,0.8502828433776143,0.4337387583967395,13.9790774058083,-17.1916994045406,-5.7883654368270685,237.4125115347709,35.39627528971483,16.044779622091706,61.53047571828465,20.60963887320462,142.58849492462727,765.7391279993589,1.274,1.0222426194541194,0,5.979993054738337,30.00001285565649,0.1040434688757746,1.4163073997359284e-05,-0.2916252636293389,0.5469994635448265,0.0320000290901796,0.9545137051333028,14.723375829670507,35.46440616382368,22.901404060972244
1.16,31.222172698531192,131.01047998090317,22.939956837923777,0.7475075267246261,0.166915803153739,41.474860461137546,-17.190295733991498,-5.842294118464493,490.043774385954,35.567244323795904,16.15755360494669,61.26288646171773,21.037925408756145,143.07630674477832,773.1314149440337,1.274,1.02219674531104,0,5.993794203781238,30.000012855656493,0.1045463763721174,1.4549314836842056e-05,-0.2932475459250047,0.5475166473759272,0.0323325115977463,0.765915665786185,14.386053140620756,35.59346335975722,45.274747025903544
1.17,31.222171913367063,131.01048141258153,23.25040184362677,0.6353396298800099,-0.1006315218477746,4.647867049018542,-17.39423402572689,-6.01204619485388,153.70937929500428,36.153234867770365,16.458772319050553,60.99260247935525,21.457756807123378,143.55572018687786,798.7930154245273,1.274,1.022149394360584,0,6.007283847960619,30.000012855656493,0.1062692095702687,1.4935136730848332e-05,-0.2946600626078169,0.547454343011099,0.0330225287123457,0.6432594604193479,13.892679984207778,36.13742771340945,18.98174767760241
