Time,Latitude,Longitude,Altitude,Angle of Attack,Angle of Sideslip,X-Acceleration,Y-Acceleration,Z-Acceleration,Thrust,True Velocity,Ground Velocity,Pitch,Roll,Yaw,Dynamic Pressure,cp,cg,parachute_deploy_gain,Wind Speed,Wind Direction,Mach,omega_x,omega_y,omega_z,Cmq,Angle of Attack(total),Angle of Attack(gust),True Velocity(gust),Acceleration
0.0,31.222216000000007,131.010392,3.000000004412624,0.0,0.0,0.0,0.0,0.0,2.2828121974499247,0.0,0.0,69.99999999623412,0.0,119.9999999935444,0.0,1.274,1.0271675151847728,0,0.0,0.0,0.0,0.0,0.0,0.0,-0.0,0.0,90.0,0.0,0.0
0.01,31.22221599999084,131.01039200000497,3.000002745347096,0.0,0.0,0.0,0.0,0.0,34.242186961749226,3.465174813755316e-14,2.8705476994166025e-14,69.9999999962611,-2.1713911667908447e-11,119.99999999352175,7.352495975525499e-28,1.274,1.0271659134330349,0,0.0,0.0,1.0183245502395064e-16,-3.3305335486039093e-18,7.169286865560398e-18,5.624298769768554e-18,-7.715917190115602e-34,0.0,89.99999999999979,3.465174813755316e-14,0.0
0.02,31.222215999994315,131.0103920000094,3.0000030495639742,0.0,0.0,0.0,0.0,0.0,25.871876237766216,3.8197434737535036e-11,2.4171837235633357e-11,69.99999999628672,-1.1921727947863515e-11,119.99999999353136,8.93414285188691e-22,1.274,1.027164492361118,0,0.0,0.0,1.1225230367947217e-13,-6.657678965418802e-18,1.4338573731120796e-17,1.1241821275959074e-17,-1.7010872994127372e-30,0.0,89.99999999975682,3.8197434737535036e-11,0.0
0.03,31.222215999994315,131.0103920000094,3.0000030495639742,0.0,0.0,9.81877837424427,-2.5122800045972096e-05,3.3498614629347925,180.34219359854663,1.2659015405517447e-10,1.1364406173918436e-10,69.99999999631459,-1.6431898037347223e-11,119.99999999352724,9.812605835254651e-21,1.274,1.0271551940870716,0,0.0,0.0,3.720154642239108e-13,-9.991600645811728e-18,2.150108433310316e-17,1.6859343782149594e-17,-8.453698244545225e-30,0.0,89.99999999919412,1.2659015405517447e-10,10.374487003414373
0.04,31.222215999994315,131.0103920000094,3.0000030495639742,18.83801224594347,-0.0001111777826462,48.68248476615645,-1.016330065874988e-05,3.3497854396877287,548.635972453808,0.1556173050466994,0.0975908358443652,69.99999999633813,-2.0932768807056278e-11,119.99999999352085,0.0148286043323172,1.274,1.027133720825283,0,0.0,0.0,0.0004573186944143,-1.3322134194415637e-17,-1.04744143520903e-11,1.336824254131964e-11,5.0626055458604615e-15,18.83801224625964,89.06236267790787,0.1555998412814392,48.79759610369246
0.05,31.22221599164764,131.01039201704114,3.002326315126219,5.772385609593056,-4.395076213712875e-06,71.20344550265034,4.905512691849684e-05,3.349217396035405,761.6984298824663,0.8326471944351852,0.3620326097059287,70.00000001316391,-1.0866255162484559e-10,120.00000000231074,0.4245281043148827,1.274,1.027093426565204,0,0.0,0.0,0.0024469331205246,-5.0245994431125096e-18,-7.32924164976824e-07,2.217344936947165e-11,1.895424184525467e-09,5.772385609594774,84.74112356985832,0.8326465040582279,71.28217104309611
0.06,31.22221596664444,131.01039206837547,3.015081730143309,4.056581213689704,3.169093567502233e-05,53.16249142470188,0.0001203825427859,3.3481235983850643,590.4875390737236,1.657216205300742,0.6755452977614796,69.99999964391398,-3.9285905645317736e-10,120.0000000287861,1.6816755551786196,1.274,1.027050317124926,0,0.0,0.0,0.0048701272653724,3.095757869075056e-13,-7.483541766772344e-06,3.074135420506017e-11,3.8518749565858254e-08,4.056581213813337,79.59316473687034,1.657221183301277,53.26781792157489
0.07,31.22221592883117,131.0103921460222,3.034593611434361,4.115662018628709,6.450869598349036e-05,81.18203554989698,0.0001593212642178,3.347059402768047,855.2937749779172,2.099899704220947,0.8579771146174259,69.99999543281565,-8.233801910783518e-10,120.00000006883089,2.700101932075157,1.274,1.027003201295312,0,0.0,0.0,0.006171060252819,3.4704292086287e-12,-2.6327204536316785e-05,1.9541142932033486e-10,1.7170712165327165e-07,4.115662019133419,76.90111966094352,2.099909837223217,81.2510043180746
0.08,31.22221588914193,131.01039222747755,3.0542761843835606,3.459696193892355,8.037433511260004e-05,16.298214211652088,0.0002413456836072,3.344878926597744,241.2171988638792,3.051964775152957,1.2149999716613011,69.99998042886442,-1.0128995578004475e-09,120.00000011111383,5.703497661025892,1.274,1.0269597189470347,0,0.0,0.0,0.0089689344021769,1.458982438104473e-11,-5.702803872814215e-05,7.043261397829576e-10,5.405702492731987e-07,3.459696194824858,71.30331929508368,3.051977400323993,16.63790856991177
0.09,31.2222158241468,131.01039236098703,3.0886872184095737,4.313676956300389,0.0001337561018991,50.35975918308536,0.0002293282821279,3.344215841840564,563.0937377043203,2.893161298572128,1.191209213966114,69.99994788602814,-7.098432023887522e-10,120.00000018106356,5.125380275808925,1.274,1.026918932011013,0,0.0,0.0,0.0085022553945842,3.8672912027154325e-11,-0.0001115933708951,2.016054215232918e-09,1.0027525988343615e-06,4.313676958370176,72.2316578138625,2.893182308931483,50.47067588835877
0.1,31.2222157788302,131.01039245392113,3.109877853389092,4.035124630954496,0.0001457499816535,47.804664812504015,0.0002878217657545,3.341734392237128,538.7437595981891,3.5677148583138303,1.4531247507621967,69.99988403958329,1.9248461973355822e-09,120.0000002323013,7.7939962029572305,1.274,1.0268846934974103,0,0.0,0.0,0.0104845969583028,8.579678749070606e-11,-0.0001726817043215,3.984565639703107e-09,1.913455350430327e-06,4.0351246335824245,68.43243098813296,3.567737752667411,47.92132267234452
0.11,31.222215703308,131.01039260899836,3.148841432727305,4.043401107254707,0.0001752764476999,37.67622367577205,0.0003286462930162,3.3392563999062723,442.86563930529127,4.034183355956686,1.6436552022667772,69.99978525353545,7.302513231814865e-09,120.00000031883242,9.96528118825134,1.274,1.026848594915519,0,0.0,0.0,0.0118554331868328,1.5870341853361987e-10,-0.0002596204409236,7.232030302688121e-09,3.252930323390323e-06,4.04340111104746,65.92012987243639,4.034210888316708,37.82391391539392
0.12,31.222215627491828,131.01039276462643,3.186995101203875,4.17874459224363,0.0002066711490009,41.15991989399172,0.0003576945202315,3.336766085769504,475.58594813540793,4.361857560629481,1.7865750500940407,69.99963665601238,1.781774420198147e-08,120.00000041104812,11.649831899889556,1.274,1.0268114448194128,0,0.0,0.0,0.0128183893919737,2.682972478760441e-10,-0.0003710216542429,1.2215991071490164e-08,5.026311388647148e-06,4.178744597345269,64.21681651392016,4.361890024457652,41.29495143136631
0.13,31.22221554594398,131.01039293200228,3.2277173449026786,4.202734874672792,0.0002327160860324,45.44886120763352,0.0003953741266062,3.333578629398489,515.9156326236897,4.792165672014363,1.9646716520715424,69.99942424225341,3.613383418913551e-08,120.00000051758742,14.061726603124043,1.274,1.026779572895131,0,0.0,0.0,0.0140829618979635,4.248908088871395e-10,-0.0005056103199642,1.908859219307828e-08,7.5253154423526356e-06,4.202734881104192,62.048594618540655,4.792202226971676,45.570952718869485
0.14,31.222215454191247,131.01039312033683,3.2737880595608355,4.184830647080848,0.000257138757548,42.32232525579263,0.0004369426767266,3.329727443445437,486.2390860568421,5.269261304374574,2.158791628597544,69.99913473613935,6.515851355725497e-08,120.00000064630268,17.000925061330125,1.274,1.0267449573927567,0,0.0,0.0,0.0154850332441425,6.382432869666793e-10,-0.0006690086306358,2.8426433029675884e-08,1.0948547100483978e-05,4.184830654966803,59.74181173116622,5.269301695636157,42.45310707234106
0.15,31.222215353826755,131.0103933263496,3.3242182719560263,4.21963947489699,0.0002846467688673,40.886944113003565,0.0004726792395108,3.325585650885676,472.5421858721398,5.6781946837482895,2.329510773545807,69.99875162806286,1.0876776246115984e-07,120.00000079954532,19.742017654108928,1.274,1.0267115958081523,0,0.0,0.0,0.0166867950518804,9.204756288136623e-10,-0.000865746478554,4.08948221429571e-08,1.526771148078443e-05,4.219639484480408,57.84996018384879,5.678239395958187,41.02196629910223
0.16,31.222215247130432,131.01039354534575,3.3775922280208457,4.253495568077899,0.0003118339050386,32.26872905470846,0.0005078415214353,3.32090791922544,391.1218908297597,6.081244877834229,2.4981889727471702,69.99825581174558,1.7187028096464329e-07,120.0000009800088,22.644030778355887,1.274,1.026675762255412,0,0.0,0.0,0.0178712695992133,1.2856146928958252e-09,-0.0010961187242953,5.6923362293832417e-08,2.0702404729358337e-05,4.253495579487569,56.06022383757386,6.081293860589489,32.43916312841722
0.17,31.22221513260033,131.01039378041813,3.4348437275053194,4.364838523348639,0.0003448792023946,40.840448242802736,0.0005326487904353,3.3162727284953744,471.78125980632416,6.362544479165355,2.6250789114832647,69.99762801982864,2.5997588617291615e-07,120.00000119506798,24.78723182122683,1.274,1.0266409836796937,0,0.0,0.0,0.0186979513961862,1.747791994374917e-09,-0.0013624931601664,7.706724512977917e-08,2.6923621797558364e-05,4.364838536947241,54.85936171416122,6.362598652663785,40.97486885600156
0.18,31.222215014088988,131.01039402363364,3.4935801365785646,4.353948305387995,0.0003681615230806,33.992183768165326,0.0005718025428208,3.310131992647221,407.1015672119096,6.81502088160835,2.810667639293692,69.99684761766231,3.794979223522764e-07,120.00000144728236,28.437950785509614,1.274,1.0266048342046536,0,0.0,0.0,0.020027681385988,2.3221419748804155e-09,-0.0016616990447559,1.0147209890543081e-07,3.517105786247627e-05,4.353948320923495,52.99157233768714,6.815078712285162,34.152972512863755
0.19,31.22221488419521,131.01039429023237,3.558399965607869,4.432620772533925,0.0003996774584738,38.45149959021069,0.0005986099513107,3.304145139297767,448.95313283182486,7.1223367465208405,2.946425726785696,69.99589577323147,5.440084577183829e-07,120.00000176148238,31.060341085698347,1.274,1.026566130444714,0,0.0,0.0,0.0209308229359413,3.022391489754689e-09,-0.0020041563310821,1.3135864879722746e-07,4.433199397898183e-05,4.432620790516937,51.77883352025967,7.122399527709208,38.59320142454953
0.2,31.222214751373183,131.01039456280608,3.624052454705669,4.443889400961181,0.0004246617145652,35.23432408779927,0.0006337972852267,3.2968110145188256,418.5156301991588,7.530482904611057,3.1167566004785483,69.99474776398331,7.478025600151903e-07,120.00000211715036,34.72195181863731,1.274,1.026529240027363,0,0.0,0.0,0.0221302820454282,3.866698391504749e-09,-0.0023849544920781,1.668144671071589e-07,5.57780533277244e-05,4.443889421210987,50.22448880200342,7.530549610317194,35.38822625098952
0.21,31.222214608673173,131.01039485566503,3.6948551453492566,4.493351735844891,0.0004538195602194,33.79371564104691,0.0006629296043866,3.2891790438445727,404.8187610144608,7.868284042829251,3.2629204975089228,69.99338155599101,1.0150082652278477e-06,120.00000255293388,37.906665490338085,1.274,1.0264923657015164,0,0.0,0.0,0.0231230169900677,4.871073773182836e-09,-0.0028117605859743,2.089322918608601e-07,6.870935089180403e-05,4.493351758715364,48.992529909481824,7.868355328639073,33.95340801819282
0.22,31.22221446109996,131.01039515850383,3.767700382407304,4.5412639153933885,0.000482649303782,41.008966751568416,0.0006914639179131,3.2808061382386606,472.5421858721387,8.20057841132235,3.4071691679735228,69.9917708347139,1.3454961520984431e-06,120.00000305929996,41.175744234065135,1.274,1.0264494137127138,0,0.0,0.0,0.0240995709751246,6.054779813287368e-09,-0.0032829112061357,2.580881224843564e-07,8.3609968899004e-05,4.54126394098788,47.82515604752711,8.2006542256977,41.13999323561041
0.23,31.22221430675399,131.0103954752338,3.843768625625224,4.52371495179584,0.0005047555656171,33.98493478127787,0.0007294889663961,3.2705214710765107,406.340642146096,8.647938096586296,3.5908865300848416,69.98989017772566,1.7539876018835507e-06,120.00000365514876,45.79040229326471,1.274,1.0264133390858623,0,0.0,0.0,0.0254142776666487,7.436335125872812e-09,-0.0038001790077148,3.1489825108822685e-07,0.0001020628978177,4.523714979897577,46.31461705147579,8.648017383405135,34.14194053232237
0.24,31.222214142622448,131.0103958120587,3.92493179063287,4.57837522350066,0.0005351929930195,35.051650311058864,0.0007555049947555,3.26053011385611,416.2328240017099,8.954297884844461,3.72617527247482,69.98771316795013,2.25257161141768e-06,120.0000043564586,49.09180568115741,1.274,1.0263750048312463,0,0.0,0.0,0.0263146218848643,9.034877387788232e-09,-0.0043732521010013,3.809642748985157e-07,0.00012161410144,4.578375254714954,45.32798984252032,8.954381952763216,35.20297212911011
0.25,31.22221397517227,131.0103961556623,4.0071748888306855,4.6034117733065,0.0005618935542827,36.03738579534623,0.000785606492708,3.249069743648399,425.3640807915084,9.311611941121669,3.8789349536029696,69.98520781816889,2.8559738498748624e-06,120.00000517181904,53.08749562138344,1.274,1.0263373768840591,0,0.0,0.0,0.0273647110956883,1.0873791100894836e-08,-0.0049950711786164,4.5609738277273444e-07,0.0001444478241125,4.603411807525074,44.2165428352526,9.311700203154778,36.183554686886296
0.26,31.22221379934012,131.01039651647062,4.09364247475714,4.621386912291471,0.0005881033207375,39.29107511182762,0.0008162761165496,3.236407051295005,455.80158342417656,9.67833954512075,4.034902068846398,69.98234620927953,3.5784678110229355e-06,120.00000612171208,57.350948423913096,1.274,1.0263006300381676,0,0.0,0.0,0.0284424679130479,1.2973286442992724e-08,-0.0056712051373577,5.414206381221602e-07,0.0001704578711045,4.621386949630312,43.12063533194282,9.678431924174348,39.42414126789902
0.27,31.222213616776543,131.01039689108487,4.183310605341074,4.617158109135719,0.0006115457810536,35.90419462403674,0.0008503454714941,3.221982799915672,423.8421996598744,10.088790784535757,4.205862468567124,69.97909721779352,4.436165972465058e-06,120.000007221354,62.31798301949865,1.274,1.026260090595354,0,0.0,0.0,0.0296487219805601,1.5355910600537293e-08,-0.0064045199323113,6.379142666348734e-07,0.0002006609239367,4.617158149547818,41.94410287616451,10.08888684592241,36.048472443180565
0.28,31.22221342607797,131.0103972823952,4.277051150896916,4.642105655370123,0.0006389739579882,41.51133203546672,0.0008785747638736,3.2071101123224945,476.3468732012228,10.432377224420517,4.35383399240675,69.97542808435722,5.446665372087172e-06,120.00000849080963,66.63429581008447,1.274,1.0262212716723291,0,0.0,0.0,0.0306584788590473,1.8045308789081613e-08,-0.0072006835403936,7.469524967369969e-07,0.0002332868227611,4.642105699250441,41.0023231023774,10.432477594215127,41.63503624837164
0.29,31.22221323001776,131.01039768469093,4.373143569786686,4.62134615173668,0.0006600657405645,33.17552944492765,0.0009148746278066,3.1894209319791806,397.9703104221098,10.876662296046485,4.536381530986506,69.9713027936179,6.629751536885327e-06,120.00000994797426,72.43000748232016,1.274,1.026183007522519,0,0.0,0.0,0.0319641703260467,2.1067646517035105e-08,-0.0080566154554079,8.688043379161898e-07,0.000272130659453,4.621346198772975,39.83162628795024,10.876765978930557,33.32848872465723
0.3,31.22221302403368,131.01039810736614,4.4744193758467325,4.664362353358112,0.0006905183788532,31.08096762732793,0.0009381960428197,3.172549142946348,378.1859457108735,11.168362145070317,4.66647911311536,69.96668711012893,8.005507138509574e-06,120.00001161892672,76.36634300732833,1.274,1.0261430389738484,0,0.0,0.0,0.0328214509167604,2.4447409007156216e-08,-0.0089829108229115,1.0056222251461646e-06,0.0003115527202986,4.664362404357781,39.09908960432563,11.168470611443622,31.242464973103964
0.31,31.22221281503337,131.01039853619727,4.576593712520673,4.700143580504286,0.0007196683316923,32.79732593144512,0.0009620705970519,3.154230688182399,394.1656220930229,11.470279728974068,4.800072153432283,69.96154070456518,9.597499105113692e-06,120.00001352112182,80.55022837857167,1.274,1.0261054058068628,0,0.0,0.0,0.0337087616009043,2.8214060606649844e-08,-0.0099686353219717,1.1565909895184251e-06,0.0003550834484269,4.700143635477137,38.36463422765983,11.47039277421126,32.94865339301887
0.32,31.222212598991007,131.01039897947376,4.68216432480395,4.718667719113184,0.0007464384342556,35.7316568886908,0.0009885845337584,3.133859770838664,421.5593934624264,11.808280530415894,4.946054328851105,69.95582953472353,1.14278227255889e-05,120.00001568218067,85.36654007972253,1.274,1.026068246703101,0,0.0,0.0,0.0347021168382987,3.2392058795580455e-08,-0.0110163301561155,1.3226102501723267e-06,0.0004039614423012,4.718667778018562,37.5686120062341,11.808397780690962,35.8688218659563
0.33,31.222212376029034,131.0103994369436,4.791055524254013,4.72141404831576,0.0007708346814671,35.42013590291081,0.0010176135371143,3.1111955852784385,418.5156301991632,12.181577273013426,5.104163223586657,69.94951809396906,1.351997394754887e-05,120.00001812674968,90.84831229869296,1.274,1.0260310883392356,0,0.0,0.0,0.0357992034445943,3.700677535501642e-08,-0.0121310534481307,1.5051409581878843e-06,0.0004588955105349,4.721414111097893,36.7208578211118,12.181698355442045,35.55651229220977
0.34,31.222212145785647,131.0103999093516,4.903491659547144,4.73024573449122,0.0007962944975467,27.63851074646407,0.0010446307681611,3.0871492806781062,345.4656368807584,12.53557620048282,5.2556261014174765,69.94256797855994,1.5899658158227497e-05,120.000020882338,96.20413272674828,1.274,1.0259901535019136,0,0.0,0.0,0.0368395817555172,4.208561016221623e-08,-0.0133180771902383,1.7057647550599631e-06,0.0005184333231541,4.730245801363397,35.94841996438923,12.535701282129995,27.810389570354005
0.35,31.222211909310875,131.01040039453565,5.018822212845608,4.780248518778662,0.0008286678570753,30.332092807652543,0.0010618579815451,3.063967690608957,370.5765700527057,12.774786382148209,5.367579971644358,69.93493776125636,1.8594985713558667e-05,120.00002397748868,99.9096898192772,1.274,1.025950003202184,0,0.0,0.0,0.0375426220587071,4.7658312175989686e-08,-0.0145774693288123,1.9252724355785177e-06,0.0005782798420984,4.780248590437683,35.44790728185619,12.774916548990808,30.486451961956565
0.36,31.22221166933814,131.0104008868675,5.135354490370708,4.798132156899578,0.0008554457330409,34.32674769697476,0.0010851169437774,3.0374319611165923,407.8625232777224,13.09301701329486,5.506730645516068,69.92658597246795,2.163521613217148e-05,120.0000274401514,104.94818266210537,1.274,1.0259105142325406,0,0.0,0.0,0.0384778908056978,5.3755109608570216e-08,-0.0158991451700967,2.162609490834569e-06,0.0006464142451675,4.798132232978766,34.796094028187134,13.09315138639638,34.46087058603792
0.37,31.222211421355144,131.01040139563804,5.255882891363927,4.797392186816851,0.0008791822061288,32.551601855236584,0.00111162791192,3.0078619428913056,391.1218908297639,13.457513730739372,5.661815946371007,69.91747693543164,2.5047738471809164e-05,120.0000313040604,110.87154396328836,1.274,1.025872170958032,0,0.0,0.0,0.0395491312153729,6.040098808671168e-08,-0.0172926678053148,2.420031948898497e-06,0.0007226353721561,4.797392267189059,34.07332166419882,13.457651832357364,32.69027405888565
0.38,31.22221116634284,131.01040191882743,5.379799334000849,4.811698494594017,0.0009057112478668,34.02947987649063,0.0011338447913587,2.9774881690446744,404.81876101445977,13.77554886562956,5.800899861213392,69.90756948297444,2.886339581486796e-05,120.00003560072224,116.17243393848278,1.274,1.02583050512925,0,0.0,0.0,0.0404838339452728,6.762496638941508e-08,-0.0187646375218858,2.69955777313946e-06,0.0008026686661094,4.8116985796350695,33.46655348088405,13.775691134419684,34.15949264475229
0.39,31.222210906095896,131.01040245274032,5.505993307722699,4.813508003664984,0.000929862892873,29.00025983045028,0.0011579891265804,2.9442136901860865,357.6406249338268,14.124492165837273,5.950648592462506,69.8968186645841,3.311602501056718e-05,120.00004036395212,122.13093644173792,1.274,1.02579027384009,0,0.0,0.0,0.0415093739609825,7.545934774906889e-08,-0.020311592409804,3.0013532510753577e-06,0.0008908380763632,4.813508093268025,32.821616487639595,14.124638228358922,29.149330452482886
0.4,31.222210638473225,131.0104030017851,5.635788650457906,4.841647069358873,0.0009592124397379,27.71178845184976,0.0011749448424961,2.91135549588368,345.4656368807565,14.390874239274588,6.07193451174791,69.8851815212744,3.783947407715338e-05,120.00004563180136,126.77947425345651,1.274,1.0257493418632293,0,0.0,0.0,0.0422922854866381,8.39343718693383e-08,-0.021938519432511,3.3271332720311508e-06,0.0009803271643914,4.841647164150728,32.348088166612904,14.391024912012275,27.864299944624147
0.41,31.22221036681104,131.01040355909262,5.767123077463226,4.86553909860892,0.0009876699832274,31.306062598221665,0.0011918093836199,2.876450850006428,378.9468707766882,14.663028799871563,6.195223154320929,69.87261222561014,4.307011032901644e-05,120.0000514391194,131.6183642808765,1.274,1.025708445186429,0,0.0,0.0,0.0430921644173401,9.308325447883581e-08,-0.0236371933433427,3.6760977501392174e-06,0.0010761942383903,4.865539198612839,31.87689439156756,14.663183942709727,31.437931330109585
0.42,31.22221008906472,131.01040412887247,5.901259531771367,4.867510642114694,0.0010118258958528,35.308283402190774,0.0012128114559048,2.8374461227958245,416.23282400171047,14.9952917972178,6.33928625560071,69.85906967380902,4.884273094936628e-05,120.00005782486392,137.64909586091787,1.274,1.0256701057426505,0,0.0,0.0,0.0440686959134695,1.0293499639582845e-07,-0.0254093547296826,4.049238334851429e-06,0.0011830797791891,4.867510747027452,31.315270489291198,14.995450734457847,35.422111438762386
0.43,31.222209804115888,131.01040471342728,6.038886819939341,4.854590670645608,0.0010330089741511,31.00586934514032,0.0012363751872706,2.794478603999558,375.90313951343126,15.369430568701889,6.497852263156962,69.8445117629242,5.519340856908871e-05,120.00006482835984,144.60167924299955,1.274,1.0256308158337524,0,0.0,0.0,0.0451682983415116,1.135186446762958e-07,-0.0272634397889413,4.449073329427772e-06,0.0013010625065656,4.854590780289497,30.70250814963406,15.369592833372094,31.13154422839874
0.44,31.22220951192321,131.01040531284193,6.180028459770617,4.866912332640401,0.0010595850174406,28.57707721036899,0.0012525768202179,2.752165534925872,353.07501253892326,15.659290812546615,6.627318538707029,69.82889155423543,6.216182865383864e-05,120.00007249162944,150.1053167542629,1.274,1.025586171750536,0,0.0,0.0,0.0460202245100907,1.2486676023179565e-07,-0.0292060158163984,4.8779154055816594e-06,0.001420032405556,4.866912447705031,30.24619499837236,15.659457251771938,28.709297424144207
0.45,31.222209215425703,131.01040592106523,6.322872201489905,4.881836476567178,0.0010866574689855,33.31904824532484,0.0012669045761511,2.7082028218433374,397.2093853562887,15.934249290371609,6.751662050993672,69.81215834018458,6.97909417564726e-05,120.00008085697964,155.42080512416243,1.274,1.0255397023523487,0,0.0,0.0,0.0468283602442113,1.3701614206272197e-07,-0.0312276295846745,5.334643585560923e-06,0.0015449645531859,4.8818365972149325,29.82567893138932,15.934419982127675,33.428929688274074
0.46,31.22220891307435,131.0104065412864,6.468371919199588,4.869610441729251,0.0011078049156487,38.95909776354321,0.0012868374716666,2.6582856015412624,449.7140588976424,16.292139278621757,6.904766425053949,69.79426683863348,7.812149592850748e-05,120.00008996920153,162.4785746623087,1.274,1.02549635315424,0,0.0,0.0,0.0478802236363867,1.499987870203256e-07,-0.0333272350234362,5.819761874615242e-06,0.0016858511402973,4.869610567434908,29.29014635640275,16.292313292210977,39.04968351401366
0.47,31.22220860266524,131.01040717804253,6.6178810515614845,4.838450928223533,0.0011247917292402,26.253747818137555,0.0013104398935566,2.6026193242279367,331.0078106302504,16.710658191447514,7.078951441335346,69.77517236812905,8.719457259907165e-05,120.0000998741591,170.9309671061642,1.274,1.025453319323251,0,0.0,0.0,0.0491102725711187,1.6384464803343264e-07,-0.0355167087264168,6.3368207228363735e-06,0.0018427306558807,4.838451058652396,28.68386015667837,16.710834873319172,26.382435512333956
0.48,31.222208284201663,131.0104078313267,6.771393590864176,4.869339340099417,0.0011561785713505,25.860860976019296,0.0013165328518772,2.5543454292827983,327.20312230115803,16.911139899671,7.177575416403102,69.75482343794755,9.70562828082882e-05,120.00011062072316,175.0543877818846,1.274,1.0254092882449153,0,0.0,0.0,0.0496995461609974,1.7858865391586845e-07,-0.0378054080201581,6.88909442277235e-06,0.0019849793891693,4.869339477030596,28.40887970825325,16.911321511776286,25.986704537635287
0.49,31.22220796480208,131.01040848648364,6.924537656029012,4.881367714530694,0.0011829003785372,32.565703383222065,0.0013261973190012,2.5011623511055703,389.6000096981238,17.169005224738054,7.296160258358563,69.73316318155707,0.0001077573203115,120.000122255028,180.4309832312717,1.274,1.025367445590036,0,0.0,0.0,0.05045746454003,1.942747077649401e-07,-0.0401641298712614,7.47069711110948e-06,0.002140948887153,4.881367857509675,28.058569663954906,17.169191034294997,32.66161128464712
0.5,31.222207637929923,131.01040915697027,7.081324512896956,4.862566137860805,0.001202418260511,33.47759680712428,0.0013425340759632,2.4399894027711366,397.970310422106,17.52898693231981,7.450304424940405,69.71015149227495,0.0001193385310595,120.0001348274002,188.0736471953394,1.274,1.0253278572281015,0,0.0,0.0,0.0515154948878309,2.109295159784217e-07,-0.0426011733481599,8.084173008518589e-06,0.0023184335011768,4.862566286171007,27.57768313050809,17.529175807738486,33.56639745442473
0.51,31.22220730314019,131.01040984370235,7.24202048914867,4.8479762258125,0.001223054804074,25.49162310288008,0.0013562860883156,2.3767006597692686,323.39843497208153,17.86914397471067,7.597652147346554,69.68574349602717,0.0001318441288964,120.00014838524436,195.4407439266201,1.274,1.025286455263166,0,0.0,0.0,0.0525152689856776,2.2858192086249162e-07,-0.0451315948093539,8.734206149830708e-06,0.002503767471626,4.847976379721193,27.13799345359824,17.86933609171003,25.602178740977283
0.52,31.222206962738102,131.01041054193402,7.405210501673173,4.865306299521403,0.0012516517170965,30.733671928447727,0.0013599291289974,2.317711624364424,372.098451184342,18.08534843773428,7.701914987606457,69.65988568649581,0.0001453248538387,120.00016298000436,200.19561780583155,1.274,1.0252426840672306,0,0.0,0.0,0.0531507657929359,2.4726951523704535e-07,-0.0477531686556663,9.421346966092632e-06,0.0026812161964639,4.865306460134566,26.8699055233151,18.085545046726228,30.820940596104087
0.53,31.222206619320115,131.01041124632013,7.569307468221277,4.848802699234936,0.0012715119568563,32.301199055744725,0.0013711327835325,2.2490252325653923,386.55624643486095,18.41963113311156,7.8474319110539055,69.6325258319474,0.0001598315062727,120.0001786629144,207.6614205945027,1.274,1.0251993415311351,0,0.0,0.0,0.0541332845214831,2.67031759303889e-07,-0.0504479325599339,1.0141887756417996e-05,0.0028848299490111,4.848802865552398,26.45837260670532,18.419830861742675,32.37940050117613
0.54,31.22220626697288,131.01041196903336,7.737918664599091,4.831496690588052,0.0012913635058467,28.31291960103712,0.0013809098107221,2.177242866245296,349.2703242098436,18.75116898748492,7.992112829440902,69.60362200959217,0.0001754082864028,120.00019548734956,215.20067397992847,1.274,1.0251561018460285,0,0.0,0.0,0.0551077428911958,2.878941684235108e-07,-0.0532336286085667,1.090122304443916e-05,0.003098869611663,4.831496862756785,26.061835558272342,18.751371834390056,28.396510432451375
0.55,31.222205908994248,131.01041270328463,7.909026079894722,14.193861641631903,17.30827178555825,30.54741720668075,-1.1206419029467845,1.502983954635326,365.2500005919912,21.8890205352718,8.113323699629928,69.57312211246325,0.0001921068626005,120.00021350480982,293.246240929438,1.274,1.025112921033824,0,7.519210697837553,0.0,0.0643296876565522,3.0989272306468813e-07,-0.0561100530405476,1.1700476995263424e-05,0.0038128415497007,22.245252871972426,41.161555875709446,24.566634922506456,30.604893351252613
0.56,31.222205546564343,131.01041344664463,8.081909946161325,4.78601942683673,-21.366600787627515,28.474450405417755,0.956371538535371,1.890667287178467,346.22656194657776,20.75848970834395,8.24480645417527,69.54097415464405,0.0002099796112633,120.00023276987916,263.73276802148337,1.274,1.0250709539098009,0,7.546643356335294,210.00008998959544,0.0610072872560981,3.3296850471894137e-07,-0.0663687823322451,0.0135876122741358,0.004276949703686,21.87156437366452,4.49039450669235,17.47948383862196,28.553171368538425
0.57,31.222205179969823,131.01041420541662,8.258425056245468,4.7829480583340125,-21.10952666087496,28.164414941567724,1.2593839087970786,1.8123641186755208,343.1828296833045,21.016192677716543,8.37289208266568,69.50294694945941,0.0210379424507234,120.02246589255763,270.3169687546744,1.274,1.0250279191823897,0,7.573861694433826,210.00008998959544,0.0617647755115724,3.677115471609596e-07,-0.0693894873062365,-0.0011348623536892,0.004527045916323,21.620445210656893,4.501408954205654,17.774825336344872,28.250751857768364
0.58,31.22220480268672,131.01041497159787,8.43675262924997,4.767381937013854,-20.873977206807528,37.100464784453706,1.5752740524988371,1.7310079405339556,426.12500585731766,21.28345997955285,8.500335071523159,69.46319069248744,0.0192632485580886,120.02057117047131,277.23129371076845,1.274,1.024981594484354,0,7.601138657571382,210.00008998959544,0.0625503768661307,3.9572259375100443e-07,-0.0724945727369598,-0.0160652224564335,0.0047896906920545,21.387749782854343,4.496588578146907,18.07663701835774,37.174216387883114
0.59,31.222204420868405,131.01041575023262,8.61782311976498,4.717710656840096,-20.50894243837464,30.07941912431768,1.914726067001296,1.6345340176077832,360.68438819710633,21.677384258898147,8.675518286819463,69.42165625362692,-0.005293872831898,119.99434405021792,287.5835169790181,1.274,1.0249386802161349,0,7.628216195694685,210.00008998959544,0.0637082187706912,4.169402640176341e-07,-0.07567887841808,-0.0312266147506763,0.0050925318632663,21.021757967894374,4.469459100433998,18.52420214601039,30.1845876603067
0.6,31.222204027956227,131.0104165478975,8.803799550561987,4.7014637084292845,-20.282008612408543,26.74049951908709,2.2555938217171247,1.547547366285153,329.4859594986072,21.931716707063,8.798262023125996,69.37828716548223,-0.0528346875758373,119.9435559642944,294.36606183930473,1.274,1.024891335813742,0,7.655233018743741,210.00008998959544,0.0644558181336986,4.312856798520481e-07,-0.0789638206767479,-0.0467116156762187,0.0053758261716686,20.79740775118064,4.465717610977954,18.81194654647818,26.8800468911377
0.61,31.2222036315847,131.01041734985986,8.990322182221494,4.686323044180078,-20.06492061384948,31.342339989325808,2.6053314501878053,1.4590377172671127,372.0984511843332,22.172353842077783,8.915906038719124,69.33300383926996,-0.1236862547903361,119.8678427676993,300.85574288764883,1.274,1.0248423929069768,0,7.682496308151929,210.00008998959544,0.0651631713606488,4.3865372769754613e-07,-0.0823245772938473,-0.0624054325610793,0.0056660182375441,20.582931251540973,4.4635758651110455,19.084591820941142,31.48426303778187
0.62,31.222203228227883,131.01041816341555,9.179522940029871,4.649753249782751,-19.76810478014068,38.97338143068552,2.976764025177877,1.3591579066151025,442.86563930529206,22.493428069469527,9.063986034430895,69.2857297187346,-0.2179846937816775,119.7670430908481,309.626491041718,1.274,1.0247996097896497,0,7.709364174189853,210.00008998959544,0.0661069296799029,4.389881181619984e-07,-0.0857579121317252,-0.0782915913710972,0.0059876804543543,20.28627723447608,4.448478146727782,19.44950115617415,39.110521530892555
0.63,31.22220281597832,131.01041899250973,9.372539484398096,4.591718760905647,-19.393355153503656,22.10696772275949,3.376257172746775,1.2460640818419526,286.11251274707456,22.90086338881484,9.244686305208871,69.23637862963123,-0.3358250164769337,119.64103827866616,320.9389867626345,1.274,1.024756158874558,0,7.7361342407794975,210.00008998959544,0.0673045058963984,4.3223841510307457e-07,-0.0892770006873321,-0.0944242911392644,0.0063461767846961,19.90915307274556,4.420737782030527,19.91239772952135,22.397986741841564
0.64,31.222202393980407,131.01041983896013,9.56988181575476,4.594109782540545,-19.257448021655414,21.70850503058629,3.7442952028270526,1.1593295179927932,282.3078244179702,23.03503368251677,9.3225483282507,69.18484483954559,-0.4773668675934739,119.48963925208544,324.70444854949653,1.274,1.024708534665538,0,7.76297790561756,210.00008998959544,0.0676989764760864,4.183333136284594e-07,-0.0928961421634984,-0.1108622706864599,0.0066420022628182,19.777613844936766,4.435262217425002,20.06671337979153,22.05953268227125
0.65,31.22220197223282,131.0104206819513,9.765523720241374,4.577217440917243,-19.05060334933157,38.35866335941248,4.131262686624557,1.062280598564418,436.7781447787504,23.243138838374456,9.428359344079666,69.13100165833413,-0.6428388677485166,119.31258164225984,330.5916875057463,1.274,1.0246641738210605,0,7.789953774066227,210.00008998959544,0.0683107393761187,3.9719603257544643e-07,-0.0965653565275503,-0.1273858207398612,0.0069665932504163,19.57289630422504,4.438925242691757,20.30551089602825,38.59511401948071
0.66,31.22220154181569,131.01042154016517,9.9648557950256,4.506158884069327,-18.63909336732439,32.623880093283795,4.577379644981011,0.9338810178985518,383.5125151715984,23.68879032412864,9.624044747987693,69.07473972117178,-0.8321197936561177,119.10997390955843,343.3838231249836,1.274,1.0246195561629028,0,7.816243499740371,210.00008998959544,0.069620649436899,3.688334284375885e-07,-0.1002963910685373,-0.1440440458589268,0.0073743578315907,19.157232917195632,4.410031801898946,20.812337179595275,32.95666989413276
0.67,31.222201098783408,131.01042242208405,10.170274138928862,4.4680665587285455,-18.35851486520372,22.45691999839332,5.006245835530023,0.8201715187062263,289.15624401033847,23.97532607065974,9.759789712218089,69.01593062085854,-1.0451432374506924,118.88186445024124,351.73415473203875,1.274,1.024572383541697,0,7.84258318199474,210.00008998959544,0.0704629327559077,3.332276812742164e-07,-0.1041305402695138,-0.1610088170828515,0.0077487222623545,18.87618851801888,4.406270807467475,21.140668804065875,23.022780772532595
0.68,31.222200652824547,131.01042330726628,10.375914699465632,4.452020962220137,-18.16601399125787,28.03809308875285,5.417391358070485,0.7181784358685755,340.89999248584934,24.145191635017017,9.85152920288234,68.95440787699584,-1.282076854351461,118.62804933702976,356.7288506818057,1.274,1.0245245285832842,0,7.869264787233213,210.00008998959544,0.0709623283761962,2.903065069716376e-07,-0.1080372925410004,-0.178147114436575,0.0080962372001042,18.685707031787462,4.420271189073129,21.339249297712136,28.565688744467792
0.69,31.222200202504663,131.01042419873568,10.582650066171515,4.407320648133972,-17.867379598125915,34.5193164468594,5.868036226490298,0.5971861304702928,401.0140726853658,24.44275231309247,9.991760254231655,68.89001056918273,-1.5428658703164355,118.3485610004438,365.5682868943677,1.274,1.024479631064582,0,7.895521730632707,210.00008998959544,0.0718370219494212,2.4005654846452384e-07,-0.1119935678132265,-0.1953602051271869,0.0084959791983189,18.38569300276604,4.420163381530609,21.6814191713848,35.019618621399154
0.7,31.22219974246916,131.01042510819912,10.793769993539897,4.3476780231540095,-17.515840530985127,28.930529661240907,6.349307135387581,0.4635845973259771,349.270324209851,24.80666453691148,10.157326777876108,68.82257992863062,-1.8272860632478427,118.04361168462344,376.5271027685629,1.274,1.0244351749185203,0,7.9215070873798785,210.00008998959544,0.0729067302407295,1.825027032256781e-07,-0.1160204472124837,-0.2127331347108668,0.0089323217327213,18.030923224495616,4.415656789557898,22.097939382675577,29.622696674312106
0.71,31.22219927427011,131.0104260325412,11.008356348171354,4.307666786458031,-17.242011855846656,23.74817122406846,6.8121296640959965,0.3412387708318297,301.3312640634036,25.060794260018973,10.281447819886475,68.75193157139627,-2.135214061520053,117.71330367084192,384.2732985832592,1.274,1.0243880468141104,0,7.947626567274577,210.00008998959544,0.0736537952218835,1.1763996140336805e-07,-0.1201276373635761,-0.2303025869811797,0.0093430842756979,17.75610349459009,4.4293368857613,22.39311844608492,24.708241356819563
0.72,31.22219880184642,131.01042696316577,11.223992160736923,4.274221839122373,-16.995515764627672,29.075563631372184,7.26867911295225,0.2228411244855216,350.7922053414578,25.268007167709484,10.387920728427211,68.67786203715853,-2.4665525326268165,117.3577091851298,390.64613880585455,1.274,1.024337302174265,0,7.973695068776099,210.00008998959544,0.0742629756191899,4.5455192829959206e-08,-0.1242926429021198,-0.2479731898036475,0.0097467521115676,17.50935026187108,4.453439556443956,22.63733543716291,29.971182070378923
0.73,31.22219832388108,131.01042790305468,11.441503499463003,4.2196381058850365,-16.67276668963999,36.7815218359622,7.765547482349981,0.087008519397866,422.3203185282354,25.576629169001567,10.533133935476728,68.60017038175309,-2.821036474548203,116.97707817154011,400.2387150333741,1.274,1.024292465384646,0,7.999487714756033,210.00008998959544,0.075170203836845,-3.4022227151017784e-08,-0.1285043836809359,-0.2656972806812184,0.0101998946296789,17.1837389039883,4.471059552313013,22.99448215386713,37.59244135132014
0.74,31.222197837150407,131.01042885978012,11.662947602102252,4.148014288513757,-16.29016118585943,22.950674994101902,8.303984356148339,-0.0655134638477962,294.4828134710563,25.97105498392824,10.711235278299291,68.51865191899695,-3.198304015905937,116.57176244752196,412.66955550889406,1.274,1.0242470321640116,0,8.025106566135301,210.00008998959544,0.0763296195674375,-1.2073933828540324e-07,-0.1327783209253951,-0.2835348777740556,0.0107014336789689,16.796102936139647,4.485445953046633,23.44653799817869,24.40684188677421
0.75,31.22219734162377,131.01042983381376,11.888403784425668,4.115734910526384,-16.055786183718176,26.789089383863672,8.769627696900022,-0.185403918496308,330.24688556441737,26.130907777055462,10.800183200305948,68.43308038264564,-3.5980506255533924,116.14204998913976,417.75613705253016,1.274,1.0241984712898409,0,8.050779576019949,210.00008998959544,0.0767996265115926,-2.146625342183089e-07,-0.1371267198081075,-0.3015322986617154,0.01111968237868,16.56145099896087,4.533861131613272,23.641749337502688,28.18858021560978
0.76,31.222196845291748,131.01043080650464,12.112791186415915,4.05998743024947,-15.737667312971638,28.81247966620872,9.285336901370073,-0.3265368936614267,349.2703242098581,26.41285768707112,10.935871010039882,68.34320947823151,-4.020005665297834,115.68818979855772,426.8106709205099,1.274,1.0241522053390697,0,8.076466851363604,210.00008998959544,0.0776284834022733,-3.1577855228028884e-07,-0.141503828842448,-0.3195033727697849,0.0115981847443813,16.240101484440878,4.575712229610804,23.97175817657208,30.273471757143376
0.77,31.22219633938247,131.01043179883553,12.341769662540823,4.000361205452017,-15.407029243021851,26.882483720658715,9.813842595473888,-0.4724924571874328,331.76876669606884,26.70625109132368,11.076228052762824,68.24881578853449,-4.463602264366018,115.21074700065324,436.33574515259926,1.274,1.0241065975906936,0,8.10164766191525,210.00008998959544,0.0784909815445197,-4.239858970095144e-07,-0.1459282259154735,-0.3375205774333133,0.0120934195701688,15.905713630870633,4.625210864494172,24.315181545111592,28.62171704496985
0.78,31.222195827599915,131.01043280234927,12.573012716432864,3.9447083228101327,-15.093719884272389,21.98462370012752,10.334929888056056,-0.6151175254595977,286.8734378128874,26.963047738129,11.202797733303692,68.14965378464507,-4.928346226400868,114.71020617694336,444.7574727175472,1.274,1.0240588105546735,0,8.126958654416566,210.00008998959544,0.0792459262256073,-5.392112541501826e-07,-0.1503981906697313,-0.3555733736271742,0.0125834242230766,15.5890780241725,4.6875039637283065,24.61945959219925,24.30046963738295
0.79,31.22219531050984,131.01043381583324,12.806179804043303,3.896423679249195,-14.808962836061292,31.319212344637307,10.834760240129771,-0.749457183877967,373.6203323159581,27.159237459110045,11.306347668860928,68.04547092809653,-5.4136967647071845,114.18709955221928,451.24324384901706,1.274,1.0240083170932772,0,8.152137489450405,210.00008998959544,0.0798227489227053,-6.613750741774113e-07,-0.1549032457858727,-0.3736186376671662,0.0130543608000523,15.301888868052304,4.7661248383488095,24.858864495480724,33.148857859963215
0.8,31.222194789061287,131.01043483704666,13.04066542089928,3.821345124984429,-14.429555607548492,31.67430872044056,11.410224637628268,-0.913944807627634,377.42502064505805,27.51500237237258,11.471478176973772,67.93601545147658,-5.919021940620426,113.64205506841743,463.1321155520295,1.274,1.0239625010683884,0,8.177118159572844,210.00008998959544,0.080868578864399,-7.903788905721026e-07,-0.1594287155914929,-0.391596779958818,0.013611432819751,14.916588910262693,4.836763734792934,25.272296957210337,33.67922734134953
0.81,31.222194258098625,131.01043587984233,13.280036209642375,3.7505642717825967,-14.067845839106267,20.4122039435291,11.976668277953276,-1.07470554354535,273.9374926939922,27.83202159511027,11.622049643157332,67.82104158907013,-6.443578627111316,113.07581823495148,473.8548290738864,1.274,1.0239149950770308,0,8.201849604063815,210.00008998959544,0.0818005421650598,-9.260791389098088e-07,-0.1639982721795855,-0.4095971305655004,0.0141625606968204,14.54947164081844,4.922448280544072,25.644385428486714,23.69079240712907
0.82,31.22219372215912,131.01043693279064,13.521277382315228,3.701532740803127,-13.7862031401047,26.27535326249672,12.468555398155797,-1.2072624174261664,328.725004432774,27.985043987286183,11.709592804855246,67.70027968894482,-6.986716437868091,112.48903207324972,479.0686281168127,1.274,1.0238644186635044,0,8.22672569528711,210.00008998959544,0.0822505111049249,-1.0683789108017935e-06,-0.1686001853685064,-0.4275712583045662,0.0146396852400098,14.26517534758921,5.0376130649759086,25.840347579031505,29.10870222683256
0.83,31.22219318392442,131.01043798852032,13.762510057376671,3.6301975734775054,-13.42672749489029,33.449173654452025,13.0303014144237,-1.367401763035828,395.6875032246518,28.27885949849616,11.851799753371038,67.57346521006191,-7.5476891197092115,111.88244063267796,489.1696045633747,1.274,1.0238188483711983,0,8.251429489329707,210.00008998959544,0.0831142870005835,-1.2171733128176584e-06,-0.1732013127799281,-0.445390927538603,0.0151967495539453,13.900113749805245,5.1472675541473,26.189044545308825,35.92361007329265
0.84,31.222192637128835,131.0104390649637,14.008246920705664,3.5466817034274727,-13.025918737792836,20.342310009123903,13.637014834079377,-1.5449131495742017,275.45937482564227,28.649968134575847,12.02436535459652,67.44035947131117,-8.125553525766286,111.25699872662258,502.0809236874044,1.274,1.0237739661568126,0,8.275774191506267,210.00008998959544,0.0842052444216359,-1.3722683010262695e-06,-0.1778209699736497,-0.4631275413453899,0.0158064559716724,13.492071263128754,5.258883230759605,26.621441894257607,24.5390404607012
0.85,31.222192083454143,131.01044015829453,14.257438809562013,3.4911598136963367,-12.72584890195604,22.1488656966332,14.128227924656604,-1.6800893083573316,292.9609323393965,28.79657389662181,12.110060727141212,67.30070705375742,-8.719439359093618,110.61358050204468,507.2203643485567,1.274,1.0237227741398531,0,8.300216867091974,210.00008998959544,0.0846363720010151,-1.5334985943955072e-06,-0.1824666259982599,-0.4808059004171567,0.0163020138020487,13.188415113702796,5.4094774269946,26.813997260887493,26.324926894914604
0.86,31.22219152904003,131.01044125031785,14.505565955073616,3.421448424970416,-12.377492747795616,27.82229806691308,14.665828261328684,-1.8338647573398208,346.2265619465616,29.034571623119824,12.231549488833366,67.15424581422273,-9.32848564370162,109.95304801000168,515.6268668529153,1.274,1.023674789281455,0,8.324626147479643,210.00008998959544,0.0853361130058738,-1.7007518030352455e-06,-0.1870951367249515,-0.4982628719458909,0.0168532851017287,12.83455960716502,5.559763311002199,27.105406785001197,31.504441722765943
0.87,31.22219096752952,131.01044236064925,14.757440003312576,3.340437981312581,-11.99080754821252,25.73515265448153,15.245737736939976,-2.0043264987797724,327.9640783669946,29.34809238531461,12.382930754298876,67.00075432014525,-9.95160237965257,109.27651008410908,526.8099180619141,1.274,1.0236288969245204,0,8.348569319358774,210.00008998959544,0.0862578335213261,-1.8737992682811343e-06,-0.1917164085885744,-0.5155339561652759,0.0174556209804843,12.440842867813387,5.711592780693815,27.47829958527655,29.979124837238565
0.88,31.222190400061383,131.01044348683152,15.01237437253526,3.264609860236645,-11.62407530983363,21.990550884544152,15.7934055584951,-2.164195593875041,294.4828134710421,29.605017326583376,12.512560564102731,66.8400067728103,-10.587734197603888,108.58503702126823,536.0609776656214,1.274,1.0235805388426191,0,8.372531710074485,210.00008998959544,0.0870132193814207,-2.052422491596182e-06,-0.1963368542002826,-0.5326394954213287,0.018032363616267,12.067731687306726,5.881888706786913,27.791611696428536,27.160628304760877
0.89,31.222189828802588,131.010444622245,15.268742931963132,3.191865725504897,-11.269487608782775,24.097128698962795,16.312481647686038,-2.3152187889881826,315.02813424808807,29.81883038008692,12.625605610535002,66.6717766381102,-11.235841439815264,107.8796811558718,543.8186175402377,1.274,1.0235293752791452,0,8.396444730412131,210.00008998959544,0.0876418988713804,-2.2364335061984e-06,-0.2009411054518227,-0.5495213809120174,0.0185880660706969,11.707160635493407,6.069291003088755,28.06001529543133,29.191247097055548
0.9,31.222189253527244,131.010445767912,15.526772454686627,3.11141463566706,-10.889785514149333,26.607452260475856,16.8579089874099,-2.4773650075224074,339.3781423542166,30.08350563304928,12.75904216321372,66.49585846655503,-11.894806060775064,107.16157955318324,553.5017353911118,1.274,1.0234837388140003,0,8.420156917184805,210.00008998959544,0.0884200755233767,-2.425618443386577e-06,-0.2055162678113939,-0.5661311903927692,0.0191795627299652,11.320399940588464,6.259924486069596,28.383222213838685,31.59561597123553
0.91,31.222188672914704,131.01044692926587,15.787688499814047,3.0262066935757943,-10.495443915154969,19.779999792730017,17.417390503645496,-2.646141712362175,277.7421810230785,30.376544162636023,12.904140090194156,66.31206797412479,-12.56345144549787,106.43193316139596,564.3232535746756,1.274,1.023436404813438,0,8.443692603839654,210.00008998959544,0.0892816239139932,-2.619720055568837e-06,-0.2100638554629635,-0.5824721884736799,0.0197944239556833,10.918314426638403,6.456318063749134,28.737128122596232,26.48803408557877
0.92,31.22218808751803,131.01044810525286,16.051183050625443,2.9509380181829568,-10.136008717363852,23.68139642633287,17.90052776672751,-2.78955207577581,315.0281342480675,30.558603037603785,13.005684253077709,66.12022956988355,-13.240611072591731,105.69193249076822,571.0935061488677,1.274,1.0233859136578225,0,8.467164478705024,210.00008998959544,0.0898169917023805,-2.818483590865261e-06,-0.2145814287518911,-0.5985332422504022,0.0203407897602614,10.552519113533608,6.680718306444846,28.974734232413443,29.816422183286495
0.93,31.22218749983431,131.01044928658055,16.31510683945036,2.864331228088284,-9.739977612200189,28.31737750176901,18.435730876826845,-2.95341116730662,359.16250706547066,30.83354549157585,13.144528098550806,65.92018123867128,-13.925115160038288,104.9427725555598,581.4015063768984,1.274,1.0233407575091376,0,8.490544050287385,210.00008998959544,0.0906253647439829,-3.021689400492033e-06,-0.2190457529178371,-0.6142306337368736,0.0209502628833814,10.148515201152776,6.8991262083423015,29.310951553955093,33.91861847221452
0.94,31.22218690656093,131.01045048731666,16.582602996251147,2.771307158200819,-9.324094188461032,19.890849672205206,18.998786392725314,-3.129010127816868,283.06875048378083,31.15972247030855,13.304394297724397,65.71179765227465,-14.61571284984527,104.18573872113322,593.7521904530059,1.274,1.0232914783978162,0,8.513643619115465,210.00008998959544,0.0915843342719551,-3.22902411763506e-06,-0.2234636343097888,-0.6295863330395322,0.0215983440524806,9.723731145788715,7.117517074330612,29.701553250068528,27.683758586193658
0.95,31.222186308701684,131.01045170478332,16.852984773972878,2.690380198418058,-8.949578138565798,26.168854951229644,19.45504032326885,-3.2691186971303368,342.421873617488,31.34065950679789,13.406617944405328,65.49496076513172,-15.311202179124033,103.42206509900936,600.6521665408914,1.274,1.0232418269359267,0,8.536741117116902,210.00008998959544,0.0921164235629173,-3.440190290425972e-06,-0.2278349281675815,-0.6445967689581172,0.0221481356327615,9.342062068653032,7.371092531301526,29.940572601686764,32.7718583619306
0.96,31.222185709211544,131.01045292607665,17.123391097483307,2.5954582062344795,-8.531019913248612,25.411072899675467,19.99442479415514,-3.4406393465582394,337.09533515678265,31.658103259493487,13.56416226580337,65.26956752363897,-16.010403565951275,102.65296389268435,612.8656627383169,1.274,1.0231951201821403,0,8.559774766233721,210.00008998959544,0.0930497377046616,-3.654959263718469e-06,-0.2321319825832242,-0.6591656849664232,0.0227938314430127,8.914305500944726,7.606960438245867,30.322999679212405,32.51672873883275
0.97,31.22218510397008,131.01045417161797,17.398221742183352,2.5027432496354263,-8.12094169178157,15.218997960571432,20.495967908449565,-3.601177673069905,245.0218871929888,31.93554168781572,13.706247535145822,65.0355607938843,-16.71206419777839,101.87973129005827,623.6380687015135,1.274,1.0231476260761452,0,8.582503320510696,210.00008998959544,0.0938654779160811,-3.872962877361566e-06,-0.2363658594144722,-0.6733284203782957,0.0234123512863583,8.495375875368596,7.858530214509706,30.66417398921173,25.78121564358611
0.98,31.222184496010303,131.01045542801444,17.674515228299295,2.420396507815159,-7.745300917116514,23.135490483850045,20.879815042407863,-3.7230953884006617,319.593746642963,32.067845222921775,13.789981987305492,64.79288881854387,-17.415009918024566,101.10358104260912,628.799340071457,1.274,1.0230935628253934,0,8.60529984753699,210.00008998959544,0.0942546405164993,-4.093912128640887e-06,-0.2405231780721281,-0.6870370282859755,0.0239222037761545,8.112476378053612,8.147525925956646,30.854918242595367,31.385968766386803
0.99,31.22218388667453,131.01045668793395,17.95072776186287,2.3229626394558247,-7.323257055491933,25.33461513606284,21.37128344631905,-3.885117014223584,341.66094855170127,32.370271218891524,13.943398273009445,64.54153248245976,-18.11805875233881,100.3257401963938,640.6984527100683,1.274,1.0230490803133316,0,8.627911748288238,210.00008998959544,0.0951438353555222,-4.317550465661676e-06,-0.2445783351683715,-0.7002060489447787,0.0245542840095604,7.680939331061576,8.407449479218398,31.22306623735716,33.371673833500545
1.0,31.22218327231492,131.01045797366794,18.231458600416584,2.224824666288265,-6.900489469467073,22.15009335115804,21.84601629823804,-4.043901528712793,314.2672081822764,32.668552604958165,14.09591999472852,64.2815203880138,-18.81999116234625,99.5474830332022,652.5429107724593,1.274,1.022999484445133,0,8.650224950101988,210.00008998959544,0.0960208586127618,-4.5434535404888085e-06,-0.2485448906143193,-0.7128770147304622,0.025181753924357,7.248630340768386,8.674427692090322,31.587244726658422,31.372411497075316
1.01,31.22218265544042,131.0104592725104,18.51398693840793,2.129515644698944,-6.488335980299267,23.09866323420157,22.263153026589944,-4.1853496606822045,324.92031610370094,32.91104983491042,14.226225175321607,64.01288577358787,-19.51968679767421,98.7699802883305,662.2484905071973,1.274,1.0229507481225095,0,8.672611948550772,210.00008998959544,0.0967339256041212,-4.771287929414139e-06,-0.2524140681743728,-0.7250180930576853,0.0257629001786063,6.827440038444568,8.959660661312714,31.89404133451149,32.352950061386814
1.02,31.22218203633649,131.01046058315885,18.798029244243423,2.0307851967086195,-6.067405966184553,18.493563618469388,22.686928487746844,-4.331923709206929,284.59063161543185,33.18590034774421,14.370557609418464,63.73569161709271,-20.21605133301572,97.99438049016798,673.337599730484,1.274,1.0229039803623294,0,8.694855488360115,210.00008998959544,0.0975420936193373,-5.000738756774067e-06,-0.2561711724058755,-0.736580831176952,0.0263640102071116,6.397036422807203,9.24274262858237,32.23461473012564,29.588412977733412
1.03,31.22218141434216,131.0104619119118,19.084798686155647,1.93547784007566,-5.657989316972056,14.215539509185172,23.036993767213755,-4.45579976928792,247.3046933904342,33.38988982469691,14.486201087070397,63.45003777503352,-20.90800604695778,97.22182224483132,681.6221071868811,1.274,1.022853416101322,0,8.716936396394702,210.00008998959544,0.0981419899376974,-5.2314327190741935e-06,-0.2598115465830118,-0.7475477249847358,0.0269022796634826,5.978857073479252,9.548294289376022,32.50257871095118,27.43426319316479
1.04,31.22218079082601,131.010463249692,19.37245327712404,1.8412300902237613,-5.252829992749338,24.67896488868161,23.33515014599361,-4.56462276757679,345.4656368807608,33.55543240326623,14.586355710320529,63.15604998171288,-21.59452245073734,96.45339623373032,688.3786244569866,1.274,1.0228049544826707,0,8.738949187706563,210.00008998959544,0.0986288848419158,-5.463050538271147e-06,-0.2633199149892974,-0.7578696145809533,0.0273999768688362,5.56532542697705,9.86850729907473,32.73147516693203,34.26975811591213
1.05,31.22218016568137,131.01046459815552,19.661297739160275,1.7356113179942696,-4.816946384239521,13.014962252847212,23.75229911128089,-4.717901373842025,240.4562587980608,33.90089706836882,14.762634004602727,62.85389225622456,-22.27459651231812,95.69017454348769,702.6062836722506,1.274,1.022755494436122,0,8.7607491652451,210.00008998959544,0.0996446277468441,-5.695246661533634e-06,-0.2666853485758728,-0.7675120526551558,0.0280350896478293,5.119396274690893,10.14553489411766,33.145143915315224,27.492172502152197
1.06,31.222179537474943,131.01046597484043,19.95460985199292,1.6413756183909862,-4.4140589324977855,20.164895578111235,23.9697445011002,-4.80486156636623,308.1796836557233,34.022641122690274,14.84553932002769,62.543761940896566,-22.94726693615061,94.9331908053283,707.641773549203,1.274,1.0227013895379469,0,8.782368587285337,210.00008998959544,0.1000028000221055,-5.927534708227236e-06,-0.2699170543478319,-0.7764970474279099,0.0284759169275705,4.708789419522002,10.486234101257452,33.3299680270239,31.690035654699045
1.07,31.22217890937345,131.01046734748132,20.24623991187878,1.537519563681332,-3.9870501290014966,24.326915088350567,24.29545455293908,-4.932715880731986,348.5093681440431,34.311867095301686,14.999957242944244,62.22586618231431,-23.6116657535354,94.18338344748727,719.7040579351792,1.274,1.0226540159946436,0,8.804053870008893,210.00008998959544,0.10085325423776,-6.159690733816935e-06,-0.27298738041555,-0.7847440221611136,0.0290438459699521,4.272788081539649,10.783421085412884,33.68608805348857,34.7332635323802
1.08,31.22217827875492,131.01046874938643,20.54238741539761,1.4318489837129829,-3.5572204976734474,14.55769829738286,24.62018100286995,-5.063636660819864,261.0015785751465,34.63022055090565,15.167922508184136,61.900463954684575,-24.266930948332767,93.44169439728748,733.1003234996309,1.274,1.0226061614050743,0,8.825351574569744,210.00008998959544,0.1017893342583472,-6.3912231829918895e-06,-0.2759031446572091,-0.7922679431146291,0.0296255729058356,3.8342371066461967,11.07448493139857,34.07181256058167,29.046864005680565
1.09,31.22217764699928,131.01047016845823,20.840702375416168,1.332828066427311,-3.146228957715927,12.75251613678004,24.785533990755496,-5.142263787189416,246.54375332456465,34.78424860415338,15.26634259458206,61.56782601888922,-24.91228948792369,92.70897562070752,739.6149912027668,1.274,1.0225512795791307,0,8.84672033658655,210.00008998959544,0.1022424163180511,-6.621736393614211e-06,-0.2786580867865035,-0.7990456939402725,0.030053612561448,3.416635973469298,11.41525058479077,34.29028844495984,28.344174708090744
1.1,31.22217701492941,131.01047159077743,21.138661934120048,1.2319340167267678,-2.7321461824903186,30.69414933238503,24.9418628723873,-5.221071275706609,413.1890617384087,34.96245473390532,15.375767014164852,61.2282496836498,-25.547023793687785,91.98602693319704,747.1913884409261,1.274,1.0224981043155532,0,8.867988137666547,210.00008998959544,0.1027665686234028,-6.850972632265815e-06,-0.2812326860386522,-0.8050252472765281,0.0304858065215277,2.9968539605142293,11.750817665294823,34.53345283956135,39.8934444746218
1.11,31.22217638195488,131.01047303014306,21.43871806444671,1.1202052634294493,-2.2961112341133547,20.75204087674864,25.298880585354624,-5.373997196649748,324.1593910379213,35.4208233147698,15.607980230307556,60.88207240503457,-26.170450904515803,91.2736199219891,766.8895334722667,1.274,1.0224548851875197,0,8.888979530189362,210.00008998959544,0.1041142226013206,-7.078537552426118e-06,-0.283622305693045,-0.8101917932584712,0.031147019562544,2.554665297443485,12.00049002053424,35.0602475366248,33.159620101742405
1.12,31.22217574786908,131.0104745090068,21.744679920680376,1.0167459085599004,-1.8808834624682629,4.010112063945559,25.433398944616247,-5.452517310944839,172.7328179403806,35.64317045418606,15.73862665927932,60.52965455059579,-26.7819515785,90.57246491408937,776.5249234248972,1.274,1.0223979224661404,0,8.90987271894437,210.00008998959544,0.1047681405450784,-7.303840785342499e-06,-0.2858355741311284,-0.8145535258836648,0.031586194405802,2.138018582379248,12.323942620851572,35.34777503303414,26.318600374403683
1.13,31.222175114007904,131.01047598634952,22.049367223263594,0.9187838446772,-1.4780312637550916,25.0490662489212,25.372864508874304,-5.465598261636786,367.5328077894322,35.6666916352656,15.7823111473163,60.17136563077023,-27.3809826926144,89.88319640386558,777.5273752637708,1.274,1.0223460397860296,0,8.930929897083747,210.00008998959544,0.1048376382378256,-7.526694501021015e-06,-0.2878505668479424,-0.8180583954187429,0.0318289201079103,1.7402738020056234,12.712094534753616,35.43454877623091,36.07091262618876
1.14,31.22217447999625,131.01047746437428,22.35323990925193,0.8090709732860921,-1.0568691747521923,10.877072059965164,25.61087090563648,-5.588083773739172,239.6953177322812,36.09149013723976,16.004453321220982,59.80761470414234,-27.96703455129876,89.20642191047352,796.135492724637,1.274,1.0223022138470996,0,8.951658025207852,210.00008998959544,0.1060866424006475,-7.746895464501908e-06,-0.2896521554421118,-0.8206780880109167,0.0324086462473461,1.33097484866058,12.967625083668342,35.925486929598044,28.38052299386287
1.15,31.22217384613048,131.01047899204033,22.664423159765644,0.7076504592473538,-0.6513016663092251,10.42320422605524,25.55641820575429,-5.6106091773762286,237.4125115347709,36.20089009747203,16.087452475043754,59.43884027154402,-28.539648972559224,88.54270121519536,800.9453342201293,1.274,1.0222426194541194,0,8.972098305813374,210.00008998959544,0.1064085842311031,-7.963746685734857e-06,-0.2912512919538358,-0.8224150168030541,0.0326853726510842,0.9617387708389245,13.327646837763163,36.09858607423161,28.164740957209663
1.16,31.22217321245118,131.01048050583043,22.972280133533044,0.6043952862310739,-0.2461653081846356,37.80930364212477,25.52334955822744,-5.644285376705442,490.043774385954,36.37655613966183,16.200738912669756,59.06548776127661,-29.098431229006927,87.89253209847834,808.7135084050013,1.274,1.02219674531104,0,8.992794562792374,210.00008998959544,0.1069253069443076,-8.177157944667209e-06,-0.2926297210880887,-0.8232409708587854,0.0329984471593622,0.6526015425191721,13.663422318759649,36.337888702434455,45.96566949352037
