Time,Latitude,Longitude,Altitude,Angle of Attack,Angle of Sideslip,X-Acceleration,Y-Acceleration,Z-Acceleration,Thrust,True Velocity,Ground Velocity,Pitch,Roll,Yaw,Dynamic Pressure,cp,parachute_deploy_gain,Wind Speed,Mach,omega_x,omega_y,omega_z,Cmq
0,31.2221860000000042,131.010383999999988,3.00000000364323682,0,0,0,0,0,2.2828121974499247,0,0,69.9999999962342088,0,113.699999993883324,0,15.2880000000000003,0,0,0,0,0,0,-0
0.01,31.2221859999997946,131.010384000000556,3.00000016469923247,0,0,0,0,0,34.2421869617492334,9.11367326775851009e-12,8.66229497295429822e-12,69.9999999962370651,-4.92863947922479589e-13,113.699999993882884,5.08594204168408172e-23,15.2880000000000003,0,0,2.67827100510624443e-14,-3.65918233213857746e-19,7.58941520739853104e-19,4.81114714040442593e-19,-1.83541113936281872e-32
0.02,31.2221859999996028,131.010384000001039,3.00000030885429547,0,0,0,0,0,25.8718762377664078,1.96992978605390895e-11,1.88456988716431921e-11,69.9999999962400494,-1.04152381447771591e-12,113.699999993882386,2.37621641206600858e-22,15.2880000000000003,0,0,5.78911013494094702e-14,-7.28448334638698292e-19,1.51788304147970621e-18,9.75781955236953991e-19,-7.93451985123442364e-32
0.03,31.222185999409362,131.010384001586402,3.00018176030779937,18.6493779029494604,-0.000129237623237530007,10.7928899806483045,-1.97644583900689674e-05,3.34983967390763571,180.342193598546658,0.0785672533977095078,0.0490694047558625918,69.9999999976775626,-4.2497891361524094e-12,113.699999994705607,0.00377978965327356543,15.2880000000000003,0,0,0.000230888677896110966,2.88330015245363835e-17,-7.25223402354589416e-10,1.08188208080271277e-11,1.51197624781400831e-13
0.04,31.2221859959356287,131.010384010943454,3.00162780953569674,9.74253989061216075,-4.88763086122285772e-05,51.6475445943311158,1.54548216767323456e-06,3.34965665682309899,548.635972453807767,0.346420694310776434,0.171860503977579737,70.0000000036447574,-2.28205307288861013e-11,113.699999999565534,0.0734838809649275282,15.2880000000000003,0,0,0.00101804013696402693,1.80009747884589399e-15,-1.58734069119923437e-08,2.61929145365345784e-11,1.45916869803439425e-11
0.05,31.222185985910329,131.010384038045004,3.00715844163023283,5.5769968489095687,-4.21135943534799539e-06,75.3242160169835273,4.73080294831520123e-05,3.34902689347595528,761.698429882464552,0.947854334293939504,0.409211128642743283,70.0000000010935537,-1.04766136577077691e-10,113.700000013612069,0.55013262299765131,15.2880000000000003,0,0,0.00278549703395658196,1.95473045844392346e-14,-1.13584749331540247e-07,4.14067569904437612e-11,2.85688606727574374e-10
0.06,31.222185966868647,131.010384089593572,3.01868664272593046,4.48500474963244322,2.31139019787050305e-05,56.3605563030587007,9.71465785775115924e-05,3.34799244711343214,590.487539073720654,1.60618980149218604,0.665693519146445256,69.9999999197690244,-2.82941102348924619e-10,113.700000040305838,1.57971028663545732,15.2880000000000003,0,0,0.00472017413217633904,1.01936766184118274e-13,-4.07864410983111553e-07,5.76522069423461223e-11,1.73837509686130208e-09
0.07,31.2221859390775336,131.010384164863126,3.03600551209402658,4.00448286551149391,4.63712119495135773e-05,85.8192455386477917,0.000147926970097503541,3.34656708333141317,855.293774977913927,2.27788210706903049,0.926660947343454056,69.9999996219982279,-5.49831570978999292e-10,113.700000079276109,3.1772067926123353,15.2880000000000003,0,0,0.00669410445039518576,3.35900025920073467e-13,-9.92070622953462368e-07,7.83315922772719921e-11,5.99658406989250883e-09
0.08,31.2221859009658012,131.01038426812616,3.06033476575187802,3.77263127792190334,7.06371256062416025e-05,17.6076228145981588,0.000196957592070898702,3.34480227118667583,241.217198863884818,2.92612482887636283,1.17954495655796454,69.9999989088305909,-9.15694670892462832e-10,113.700000132739973,5.24285298735243899,15.2880000000000003,0,0,0.00859912396431777512,8.49635706706491564e-13,-2.01744800413265681e-06,1.10032289818440005e-10,1.56647792516492608e-08
0.09,31.2221858556197738,131.010384390989856,3.0892797608365723,3.74258231141200604,9.5325675231994802e-05,53.4176180048964397,0.000237730218002333866,3.34289666486112669,563.093737704317618,3.46187703891102627,1.39384941462988121,69.9999975134546446,-1.31671842773002699e-09,113.70000019638816,7.33844512707370811,15.2880000000000003,0,0,0.0101735644468633635,1.80613395740032365e-12,-3.4856561047658452e-06,1.59232278560273843e-10,3.20202005890100843e-08
0.1,31.2221858028175774,131.010384534057465,3.12301320909491364,3.81071421019783685,0.000121971080758598364,50.732831688561788,0.000271545837515448313,3.34090447591365036,538.7437595981919,3.9029133825176725,1.57567038389986336,69.999995157830341,-1.72222432289554893e-09,113.700000270567642,9.32732681847184431,15.2880000000000003,0,0,0.0114696609641860067,3.37914451533694905e-12,-5.48904943388414521e-06,2.34452541412924053e-10,5.68476506314615152e-08
0.11,31.2221857431700727,131.010384695667796,3.16106164078641116,3.84323765504598036,0.000147145408783231387,40.0848474374385688,0.000307099758177995722,3.33859717034531034,442.865639305294906,4.36819921201157246,1.76578242121538631,69.9999915253729768,-2.07703942468805025e-09,113.700000354470319,11.6837607126815346,15.2880000000000003,0,0,0.0128370221364947634,5.76365694334259916e-12,-8.08162139954488366e-06,3.4437809457680147e-10,9.36754562129998513e-08
0.12,31.2221856770245907,131.01038487487628,3.20315617196047642,3.86558564807459826,0.000171348089099210797,43.7480799143332604,0.000342946594964391399,3.33600966231316054,475.585948135404465,4.83801864946757032,1.95742650583495204,69.9999862600106582,-2.3147200577597177e-09,113.700000447673773,14.3321420062794882,15.2880000000000003,0,0,0.0142177082532951912,9.17772063248746377e-12,-1.13223702306849879e-05,4.98555567062495836e-10,1.45354343598177095e-07
0.13,31.2221856047215205,131.010385070757366,3.24903338361815308,3.95285669440916232,0.000198169826234992146,48.2585391180499741,0.000371981107240517913,3.33344523512332414,515.915632623689476,5.21512035057569623,2.1172615234944101,69.9999789703044399,-2.35265113573284059e-09,113.700000549782459,16.6533950244453948,15.2880000000000003,0,0,0.0153259223232261182,1.38588880633063252e-11,-1.52681962163171846e-05,7.07166414280215559e-10,2.11287244421402401e-07
0.14,31.2221855263490333,131.010385283071088,3.29862557546706325,3.99981420118284792,0.000223008237377726162,44.9721767850953427,0.000403855591455553264,3.33052592490198407,486.239086056840392,5.63167615200940475,2.29059513099545553,69.9999692426645623,-2.0964169591742506e-09,113.700000660771011,19.4199179783547713,15.2880000000000003,0,0,0.0165500839355928395,2.00553635588333716e-11,-1.99811439493909854e-05,9.81252131659242702e-10,2.9859131057555361e-07
0.15,31.2221854420015994,131.010385511560628,3.35186028506811029,4.05975476911301225,0.000248539990764711958,43.4637160193537753,0.000433543226731567866,3.32747422849243879,472.54218587214001,6.01888316560526437,2.45383766868271946,69.99995661705006,-1.43188768134039915e-09,113.700000780625842,22.182048585914238,15.2880000000000003,0,0,0.0176879988684610287,2.80404916713566325e-11,-2.55291719775422389e-05,1.33309260321839681e-09,4.07727088477750495e-07
0.16,31.2221853515819241,131.010385756490507,3.40881389436676407,4.08854462484130732,0.000272210944932510383,34.4023069357135967,0.000465877824565354701,3.32404684464906053,391.12189082975641,6.44303061809316624,2.62971580822363071,69.9999405987561403,-2.27841984783363582e-10,113.700000909623355,25.4183784408083007,15.2880000000000003,0,0,0.0189344747787753703,3.81042963600432359e-11,-3.19913711614788564e-05,1.77662362644707755e-09,5.46937370926295155e-07
0.17,31.2221852554099399,131.010386016990765,3.46923909377793649,4.13347468842419552,0.00029684158695823977,43.4155809381403728,0.000495744973995866601,3.3205135250562221,471.78125980632376,6.83404379119085981,2.79420112365087148,69.9999206448319882,1.67575894446247236e-09,113.700001047478835,28.5969980778046526,15.2880000000000003,0,0,0.0200835795555658371,5.05622819343119236e-11,-3.94162603380559734e-05,2.32482468580976756e-09,7.14768170397066036e-07
0.18,31.2221851530022434,131.010386294375877,3.53351204963262022,4.16207877285686756,0.000320492787063832857,36.2151660219171347,0.000526966735016640565,3.31665933612355879,407.101567211914528,7.2444022294323478,2.96528531587496236,69.9998961790314524,4.45070668055043651e-09,113.700001195059045,32.1341903991183955,15.2880000000000003,0,0,0.0212895378539265934,6.5741708189353534e-11,-4.79243856484647045e-05,2.99669991322666987e-09,9.21230820748327094e-07
0.19,31.2221850444828668,131.010386588308563,3.60153760019172342,4.17456309251139679,0.000342914278589344943,40.9041800427263027,0.00055982867240863632,3.31244583927210501,448.953132831826849,7.67810673790947895,3.14433961722118216,69.9998665624008964,8.30674092292676784e-09,113.700001352409558,36.0967170721845179,15.2880000000000003,0,0,0.0225641073333706747,8.40032927522686365e-11,-5.75836346763551867e-05,3.80911503044151526e-09,1.17316671380156179e-06
0.2,31.2221849296486234,131.01038689934137,3.67347464118590317,4.20078915399145636,0.000366573034254704516,37.5214898208491761,0.000590466919182690893,3.30812712915434881,418.515630199161365,8.08216006412957277,3.31318683933006453,69.9998311045104487,1.34800080829191884e-08,113.700001520067786,39.9955165273270055,15.2880000000000003,0,0,0.0237515420632470921,1.05728805481567758e-10,-6.85028882131185225e-05,4.78351733027568889e-09,1.4690610466811608e-06
0.21,31.2221848088436893,131.01038722653837,3.74905730552401684,4.22722562033261262,0.000390310433246848657,36.0064697775761644,0.000620601272787201603,3.30359776763142721,404.818761014464428,8.48018829437500621,3.47992805775657654,69.9997890742529592,2.02433263776548733e-08,113.700001697833756,44.0315784885794201,15.2880000000000003,0,0,0.0249212734096428447,1.31320595517854955e-10,-8.07208291683553139e-05,5.93661589182972911e-09,1.81631626331753899e-06
0.22,31.2221846819136672,131.010387570319409,3.82840670130281646,4.2176244726165093,0.000410696285369717819,43.5935627685881499,0.000655758920494764063,3.29841875767922987,472.542185872136486,8.94831461811120121,3.67066782999472752,69.9997397083127737,2.88926538075102191e-08,113.700001886238866,49.0266756129506618,15.2880000000000003,0,0,0.0262970098082033268,1.61186003536399267e-10,-9.43348117723774896e-05,7.29106197993283208e-09,2.23980539128825791e-06
0.23,31.2221845484548304,131.01038793178239,3.91183756115468473,4.25320537954326383,0.0004356497720089569,36.207459360748949,0.000683686922722525747,3.29355466128287455,406.340642146102141,9.31799902525197865,3.82760028360492655,69.9996821549030983,3.9766623706965518e-08,113.70000208621326,53.1608354775167555,15.2880000000000003,0,0,0.0273834518362109196,1.95767624418301473e-10,-0.000109505708778552874,8.87784718088286285e-09,2.70740355927931971e-06
0.24,31.2221844093456014,131.010388308538637,3.99866964940866776,4.27135264557773553,0.00045883378920767232,37.3286080087975947,0.000713911697673520317,3.2882529474867046,416.232824001711379,9.7203332459195213,3.9956861712714935,69.9996155408946805,5.32509871046438109e-08,113.700002296918697,57.8502398901668755,15.2880000000000003,0,0,0.0285658473732890855,2.35534745143307651e-10,-0.00012617657385590063,1.07071802425012536e-08,3.25424194465518317e-06
0.25,31.2221842644570167,131.010388700938847,4.08900446593793809,4.29698686981540234,0.000482848983334858658,38.3649566400252979,0.000742483922667206905,3.28284626589867479,425.364080791506922,10.1009615935159527,4.1562806652626314,69.9995389781877293,6.97479781374676735e-08,113.700002518962805,62.4689963611702623,15.2880000000000003,0,0,0.0296844577155840929,2.80933085873043406e-10,-0.000144451636124542286,1.28055329635332884e-08,3.87142965072796435e-06
0.26,31.2221841140756986,131.010389108203611,4.18262110402873155,4.32755423691547136,0.000507438991606541483,41.7865661614553829,0.000769736419800412888,3.27732087646770287,455.80158342417883,10.4644497354123782,4.31094871887776954,69.9994515368878751,8.97024502886333285e-08,113.700002752408935,67.0452443356678742,15.2880000000000003,0,0,0.0307527002093570291,3.32431765373287754e-10,-0.00016436315770221847,1.51925047864838523e-08,4.56355359993810651e-06
0.27,31.2221839578137299,131.010389531387915,4.27982215321117465,4.33742811840656994,0.000529702335486379188,38.2242911032538473,0.000800211178185602123,3.27123004841987974,423.842199659872563,10.8736118498261902,4.48123226393084195,69.9993522521519935,1.13587393208351198e-07,113.700002998306658,72.3900346549699947,15.2880000000000003,0,0,0.0319551720828357214,3.90484337603431509e-10,-0.000186059811616844751,1.79019946498730075e-08,5.36790267753501075e-06
0.28,31.2221837957695953,131.010389970223883,4.38053283172365671,4.35979025650862262,0.000553527510562852902,44.1207307275094038,0.000828072271385077072,3.26514386100193477,476.346873201222195,11.2478718916014184,4.63949182586423614,69.9992400702920463,1.41938296327408329e-07,113.700003257081931,77.4582454645660761,15.2880000000000003,0,0,0.0330550782151640757,4.55595825375374429e-10,-0.000209619220926101062,2.09616181379585756e-08,6.25569396794615011e-06
0.29,31.2221836278828384,131.010390424876022,4.48480177698289584,4.38135974025744623,0.00057737648726709299,35.3536197607625553,0.000855659611391794222,3.2588361863853601,397.970310422111766,11.6195889013503368,4.79682445966682813,69.9991139044831527,1.7532937395312496e-07,113.700003529427192,82.6616578528940948,15.2880000000000003,0,0,0.0341475147840558241,5.28268525040872464e-10,-0.000235137545717689308,2.44023887909330158e-08,7.24907222782668121e-06
0.3,31.2221834544381096,131.010390894570321,4.59240982688131272,4.39617507281761988,0.000600356665334356751,33.1490797613948018,0.000884158719714270942,3.25217107922164672,378.185945710871067,12.0052186882677852,4.95887519756831807,69.998972627127344,2.14383684192303281e-07,113.700003815596887,88.2385269149682756,15.2880000000000003,0,0,0.0352808420099011907,6.09029939588318471e-10,-0.000262641159892275291,2.82471356422800846e-08,8.36561857411674722e-06
0.31,31.2221832755909574,131.01039137888381,4.7032380575360353,4.42235615181669761,0.000624899913490765827,34.9528590290802086,0.000910025197609511073,3.24555398289468222,394.16562209302117,12.3556398803864607,5.10879227158949156,69.9988150759387651,2.59766173767152649e-07,113.700004116072961,93.4639131761651498,15.2880000000000003,0,0,0.0363107024397255479,6.98403788157463991e-10,-0.000292187019282257228,3.25229566712151178e-08,9.57826248689966157e-06
0.32,31.2221830914257232,131.010391877587324,4.81722282885169673,4.45155794779377789,0.000649944303128982049,38.0379859115142835,0.000934821026682707218,3.23882361682650144,421.559393462426954,12.6924793110791878,5.25399282922068878,69.9986400687318024,3.12179641788393281e-07,113.700004431478234,98.6283237403037703,15.2880000000000003,0,0,0.0373006526995305274,7.96905013945712519e-10,-0.000323836613651358495,3.72580440687311147e-08,1.09050644159405278e-05
0.33,31.22218290196043,131.01039239063175,4.9343519698327194,4.48019701204722054,0.000675004219851668761,37.7093551175013246,0.000959261610436717115,3.23189933669563656,418.515630199168186,13.0256844327599097,5.39788776638052958,69.9984463826819052,3.72372687880250348e-07,113.700004762578004,103.87354288045799,15.2880000000000003,0,0,0.0382799263433428877,9.05047894999210997e-10,-0.000357667290238851605,4.24836225249657193e-08,1.23603484615852587e-05
0.34,31.222182707020778,131.010392918491164,5.05476263450916541,4.49049305198152204,0.000697378143373914754,29.5227085089536203,0.000987142430045659337,3.22427911658814059,345.465636880756449,13.4081741031825317,5.55863100914667463,69.9982327456812641,4.41143957445642244e-07,113.700005110463266,110.062177258613033,15.2880000000000003,0,0,0.0394040418267209702,1.02333461745717641e-09,-0.000393806243978271305,4.82396483202145133e-08,1.40087103268591529e-05
0.35,31.2221825067937928,131.010393460657156,5.17831168393457641,4.50711781535187139,0.000720712543856854714,32.3530371383660977,0.00101333646443235357,3.21661305844837253,370.576570052703289,13.7686530554979374,5.71176159517965232,69.9979978091806316,5.19362042776584697e-07,113.700005475786654,116.058400304168075,15.2880000000000003,0,0,0.0404634764462946869,1.15232390415689195e-09,-0.000432299813734132244,5.45552399130644805e-08,1.57912776608867467e-05
0.36,31.2221823012122108,131.010394017312592,5.30505329869157727,4.52767240178778962,0.000744729708600240731,36.5526511043957356,0.00103828652712813154,3.20885713174522058,407.862523277719447,14.1132764952183631,5.85938873702120233,69.9977401961163537,6.07939829707116331e-07,113.700005859608282,121.939407863977465,15.2880000000000003,0,0,0.0414763190843316643,1.29254043868676357e-09,-0.000473255972436325862,6.14699225552327593e-08,1.77198251922661022e-05
0.37,31.222182090341061,131.010394588280832,5.43493909097431604,4.55039311415752579,0.00076918150115683735,34.6835787828593496,0.00106234372950533948,3.20097384516078431,391.121890829766642,14.446930470491731,6.00318739776240751,69.9974584775585669,7.0785096329375243e-07,113.700006262864989,127.771540530283914,15.2880000000000003,0,0,0.042456928843506235,1.4445318520011827e-09,-0.000516746496826029863,6.90186481791334769e-08,1.98053803654614999e-05
0.38,31.2221818741223878,131.010395173719473,5.56801609611825477,4.56315131642791805,0.000792019287104061913,36.2353933787001239,0.00108827974821363053,3.19255015153205646,404.818761014460279,14.8084413239345949,6.1564787166299757,69.9971511865591651,8.20121521966083772e-07,113.700006686723384,134.244380272309172,15.2880000000000003,0,0,0.0435194095147296359,1.60882660749176723e-09,-0.000562873331420229127,7.72423853301427293e-08,2.21128406351508731e-05
0.39,31.2221816525004634,131.010395773780147,5.704329739781131,4.57922628245169783,0.000815489716137310881,30.9425419640016202,0.00111309493143926189,3.18402316666385765,357.640624933827439,15.1559126959619999,6.30488433186772657,69.9968167722787769,9.45855271408966431e-07,113.700007132429306,140.616382889747683,15.2880000000000003,0,0,0.0445406353688629561,1.78596578656278109e-09,-0.000611756345505213715,8.61868943159197994e-08,2.45968452142520012e-05
0.4,31.2221814256617982,131.010396387955836,5.84373750626454935,4.59349479979191955,0.000838670682925170751,29.5834243852937959,0.00113797512888990423,3.17521289611434332,345.465636880754005,15.505969085398343,6.45410901523083158,69.9964536498379317,1.08621525395706341e-06,113.700007600947828,147.185065961143067,15.2880000000000003,0,0,0.045569462889951777,1.97653506559195414e-09,-0.000663427505461186432,9.58835144134294998e-08,2.72901174189528038e-05
0.41,31.2221811937141673,131.010397015953487,5.98615797249314241,4.60939449845229365,0.000862163931524819621,33.360545626359837,0.00116210409424792778,3.16624854525325983,378.946870776686467,15.8471768437686258,6.60022848408685459,69.9960602026584695,1.24241947051318175e-06,113.700008093413757,153.73182724817184,15.2880000000000003,0,0,0.0465722905345462151,2.18109996727848554e-09,-0.000717942131686907965,1.06367950505874699e-07,3.01820283711074823e-05
0.42,31.2221809567080335,131.010397657635991,6.13155423418529733,4.63387609959193458,0.000887317919769279608,37.5676427387571721,0.001183742077125155,3.15743374731593907,416.232824001711379,16.155026338188506,6.73482947265292431,69.9956347739890248,1.41574639558456e-06,113.700008611107208,159.760443802515937,15.2880000000000003,0,0,0.0474770882933877245,2.400206535531791e-09,-0.00077537935552726017,1.17680930846389008e-07,3.32294321368729263e-05
0.43,31.222180714655078,131.010398312971745,6.27991949833728835,4.65367427313455995,0.000911660169575580258,33.0386483003103493,0.00120612360190941372,3.14823214930187856,375.903139513433644,16.4750454055619109,6.87353555569934649,69.9951756835756242,1.60752723178871754e-06,113.700009155418982,166.15023929888028,15.2880000000000003,0,0,0.0484176551665520677,2.63438237315801404e-09,-0.000835821567166909188,1.29864614855892046e-07,3.65287677570896608e-05
0.44,31.2221804673911407,131.010398982407111,6.43138341412837455,4.65757387742934892,0.000932929976641759203,30.4788052564327749,0.00123214974254881528,3.13809943757763454,353.075012538921555,16.8483715860516412,7.03046484016701978,69.9946811832270441,1.81916859536649675e-06,113.700009728069276,173.762989227436179,15.2880000000000003,0,0,0.0495148886868988364,2.88411342836306464e-09,-0.000899417740154189794,1.42975581697416844e-07,4.01983191819108926e-05
0.45,31.2221802146980103,131.010399666535704,6.58611776122768511,4.65827001030579346,0.000953562143933252499,35.4620561517945134,0.00125873275223327787,3.12754579585638304,397.209385356286873,17.2316459864824161,7.19073264961644831,69.9941493995125938,2.05218870761162579e-06,113.700010330973456,181.755888424112015,15.2880000000000003,0,0,0.0506413642318551335,3.14987863732273609e-09,-0.000966369542842942814,1.57083782729145849e-07,4.41725079750487196e-05
0.46,31.2221799565319174,131.010400365476642,6.74415901717088939,4.66907507286434065,0.00097630283571516251,41.3913707355688842,0.0012823814722795761,3.11722412848720953,449.71405889764344,17.5754687869478978,7.33738035579407555,69.9935783582983362,2.30821229426708146e-06,113.700010965912341,189.078525726536213,15.2880000000000003,0,0,0.0516519027755614896,3.43223060675433133e-09,-0.00103681314204437207,1.7224885851047691e-07,4.83373548649469587e-05
0.47,31.2221796928065203,131.010401079464799,6.90557672428163105,4.67806301106434042,0.000998761260684927557,28.0209900204918974,0.00130616618884544979,3.10657060381263461,331.007810630253402,17.9233234115620377,7.48533101007974988,69.9929660462147325,2.5889364060732201e-06,113.700011634803886,196.634049649816575,15.2880000000000003,0,0,0.0526742959306323727,3.73170463860384924e-09,-0.0011108841623615434,1.88532207060213475e-07,5.28148505664365441e-05
0.48,31.2221794239793269,131.010401807256216,7.07001851744381948,4.68642527483421745,0.00102109091231145262,27.6007969606275125,0.00132978852885184593,3.09563681785184297,327.203122301157407,18.2709832353803314,7.63313726727991071,69.9923104035261474,2.89614261094227829e-06,113.700012338884164,204.33305198470137,15.2880000000000003,0,0,0.0536961221459722679,4.04904859899578719e-09,-0.00118849531779471017,2.05948560519311644e-07,5.75998398329450787e-05
0.49,31.2221791502289392,131.010402548365278,7.23734841566291642,4.70156796398202914,0.00104489945272251677,34.6487244505178253,0.00135120419031512233,3.08484494341801163,389.60000969812296,18.589315545984995,7.7707981814672209,69.9916093757078812,3.23165731652504743e-06,113.700013079832303,211.511801733856089,15.2880000000000003,0,0,0.0546317638991248022,4.38486615800834454e-09,-0.00126967773493266863,2.2453662401782158e-07,6.26054017926546362e-05
0.5,31.2221788715876762,131.010403302704333,7.40754387012007864,4.72212438923579736,0.00106996435823571525,35.6033845714535389,0.00137072557486675028,3.0741588573465477,397.970310422105001,18.8826594549893159,7.8998011517407587,69.9908609011483378,3.5973597360057951e-06,113.700013859590555,218.236320199079358,15.2880000000000003,0,0,0.0554939729313439212,4.73968531279909998e-09,-0.00135450679800636423,2.44344941868023912e-07,6.78409867869358833e-05
0.51,31.2221785881337617,131.010404070060673,7.5805467220577798,4.73558879650721298,0.00109346949398930206,27.1956639286467201,0.00139183542187690463,3.06284319292573448,323.39843497208409,19.200774511812984,8.03722958125224807,69.9900628955037689,3.99519228958782199e-06,113.700014680103109,225.647740475438098,15.2880000000000003,0,0,0.0564289867670437692,5.11403675587933804e-09,-0.00144303978709531136,2.65418546512062939e-07,7.34915902759761199e-05
0.52,31.2221782998674264,131.010404850463857,7.75636795277497626,9.28436550673400696,4.98022560827886629,32.7856396790881774,-0.306546622385163559,2.75528610621991987,372.098451184341457,20.4102929082988993,8.17691106350775598,69.9892128712149599,6.58698639781494765e-06,113.700017842098987,254.967389222677696,15.2880000000000003,0,2.50644307058047655,0.0599837486807040313,5.50824915263782729e-09,-0.00155157776505332207,2.48236004505233981e-05,8.39955048828785312e-05
0.53,31.2221780068955219,131.010405644202223,7.93512499439618235,9.2315803811381798,4.91207879451400586,34.4296676714660705,-0.314341821063928495,2.7357476827793108,386.55624643486243,20.7352166351968954,8.31329240409805337,69.9882729507466905,0.000122856087334815883,113.700141992307337,263.14544819902676,15.2880000000000003,0,2.51597489896978832,0.0609387889333047397,5.98033234996674123e-09,-0.00175319972532829893,0.000134385495305423298,9.64197002381399329e-05
0.54,31.2221777092290687,131.01040645148052,8.11689619532935858,9.18069085265458718,4.84621752975319975,30.2278270170728405,-0.322229871656485978,2.71586284066497807,349.270324209843579,21.0582610589028221,8.44887882233609844,69.9872157655748452,0.000413429675344908836,113.700451655316698,271.403934018559141,15.2880000000000003,0,2.52548728884757123,0.0618883120414701129,6.57165857472156024e-09,-0.00196166806205084251,0.000246733287558086566,0.000109563589614163206
0.55,31.2221774071355256,131.010407271582807,8.30148129110413535,9.13401895689096399,4.78375999442883337,32.043897512387673,-0.330120192699168591,2.69581180428209821,365.250000591990727,21.3737913435677278,8.58171844547215379,69.9860374219651078,0.000882583947330703726,113.700951384423959,279.593171955165872,15.2880000000000003,0,2.53496456485951605,0.0628157576221632374,7.2823100581415176e-09,-0.00217684321919330752,0.000361754095261985955,0.000123401160830171887
0.56,31.2221771006243927,131.010408104497799,8.48888060139867662,9.09316143911912889,4.72543502977865959,29.9032011225550178,-0.33794076258451522,2.67574369032926107,346.226561946578727,21.6774758646111003,8.71030567635044584,69.9847340320038711,0.00153451782736922066,113.701645651599804,287.589508273760089,15.2880000000000003,0,2.54440691682501097,0.0637083953223432503,8.11199939497144655e-09,-0.0023988724745355218,0.000479487696322260064,0.00013791724909104777
0.57,31.2221767897716518,131.010408950032996,8.67904277236229937,9.04969549753653801,4.66684863107942238,29.568529855163689,-0.345999548511386201,2.65503136635993409,343.182829683302316,21.9886940936992907,8.84138315997933333,69.9833016666020029,0.00237342061418280509,113.702538919061155,295.901086800276346,15.2880000000000003,0,2.553813889475256,0.0646231798329313378,9.0603918261930171e-09,-0.00262780860543962999,0.000599923911912498458,0.000153245577931539174
0.58,31.2221764745654262,131.010409808234698,8.87198456306312977,8.99826032857937186,4.60528490980377203,38.9620386215930097,-0.354522368997260806,2.63320159619675387,426.12500585731533,22.3208888875359719,8.97962359650885134,69.9817363275486599,0.00340351146268197619,113.703635681551631,304.903640997129742,15.2880000000000003,0,2.56318471367627065,0.0655996190629171555,1.01269880264123714e-08,-0.00286380754759919766,0.00072310611465771816,0.000169528239590447858
0.59,31.2221761546404863,131.010410680110795,9.06799703205128971,8.95882618879652881,4.5508304006673379,31.5683316575889457,-0.362726218676248324,2.61186856509528242,360.68438819711065,22.6254588907159793,9.10811610252976855,69.9800337811398663,0.00462927277726495057,113.704940715166302,313.275374566289997,15.2880000000000003,0,2.57253325950621603,0.0664948772343181699,1.13109145010985442e-08,-0.00310748815878434444,0.000849313746171617636,0.000186459897852384846
0.6,31.222175830202108,131.010411565117408,9.2669288116480395,8.90474803664583447,4.49003906503326267,28.0468739672397973,-0.371690840312058124,2.58878769455307411,329.48595949860578,22.9683231335531595,9.24978519104834085,69.9781897049455637,0.0060552367151991077,113.70645884887081,322.835844316546797,15.2880000000000003,0,2.58184993362866111,0.0675026863287405271,1.26119099003430782e-08,-0.00335875317898434245,0.000978456492913771158,0.000204586817791638155
0.61,31.22217550121389,131.010412463368112,9.46881602177527348,8.84936287479349737,4.42963254868067313,32.8818318748122493,-0.380898430950741884,2.56502245736248158,372.09845118432969,23.3171564861134897,9.39338924889976568,69.9761996158288184,0.00768604111448091369,113.708195028054234,332.710053999980744,15.2880000000000003,0,2.59113573848720602,0.0685280451687291375,1.40293758554233742e-08,-0.003617818596672733,0.00111060446730392782,0.000223709394460313448
0.62,31.2221751677902937,131.010413374566212,9.67357790700173581,8.81871449589807455,4.38238187894138331,40.9082265614794451,-0.389191343955677338,2.54301509246085855,442.86563930529212,23.6032562432986559,9.51505316021892789,69.9740590172553709,0.00952639470045805146,113.710154265710571,340.918095330545896,15.2880000000000003,0,2.60039010895011646,0.0693690393722166815,1.55628298419321746e-08,-0.00388476090457105881,0.00124575682238371797,0.000243158538613479005
0.63,31.2221748297695036,131.010414299165006,9.88134730778210546,8.78141160919333785,4.33269459560048364,23.1588526084928219,-0.397918352782886064,2.51993145147986253,286.112512747078938,23.9075059779399091,9.6428863832010876,69.9717633806510264,0.0115808448796546216,113.712341412882196,349.756740101162677,15.2880000000000003,0,2.60961444436913936,0.0702633820366754813,1.72112126528261157e-08,-0.00415990705041206603,0.00138403598800425245,0.000263731827505593629
0.64,31.222174487698716,131.010415235690601,10.0917078360871475,8.73308189287063819,4.27847051219341346,22.7349204390895281,-0.407307226171168546,2.49526571597574032,282.307824417967538,24.2427658146995029,9.78137463210328484,69.9693081338653116,0.0138539630222352297,113.71476134323153,359.627675681861888,15.2880000000000003,0,2.61878237943173309,0.0712488688713527191,1.89747467922051676e-08,-0.0044426852183747428,0.00152511954058485522,0.000285603536461759668
0.65,31.2221741415676917,131.010416184183583,10.3046747198009001,8.70293175655145568,4.23386394623027584,40.2559075784782863,-0.415996080794255707,2.47193106980556854,436.778144778747503,24.5293954123094373,9.90283789509519075,69.9666887027787538,0.0163502050430801224,113.717418812118225,368.17439379309576,15.2880000000000003,0,2.62791835034897137,0.0720914391350071793,2.08523828520248728e-08,-0.00473330865882157226,0.00166907631816586043,0.000307878002373068954
0.66,31.2221737909171608,131.010417145904455,10.5206106970852034,8.66906289579023692,4.18820160904408745,34.227069666810884,-0.425001364546056415,2.44775339895692801,383.512515171600171,24.8266637366624536,10.0278620786411317,69.963900541960939,0.0190740372270621662,113.720318579233222,377.144354380026584,15.2880000000000003,0,2.6370126075351723,0.0729652829879255393,2.28419989812437359e-08,-0.0050325472963094935,0.00181624372229691623,0.000331302117814801379
0.67,31.2221734359252103,131.010418120382241,10.7393853423868162,8.62557154100523249,4.1386979122381744,23.533014608974792,-0.434641027337139829,2.42203234341128049,289.156244010342505,25.1520818707977369,10.1625361747623746,69.960938711083088,0.0220302491141416423,113.723465756955235,387.087938661828332,15.2880000000000003,0,2.64606802062650992,0.0739218656391759932,2.49431060733816946e-08,-0.00534032242752326049,0.00196654291405685706,0.000356164211505283353
0.68,31.2221730767542027,131.010419107188653,10.9608803819104814,8.58549939891062408,4.09157485725180692,29.4124462601187986,-0.444278203808485816,2.39614197401149953,340.899992485846269,25.4689438144778251,10.2941085246677648,69.9577982290288105,0.0252236013813891928,113.72686542817604,396.893874967515501,15.2880000000000003,0,2.6550911183802226,0.0748533086393145253,2.71550947646660647e-08,-0.00565660168312066489,0.00211991932309504427,0.000382002458350531458
0.69,31.2221727134841167,131.010420106118659,11.1850410774892328,8.55552095256555667,4.04988604449415313,36.2452765281684108,-0.453531804719048914,2.3709172576320694,401.014072685363431,25.7567804848092585,10.4154719612020088,69.9544742276865605,0.0286587452214357233,113.730522552185732,405.906803746747073,15.2880000000000003,0,2.6640616721642334,0.0756994529856158255,2.94770958347110733e-08,-0.00598143119233043082,0.00227635677826921057,0.000408495205362920447
0.7,31.2221723459952898,131.010421117508713,11.4119668724417398,8.52521929340266738,4.00868095422424719,30.3804188803785351,-0.462939626577596131,2.34518681355078451,349.270324209852845,26.0456452858587824,10.5370643850577448,69.950961681916354,0.0323402922269687698,113.734442059071455,415.053382113544671,15.2880000000000003,0,2.67298995326123112,0.0765486256948072763,3.1907509708850205e-08,-0.00631514893641379072,0.00243597682976586481,0.00043611350029684428
0.71,31.2221719743430945,131.010422141220005,11.6416218478259523,8.48880978010368281,3.96527636064607236,24.9444742782625291,-0.472836540682675277,2.31820534520710941,301.331264063405797,26.3533230465139958,10.665066907484988,69.9472555749335783,0.0362729229454911151,113.73862894194103,424.907999836944441,15.2880000000000003,0,2.6818834275272101,0.0774530969096150074,3.44453380793102064e-08,-0.00665783136705304542,0.00259877599661952801,0.000465199683804051159
0.72,31.2221715985351906,131.010423177243183,11.8740070244821094,8.44509389408905342,3.9191517272165961,30.571965249026487,-0.48332111596611016,2.28973694508271297,350.79220534145287,26.6844000083238129,10.8010752105971886,69.9433506065956436,0.0404614333112181118,113.743088329895031,435.64158466455433,15.2880000000000003,0,2.69073499622812262,0.0784263462620202467,3.70894107948416892e-08,-0.00700966057996391285,0.00276480058069719864,0.000495924968075971292
0.73,31.2221712185746192,131.010424225581858,12.1091271781148908,8.41931623001117124,3.88186583671209062,38.710319687307674,-0.492915863489656436,2.26307443587161083,422.320318528233997,26.9599048695527017,10.9176468909987729,69.9392413969442686,0.0449107552077228078,113.747825489534037,444.673603456739556,15.2880000000000003,0,2.69953612024936085,0.0792362744681240488,3.98384844635941266e-08,-0.00737085263458944241,0.00293411198744907746,0.000526851014656687378
0.74,31.2221708344078941,131.010425286391609,12.347030169940945,8.38787581181177977,3.84255720293862746,24.1881808484863683,-0.502987718439845688,2.23517194304159394,294.482813471059444,27.2531658201309206,11.0402606779722809,69.934922650084232,0.0496256200844954476,113.752845476069638,454.389863388697393,15.2880000000000003,0,2.70830335798588973,0.0800983955051558227,4.26911468272262416e-08,-0.00774161751634516379,0.00310676658700295141,0.000559358812328527829
0.75,31.2221704463746192,131.010426358761606,12.5874604080946231,8.35286971371086828,3.80219520207476691,28.2624721643305215,-0.513434295889837577,2.20624550292184507,330.246885564414924,27.5581421928353372,11.1668303455042395,69.9303888704915551,0.054610803094514708,113.758153400942717,464.605731675025254,15.2880000000000003,0,2.71702743563114479,0.0809949557746110355,4.56477567321812629e-08,-0.00812157206356642694,0.00328254860514110621,0.000593364864946016807
0.76,31.2221700543765976,131.010427442968393,12.8305001426646239,8.32413687126321378,3.76519549315355961,30.4346576513922571,-0.523635889969449653,2.17769202054602173,349.270324209861712,27.8427095475330333,11.2861878482784395,69.9256346551841403,0.0598709945038405147,113.763754278687202,474.239307283678272,15.2880000000000003,0,2.72570229700687339,0.0818315398840688824,4.87063851261060863e-08,-0.00851108063574293992,0.00346158657485519383,0.000628228817143660777
0.77,31.2221696583647983,131.010428539154645,13.0761934869005785,8.29694663541302724,3.72938507360572036,28.4519751316700358,-0.533876836897936524,2.14887076279823486,331.76876669607077,28.1218028251616268,11.4035222415996778,69.9206544569715192,0.0654109268011805328,113.769653173904672,483.783023834426103,15.2880000000000003,0,2.7343276398570433,0.0826520423426872902,5.18654135844291069e-08,-0.00891040442384345363,0.00364395946568572913,0.000664281228201008835
0.78,31.2221692584037243,131.010429647154865,13.3244968778102759,8.26443480452120127,3.69170824924558394,23.3503222409577553,-0.544615889591150593,2.11873071097388044,286.873437812889904,28.4185557423971922,11.5268781729138379,69.9154426178894823,0.0712353368304700363,113.775855160495979,494.035272218883676,15.2880000000000003,0,2.74291266356361874,0.0835244549309976519,5.51239510235397524e-08,-0.00931958274947191495,0.0038296449711607305,0.000702100885692671971
0.79,31.222168854579806,131.010430766744207,13.575349904595857,8.22897088997865822,3.65323451890834461,33.2335847385774841,-0.555719048264930238,2.08756614368615079,373.620332315953419,28.7255463844370418,11.6536806540132449,69.9099934874348889,0.0773489749632629703,113.782365319835407,504.754367209860902,15.2880000000000003,0,2.75145558454902517,0.0844269644296777172,5.84811919296470458e-08,-0.00973864849734493859,0.00401861868827650334,0.000741579261246860647
0.8,31.2221684466907909,131.010431898479851,13.8289145129229123,8.20390308142104452,3.61981299398918921,33.6763010877056033,-0.566256001336777448,2.05752268165186258,377.42502064505743,28.996430413655478,11.7678052017009822,69.9043011164590524,0.0837567369445011839,113.789188899800038,514.30647146187016,15.2880000000000003,0,2.75996299920222476,0.0852233607619479333,6.19343191234235759e-08,-0.0101682004735066719,0.00421110782782367198,0.000781571382965675992
0.81,31.2221680348362298,131.010433042100658,14.0851199178602364,8.17226330599559958,3.58396105863001502,21.8968075736571421,-0.577398367258115552,2.02588847263586391,273.937492693991885,29.2897765954909453,11.8896269353921706,69.8983595287283208,0.090463455690878658,113.796331082770095,524.75229488040975,15.2880000000000003,0,2.76841519802026292,0.0860857828810256825,6.54829263127530996e-08,-0.0106081899760560646,0.00440704911559863192,0.000823619601664221852
0.82,31.2221676191961528,131.010434197127665,14.3438335035517017,8.13798120182454277,3.54742265016831881,28.1462151674010492,-0.58889745741916677,1.99322966411399083,328.725004432770049,29.5924689241276795,12.0145918825722866,69.8921627983844473,0.0974739154888177861,113.803796992736878,535.641032462939847,15.2880000000000003,0,2.77682215941862154,0.0869756818514099556,6.91269989100545281e-08,-0.0110584666614841256,0.00460633606461172216,0.000867430421672401079
0.83,31.2221671997585766,131.010435363601658,14.6050703181062769,8.11609785560153796,3.51666679490336653,35.7866914046980753,-0.59962117662441794,1.96219308396926873,395.68750322465047,29.8500532991603968,12.1237517675072137,69.8857047382205963,0.104792945593637055,113.811591817022475,544.992799565941823,15.2880000000000003,0,2.7851883447242165,0.0877330106461057663,7.28649361079810741e-08,-0.0115192815347494176,0.00480903924416441718,0.000911419139058683848
0.84,31.2221667764271125,131.01043654179054,14.8689097209194472,8.09173053253921459,3.48523640206302909,22.0888906479815716,-0.610659575424608914,1.93023440528033152,275.459374825645227,30.1156326546510797,12.2355783329200367,69.8789793256256502,0.112425198587150096,113.819720547752851,554.71961205679645,15.2880000000000003,0,2.79351432308702163,0.0885138448139083378,7.66947565367864586e-08,-0.0119909587998275405,0.00501525873222743394,0.000957155586095516635
0.85,31.222166349481963,131.01043773094338,15.1351418093763268,8.05733500939967229,3.44993286049004055,24.0911454277720054,-0.622629599884584661,1.89588375587056834,292.960932339393764,30.4176942104524635,12.360002983108112,69.8719804483568083,0.12037528639455522,113.828188139025201,565.88868956496583,15.2880000000000003,0,2.80179331556145472,0.0894019123968152474,8.06176429238587952e-08,-0.0124730945063466093,0.00522477916965047393,0.00100560178379960016
0.86,31.2221659187625598,131.010438931501682,15.4038952386352168,8.03042732012612426,3.41821364058631705,30.1743709827890889,-0.634160647730715565,1.86237167775596668,346.226561946558718,30.6913685053575094,12.474439193822251,69.8647017622429019,0.128647975276983545,113.836999713404879,576.102464162955584,15.2880000000000003,0,2.81003107957165499,0.0902065534500037652,8.46305621583126925e-08,-0.0129662604963324823,0.00543780750202625066,0.00105473976449671557
0.87,31.2221654842944325,131.010440143402832,15.675155491698197,8.00700339744091671,3.38832529559379747,28.0987185677692253,-0.645540334164887541,1.82902236570304733,327.964078366998024,30.9508246718033604,12.583818525911818,69.8571369113976886,0.137247948562359057,113.846160306520034,585.868788119159035,15.2880000000000003,0,2.81821668375125567,0.0909694126096189243,8.87324522588584322e-08,-0.0134705839401781484,0.00565435681992347994,0.00110499842028500129
0.88,31.2221650461137337,131.010441366555114,15.9488997027346446,7.97858570405050305,3.35670327202578012,24.2849018839397992,-0.657474048436183733,1.79415309376842536,294.482813471041823,31.2284217770638648,12.699413565163832,69.8492794482717159,0.146179835971902206,113.855674903662873,596.409519706134915,15.2880000000000003,0,2.82635752738833457,0.0917855982892309963,9.2922670098007494e-08,-0.0139861174866769914,0.005874408142628346,0.0011575474446778851
0.89,31.2221646042998664,131.010442600749883,16.2250719009350242,7.94532530907314793,3.3234373522214895,26.6373613434970444,-0.669977980992065403,1.7577094996788134,315.028134248086985,31.5242681391079813,12.8212708920878544,69.8411229319890623,0.155448247205614204,113.865548463426322,607.747248155041234,15.2880000000000003,0,2.83445484279703352,0.0926554293588848082,9.72006457713694072e-08,-0.014512905041413799,0.00609793926328587241,0.00121249355789528317
0.9,31.2221641587843877,131.01044384617785,16.5037293395635771,7.9243194830969923,3.29560419956809802,29.4255435550971463,-0.681559843634712448,1.72327919259525242,339.378142354214447,31.7710553579747277,12.9259296146699718,69.8326605608731512,0.165057938395364506,113.875786115963038,617.283453000021268,15.2880000000000003,0,2.84251173638281873,0.0933810744745310756,1.01564165026691211e-07,-0.0150513200379234074,0.00632506633264093981,0.00126728613190259351
0.91,31.2221637096357831,131.010445102658736,16.7848239074890628,7.89838570303759013,3.26606223554339348,22.3925335548995328,-0.693707203813016871,1.68728229368563398,277.742181023078899,32.0360817855840878,13.0368471717334966,69.8238858198421894,0.175013373297292274,113.886392670427369,627.607920719125786,15.2880000000000003,0,2.85052578419001446,0.0941603353580432734,1.06012967571276763e-07,-0.0156013568671976507,0.00655574470065540659,0.0013245199110801457
0.92,31.2221632570464145,131.010446369678618,17.0682131048384598,7.86770648169395681,3.2349085600227423,26.659192371394191,-0.706431435437651079,1.64967401272895797,315.028134248062145,32.3192843548172846,13.1540173798841806,69.8147919799252747,0.185319031078014174,113.897372964436187,638.735831625181277,15.2880000000000003,0,2.85849315048778818,0.0949930270639318397,1.10548307029951132e-07,-0.0161627330576622,0.00678981631298223101,0.00138427202526500274
0.93,31.222162800932697,131.010447647467174,17.3539649733259402,7.84810949639338951,3.2085873976011654,31.7108356683533685,-0.718258748827916516,1.61403916049960405,359.162507065472823,32.5561628918740169,13.2549355869389576,69.8053722080291124,0.195979373600501133,113.908731822031626,648.115361867457636,15.2880000000000003,0,2.86641796896897283,0.0956895703488115507,1.15167362172258713e-07,-0.0167358945907339976,0.00702742523545618093,0.00144382691169380383
0.94,31.2221623411920532,131.01044893630376,17.642161298455747,7.81848070627715774,3.17850263834912816,23.0197059940537727,-0.73116831071886712,1.57554975851255663,283.068750483778672,32.8328923302391047,13.3696661783460282,69.7956198248076305,0.206998683576182285,113.920473870166873,659.161986846670175,15.2880000000000003,0,2.8743001362981575,0.0965032515423727005,1.19868203533866517e-07,-0.017321167368231527,0.00726866295398930287,0.00150697923378074485
0.95,31.2221618780995591,131.010450235451856,17.9325967190241684,7.79027380642307321,3.14930377361468139,29.8135053474704961,-0.744086849067594036,1.53681615407368155,342.421873617487279,33.1027330345274109,13.4819142783163457,69.7855277782097971,0.218381412078763298,113.932603928357253,670.022609770202394,15.2880000000000003,0,2.88213644772266564,0.0972966928830733546,1.24653019211486962e-07,-0.0179181406868271983,0.00751332040829509433,0.00157168550087394819
0.96,31.2221614113789734,131.010451545657475,18.2254849349612513,7.76756068838563429,3.1226018687859014,29.2122017880777989,-0.756596122581657426,1.49887290344895185,337.095335156783449,33.3480181259959494,13.5854949724614258,69.7750889761496182,0.230131911468555606,113.94512671673769,679.969755715908718,15.2880000000000003,0,2.8899330995169743,0.0980179671985948603,1.29516625277952853e-07,-0.0185276789153589125,0.00776170707112497273,0.00163714701688788653
0.97,31.2221609410498324,131.010452866870423,18.5208144373555186,7.74214436680959928,3.09510202387106936,18.6849916162054868,-0.769506363012041339,1.45972153137550142,245.021887192993233,33.6031805746621544,13.6924352512923626,69.7642962936315598,0.242254557837615014,113.958046973756254,690.395562780631053,15.2880000000000003,0,2.89768931402119145,0.0987682810635161779,1.34458390932968024e-07,-0.0191499086406723001,0.00801382992740348223,0.00170502758672798848
0.98,31.2221604673855353,131.010454198358531,18.8183811298380519,7.70731345380210353,3.06416375196302226,27.224828900862903,-0.783543064605245698,1.41754327327168572,319.593746642958081,33.8978382997529124,13.8131098411337963,69.7531424526933392,0.254753650390393993,113.971369369136525,702.536375012649955,15.2880000000000003,0,2.9053997897734738,0.0996346894791786258,1.39481858628525703e-07,-0.0197842835873728896,0.00826942684982340769,0.00177690511841050738
0.99,31.2221599902466167,131.010455540498782,19.1182942707029255,7.68846141098990365,3.03980527468117634,29.7583344313267411,-0.796022133123101883,1.37901339748056273,341.660948551705417,34.1214665307088865,13.9088685297173562,69.7416200205852874,0.267633543143727559,113.985098633499433,711.815885427695775,15.2880000000000003,0,2.91306959628281437,0.100292331246699756,1.44582794219771498e-07,-0.020431460316345379,0.00852871856308940433,0.00184708335006083277
1,31.2221595096314886,131.010456893295924,19.4205575107522641,7.6604516793737325,3.01210879364969308,26.6294380039312308,-0.809606775784378896,1.33749592285871155,314.26720818227642,34.3835585024198878,14.018001105776257,69.7297217671441416,0.280898232000633796,113.999239120199192,722.772023323683129,15.2880000000000003,0,2.92069625418947609,0.101063035992965469,1.49761093602754608e-07,-0.0210914963697607406,0.00879168350070493911,0.00192134344312972481
1.01,31.2221590257110222,131.010458256293077,19.7250445919829289,7.63401960529537504,2.98529209814469354,27.8567752491274838,-0.823150197552788176,1.29584596776709593,324.920316103697928,34.6371417384191531,14.1240880723551108,69.7174401782107651,0.294551869519537379,114.013795354097866,733.45096314751288,15.2880000000000003,0,2.92828043789759906,0.101808738878155183,1.55018170386356132e-07,-0.0217641816454296338,0.00905819577524998552,0.00199718583104814724
1.02,31.2221585384125788,131.010459629685329,20.0318129083391483,7.60999069725556865,2.95965865575775577,23.2435077029077881,-0.836545711263960823,1.25433383698793421,284.590631615404163,34.8781499988269772,14.2256996830503439,69.7047677888814121,0.308598409145200092,114.028771653061554,743.671393231663274,15.2880000000000003,0,2.93582399414650874,0.10251748785177138,1.60351727463206844e-07,-0.0224498806951940327,0.00932835567151522708,0.00207438216628725832
1.03,31.2221580477999794,131.010461013301381,20.340816430735984,7.57976837357962907,2.93188623313241337,18.9765815124564767,-0.850782825455750791,1.21045450302022739,247.30469339049705,35.1456782204621447,14.3365378471102591,69.6916971176502074,0.323041673196527546,114.044172200011445,755.101201466111661,15.2880000000000003,0,2.9433255585975493,0.103304194838392899,1.65762222170901322e-07,-0.0231485619640320259,0.00960210700703891668,0.00215528321992335733
1.04,31.2221575539309661,131.010462406986932,20.652014159505665,7.55549835773623979,2.90664519024476586,30.234080951942655,-0.864454338241554598,1.16776353871476513,345.465636880722968,35.3841834299996876,14.4371430293993264,69.6782204289871601,0.337885595330371657,114.060001301798792,765.361617563230766,15.2880000000000003,0,2.95078619387483343,0.104005601835410341,1.71249236491188936e-07,-0.0238603080794038483,0.00987943904312068959,0.00223656047644021699
1.05,31.2221570565355968,131.010463811462273,20.965610797162352,7.52624839490216413,2.87974382391791117,18.2014451652918048,-0.878847866061165606,1.12298995033890936,240.456258798199826,35.6439512268817182,14.5451336910211051,69.6643300113859425,0.353133929479649666,114.076263079473534,776.617055049803412,15.2880000000000003,0,2.95820990256841521,0.104769514461989732,1.76807034134235711e-07,-0.0245860246964731827,0.0101606566626183982,0.00232143482113942408
1.06,31.2221565558363814,131.010465226131799,21.2814410482478138,7.49280223846418636,2.85149843831552019,25.9736149684388593,-0.893907144591460701,1.07625534361487474,308.179683655939243,35.9220266201425034,14.6594983933912655,69.6500178310845541,0.368790599643061989,114.092961840320172,788.757911919863886,15.2880000000000003,0,2.96559087291881252,0.105587247507413218,1.82439392918445345e-07,-0.0253252597342960746,0.0104455401594754464,0.00240981611558391869
1.07,31.2221560517230188,131.010466651289164,21.5995896817401452,7.4691207218003095,2.8271787623372906,30.6072048023662191,-0.907880226391429734,1.03204548717348366,348.509368144030759,36.1519027577395207,14.7568809314539582,69.6352756601257283,0.384859561947265449,114.1101019321476,798.860811250597408,15.2880000000000003,0,2.97293535883738747,0.106263314392364999,1.88142466643085666e-07,-0.0260786227300901438,0.0107342776040886267,0.00249730568868215212
1.08,31.2221555440983067,131.010468087190702,21.9201305090283647,7.44336650109933728,2.80229632604503509,20.5735651495872744,-0.92223121600279534,0.986612162932955505,261.001578574662346,36.3894378090874753,14.8568846738519706,69.6200953574238213,0.401344517298581172,114.127687436485886,809.368164343234753,15.2880000000000003,0,2.98024382223893403,0.106961901375684107,1.93914233599404794e-07,-0.0268465096481914495,0.0110269714512395024,0.00258765098908933597
1.09,31.2221550332201758,131.010469533146221,22.2428716757098073,7.40721570407492447,2.77376032338393363,18.9191905530092512,-0.938075284364819684,0.93705699644121998,246.543753324744074,36.6757805102492966,14.9740039607100588,69.6044686657527905,0.418249113263780448,114.145722383566607,822.130372106587174,15.2880000000000003,0,2.98751191330147003,0.107803960189878256,1.99760283049586372e-07,-0.0276282817834250759,0.0113233327551448184,0.00268387510835485076
1.1,31.2221545191588987,131.010470988966603,22.567762170276783,7.37644318182244429,2.74746172631193941,38.0575519507243669,-0.953359966559594318,0.888668754440851583,413.189061738584087,36.934308838604224,15.0813088823882033,69.5883872129491579,0.435576938327832952,114.16421074712656,833.735632227937799,15.2880000000000003,0,2.9947410557046541,0.108564270535678603,2.05680461460275749e-07,-0.0284240036505993138,0.011623340851784951,0.00278055016434973837
1.11,31.222154001531969,131.010472455665962,22.8950880130615673,7.35636251222569726,2.72532283704925238,27.8426921415609918,-0.967300292981970955,0.843507971060717732,324.159391037639693,37.1372817999479281,15.1689938279715069,69.571842455155533,0.453331573595008641,114.183156500123118,842.89791958512194,15.2880000000000003,0,3.00193818218094099,0.10916129007048693,2.1166496746627861e-07,-0.0292350871587090076,0.0119274763698451625,0.00287551978245364744
1.12,31.2221534803948018,131.010473933091049,23.224807465288297,7.31630031919634138,2.69604910535916664,10.4547537861382853,-0.984145961333850461,0.790496871508417076,172.73281794065943,37.4384041086350337,15.2911987644903853,69.5548259283554842,0.471516342548342404,114.202563346646741,856.595240170916895,15.2880000000000003,0,3.00910012626339407,0.110046818151712189,2.17716330571426421e-07,-0.0300614188876792594,0.01223564486106536,0.00298067690340530827
1.13,31.2221529563058056,131.010475419757057,23.556507106700888,7.28706924826227187,2.67096472721231493,32.8408460970192948,-0.999610770757451417,0.740799901160017926,367.532807790070478,37.6831525721904441,15.3935262219568241,69.5373285630631983,0.490134971386050999,114.222435426718107,867.803948333465428,15.2880000000000003,0,3.01622210537334157,0.110766648840603374,2.23846180254667757e-07,-0.03090152800876474,0.0125472552589137257,0.00308390822897358034
1.14,31.2221524286331409,131.010476917334557,23.8906554333010348,7.26538538699092484,2.64881911268002401,18.1566325161330617,-1.01408510969060672,0.693426199440528856,239.695317731955441,37.8864470603158026,15.4811710642391347,69.5193418297516388,0.509190476796659852,114.242776131818147,877.164373607200901,15.2880000000000003,0,3.02331360138295446,0.111364636856551985,2.3003801906466194e-07,-0.0317576389993390815,0.0128630782733271509,0.003186342162365032
1.15,31.2221518978341983,131.010478424604344,24.2269127685563888,7.2235784273557373,2.61959149021100091,17.898335492659033,-1.03165732776305452,0.637601338875408818,237.412511535467729,38.1920347125936388,15.6049045605383352,69.5008571346747317,0.528685751311159136,114.263588726453889,891.342861006438284,15.2880000000000003,0,3.03036596224750809,0.112263316995083115,2.36305083496604916e-07,-0.0326282577266149149,0.0131825146178691371,0.00329999267695623485
1.16,31.2221513640377566,131.010479941222513,24.5651850227398754,7.20360547862207667,2.5984278787075672,46.9538506475152317,-1.04606489739245023,0.589835619308972992,490.043774384589426,38.3810930889516229,15.6874630083408491,69.4818652913834569,0.548624057968521317,114.284876878439817,900.160112182948296,15.2880000000000003,0,3.0373821969402286,0.112819474032621034,2.42647238602430643e-07,-0.0335133646009528816,0.0135055118098770469,0.00340617968740206155
1.17,31.2221508264093934,131.010481469386946,24.9060859362796876,7.17302252867624102,2.57364100676384933,8.28030684283348251,-1.06218812045003586,0.537238413249442437,153.709379294867944,38.6231714159140864,15.7886950622690705,69.4623576143256258,0.569007991789031609,114.306643551226372,911.521103810687919,15.2880000000000003,0,3.04437159036539073,0.1135314890093614,2.49043415062154548e-07,-0.0344158654870727887,0.0138330697755868967,0.00351985351605611655
1.18,31.2221502860398452,131.010483006208744,25.2488112716857032,7.12839948800863166,2.54406065351159461,22.8143884687113747,-1.08067082134638293,0.478041764556714488,280.025018221967457,38.939004590749974,15.9160504304414765,69.4423249661571163,0.589840374177740046,114.328891954953434,926.45911394792472,15.2880000000000003,0,3.05131900971486258,0.114460312505076503,2.5552445731152307e-07,-0.0353320312405043455,0.0141637912249324253,0.00364298276352341063
1.19,31.2221497424325136,131.010484552994228,25.5937265640351548,7.11437247038700349,2.52550902001959532,39.896190751964788,-1.0943578416821742,0.431328728048371024,428.407813052929214,39.0865776107370095,15.9838034400011946,69.4217579348107847,0.611124076425443308,114.351625363148685,933.463776495432171,15.2880000000000003,0,3.05823202550388595,0.114894547240993558,2.62071525016559855e-07,-0.0362641306781996547,0.0144984444408223015,0.0037531350584840144
1.2,31.2221491951550476,131.010486110871284,25.9411455087397798,7.07552541508746913,2.49836565944484779,4.0816344470728545,-1.11217285133201726,0.373263518182820053,117.184374136023607,39.3664829822403419,16.0984038789194521,69.4006477756466893,0.632861151282147483,114.374846182989742,946.849420654470009,15.2880000000000003,0,3.06510818017149012,0.115717779574564555,2.686762334276476e-07,-0.0372135613011044322,0.0148374704602265099,0.00387884685288376885
1.21,31.2221486453058503,131.010487676940841,26.2902634269452378,7.0378704777744554,2.4718411403804379,32.0310788578972918,-1.1299385873958907,0.314988075214167718,359.923432132008998,39.6383307011498545,16.2101967898705013,69.3789848258994937,0.655054285110230894,114.398557504514457,959.939435940046678,15.2880000000000003,0,3.07194317241045756,0.11651733503611468,2.75369503333681808e-07,-0.0381765539485008909,0.0151794810174729657,0.00400656597600881036
1.22,31.2221480920398626,131.010489253418228,26.6416964978892032,7.02114488542813575,2.45278508892196623,23.1880013260012277,-1.14421728096186692,0.265793576665795062,283.068750482576149,39.790033077467946,16.2793012980658389,69.3567598405421961,0.677705570519882894,114.422761794522614,967.268532579045541,15.2880000000000003,0,3.07875098781425649,0.116963729829723265,2.82122245105482209e-07,-0.0391566160911363051,0.01552566549933127,0.00412501004367536554
1.23,31.2221475356859983,131.010490839426268,26.9952010563023599,6.98129150814310329,2.42585837927188663,8.99309622085166183,-1.16257539613277427,0.205253396443504904,159.796873822227951,40.0690049585949311,16.3936247655255727,69.3339639931245131,0.700816515914101212,114.447460902301174,980.84600291160109,15.2880000000000003,0,3.08552369119060854,0.117784244079747899,2.88948412888162922e-07,-0.0401523517595070087,0.0158754763882308393,0.00425941890682270466
1.24,31.2221469767081494,131.010492433740467,27.3504387487411016,6.94932682225126985,2.40183765049912568,38.8058080856934424,-1.17965366889494216,0.147834768117575371,418.515630199805003,40.3009531804752541,16.4912722117560726,69.3105877480678458,0.724389052206135475,114.472657136951383,992.200695541617279,15.2880000000000003,0,3.0922588898137584,0.118466538950229142,2.95859952160858745e-07,-0.0411622468489367122,0.0162283370615258424,0.00439167688742077289
1.25,31.222146414316466,131.010494038420433,27.707980077066356,6.92921160903881006,2.38203548485256711,18.7325173027567082,-1.19464128577645168,0.0957820541400045689,244.260946125734876,40.461021530047546,16.5632948120562098,69.2866219247172381,0.748424578674730112,114.49835224978591,1000.06369468530556,15.2880000000000003,0,3.09896798463805467,0.11893754728808878,3.02828872927052577e-07,-0.0421896414363494357,0.0165853554714167593,0.00451901466211857526
1.26,31.2221458490242085,131.010495652108489,28.0674489232082998,6.88509512898008058,2.35418890660028968,11.016930934148192,-1.21411695644288598,0.0311327404031229889,177.298446336408631,40.7576288303078798,16.6840073560887028,69.2620575123274875,0.772924132863555102,114.52454761231968,1014.744714178864,15.2880000000000003,0,3.10563601494541297,0.119809927913431799,3.09875996181984976e-07,-0.0432323492326604011,0.0169457184905074804,0.00466448629460936969
1.27,31.2221452809998326,131.010497274356567,28.4287225280039735,6.86028972386963964,2.33306569213186243,37.3420418702492043,-1.23005600897238287,-0.0241965847747909815,405.579686079964688,40.9381485683894226,16.7633512355659562,69.2368845282035466,0.797889378326284482,114.551245274811734,1023.71790905779312,15.2880000000000003,0,3.11225987848110996,0.120341069099699466,3.17001752616911985e-07,-0.0442901687386812182,0.0173093088488122243,0.00479961648218053382
1.28,31.2221447096065212,131.010498906813297,28.7922551934162136,6.83092817499869387,2.31054164375942639,12.0760741178906112,-1.24689814157372836,-0.0823442489458989096,186.429688124688823,41.1418091500264751,16.8509402156179071,69.2110939758913304,0.823320901755378309,114.578446146226412,1033.89279584859264,15.2880000000000003,0,3.1188566784322056,0.120940242401087736,3.24185737271898887e-07,-0.045365629968975231,0.0176769347267279643,0.00494044612812583484
1.29,31.2221441356160874,131.010500547452494,29.1574879585713447,6.7895984088553325,2.28415361181412679,19.8908057050695994,-1.26615200820107177,-0.14750808826634515,254.153128984572163,41.4145080309246509,16.9632793558374892,69.1846764303298016,0.849219439234051188,114.606151302391709,1047.60729577014627,15.2880000000000003,0,3.12541709673517998,0.121742368405467316,3.31456077091136445e-07,-0.0464555802166423532,0.0180474684207081217,0.00509249949078248443
