Time,Latitude,Longitude,Altitude,Angle of Attack,Angle of Sideslip,X-Acceleration,Y-Acceleration,Z-Acceleration,Thrust,True Velocity,Ground Velocity,Pitch,Roll,Yaw,Dynamic Pressure,cp,parachute_deploy_gain,Wind Speed,Mach,omega_x,omega_y,omega_z,Cmq,Angle of Attack(total),Angle of Attack(gust),True Velocity(gust),Acceleration
0.0,31.222216000000007,131.010392,3.000000004412624,0.0,0.0,0.0,0.0,0.0,2.2828121974499247,0.0,0.0,71.99999999612658,-1.0292491154817412e-14,119.99999999354436,0.0,15.288,0.0,0.0,0.0,0.0,0.0,0.0,-0.0,0.0,90.0,0.0,0.0
0.01,31.22221599999862,131.01039200000284,3.0000009727369523,0.0,0.0,0.0,0.0,0.0,34.24218696174923,5.916279387578309e-11,5.734623670548936e-11,71.99999999613168,-5.86671995824671e-13,119.9999999935449,2.1432944861733093e-21,15.288,0.0,0.0,1.7386402909615473e-13,-3.4220131069073734e-19,7.115076756936125e-19,5.488773498207866e-19,-1.1574302492039043e-31,0.0,89.99999999962336,5.916279387578309e-11,0.0
0.02,31.22221599999738,131.01039200000537,3.0000018317022668,0.0,0.0,0.0,0.0,0.0,25.871876237766408,1.2265415415436536e-10,1.1895038237325684e-10,71.9999999961369,-1.1836364828043265e-12,119.99999999354544,9.211895886571454e-21,15.288,0.0,0.0,3.6044858651615574e-13,-6.979551485375437e-19,1.4162390878091906e-18,1.0909784360635388e-18,-4.776231873571785e-31,0.0,89.99999999921916,1.2265415415436536e-10,0.0
0.03,31.22221599921969,131.01039200159065,3.0001883335529382,18.80143492628821,-0.0001350810307892,10.931161642028636,-1.75114298675875e-05,3.026590975169265,180.34219359854663,0.0798232026864394,0.0478175828508887,71.99999999765336,-5.341802909786072e-12,119.99999999436793,0.0039016003969354,15.288,0.0,0.0,0.0002345795854893,3.788270153300133e-17,-7.771883375645477e-10,1.1422790048099072e-11,1.7057759223764537e-13,18.80143492675591,89.51882325913425,0.079801984207741,11.342422482672777
0.04,31.222215995131297,131.01039200995308,3.001692634342189,9.19442604083399,-4.49173898918486e-05,52.29595764159784,6.445392950801871e-06,3.026413589912948,548.6359724538078,0.3504174083926908,0.1601447499964056,72.00000000319055,-3.111420077280171e-11,119.99999999870242,0.0751892535633216,15.288,0.0,0.0,0.0010297854387864,2.0082066977226968e-15,-1.520937588847922e-08,2.5623342884322286e-11,1.4654248781413086e-11,9.19442604094277,87.798916624545,0.3504103527855857,52.383455068075136
0.05,31.222215983575865,131.01039203366796,3.0074067499493786,5.158590039700252,1.707592688632746e-06,76.26884281015512,5.843947534199429e-05,3.0258124765658088,761.6984298824644,0.9592973585397016,0.3772700771701255,72.0000000004862,-1.3608731808076822e-10,120.0000000109612,0.5634958029902841,15.288,0.0,0.0,0.0028191251099456,2.086299069701397e-14,-1.0551247853743037e-07,3.973493515691201e-11,2.783064866637575e-10,5.158590039700515,83.94063169874748,0.959297626767734,76.32884071402438
0.06,31.222215961742712,131.0103920785344,3.019291017943491,4.109521257467909,3.140103977270004e-05,57.06876634333886,0.0001151069734147,3.024834864051463,590.4875390737208,1.6257536642597354,0.6118982818704327,71.99999992547217,-3.5903296759057166e-10,120.00000003412836,1.6184272268450337,15.288,0.0,0.0,0.0047776672697797,1.0694899894620088e-13,-3.741090980393931e-07,5.521401959501359e-11,1.6723176417636091e-09,4.109521257587776,79.78719176344794,1.6257585967235286,57.148873286519276
0.07,31.222215929936205,131.01039214392435,3.0371334573469446,3.649087515174788,5.707077112564807e-05,86.89643797254193,0.0001728541558773,3.0234947746384675,855.2937749779139,2.3057260079826607,0.8506307413593818,71.99999965378231,-6.907496536790437e-10,120.00000006788592,3.255354923652711,15.288,0.0,0.0,0.0067759305364855,3.495199904512709e-13,-9.036515915819006e-07,7.594816279105379e-11,5.728932851326001e-09,3.6490875156204896,75.6601668283889,2.305734972638426,86.94902215090157
0.08,31.222215886364623,131.01039223353447,3.0621840248716574,3.4254446680114707,8.413075603463509e-05,17.831756866644035,0.0002285946601282,3.021841001032126,241.2171988638848,2.961944911520492,1.0819695676346892,71.99999900671328,-1.141745983122182e-09,120.00000011415082,5.371998197385977,15.288,0.0,0.0,0.0087043901031071,8.800530155962314e-13,-1.829098470920821e-06,1.0943386634701918e-10,1.4896287129277132e-08,3.4254446690434226,71.81713637501419,2.9619581267487467,18.085991154451033
0.09,31.22221583454733,131.01039234010327,3.0919888289029,3.389560809024919,0.0001118726864415,54.09031716446879,0.0002748660999733,3.020060228038602,563.0937377043176,3.504225426410036,1.2780161667917422,71.99999774508822,-1.634190085504106e-09,120.00000016921716,7.519080503822694,15.288,0.0,0.0,0.0102980157586766,1.865782139518716e-12,-3.1503298654458527e-06,1.6284478329871028e-10,3.03536411425607e-08,3.389560810868955,68.76526501308032,3.504242999330529,54.17456206384468
0.1,31.22221577423132,131.0103924641528,3.1267248829165366,3.4447939461814814,0.0001419149103147,51.372195336549765,0.0003131602029306,3.0182021883815127,538.7437595981919,3.950569597142709,1.4443465951180965,71.99999562056465,-2.1287748602259068e-09,120.00000023339832,9.55649523509932,15.288,0.0,0.0,0.0116097108366932,3.485956000178229e-12,-4.949356763187612e-06,2.4573266549165286e-10,5.3761299442583966e-08,3.444793949101151,66.34639928474206,3.9505918890846927,51.460781166288626
0.11,31.222215706113143,131.01039260424562,3.165907002780892,3.4691423802630394,0.0001702373452339,40.591037561894986,0.0003534470100582,3.016051659024047,442.8656393052949,4.421478635995476,1.6182620895289603,71.99999235067894,-2.5564479031457968e-09,120.00000030601664,11.970509656144712,15.288,0.0,0.0,0.0129935974697161,5.942887149865172e-12,-7.273722517324353e-06,3.67769289312894e-10,8.842679949465076e-08,3.4691423844348632,63.88798785789768,4.421505376815134,40.70293476011277
0.12,31.222215630588888,131.0103927595646,3.2092596514826863,3.4852659299808075,0.0001974376474727,44.30042894095728,0.000394069215595,3.013641598889868,475.58594813540446,4.896982486381051,1.793579340340896,71.99998761802138,-2.8337988279882726e-09,120.00000038673312,14.683611096353944,15.288,0.0,0.0,0.0143909889875706,9.464337642181618e-12,-1.017558359402848e-05,5.395790443954697e-10,1.3700793350599625e-07,3.4852659355662303,61.5068242157714,4.897013499814194,44.40281567867803
0.13,31.222215548046687,131.0103929293088,3.256512891171917,3.5606043721293616,0.0002276507019012,48.86766833507025,0.0004268800875964,3.0112558910133567,515.9156326236895,5.278566579338586,1.939796541405244,71.99998107389406,-2.8573058577484587e-09,120.00000047523812,17.061052093156064,15.288,0.0,0.0,0.0155123760833565,1.4300406003001044e-11,-1.3705268062305584e-05,7.724776992181392e-10,1.989112774124932e-07,3.560604379397528,59.67313531776262,5.27860233862722,48.960358155653
0.14,31.222215458587108,131.01039311327068,3.30759734332425,3.6000732663755977,0.0002555702913645,45.540290862247225,0.0004629468001456,3.0085404980032777,486.2390860568404,5.70011779273801,2.098362647205908,71.99997235012626,-2.508533681468686e-09,120.00000057154703,19.894788765881632,15.288,0.0,0.0,0.0167512184495524,2.071534240530911e-11,-1.7917736259613292e-05,1.0787346240473087e-09,2.8081526258393346e-07,3.6000732754351943,57.72385750323359,5.700157937625502,45.639559681930805
0.15,31.222215362317904,131.01039331122794,3.3624387479639086,3.651605404442164,0.0002842753491325,44.01308509501,0.0004965057129938,3.005703619811542,472.54218587214,6.091938849578711,2.2476968067377374,71.99996103728932,-1.6446954747148112e-09,120.00000067569304,22.723773683610247,15.288,0.0,0.0,0.0179026934683374,2.9002783512213203e-11,-2.287326399669318e-05,1.47199345427166e-09,3.831202693354572e-07,3.651605415492516,55.98561718911576,6.091983503446133,44.115597174664394
0.16,31.22221525912812,131.01039352340948,3.421115382839859,3.67540086436193,0.0003108411545024,34.83804992586084,0.0005330990866742,3.002517946501868,391.1218908297564,6.521183188362317,2.4085903880902046,71.99994669525161,-1.0153513453738144e-10,120.00000078796704,26.03872642002185,15.288,0.0,0.0,0.019164148528834,3.9478358970291335e-11,-2.864207894220033e-05,1.9677461746207517e-09,5.135466997084602e-07,3.6754008774883777,54.15946979122355,6.521232015176687,34.96719658394182
0.17,31.2222151493826,131.01039374906244,3.4833737923187487,3.7139589864597298,0.0003384978477213,43.96471427482637,0.0005668629535037,2.999235483723449,471.78125980632376,6.916861975403744,2.559060925010733,71.99992884100092,2.3206494032971838e-09,120.0000009081849,29.29426197817256,15.288,0.0,0.0,0.0203269651395979,5.248754693205839e-11,-3.5267097947693114e-05,2.580363454062817e-09,6.706952682968329e-07,3.713959001863866,52.549031795895466,6.916915146521327,44.06689817851128
0.18,31.22221503253009,131.01039398932429,3.549599475912623,3.7380363034619775,0.0003650282082698,36.67395661481795,0.0006021794701355,2.9956556354306425,407.10156721191447,7.332140201215607,2.71556808256092,71.99990696207136,5.837017536380516e-09,120.00000103716444,32.917216366714264,15.288,0.0,0.0,0.0215473823438242,6.839750892601699e-11,-4.285557247677198e-05,3.331016495775474e-09,8.639362741436378e-07,3.738036321259578,50.93050624815799,7.332197539712479,36.796100973258795
0.19,31.22221490871209,131.01039424390297,3.619694897703461,3.747799769666444,0.0003901520189829,41.42208371271829,0.0006393759928961,2.991742733214697,448.9531328318269,7.771071983754382,2.879366399937307,71.99988049019642,1.0709144790974043e-08,120.00000117502664,36.97605053227239,15.288,0.0,0.0,0.0228373144884866,8.761416506509219e-11,-5.146771415177372e-05,4.238406957677133e-09,1.0996552116864756e-06,3.747799789945131,49.29705748437159,7.771133268690212,41.529983675580546
0.2,31.22221477769685,131.01039451327668,3.693822889232993,3.7700519460961166,0.0004166800650969,37.99697972290605,0.0006740224661302,2.987733789228414,418.51563019916136,8.179966026035371,3.0338260708461373,71.99984881140107,1.723179577184912e-08,120.0000013223286,40.969302182777255,15.288,0.0,0.0,0.024038975990988,1.1057590044953188e-10,-6.120032215177249e-05,5.3263847350253015e-09,1.376394225587184e-06,3.7700519690893857,47.8457752505109,8.180031477986942,38.11426270718793
0.21,31.222214639876928,131.01039479663547,3.771710975053407,3.7926098867321474,0.0004432924407074,36.46301043881366,0.0007080907240332,2.983530483977461,404.8187610144644,8.582757448615462,3.1863584283669346,71.99981127559042,2.5745201416596626e-08,120.00000147900325,45.103059028532826,15.288,0.0,0.0,0.0252227064089584,1.3774582723633048e-10,-7.20875523136271e-05,6.61341033873124e-09,1.7010673350603349e-06,3.792609912601061,46.47936953648762,8.582827080829217,36.584868250565684
0.22,31.22221449507626,131.01039509434258,3.8534832466471007,3.782921298925821,0.0004660920499522,44.14577847155813,0.0007479176313898,2.978724032883548,472.5421858721365,9.056569122268344,3.360845972992861,71.99976720416048,3.661811567390422e-08,120.00000164562512,50.21995530074818,15.288,0.0,0.0,0.0266151520780326,1.6960703048385348e-10,-8.421592474264931e-05,8.124635526119773e-09,2.0969540034515424e-06,3.7829213275976334,44.9464484092354,9.056642335836344,44.24615863872642
0.23,31.22221434283448,131.01039540734791,3.9394622486964206,3.813874679301352,0.0004940771488601,36.66675459308932,0.000779455230549,2.974212905336642,406.3406421461021,9.430647902846331,3.5044030163419806,71.99971583979395,5.0272885112871524e-08,120.00000182313076,54.45382429059888,15.288,0.0,0.0,0.0277145095638672,2.0669790509245914e-10,-9.77285871729516e-05,9.894576563683824e-09,2.5339062472561444e-06,3.813874711257219,43.79476959007253,9.430725512303388,36.78718303164376
0.24,31.222214184153326,131.01039573358457,4.028950821673608,3.829256049377765,0.0005200487408944,37.802126339316736,0.0008136255607606,2.9692962675112065,416.2328240017114,9.837806876534357,3.658163422426286,71.9996564062533,6.718950080713476e-08,120.0000020109434,59.25679777340223,15.288,0.0,0.0,0.0289110855155543,2.4956955046738006e-10,-0.0001125744417092,1.1934277804843484e-08,3.0448209172448607e-06,3.829256084638984,42.59361542722471,9.83788856559955,37.91856374864305
0.25,31.22221401888584,131.01039607335582,4.122052964664892,3.851417709838087,0.0005469594058717,38.85163035360012,0.0008459008130282,2.964283881833675,425.36408079150686,10.22297576958679,3.8050691648373967,71.99958811418384,8.786880969336211e-08,120.00000220974424,63.98709205399403,15.288,0.0,0.0,0.0300430411774988,2.987811646313829e-10,-0.0001288461362054,1.4273117985167728e-08,3.621333387698252e-06,3.8514177486178034,41.50703126619192,10.223061685769354,38.96455005232871
0.26,31.222213847358866,131.0103964259872,4.218542267117083,3.8780574625554745,0.0005745172425185,42.3164797140743,0.0008766626387865,2.959162938653076,455.8015834241788,10.590779679138215,3.946551912391076,71.99951013710364,1.1286401474734325e-07,120.00000241975916,68.67355887153568,15.288,0.0,0.0,0.0311239685467471,3.5491769188178554e-10,-0.0001465721578858,1.6932703957058654e-08,4.267712643344226e-06,3.8780575050466,40.51245375834074,10.590869924095635,42.41981967733593
0.27,31.22221366913008,131.0103967923915,4.318728802515264,3.886188503202341,0.0005994342651313,38.70936050721014,0.0009111181036949,2.953518013741325,423.84219965987256,11.004860953238978,4.102320296019413,71.99942161756776,1.4276417094868828e-07,120.0000026420792,74.14786134434608,15.288,0.0,0.0,0.0323408987462391,4.1858405402174807e-10,-0.0001658847815307,1.995072923688136e-08,5.018832267232506e-06,3.886188549362022,39.43841359495857,11.00495511215316,38.8218734782956
0.28,31.22221348431185,131.01039717233687,4.422535913956003,3.90556090261878,0.0006261175699806,44.68030766832924,0.0009425767186621,2.947879457547137,476.3468732012221,11.38358114165448,4.247086834352694,71.999321619057,1.7823531611327881e-07,120.000002877279,79.33831935330025,15.288,0.0,0.0,0.033453914386159,4.904408325040897e-10,-0.0001868529238516,2.3357766479368094e-08,5.847713054408178e-06,3.9055609527288775,38.49894431917428,11.383679491972384,44.77744842575601
0.29,31.222213292835256,131.0103975659655,4.530013412817602,3.9242599519377537,0.0006528240665589,35.802573724660256,0.0009737210635801,2.942037024315898,397.97031042211177,11.759725774384751,4.391004157029451,71.99920917567837,2.1999186079018322e-07,120.00000312617878,84.66717879828003,15.288,0.0,0.0,0.0345593650464213,5.711677680739745e-10,-0.0002095620322847,2.7188189988316943e-08,6.77505090435382e-06,3.9242600061534456,37.60352534239979,11.759828319749328,35.92324968749781
0.3,31.222213095024976,131.0103979726075,4.64093665799555,3.936939025755682,0.0006785438093183,33.570228713727204,0.0010059102294455,2.93586442972183,378.1859457108711,12.149968255527943,4.539237002744259,71.99908328532703,2.6880857935396905e-07,120.00000338923812,90.3787563598417,15.288,0.0,0.0,0.0357062504417728,6.614698865958865e-10,-0.0002340353597042,3.1467140861055e-08,7.817263716758327e-06,3.9369390841381695,36.71173884615234,12.150074840940263,33.698361337808635
0.31,31.22221289105846,131.01039839189684,4.755183729044857,3.9598342215431432,0.0007060286581592,35.396825578217346,0.0010350810412898,2.9297385597941448,394.1656220930212,12.504537499407316,4.6763673222047455,71.99894291513503,3.255120771695107e-07,120.00000366712923,95.72967338626896,15.288,0.0,0.0,0.0367483036680869,7.620720834468404e-10,-0.0002603234137215,3.622454560346964e-08,8.948994505138873e-06,3.9598342843844345,35.934338386209795,12.504648402129598,35.5178635353378
0.32,31.222212681031937,131.01039882363492,4.872689374180126,3.985461429033668,0.0007340760463279,38.52097867048992,0.0010630242168685,2.9235095146848846,421.55939346242695,12.84534566718622,4.809181081594425,71.99878701464397,3.909756427278764e-07,120.0000039606604,101.01782231644016,15.288,0.0,0.0,0.0377499198995686,8.737098716736534e-10,-0.0002884807530145,4.1491545539590986e-08,1.0187112828155184e-05,3.98546149652875,35.21473736963424,12.845460975581933,38.631757748577954
0.33,31.22221246496604,131.01039926777932,4.9934410812554,4.010606629086,0.0007621365968788,38.18822026147908,0.0010905599149574,2.917102431053817,418.5156301991682,13.18247167592885,4.940798912752974,71.99861449732019,4.661299779655886e-07,120.000004270781,106.38859400029033,15.288,0.0,0.0,0.0387407190563976,9.971421990244511e-10,-0.0003185760672934,4.7302669734505256e-08,1.154498667827874e-05,4.010606701382261,34.52805863348922,13.182591392065536,38.299473293007864
0.34,31.222212242662028,131.01039972474007,5.117579377337869,4.019339771238816,0.0007871574969313,29.898022638335373,0.0011220389395318,2.910051232417875,345.46563688075645,13.569536737955724,5.0878303926024735,71.99842423285973,5.519675040347761e-07,120.0000045987411,112.72655675097128,15.288,0.0,0.0,0.0398782837956187,1.1331556132162459e-09,-0.0003507224668667,5.37022358302301e-08,1.308298593306914e-05,4.019339848191799,33.76700548046532,13.5696603843662,30.039310197084795
0.35,31.22221201433324,131.01040019407705,5.2449575244483055,4.033762873683395,0.000813261106463,32.76415525156106,0.0011515840876071,2.902959820469776,370.5765700527033,13.934300103976534,5.227895396154902,71.99821502296155,6.495674834876441e-07,120.000004945438,118.8669740701126,15.288,0.0,0.0,0.040950312688979,1.2825853697215452e-09,-0.0003849609961885,6.072234695821837e-08,1.4746020857580124e-05,4.033762955530055,33.07785186209504,13.934427850732408,32.89250745069162
0.36,31.22221177990305,131.01040067594835,5.375631006350063,4.051723629010647,0.0008401329464575,37.01692984301412,0.0011797030485285,2.8957873473716007,407.8625232777193,14.282998147928636,5.362923567977223,71.9979856440668,7.600645476620651e-07,120.00000531213882,124.88900300695136,15.288,0.0,0.0,0.0419751331662584,1.4462801652534363e-09,-0.0004213876232777,6.84067806399068e-08,1.654507199147348e-05,4.051723715967022,32.44322602189087,14.283130115703262,37.13002398000203
0.37,31.222211539445663,131.01040117020102,5.509550188388412,4.071639898917391,0.0008674922629137,35.12417761390579,0.0012067983861697,2.88849906286036,391.1218908297666,14.620581431527652,5.494447309446232,71.99773482653193,8.846681943540367e-07,120.00000570002652,130.86067091914967,15.288,0.0,0.0,0.0429672939311924,1.6251202388969355e-09,-0.0004600660652957,7.679415042686734e-08,1.849041957573993e-05,4.071639991174516,31.85023865502424,14.620717696893658,35.24274792557624
0.38,31.222211292895075,131.01040167697127,5.646763233102716,4.08264881385344,0.0008930259828975,36.695642158537446,0.0012360471443664,2.880711738179021,404.8187610144602,14.986392916850402,5.634654729559426,71.99746126698146,1.0246533537040716e-06,120.0000061105033,137.4891296153862,15.288,0.0,0.0,0.0440424171304414,1.8200057922063743e-09,-0.0005010869196581,8.592980519823866e-08,2.0642694281337543e-05,4.082648911356968,31.228847973200924,14.986533193043764,36.808540518115166
0.39,31.22221104018777,131.0104021963902,5.787316652586672,4.096641430700089,0.0009192713382325,31.335681548387896,0.0012640110027448,2.872831219844713,357.64062493382744,15.337978856701952,5.770390286512262,71.99716358743511,1.1813915463769678e-06,120.00000654506955,144.01394309468844,15.288,0.0,0.0,0.0450757388736732,2.031886352449547e-09,-0.00054455673306,9.586443829735616e-08,2.295945663566148e-05,4.096641533664766,30.65298398882095,15.338123255506089,31.4670954954126
0.4,31.222210781536543,131.01040272801887,5.931064331106764,4.109028969993624,0.0009451871856381,29.95928076777898,0.0012920492774571,2.8646905607053603,345.465636880754,15.692185018814769,5.906873567965718,71.99684037970908,1.3563276523471372e-06,120.00000700500496,150.74021066990193,15.288,0.0,0.0,0.0461167659598875,2.2617341782092324e-09,-0.0005905037520737,1.0663253249436129e-07,2.5471259834659164e-05,4.1090290785164525,30.09246700352443,15.692333488470696,30.095929256306363
0.41,31.222210517064383,131.01040327160345,6.077922766619747,4.122888296344507,0.0009714525997821,33.78425365340317,0.0013192264430821,2.85640971467756,378.94687077668647,16.03742529732769,6.0405139809190125,71.99649020751959,1.5509747261474075e-06,120.0000074917568,157.44375780268788,15.288,0.0,0.0,0.0471314487675864,2.5105374204052982e-09,-0.0006389770219162,1.1827345344180344e-07,2.816813594418537e-05,4.122888410595805,29.56469007160549,16.037577892745222,33.904791300285986
0.42,31.22221024682894,131.0104038270252,6.227854084363214,4.14444025865494,0.0009995884754813,38.04468161607466,0.0013435485656724,2.8482703202464488,416.2328240017114,16.348862540904037,6.163613566771559,71.99611159893284,1.766920641656551e-06,120.00000800692096,163.6157044470786,15.288,0.0,0.0,0.0480467946810589,2.779304965995011e-09,-0.0006900467934588,1.308321832549104e-07,3.100973487310896e-05,4.144440378988911,29.104646754454564,16.34901955589459,38.15115260238947
0.43,31.222209970843565,131.0104043942566,6.380851271439565,4.1618082623168045,0.0010268052928652,33.45815353250911,0.0013687230309017,2.8397750580998298,375.9031395134336,16.67263197205097,6.290467308135904,71.99570306121484,2.005818691215035e-06,120.00000855220898,170.15779512382937,15.288,0.0,0.0,0.0489983878509763,3.0690566816849196e-09,-0.0007437862329608,1.443552931671376e-07,3.4086145072160934e-05,4.161808388761201,28.640125213458976,16.672793262249197,33.57845085853367
0.44,31.22220968892116,131.01040497368373,6.537047157143216,4.164954087655709,0.0010505545842624,30.86574023822051,0.0013980747538988,2.830419582421933,353.0750125389216,17.050421620730056,6.433992917638883,71.99526304125902,2.269416145406482e-06,120.00000912964636,177.9537948947602,15.288,0.0,0.0,0.050108743779844,3.380847125286677e-09,-0.0008003278134917,1.589055036683518e-07,3.750784460406397e-05,4.164954219916419,28.113519280259386,17.050586641458253,30.99524475496968
0.45,31.22220940081287,131.01040556582012,6.696617751072218,4.165241899529329,0.0010735835484822,35.912216710755274,0.0014280646808282,2.820677244966047,397.2093853562869,17.438293672974723,6.580571293039616,71.99478987454265,2.5595995397253085e-06,120.00000974147088,186.13940823302417,15.288,0.0,0.0,0.0512487363629523,3.7158016249566814e-09,-0.000859850913876,1.745604864109677e-07,4.121350642664912e-05,4.1652420376426775,27.591357195572936,17.43846231108416,36.02281959036367
0.46,31.222209106468902,131.0104061707686,6.859600379555308,4.174585124444534,0.0010989881252456,41.916816790010685,0.0014546917035209,2.811153314474766,449.7140588976434,17.786187321601275,6.714685486378061,71.99428180697711,2.8783880229668832e-06,120.0000103898448,193.6374175079873,15.288,0.0,0.0,0.0522712438446989,4.0751091178509895e-09,-0.0009224765531151,1.9138630415982226e-07,4.50966024037632e-05,4.1745852688465686,27.13985967570823,17.786359950252297,42.01097612387663
0.47,31.22220880579083,131.01040678873238,7.026066274755745,4.1823089530633855,0.0011240727220223,28.37640408484148,0.0014814747534716,2.801325368441072,331.0078106302534,18.138167428286582,6.849989708801916,71.99373704967608,3.2278903746588286e-06,120.00001107707628,201.37401505997488,15.288,0.0,0.0,0.0533057667609836,4.459978104761035e-09,-0.0009883252835099,2.094509673354327e-07,4.927107017839778e-05,4.182309103852639,26.69716826759888,18.13834399721685,28.514342615617974
0.48,31.222208499300592,131.0104074186346,7.195654207463586,4.189479568102716,0.0011490100608361,27.95074823096412,0.0015080719422187,2.7912412472910484,327.2031223011574,18.48995085190441,6.98515976370584,71.99315377257649,3.6103201777021456e-06,120.00001180491516,209.25751230436188,15.288,0.0,0.0,0.0543397174489847,4.8716620260348906e-09,-0.0010573190976925,2.2877013380347535e-07,5.373205427420879e-05,4.189479725385959,26.268461765425428,18.4901313379827,28.089773168283216
0.49,31.222208187201936,131.01040806005494,7.368224738812109,4.202723284133339,0.001175611380853,35.08821363242469,0.0015321405723077,2.781292092003844,389.60000969812296,18.812014261754847,7.111044804193205,71.99253015042137,4.027946338669921e-06,120.0000125755114,216.60722913930897,15.288,0.0,0.0,0.0552863302793499,5.311396446020465e-09,-0.0011294854492155,2.4938633613154685e-07,5.8398320167141767e-05,4.202723448262914,25.88860807032205,18.81219892635871,35.1982716047702
0.5,31.22220786953184,131.01040871291724,7.5437546994244835,4.220815778795054,0.0012036252596423,36.05491615971072,0.0015540388599792,2.7714444106710974,397.97031042210494,19.10875420627192,7.229005658018125,71.99186435180009,4.483102820610566e-06,120.00001339126192,223.4908652241728,15.288,0.0,0.0,0.0561585257949344,5.7804122391526605e-09,-0.0012048912160576,2.713531252030471e-07,6.327866493526626e-05,4.220815950099865,25.54902500917784,19.108943271285572,36.161276053538906
0.51,31.222207546379583,131.0104093770373,7.722184419225251,4.232567510615346,0.0012298790840397,27.54004661432325,0.0015777580800203,2.761017323676155,323.3984349720841,19.430597746636646,7.354673636736509,71.99115452520388,4.978202222778502e-06,120.00001425458936,231.07869697977367,15.288,0.0,0.0,0.0571045034845869,6.2799518101633574e-09,-0.0012835871653678,2.947201005874635e-07,6.854585242460463e-05,4.232567688976395,25.189423168613605,19.430790935591396,27.678103017910345
0.52,31.22220721799384,131.01041005242232,7.903541152739938,15.084746306330896,11.49002557917065,33.51078985222572,-0.845193174819769,1.948480198596056,372.0984511843415,22.28279768621953,7.478347709915471,71.9903695778326,0.0001151327716056,120.00013043236292,303.89213435501955,15.288,0.0,6.285728160229179,0.0654869560867115,6.8645489935895834e-09,-0.0015442676165002,0.0002029617466737,9.4570214338683e-05,18.88114424894341,36.247107344193566,24.075573743971077,33.57802798121291
0.53,31.22220688488364,131.01041073927547,8.08797643355474,14.9483096601528,11.343356673644166,35.17768060138862,-0.8655538343475441,1.9175127530416944,386.5562464348624,22.610540427426848,7.598929784609086,71.9893936013847,0.0006999275327598,120.00074571091164,312.8918271915622,15.288,0.0,6.309917801863253,0.0664502981022662,7.72954644165163e-09,-0.0019023767702871,0.0004905922388437,0.0001182120850645,18.686448669529195,35.81070740998354,24.38073364752429,35.24053420553589
0.54,31.222206546987383,131.01041143779287,8.275567387942353,14.816272349212449,11.20115181821737,30.924187305151648,-0.8861567175762644,1.8860792568865767,349.2703242098436,22.93660617212764,7.718705193508399,71.98820974275074,0.0017970323968185,120.00189970733858,321.9755000876413,15.288,0.0,6.334058741483207,0.0674087179777601,8.898405665322428e-09,-0.002271030639958,0.0007852332995102,0.0001431524315218,18.49787775405324,35.38722029391707,24.68489281420656,30.994320918120884
0.55,31.22220620462089,131.01041214735372,8.466109089594763,14.69206593366514,11.065808616357522,32.76526626316758,-0.9067739071772962,1.8544893453598863,365.2500005919907,23.255471553519648,7.835893707038186,71.98681201755589,0.0034184584712093,120.00360505986087,330.9838973366375,15.288,0.0,6.358120929919729,0.0683459828901714,1.0378292465225608e-08,-0.0026499318972678,0.0010866082058545,0.0001693551839546,18.3195681016711,34.983867481678345,24.98289864686269,32.83023062585852
0.56,31.2222058578044,131.010412867946,8.65960220387545,14.577998384726524,10.938907479315864,30.59911059400568,-0.9272217284464956,1.8229962734900147,346.2265619465787,23.56287596406328,7.949117937664288,71.98519448040382,0.0055759846176768,120.00587416512649,339.78569442090213,15.288,0.0,6.382102542414955,0.0692495711829104,1.2176214762412632e-08,-0.0030392738192632,0.0013948152887832,0.0001968016290665,18.154288177228207,34.60546875986807,25.270735870047183,30.66738698831468
0.57,31.22220550663373,131.01041359940095,8.855994431219674,14.461289432152448,10.81122678294316,30.26195579927913,-0.9482765747949136,1.7905309079994662,343.1828296833023,23.877749083813143,8.064549889574245,71.98335114460916,0.0082813407708069,120.008719370744,348.9209726998535,15.288,0.0,6.405991794392081,0.070175115754473,1.4299163313439086e-08,-0.003439088836775,0.0017098303211703,0.000225662373445,17.986469860876266,34.2249252298451,25.565913145225306,30.32970817848945
0.58,31.2222051511044,131.0104143417566,9.055303279995249,14.333891601560032,10.677024204427903,39.77706878615927,-0.9705110505693172,1.756295988550568,426.1250058573153,24.213268525762462,8.186466230272318,71.98127593437117,0.0115463154849291,120.01215308873655,358.7887618112796,15.288,0.0,6.429787571633891,0.0711613450705218,1.6754162046747693e-08,-0.0038495836925285,0.0020317606512233,0.0002561422650885,17.80633536768568,33.82517525878138,25.88072165137802,39.82764954799018
0.59,31.222204790809133,131.01041509588282,9.25782741663284,14.225729610577597,10.557618842872811,32.29072823828941,-0.9919425540017568,1.723032200582082,360.68438819711065,24.521847251380056,8.29938428717321,71.97896236388267,0.0153834069538013,120.016188483244,367.9848292248794,15.288,0.0,6.453525489065043,0.0720684041072325,1.9548616669889293e-08,-0.004271740444151,0.0023612941260529,0.0002878482908544,17.650203233830435,33.46942515583566,26.170865341059905,32.351876609460284
0.6,31.222204425991464,131.01041586130685,9.46341201551098,14.096877058195266,10.424572859904073,28.7259400965394,-1.0153060277123664,1.6869444644248344,329.4859594986058,24.868071382960323,8.42428852367909,71.97640395048904,0.019805197734998,120.02083880172025,378.4418754915932,15.288,0.0,6.477182061251165,0.0730861079099854,2.2690076215196143e-08,-0.0047053349167178,0.0026982099689163,0.0003215360621867,17.469607330494224,33.07323684743914,26.496540024078005,28.79333711791554
0.61,31.222204056619127,131.0104166381246,9.672094414059693,13.967300595629515,10.292094433621148,33.62424412083107,-1.0392912796740768,1.6498409415526163,372.0984511843297,25.220290542144063,8.550891771741117,71.9735939107961,0.0248245358863339,120.02611758217148,389.2301231564536,15.288,0.0,6.500760366820152,0.0741214381729254,2.6186225102673283e-08,-0.0051506678754721,0.0030426805605751,0.0003569455497624,17.288769938759728,32.67876590427415,26.82828867102973,33.68073476326894
0.62,31.222203682832127,131.01041742607714,9.883792152570754,13.875656704651549,10.187411108096402,41.75483452515119,-1.0609600410160378,1.6158223699809446,442.86563930529206,25.51102946506288,8.657344203733661,71.97052528359896,0.0304544975594555,120.03203860582823,398.24782548716246,15.288,0.0,6.524259468020892,0.0749760874490904,3.004492336803935e-08,-0.005607805802668,0.0033947023088675,0.0003930976624272,17.154475823848188,32.36756393529306,27.102845883498237,41.799554116793175
0.63,31.2222033044544,131.0104182255546,10.098641695804607,13.775115934257848,10.077359774425268,23.78013957828592,-1.0837280492590344,1.5801258133427756,286.11251274707894,25.819648820165767,8.769369816744113,71.96719139024559,0.0367075916098255,120.0386150535357,407.933288639024,15.288,0.0,6.547661816903925,0.0758832936413229,3.427363799948682e-08,-0.0060772299116779,0.0037545783406363,0.0004311481719963,17.009960193664543,32.04069008192751,27.394448025174118,23.857206509428202
0.64,31.222202922119138,131.01041903527923,10.316216522153884,13.65933094974368,9.95752947406209,23.35221294826628,-1.1081890409890225,1.541908483019634,282.30782441796754,26.15884832678928,8.891088842107548,71.96358528357555,0.0435964073152407,120.04586020422305,418.71319821480125,15.288,0.0,6.570978418518478,0.0768803811037925,3.888011511633715e-08,-0.0065579343344002,0.0041215124382318,0.0004713539612239,16.847562895521666,31.68466676875218,27.71511159377582,23.429285398871034
0.65,31.222202535822923,131.01041985528414,10.536532522281403,13.571305744280844,9.85801291480368,41.09876453092736,-1.1308619728052425,1.5060502983975523,436.7781447787475,26.450271902674217,8.997162999389305,71.95970022114824,0.0511331344006721,120.0537869137135,428.08548707783,15.288,0.0,6.594141679501902,0.077737062926397,4.3871707892436123e-08,-0.0070502152575896,0.004495672804171,0.0005123713148489,16.719238782403856,31.39017730520408,27.99113628307072,41.14189449054884
0.66,31.22220214504916,131.01042068665836,10.759961776911409,13.478745664903672,9.756164306015249,34.994215727714085,-1.1543455741300848,1.4689085030001363,383.51251517160017,26.752226810891496,9.106427087878249,71.95552931092749,0.0593300229590646,120.06240810887095,437.90588407206985,15.288,0.0,6.6172392394630135,0.0786247033182546,4.9255656982596094e-08,-0.0075552784707046,0.0048778916467998,0.0005553328775107,16.58594538302288,31.08901553757568,28.277326637755287,35.04404857165467
0.67,31.222201750009567,131.01042152899225,10.98637087077784,13.37297634084792,9.64596058101398,24.164593117094807,-1.1794467990700583,1.4293329743444687,289.1562440103425,27.081973286650207,9.224462085136624,71.95106522409324,0.0682001067571627,120.0717375443526,448.7578655989643,15.288,0.0,6.640259243812055,0.0795940303892688,5.5039948318126906e-08,-0.0080729336783519,0.0052679746988441,0.0006006828322611,16.43721780178089,30.762914828048107,28.59000989341309,24.235545135567524
0.68,31.222201350897805,131.01042238191295,11.21563883166218,13.273058007777788,9.540636403908456,30.12054366200347,-1.2045314953171495,1.3896206612777084,340.8999924858462,27.40334230735652,9.339597775500009,71.94630058751169,0.0777562954001563,120.08178884950796,459.4613380403916,15.288,0.0,6.663130332845295,0.0805387435726613,6.123251832497261e-08,-0.0086030671792936,0.005665784825223,0.0006477103223541,16.296032830067265,30.452004265082884,28.895065996292324,30.176631558212694
0.69,31.22220094781304,131.01042324524096,11.44770980066864,13.188803657715413,9.446949081707848,37.042130107335474,-1.2286470338827091,1.3511313737396335,401.0140726853634,27.69617022110427,9.445327406765813,71.94122806239153,0.0880112108357393,120.09257535621542,469.32281040189525,15.288,0.0,6.685914952728132,0.0813995813535942,6.784113782114599e-08,-0.0091456940487469,0.0060712793228661,0.0006959061564452,16.174198570328265,30.176714382926864,29.173379104608447,37.08712084284438
0.7,31.22220054062578,131.0104241192657,11.682685945682866,13.104882047452133,9.354228330806034,31.103318630627264,-1.2531573174008357,1.3119318007379044,349.27032420985284,27.99005768687834,9.551206442992031,71.93584027604886,0.0989772383097843,120.10411015591244,479.3249224873045,15.288,0.0,6.708613742224177,0.082263540391074,7.487334719198924e-08,-0.009701303807088,0.0064847584483086,0.0007459992471684,16.053212101213855,29.90477533711301,29.45289762520872,31.15618715681153
0.71,31.22220012940667,131.01042500386507,11.920530680344296,13.012766120343016,9.25657061268269,25.598781776760745,-1.2789010266755627,1.2708151396098817,301.33126406340574,28.302526642886377,9.662899192190796,71.93012978064357,0.1106669621912761,120.11640654665004,490.0754192957789,15.288,0.0,6.731161167746076,0.0831821183514733,8.233695067725666e-08,-0.0102699590074756,0.0069062120105114,0.000798524948034,15.922792094795003,29.618351763541277,29.75022841205977,25.66219373727257
0.72,31.22219971417175,131.01042589902917,12.161245275653137,12.910850388203029,9.152937687533946,31.29940522877309,-1.3061454579578344,1.227393294271074,350.79220534145287,28.638166616346265,9.781870671773916,71.92408875852702,0.1230931775807346,120.12947806581806,501.7563625773655,15.288,0.0,6.753622276996387,0.0841688045829824,9.023988677281048e-08,-0.010851892441071,0.0073357521506796,0.0008537588611368,15.781037596566684,29.314003159713028,30.069799385781536,31.350682256230307
0.73,31.222199294931954,131.01042680475902,12.404834841968588,12.835747639623843,9.068385240704794,39.54313970067766,-1.331126613648956,1.187053210037618,422.320318528234,28.91898313676814,9.882981117717614,71.91770925390534,0.1362690340645669,120.14333862045576,511.63275733554656,15.288,0.0,6.776001336347392,0.0849943700048343,9.859032912507897e-08,-0.0114473899663065,0.0077735274245658,0.0009094186765284,15.67192982965611,29.06830524751676,30.337501994313627,39.583341076421725
0.74,31.22219887163267,131.0104277211876,12.65134864881065,12.75308439567362,8.979308121410618,24.835604216338343,-1.3573126421806698,1.1448243729744156,294.48281347105944,29.21735622858816,9.98957107672195,71.9109834059257,0.1502070779490533,120.15800149425614,522.2324531714556,15.288,0.0,6.798251140690128,0.085871542600734,1.0739612100469833e-07,-0.0120567262379877,0.0082196767437641,0.0009676858882197,15.554132143078336,28.809306409891217,30.62205606577004,24.898999121333823
0.75,31.22219844466945,131.0104286475245,12.900524908552562,12.665942534124868,8.887831507219758,28.962977476400507,-1.3844493362945691,1.1010634092600482,330.24688556441487,29.52734402846453,10.099740028441044,71.9039032286542,0.1649198483864467,120.17347997037828,533.3599502573463,15.288,0.0,6.820374893303031,0.0867828590939434,1.1666550372429957e-07,-0.0126792256506077,0.0086736627427673,0.0010284207137003,15.43135186531013,28.543396293714626,30.91784906517752,29.016945133739714
0.76,31.222198013936165,131.01042958400737,13.152448112666276,12.588527002917232,8.803601854886622,31.16380724481512,-1.410961512126845,1.0580390311000925,349.27032420986166,29.81719079122353,10.20325149117608,71.8964608116391,0.1804196346143009,120.18978707102656,543.86933813718,15.288,0.0,6.842400639750461,0.0876349873923241,1.2640618451523384e-07,-0.0133154094402587,0.0091357999226284,0.0010905973623535,15.32061776682858,28.30016060047143,31.19462243297812,31.213669136646303
0.77,31.222197579382737,131.0104305307581,13.407163650476775,12.513974139436348,8.721915985595489,29.156356972718697,-1.4375747786115256,1.014707272167205,331.7687666960708,30.10165254533017,10.30485958139664,71.88864795566687,0.1967187775377214,120.2069358898867,554.2825170552449,15.288,0.0,6.864330624683957,0.0884712963282805,1.3662601484417698e-07,-0.0139656317965772,0.0096062817542106,0.0011547381029438,15.21367906200896,28.065209236558875,31.4664027724222,29.2094060879863
0.78,31.222197141088937,131.0104314876317,13.664627036063033,12.432350524405429,8.636033967137656,23.9897488443182,-1.465446523282708,0.9693825755223618,286.8734378128899,30.40360205868085,10.411942458618633,71.88045646777961,0.2138295169500253,120.2249394156114,565.4443185720554,15.288,0.0,6.8861134517737215,0.089359010989459,1.4733299318544517e-07,-0.0146298925730245,0.0100850504443399,0.001221765926705,15.098625059435602,27.81786704825403,31.75501644431379,24.05400768487019
0.79,31.22219669915975,131.01043245443188,13.924776503257208,12.34711645624528,8.5483227508557,34.00050017339256,-1.4942427595843937,0.9225427071172893,373.6203323159534,30.71572530587608,10.522144888431846,71.87187804889146,0.2317641139217297,120.24381066459426,577.0991911588787,15.288,0.0,6.907782447955488,0.090276635180285,1.5853521845364025e-07,-0.0153081814502213,0.0105720415464768,0.0012915028199797,14.97961133840349,27.565284380357117,32.05351667667732,34.045819985893914
0.8,31.22219625336877,131.0104334316394,14.187778195494882,12.277319275221537,8.471556737253994,34.44937916758642,-1.5215858731107323,0.8776462226548102,377.42502064505743,30.992111758585192,10.62067499351005,71.86290403279374,0.2505351053141838,120.26356295912944,587.5167943617225,15.288,0.0,6.929362665165942,0.0910892333142311,1.7024058128710712e-07,-0.0160013799001883,0.011067813228119,0.0013620988277284,14.879397119899846,27.347005375631976,32.31797751330494,34.49413300104131
0.81,31.222195803835618,131.0104344190266,14.453559696093327,12.198741469430788,8.389462067829895,22.51877074505517,-1.550476897949708,0.8303222019088605,273.9374926939919,31.290786395878527,10.726222432383654,71.85352572666626,0.2701547754218887,120.28420936426907,598.8800106624874,15.288,0.0,6.950842957199038,0.0919673467819509,1.824574070225867e-07,-0.0167093463907373,0.0115722065395353,0.001436034483018,14.76902649638173,27.1126570862526,32.6038960936463,22.58735153661029
0.82,31.22219535077225,131.01043541617707,14.721985210608096,12.116966190506584,8.30578726873443,28.84878815020856,-1.580273605570809,0.7814952926801692,328.72500443277005,31.598756725602595,10.834618481733068,71.84373445225053,0.2906352385684984,120.3057627694197,610.7108798422609,15.288,0.0,6.972205231989124,0.092872789516137,1.951940953054517e-07,-0.0174317810119983,0.0120849538326884,0.0015128277768182,14.6551701375863,26.873826065992603,32.89886206832171,28.902605026131447
0.83,31.22219489417008,131.0104364231245,14.993070287784324,12.053264562840706,8.234653039883916,36.58778026260563,-1.608072477561274,0.7354131417277697,395.68750322465047,31.861995085529763,10.92847596634126,71.83352132853949,0.3119885658819852,120.32823603322711,620.912342213678,15.288,0.0,6.993429026991756,0.0936467671640699,2.084587498499044e-07,-0.0181690129799592,0.0126062243592834,0.0015899033643189,14.563174715783498,26.674570582107616,33.151042889641914,36.63048449211162
0.84,31.22219443392249,131.01043744009968,15.266896356352108,11.986525405367894,8.161987418732814,22.713795980370094,-1.636667166036244,0.687991015084839,275.4593748256452,32.1331719924602,11.024741261136167,71.82287757322449,0.3342263215612176,120.35164148987272,631.5098611219212,15.288,0.0,7.014551946460158,0.0944440850163714,2.222591764798337e-07,-0.0189214837513221,0.013136262514969,0.0016697974514769,14.467853941946522,26.471049295976776,33.410922157582256,22.783075711744786
0.85,31.22219397035621,131.0104384664507,15.543248389639023,11.906120640741344,8.080775750922458,24.74177190418412,-1.6676382168853348,0.6368921743726158,292.96093233939376,32.44057622375423,11.132542970894,71.81179434882158,0.3573598408545741,120.375991242542,643.6333405252708,15.288,0.0,7.035556977233889,0.0953478882392956,2.3660385606382817e-07,-0.0196884995387975,0.0136745308009656,0.0017540608669289,14.356559249222949,26.241268742434556,33.70569762782396,24.806086467294033
0.86,31.22219350329076,131.01043950255857,15.822258328924788,11.836765688157818,8.00735927517251,30.90323013488988,-1.6974770800095849,0.5872747797042575,346.2265619465587,32.719821583612365,11.23114369278814,71.80026248971213,0.3814007853242639,120.40129774927613,654.7441546542813,15.288,0.0,7.056458414412004,0.0961689364318789,2.51500580586024e-07,-0.0204708852030301,0.0142215359502003,0.0018394135978574,14.258711837718552,26.0363173707881,33.97352422412147,30.95538649207922
0.87,31.222193032759364,131.0104405483678,16.10391137546072,11.772776364193012,7.937935311700363,28.80065882162236,-1.7269237385406804,0.5380540395084357,327.964078366998,32.984959249093464,11.325069211077988,71.78827280748477,0.4063604983713985,120.42757314429896,665.3802908310411,15.288,0.0,7.077255112678612,0.0969485277216523,2.669574979537104e-07,-0.0212687714923912,0.0147773055814065,0.0019265418730765,14.16752223425981,25.84437666520169,34.22786220386552,28.85740314559958
0.88,31.2221925588072,131.01044160379763,16.388184155006154,11.702220819822555,7.864654305393123,24.93738458559661,-1.757779182298934,0.4865629850191281,294.4828134710418,33.26812938964052,11.424676273566291,71.7758160673201,0.4322500464223745,120.45482928193294,676.8351985024356,15.288,0.0,7.097942025960789,0.0977811276040704,2.829827927958332e-07,-0.0220821739563735,0.0153417885446136,0.0020173369702759,14.06880319705918,25.640796060772733,34.49963067252112,25.003993304311727
0.89,31.222192081529297,131.01044266866612,16.675019354287112,11.625308117518692,7.787667538990218,27.31971804718487,-1.7900775834800309,0.4327337584957803,315.028134248087,33.56944383428158,11.530015379452935,71.76288289442691,0.4590803997587644,120.48307792731003,689.132132706632,15.288,0.0,7.118487818973861,0.09866706528635,2.995847209010602e-07,-0.022911094284536,0.0159149244348734,0.0021119627492945,13.962807243561354,25.42603436792508,34.78896470254956,27.381720735525338
0.9,31.22219160085004,131.01044374313713,16.964475700397823,11.565942175256804,7.722572631751,30.143359960821368,-1.8200034742882985,0.38223656394404,339.37814235421445,33.82199889015847,11.6195239799091,71.74946357805227,0.4868627417290193,120.51233108525324,699.5208719083556,15.288,0.0,7.138931541525777,0.0994096979393305,3.1677135761675544e-07,-0.0237560389669773,0.01649699346914,0.0022062641194383,13.87789241431143,25.24925690839165,35.03138819507928,30.200673289926602
0.91,31.22219111685112,131.01044482705348,17.256503914698488,11.500095382583115,7.653671129888152,23.019039578660635,-1.8513618097658573,0.329416180425142,277.7421810230789,34.092694100409105,11.714762575599329,71.73554873355522,0.515607413358409,120.54259987882428,710.7430120463199,15.288,0.0,7.159267268858809,0.1002056561102038,3.3455088363774213e-07,-0.0246169314934838,0.0170878804458944,0.0023044498458732,13.78554259872818,25.060946434461712,35.2913576720054,23.09571905558539
0.92,31.22219062975767,131.01044591996853,17.55095799169136,11.428051518796057,7.58117090188997,27.34008187809725,-1.8841747777986493,0.274224944008592,315.02813424806214,34.38148387693332,11.815737593046617,71.72112872553845,0.5453246397875523,120.57389532969466,722.814583610982,15.288,0.0,7.179485354596557,0.1010548062354327,3.529319148963388e-07,-0.0254932668680878,0.017687183584463,0.0024066328969514,13.68610364218054,24.86167879096277,35.56885963872413,27.40630203099774
0.93,31.222190139475416,131.01044702208043,17.847907672574294,11.371768621638129,7.519267741933427,32.45619630801752,-1.91467918386608,0.2222859991030789,359.1625070654728,34.624184869694254,11.90174799846602,71.70619383521552,0.5760244639590145,120.60622827930293,733.0344801640109,15.288,0.0,7.1995960548678894,0.1017684992627915,3.719220622197157e-07,-0.0263856557062865,0.0182952499172992,0.0025083885136809,13.605561366521176,24.696533039580466,35.80192121029498,32.51338318642183
0.94,31.222189645887006,131.0104481336306,18.147436771365008,11.301954062457348,7.449024728190298,23.65200022826725,-1.9479396862821048,0.166018646959466,283.0687504837787,34.90655527484236,12.000449022238532,71.69073439990161,0.6077163926516842,120.63960901857044,745.0180241995955,15.288,0.0,7.219599046291744,0.1025987980422046,3.91528965021914e-07,-0.02729452635669,0.0189123015124956,0.0026158775821375,13.50924776360012,24.50534709597057,36.07335186648135,23.732659901715298
0.95,31.22218914931344,131.01044925397937,18.44933484758793,11.23448120644467,7.3806867762590205,30.532534990045463,-1.9812097997656788,0.1095265785608141,342.4218736174873,35.182081118789164,12.096859940135912,71.67474040077694,0.6404101986918916,120.674048132753,756.8037105504797,15.288,0.0,7.239486266103869,0.1034089873125573,4.117615973843197e-07,-0.0282191854026375,0.0195378124367662,0.0027257640969423,13.4159389051092,24.320665498112724,36.33823297541181,30.596942351490764
0.96,31.222188649435527,131.0104503837729,18.753820867441863,11.174935595146527,7.317812311099525,29.92238259178746,-2.0134169995110818,0.0544261401507539,337.09533515678345,35.43315642643256,12.185277437018708,71.65820179528998,0.6741152551533943,120.70955580179628,767.6215951555768,15.288,0.0,7.259273124743793,0.1041473186229841,4.3262692108383813e-07,-0.0291608732480323,0.0201725415789438,0.0028367426254936,13.332219419634852,24.1539179568656,36.57951312086719,29.9900948679386
0.97,31.222188146276928,131.0104515229669,19.06088300543424,11.112001141760109,7.253133482771287,19.25792218730196,-2.0466347670835385,-0.0024048063121877,245.02188719299323,35.69407293509859,12.276775491833984,71.6411082979171,0.7088409505577609,120.74614223712068,778.9452018381622,15.288,0.0,7.278957622077193,0.1049145840220183,4.541332113427298e-07,-0.0301197085802332,0.0208164995778832,0.0029515057400167,13.244718619542464,23.9818913657249,36.83035192673067,19.36636999091739
0.98,31.22218764015656,131.0104526709256,19.370312097865984,11.0364912128729,7.180815305458105,27.90673265747431,-2.0827216434095024,-0.0637889600531902,319.5937466429581,35.99436187666742,12.380927217251536,71.62344959177,0.7445962642093243,120.78381723475847,792.0830931471249,15.288,0.0,7.298526466144954,0.1057975842497114,4.7628977705201764e-07,-0.0310947967719795,0.0214690303864459,0.0030726001992676,13.142612393875488,23.785767304834376,37.11937115334031,27.98441577183798
0.99,31.22218713091328,131.01045382797523,19.682220049840804,10.983209419592642,7.122992291081592,30.471496983391702,-2.1148082373528387,-0.1193399550214205,341.6609485517054,36.22385720960883,12.462114289265603,71.60521509260359,0.7813902123688182,120.82259064671562,802.191696756222,15.288,0.0,7.317994345206707,0.1064725105083524,4.991040155567368e-07,-0.0320870535411823,0.0221306698871499,0.0031907690804812,13.066915413102851,23.636720699122662,37.33985433711473,30.545028798717635
1.0,31.222186618544896,131.0104549941194,19.996610534563548,10.917704424105688,7.057753685530618,27.300419447132303,-2.1497173157186724,-0.1793855083294653,314.2672081822764,36.491700566226726,12.555624095824257,71.58639454000061,0.8192307027665952,120.86247117361286,814.0739677244791,15.288,0.0,7.337355350652347,0.1072601609774763,5.225839470952067e-07,-0.0330965006483354,0.0228013640683855,0.0033153845470214,12.97702618196158,23.464278025525783,37.59752840507102,27.38551379265065
1.01,31.222186103251083,131.01045616896107,20.313354114488583,10.854662228519713,6.994416373637001,28.541778071311555,-2.184502251674643,-0.2394685262935623,324.9203161036979,36.7510638022812,12.646329349875607,71.56697726006968,0.8581259384977832,120.9034678444146,825.6619660237909,15.288,0.0,7.356606705054573,0.1080228941733411,5.467383418175438e-07,-0.0341227509825951,0.023480792294413,0.0034423772920581,12.890239785082654,23.298430329337183,37.84701735131894,28.626255269152093
1.02,31.222185584946693,131.01045735266902,20.63250949429748,10.795183315881427,6.933654096237709,23.86682681335629,-2.2188884498284933,-0.2991702195318219,284.59063161540416,36.99788300828732,12.732907635938204,71.54695267163531,0.8980834418583162,120.94558898862893,836.7638057223675,15.288,0.0,7.375753026904586,0.1087487648150352,5.715747185736333e-07,-0.0351662765739049,0.0241691941064774,0.0035713668732055,12.807839879503348,23.141403362871333,38.08436245666256,23.971616360015854
1.03,31.22218506370557,131.01045854509417,20.954029415757542,10.72758179855368,6.868116473345176,19.54248909743215,-2.2554117353193885,-0.3623627194236728,247.30469339049705,37.271169337124256,12.828007933392268,71.5263101872336,0.9391102368829009,120.98884242849448,849.1448152290121,15.288,0.0,7.394790817017098,0.1095524393384893,5.971012431862975e-07,-0.0362269565510107,0.0248664222322713,0.003706147168168,12.71609269160494,22.96933198859472,38.34742873989076,19.675544946951252
1.04,31.222184539594856,131.0104597461022,21.277871758410903,10.668336870529313,6.808140154085662,30.943448755895865,-2.290465110172257,-0.4235452149585534,345.46563688072297,37.51549251422763,12.913671425094764,71.50503885656032,0.9812135064484075,121.0332361723381,860.2873194957294,15.288,0.0,7.413722715346168,0.110270989880584,6.233260948289018e-07,-0.0373048389972176,0.025572439273543,0.0038413166255855,12.634349482057663,22.815809003066995,38.58239787597085,31.03099485802516
1.05,31.222184012296623,131.01046095631796,21.6042460883158,10.60263158829358,6.744446062345519,18.75251554957948,-2.327346254168469,-0.4877630446986035,240.45625879819983,37.78104573882992,13.006160010848768,71.48312778393276,1.024399800198034,121.078777580373,872.4821521196249,15.288,0.0,7.432558999726018,0.1110519515189331,6.502557155953888e-07,-0.0384011928549103,0.0262879920587517,0.0039820742982776,12.545216642009704,22.650631760060367,38.83801594764609,18.902679514073817
1.06,31.22218348207061,131.0104621752242,21.932982942363704,10.53155804113334,6.677738710251149,26.62271353992809,-2.365913569112992,-0.554817195810078,308.17968365593924,38.06489563968897,13.10455589099743,71.46056561156284,1.0686759779454695,121.12547435896586,885.6133945411381,15.288,0.0,7.451291688020355,0.1118867025411564,6.778996390350283e-07,-0.0395152689344181,0.027012526236021,0.0041282552496296,12.449984772365754,22.476002537060563,39.11145928003808,26.733391954002954
1.07,31.22218294878604,131.01046340307545,22.26416900462906,10.473914562705277,6.61968997939063,31.31360592902461,-2.4016733713263534,-0.6178051077458848,348.5093681440308,38.300607224373294,13.187266779476555,71.43734071159774,1.114048834418591,121.17333416665883,896.5869083097093,15.288,0.0,7.469931396879602,0.1125799661610668,7.062653216585778e-07,-0.0406478886381807,0.0277464953713374,0.0042727432094336,12.370672511183038,22.33020822385831,39.33811391505772,31.41164806901956
1.08,31.222182412326045,131.01046464009434,22.59787971329657,10.413728169202686,6.560356303931943,21.14698925880817,-2.4383771876634963,-0.6824906931573042,261.00157857466235,38.54396738930272,13.272408235475666,71.41344160647712,1.160524318507262,121.22236379067948,907.9877391338453,15.288,0.0,7.488479239534475,0.1132957203453898,7.353604401967448e-07,-0.0417995539382668,0.0284901435955639,0.0044215779214531,12.288557065214098,22.18070202177632,39.5722155486294,21.298042904635913
1.09,31.222181872991907,131.01046588568127,22.933918369364417,10.339862815877616,6.492884328091433,19.4679907834582,-2.4788831497601413,-0.753302488588237,246.54375332474407,38.83611514262162,13.373408914705603,71.38885666701482,1.2081080775262074,121.27256972089232,921.7745133864684,15.288,0.0,7.506924322563334,0.1141548891699277,7.651949891736724e-07,-0.0429692430336993,0.0292427453433703,0.0045796120110188,12.190622142366076,22.004786210129865,39.853833516460256,19.63962808849219
1.1,31.22218133086444,131.01046713967176,23.27223254727767,10.273475510175585,6.430334460392785,38.85129005973572,-2.517930520295096,-0.8221296565830442,413.1890617385841,39.1004768637544,13.46535751036112,71.36357411431841,1.2568054420534132,121.323958134917,934.3361043160676,15.288,0.0,7.525270164168539,0.1149323928819371,7.95777288396186e-07,-0.0441569692508026,0.0300042358905883,0.0047380801325033,12.101613241422404,21.845508993198184,40.10843234328008,38.94147673860079
1.11,31.2221807854891,131.01046840294697,23.61311497879529,10.22160108946262,6.376973919089603,28.50052927049728,-2.553504338713072,-0.8858337903691619,324.1593910376397,39.309287919121054,13.539148283434548,71.33758193598227,1.306621563750611,121.37653504437692,944.3112340639668,15.288,0.0,7.543534031174574,0.1155466189897278,8.271127611030543e-07,-0.0453647166071957,0.0307757920820197,0.004893507391178,12.0297228635516,21.71720141800518,40.30891384071884,28.62839944199568
1.12,31.2221802369268,131.01046967537417,23.95652268402197,10.143332339797896,6.307746830194734,10.883223819976068,-2.5964953134024094,-0.9613170668808014,172.73281794065943,39.616263754261496,13.644941324384371,71.3108682603265,1.357560737686294,121.43030557901258,959.0858998177292,15.288,0.0,7.561707987886691,0.11644940204971,8.59210308519758e-07,-0.0465922317653948,0.0315571718166449,0.005065001428651,11.927195431735155,21.536617129814825,40.605082065563785,11.229892213698735
1.13,31.22217968583657,131.01047095566247,24.30203206301283,10.079736097470017,6.247778858573933,33.5560705372835,-2.63592056675236,-1.0315420373636852,367.5328077900705,39.86686684073607,13.732356570387344,71.28342034519845,1.4096281745670949,121.4852758578096,971.2259441217248,15.288,0.0,7.579780070921309,0.1171864902582714,8.920824700815562e-07,-0.0478372807651445,0.0323468953148845,0.0052330721344537,11.84195794879852,21.38723972672891,40.84632189130856,33.67524351971671
1.14,31.22217913146497,131.01047224526465,24.650122642340044,10.026367503868585,6.194296946520969,18.677231625689966,-2.6727766083565485,-1.0980331571303628,239.69531773195544,40.07598747471618,13.80617042872172,71.2552262669412,1.4628270190059507,121.54144984382384,981.4089341889616,15.288,0.0,7.597773909846786,0.1178016517559649,9.25731995703064e-07,-0.049103015333171,0.0331468563891154,0.005399530567059,11.768797660809522,21.2600774150031,41.04709107747382,18.899428372625696
1.15,31.222178574349712,131.0104735431211,25.00044631037205,9.946572610974057,6.125059035456787,18.411274529368505,-2.717539899636966,-1.177151466990394,237.41251153546767,40.3874930536117,13.9135097812536,71.22627403180299,1.517159916830536,121.5988309957663,996.691423265476,15.288,0.0,7.615667888144098,0.1187177784306229,9.601709812520154e-07,-0.0503871763209373,0.0339555628510018,0.005583620754932,11.665021713954198,21.080509316950742,41.34778358077993,18.647941936796403
1.16,31.222178014641177,131.01047484893263,25.352906488770447,9.895866247517922,6.073689702919592,47.83996753371828,-2.75416504806628,-1.2438339547690862,490.0437743845894,40.58235915012671,13.982670337309932,71.19655079930999,1.5726303406291993,121.6574236702574,1006.298452436842,15.288,0.0,7.633469488144931,0.1192910557445423,9.954080030975682e-07,-0.0516896456688284,0.0347728648493081,0.0057553950203818,11.595260064684762,20.96144595199884,41.53462627987388,47.93532144094004
1.17,31.22217745133912,131.01047616461184,25.708131274530007,9.83135120368129,6.014238775289784,8.659257894599861,-2.7951488354436367,-1.3176238626630032,153.70937929486794,40.830302892466776,14.069186452597153,71.16604448739336,1.6292398147443523,121.71723019212664,1018.5975072404744,15.288,0.0,7.651201848511085,0.1200203626940319,1.0314438808846047e-06,-0.0530145351318273,0.0356012250071091,0.0059387771890045,11.509586527415845,20.81570218607192,41.77328340194792,9.194114255377237
1.18,31.222176885738897,131.01047748764609,26.065296941269537,9.748599735282314,5.944109200733339,23.377336421452856,-2.8421448539848906,-1.4011653230844314,280.02501822196746,41.15213527198623,14.180049270538596,71.13474238060346,1.6869902958252123,121.77825336555908,1034.6828590498735,15.288,0.0,7.66882719286261,0.1209668740962834,1.068296917069501e-06,-0.0543563670918772,0.0364371739914267,0.006136876305288,11.402884590080076,20.63412831063843,42.0841597829268,23.591119299334512
1.19,31.22217631724377,131.0104788191721,26.424777456083326,9.706243085977706,5.89844932761376,40.676370599524176,-2.8768258183650026,-1.4656371416314389,428.4078130529292,41.305426903002655,14.23553157221387,71.10263138755569,1.7458837097627404,121.84049599001852,1042.369604244099,15.288,0.0,7.68637596030481,0.1214179680692527,1.1059693210478803e-06,-0.0557183162762867,0.0372825886903014,0.0063138560290548,11.34324314770152,20.5360941518811,42.230317444983015,40.80430546118848
1.2,31.22217574532785,131.01048016017293,26.78689359043927,9.63151835526366,5.833669040446435,4.390713191234661,-2.9220381298568667,-1.5470020538855291,117.1843741360236,41.59128957946346,14.33462159120992,71.06969941778901,1.805919640185566,121.90395841537148,1056.8106330629444,15.288,0.0,7.703827585675821,0.1222587656464383,1.14446555302485e-06,-0.0571022952439562,0.0381385509616922,0.0065152400247303,11.246175183716783,20.37356652083055,42.50605774277953,5.496351927846826
1.21,31.22217517130223,131.0104815081253,27.15082127514372,9.558578790042429,5.770224830039576,32.69827223515108,-2.967087809591072,-1.6284415971006605,359.92343213200894,41.86910082345016,14.431181152998716,71.03593307411732,1.8670991823271643,121.96864261352594,1070.9383905585223,15.288,0.0,7.721167276922726,0.1230759051050997,1.1838044986274807e-06,-0.0585028004317333,0.0390016104424099,0.006719385772756,11.151333966362689,20.21590665804404,42.77395424603153,32.87297429909626
1.22,31.222174594146825,131.01048286495865,27.517190924592764,9.513122730400852,5.723335137491,23.73456174515433,-3.0031693277975617,-1.6960003674369128,283.0687504825761,42.02648080619619,14.488013534391165,71.00131959470137,1.9294216971344689,122.03454875204709,1078.9665573708207,15.288,0.0,7.738436748813649,0.1235390406947448,1.2239839755100752e-06,-0.059924754157334,0.0398746848604211,0.0069083333723267,11.088476322529615,20.11556158489547,42.92400583079483,23.98384590703321
1.23,31.22217401424785,131.01048422991065,27.885752717879026,9.43771454322966,5.658931337474541,9.34890692146248,-3.0496543041852298,-1.780360082541889,159.79687382222795,42.31145175073846,14.58703899886684,70.96584685608376,1.992884837346896,122.10167521692968,1093.6098456942957,15.288,0.0,7.755616191862782,0.1243772450567453,1.2650157487053984e-06,-0.0613660649975467,0.0407564114538207,0.0071222108618554,10.991070099306828,19.955486155077384,43.19891011569671,9.993604656214549
