Time,Latitude,Longitude,Altitude,Angle of Attack,Angle of Sideslip,X-Acceleration,Y-Acceleration,Z-Acceleration,Thrust,True Velocity,Ground Velocity,Pitch,Roll,Yaw,Dynamic Pressure,cp,parachute_deploy_gain,Wind Speed,Mach,omega_x,omega_y,omega_z,Cmq
0,31.2221860000000042,131.010383999999988,3.00000000364323682,0,0,0,0,0,2.2828121974499247,0,0,69.9999999962342088,0,113.699999993883324,0,15.2880000000000003,0,0,0,0,0,0,-0
0.01,31.2221859999997946,131.010384000000556,3.00000016469923247,0,0,0,0,0,34.2421869617492334,9.11367326775851009e-12,8.66229497295429822e-12,69.9999999962370651,-4.92863947922479589e-13,113.699999993882884,5.08594204168408172e-23,15.2880000000000003,0,0,2.67827100510624443e-14,-3.65918233213857746e-19,7.58941520739853104e-19,4.81114714040442593e-19,-1.83541113936281872e-32
0.02,31.2221859999996028,131.010384000001039,3.00000030885429547,0,0,0,0,0,25.8718762377664078,1.96992978605390895e-11,1.88456988716431921e-11,69.9999999962400494,-1.04152381447771591e-12,113.699999993882386,2.37621641206600858e-22,15.2880000000000003,0,0,5.78911013494094702e-14,-7.28448334638698292e-19,1.51788304147970621e-18,9.75781955236953991e-19,-7.93451985123442364e-32
0.03,31.222185999409362,131.010384001586402,3.00018176030779937,18.6493779029494604,-0.000129237623237530007,10.7928899806483045,-1.97644583900689674e-05,3.34983967390763571,180.342193598546658,0.0785672533977095078,0.0490694047558625918,69.9999999976775626,-4.2497891361524094e-12,113.699999994705607,0.00377978965327356543,15.2880000000000003,0,0,0.000230888677896110966,2.88330015245363835e-17,-7.25223402354589416e-10,1.08188208080271277e-11,1.51197624781400831e-13
0.04,31.2221859959356287,131.010384010943454,3.00162780953569674,9.74253989061216075,-4.88763086122285772e-05,51.6475445943311158,1.54548216767323456e-06,3.34965665682309899,548.635972453807767,0.346420694310776434,0.171860503977579737,70.0000000036447574,-2.28205307288861013e-11,113.699999999565534,0.0734838809649275282,15.2880000000000003,0,0,0.00101804013696402693,1.80009747884589399e-15,-1.58734069119923437e-08,2.61929145365345784e-11,1.45916869803439425e-11
0.05,31.222185985910329,131.010384038045004,3.00715844163023283,5.5769968489095687,-4.21135943534799539e-06,75.3242160169835273,4.73080294831520123e-05,3.34902689347595528,761.698429882464552,0.947854334293939504,0.409211128642743283,70.0000000010935537,-1.04766136577077691e-10,113.700000013612069,0.55013262299765131,15.2880000000000003,0,0,0.00278549703395658196,1.95473045844392346e-14,-1.13584749331540247e-07,4.14067569904437612e-11,2.85688606727574374e-10
0.06,31.222185966868647,131.010384089593572,3.01868664272593046,4.48500474963244322,2.31139019787050305e-05,56.3605563030587007,9.71465785775115924e-05,3.34799244711343214,590.487539073720654,1.60618980149218604,0.665693519146445256,69.9999999197690244,-2.82941102348924619e-10,113.700000040305838,1.57971028663545732,15.2880000000000003,0,0,0.00472017413217633904,1.01936766184118274e-13,-4.07864410983111553e-07,5.76522069423461223e-11,1.73837509686130208e-09
0.07,31.2221859390775336,131.010384164863126,3.03600551209402658,4.00448286551149391,4.63712119495135773e-05,85.8192455386477917,0.000147926970097503541,3.34656708333141317,855.293774977913927,2.27788210706903049,0.926660947343454056,69.9999996219982279,-5.49831570978999292e-10,113.700000079276109,3.1772067926123353,15.2880000000000003,0,0,0.00669410445039518576,3.35900025920073467e-13,-9.92070622953462368e-07,7.83315922772719921e-11,5.99658406989250883e-09
0.08,31.2221859009658012,131.01038426812616,3.06033476575187802,3.77263127792190334,7.06371256062416025e-05,17.6076228145981588,0.000196957592070898702,3.34480227118667583,241.217198863884818,2.92612482887636283,1.17954495655796454,69.9999989088305909,-9.15694670892462832e-10,113.700000132739973,5.24285298735243899,15.2880000000000003,0,0,0.00859912396431777512,8.49635706706491564e-13,-2.01744800413265681e-06,1.10032289818440005e-10,1.56647792516492608e-08
0.09,31.2221858556197738,131.010384390989856,3.0892797608365723,3.74258231141200604,9.5325675231994802e-05,53.4176180048964397,0.000237730218002333866,3.34289666486112669,563.093737704317618,3.46187703891102627,1.39384941462988121,69.9999975134546446,-1.31671842773002699e-09,113.70000019638816,7.33844512707370811,15.2880000000000003,0,0,0.0101735644468633635,1.80613395740032365e-12,-3.4856561047658452e-06,1.59232278560273843e-10,3.20202005890100843e-08
0.1,31.2221858028175774,131.010384534057465,3.12301320909491364,3.81071421019783685,0.000121971080758598364,50.732831688561788,0.000271545837515448313,3.34090447591365036,538.7437595981919,3.9029133825176725,1.57567038389986336,69.999995157830341,-1.72222432289554893e-09,113.700000270567642,9.32732681847184431,15.2880000000000003,0,0,0.0114696609641860067,3.37914451533694905e-12,-5.48904943388414521e-06,2.34452541412924053e-10,5.68476506314615152e-08
0.11,31.2221857431700727,131.010384695667796,3.16106164078641116,3.84323765504598036,0.000147145408783231387,40.0848474374385688,0.000307099758177995722,3.33859717034531034,442.865639305294906,4.36819921201157246,1.76578242121538631,69.9999915253729768,-2.07703942468805025e-09,113.700000354470319,11.6837607126815346,15.2880000000000003,0,0,0.0128370221364947634,5.76365694334259916e-12,-8.08162139954488366e-06,3.4437809457680147e-10,9.36754562129998513e-08
0.12,31.2221856770245907,131.01038487487628,3.20315617196047642,3.86558564807459826,0.000171348089099210797,43.7480799143332604,0.000342946594964391399,3.33600966231316054,475.585948135404465,4.83801864946757032,1.95742650583495204,69.9999862600106582,-2.3147200577597177e-09,113.700000447673773,14.3321420062794882,15.2880000000000003,0,0,0.0142177082532951912,9.17772063248746377e-12,-1.13223702306849879e-05,4.98555567062495836e-10,1.45354343598177095e-07
0.13,31.2221856047215205,131.010385070757366,3.24903338361815308,3.95285669440916232,0.000198169826234992146,48.2585391180499741,0.000371981107240517913,3.33344523512332414,515.915632623689476,5.21512035057569623,2.1172615234944101,69.9999789703044399,-2.35265113573284059e-09,113.700000549782459,16.6533950244453948,15.2880000000000003,0,0,0.0153259223232261182,1.38588880633063252e-11,-1.52681962163171846e-05,7.07166414280215559e-10,2.11287244421402401e-07
0.14,31.2221855263490333,131.010385283071088,3.29862557546706325,3.99981420118284792,0.000223008237377726162,44.9721767850953427,0.000403855591455553264,3.33052592490198407,486.239086056840392,5.63167615200940475,2.29059513099545553,69.9999692426645623,-2.0964169591742506e-09,113.700000660771011,19.4199179783547713,15.2880000000000003,0,0,0.0165500839355928395,2.00553635588333716e-11,-1.99811439493909854e-05,9.81252131659242702e-10,2.9859131057555361e-07
0.15,31.2221854420015994,131.010385511560628,3.35186028506811029,4.05975476911301225,0.000248539990764711958,43.4637160193537753,0.000433543226731567866,3.32747422849243879,472.54218587214001,6.01888316560526437,2.45383766868271946,69.99995661705006,-1.43188768134039915e-09,113.700000780625842,22.182048585914238,15.2880000000000003,0,0,0.0176879988684610287,2.80404916713566325e-11,-2.55291719775422389e-05,1.33309260321839681e-09,4.07727088477750495e-07
0.16,31.2221853515819241,131.010385756490507,3.40881389436676407,4.08854462484130732,0.000272210944932510383,34.4023069357135967,0.000465877824565354701,3.32404684464906053,391.12189082975641,6.44303061809316624,2.62971580822363071,69.9999405987561403,-2.27841984783363582e-10,113.700000909623355,25.4183784408083007,15.2880000000000003,0,0,0.0189344747787753703,3.81042963600432359e-11,-3.19913711614788564e-05,1.77662362644707755e-09,5.46937370926295155e-07
0.17,31.2221852554099399,131.010386016990765,3.46923909377793649,4.13347468842419552,0.00029684158695823977,43.4155809381403728,0.000495744973995866601,3.3205135250562221,471.78125980632376,6.83404379119085981,2.79420112365087148,69.9999206448319882,1.67575894446247236e-09,113.700001047478835,28.5969980778046526,15.2880000000000003,0,0,0.0200835795555658371,5.05622819343119236e-11,-3.94162603380559734e-05,2.32482468580976756e-09,7.14768170397066036e-07
0.18,31.2221851530022434,131.010386294375877,3.53351204963262022,4.16207877285686756,0.000320492787063832857,36.2151660219171347,0.000526966735016640565,3.31665933612355879,407.101567211914528,7.2444022294323478,2.96528531587496236,69.9998961790314524,4.45070668055043651e-09,113.700001195059045,32.1341903991183955,15.2880000000000003,0,0,0.0212895378539265934,6.5741708189353534e-11,-4.79243856484647045e-05,2.99669991322666987e-09,9.21230820748327094e-07
0.19,31.2221850444828668,131.010386588308563,3.60153760019172342,4.17456309251139679,0.000342914278589344943,40.9041800427263027,0.00055982867240863632,3.31244583927210501,448.953132831826849,7.67810673790947895,3.14433961722118216,69.9998665624008964,8.30674092292676784e-09,113.700001352409558,36.0967170721845179,15.2880000000000003,0,0,0.0225641073333706747,8.40032927522686365e-11,-5.75836346763551867e-05,3.80911503044151526e-09,1.17316671380156179e-06
0.2,31.2221849296486234,131.01038689934137,3.67347464118590317,4.20078915399145636,0.000366573034254704516,37.5214898208491761,0.000590466919182690893,3.30812712915434881,418.515630199161365,8.08216006412957277,3.31318683933006453,69.9998311045104487,1.34800080829191884e-08,113.700001520067786,39.9955165273270055,15.2880000000000003,0,0,0.0237515420632470921,1.05728805481567758e-10,-6.85028882131185225e-05,4.78351733027568889e-09,1.4690610466811608e-06
0.21,31.2221848088436893,131.01038722653837,3.74905730552401684,4.22722562033261262,0.000390310433246848657,36.0064697775761644,0.000620601272787201603,3.30359776763142721,404.818761014464428,8.48018829437500621,3.47992805775657654,69.9997890742529592,2.02433263776548733e-08,113.700001697833756,44.0315784885794201,15.2880000000000003,0,0,0.0249212734096428447,1.31320595517854955e-10,-8.07208291683553139e-05,5.93661589182972911e-09,1.81631626331753899e-06
0.22,31.2221846819136672,131.010387570319409,3.82840670130281646,4.2176244726165093,0.000410696285369717819,43.5935627685881499,0.000655758920494764063,3.29841875767922987,472.542185872136486,8.94831461811120121,3.67066782999472752,69.9997397083127737,2.88926538075102191e-08,113.700001886238866,49.0266756129506618,15.2880000000000003,0,0,0.0262970098082033268,1.61186003536399267e-10,-9.43348117723774896e-05,7.29106197993283208e-09,2.23980539128825791e-06
0.23,31.2221845484548304,131.01038793178239,3.91183756115468473,4.25320537954326383,0.0004356497720089569,36.207459360748949,0.000683686922722525747,3.29355466128287455,406.340642146102141,9.31799902525197865,3.82760028360492655,69.9996821549030983,3.9766623706965518e-08,113.70000208621326,53.1608354775167555,15.2880000000000003,0,0,0.0273834518362109196,1.95767624418301473e-10,-0.000109505708778552874,8.87784718088286285e-09,2.70740355927931971e-06
0.24,31.2221844093456014,131.010388308538637,3.99866964940866776,4.27135264557773553,0.00045883378920767232,37.3286080087975947,0.000713911697673520317,3.2882529474867046,416.232824001711379,9.7203332459195213,3.9956861712714935,69.9996155408946805,5.32509871046438109e-08,113.700002296918697,57.8502398901668755,15.2880000000000003,0,0,0.0285658473732890855,2.35534745143307651e-10,-0.00012617657385590063,1.07071802425012536e-08,3.25424194465518317e-06
0.25,31.2221842644570167,131.010388700938847,4.08900446593793809,4.29698686981540234,0.000482848983334858658,38.3649566400252979,0.000742483922667206905,3.28284626589867479,425.364080791506922,10.1009615935159527,4.1562806652626314,69.9995389781877293,6.97479781374676735e-08,113.700002518962805,62.4689963611702623,15.2880000000000003,0,0,0.0296844577155840929,2.80933085873043406e-10,-0.000144451636124542286,1.28055329635332884e-08,3.87142965072796435e-06
0.26,31.2221841140756986,131.010389108203611,4.18262110402873155,4.32755423691547136,0.000507438991606541483,41.7865661614553829,0.000769736419800412888,3.27732087646770287,455.80158342417883,10.4644497354123782,4.31094871887776954,69.9994515368878751,8.97024502886333285e-08,113.700002752408935,67.0452443356678742,15.2880000000000003,0,0,0.0307527002093570291,3.32431765373287754e-10,-0.00016436315770221847,1.51925047864838523e-08,4.56355359993810651e-06
0.27,31.2221839578137299,131.010389531387915,4.27982215321117465,4.33742811840656994,0.000529702335486379188,38.2242911032538473,0.000800211178185602123,3.27123004841987974,423.842199659872563,10.8736118498261902,4.48123226393084195,69.9993522521519935,1.13587393208351198e-07,113.700002998306658,72.3900346549699947,15.2880000000000003,0,0,0.0319551720828357214,3.90484337603431509e-10,-0.000186059811616844751,1.79019946498730075e-08,5.36790267753501075e-06
0.28,31.2221837957695953,131.010389970223883,4.38053283172365671,4.35979025650862262,0.000553527510562852902,44.1207307275094038,0.000828072271385077072,3.26514386100193477,476.346873201222195,11.2478718916014184,4.63949182586423614,69.9992400702920463,1.41938296327408329e-07,113.700003257081931,77.4582454645660761,15.2880000000000003,0,0,0.0330550782151640757,4.55595825375374429e-10,-0.000209619220926101062,2.09616181379585756e-08,6.25569396794615011e-06
0.29,31.2221836278828384,131.010390424876022,4.48480177698289584,4.38135974025744623,0.00057737648726709299,35.3536197607625553,0.000855659611391794222,3.2588361863853601,397.970310422111766,11.6195889013503368,4.79682445966682813,69.9991139044831527,1.7532937395312496e-07,113.700003529427192,82.6616578528940948,15.2880000000000003,0,0,0.0341475147840558241,5.28268525040872464e-10,-0.000235137545717689308,2.44023887909330158e-08,7.24907222782668121e-06
0.3,31.2221834544381096,131.010390894570321,4.59240982688131272,4.39617507281761988,0.000600356665334356751,33.1490797613948018,0.000884158719714270942,3.25217107922164672,378.185945710871067,12.0052186882677852,4.95887519756831807,69.998972627127344,2.14383684192303281e-07,113.700003815596887,88.2385269149682756,15.2880000000000003,0,0,0.0352808420099011907,6.09029939588318471e-10,-0.000262641159892275291,2.82471356422800846e-08,8.36561857411674722e-06
0.31,31.2221832755909574,131.01039137888381,4.7032380575360353,4.42235615181669761,0.000624899913490765827,34.9528590290802086,0.000910025197609511073,3.24555398289468222,394.16562209302117,12.3556398803864607,5.10879227158949156,69.9988150759387651,2.59766173767152649e-07,113.700004116072961,93.4639131761651498,15.2880000000000003,0,0,0.0363107024397255479,6.98403788157463991e-10,-0.000292187019282257228,3.25229566712151178e-08,9.57826248689966157e-06
0.32,31.2221830914257232,131.010391877587324,4.81722282885169673,4.45155794779377789,0.000649944303128982049,38.0379859115142835,0.000934821026682707218,3.23882361682650144,421.559393462426954,12.6924793110791878,5.25399282922068878,69.9986400687318024,3.12179641788393281e-07,113.700004431478234,98.6283237403037703,15.2880000000000003,0,0,0.0373006526995305274,7.96905013945712519e-10,-0.000323836613651358495,3.72580440687311147e-08,1.09050644159405278e-05
0.33,31.22218290196043,131.01039239063175,4.9343519698327194,4.48019701204722054,0.000675004219851668761,37.7093551175013246,0.000959261610436717115,3.23189933669563656,418.515630199168186,13.0256844327599097,5.39788776638052958,69.9984463826819052,3.72372687880250348e-07,113.700004762578004,103.87354288045799,15.2880000000000003,0,0,0.0382799263433428877,9.05047894999210997e-10,-0.000357667290238851605,4.24836225249657193e-08,1.23603484615852587e-05
0.34,31.222182707020778,131.010392918491164,5.05476263450916541,4.49049305198152204,0.000697378143373914754,29.5227085089536203,0.000987142430045659337,3.22427911658814059,345.465636880756449,13.4081741031825317,5.55863100914667463,69.9982327456812641,4.41143957445642244e-07,113.700005110463266,110.062177258613033,15.2880000000000003,0,0,0.0394040418267209702,1.02333461745717641e-09,-0.000393806243978271305,4.82396483202145133e-08,1.40087103268591529e-05
0.35,31.2221825067937928,131.010393460657156,5.17831168393457641,4.50711781535187139,0.000720712543856854714,32.3530371383660977,0.00101333646443235357,3.21661305844837253,370.576570052703289,13.7686530554979374,5.71176159517965232,69.9979978091806316,5.19362042776584697e-07,113.700005475786654,116.058400304168075,15.2880000000000003,0,0,0.0404634764462946869,1.15232390415689195e-09,-0.000432299813734132244,5.45552399130644805e-08,1.57912776608867467e-05
0.36,31.2221823012122108,131.010394017312592,5.30505329869157727,4.52767240178778962,0.000744729708600240731,36.5526511043957356,0.00103828652712813154,3.20885713174522058,407.862523277719447,14.1132764952183631,5.85938873702120233,69.9977401961163537,6.07939829707116331e-07,113.700005859608282,121.939407863977465,15.2880000000000003,0,0,0.0414763190843316643,1.29254043868676357e-09,-0.000473255972436325862,6.14699225552327593e-08,1.77198251922661022e-05
0.37,31.222182090341061,131.010394588280832,5.43493909097431604,4.55039311415752579,0.00076918150115683735,34.6835787828593496,0.00106234372950533948,3.20097384516078431,391.121890829766642,14.446930470491731,6.00318739776240751,69.9974584775585669,7.0785096329375243e-07,113.700006262864989,127.771540530283914,15.2880000000000003,0,0,0.042456928843506235,1.4445318520011827e-09,-0.000516746496826029863,6.90186481791334769e-08,1.98053803654614999e-05
0.38,31.2221818741223878,131.010395173719473,5.56801609611825477,4.56315131642791805,0.000792019287104061913,36.2353933787001239,0.00108827974821363053,3.19255015153205646,404.818761014460279,14.8084413239345949,6.1564787166299757,69.9971511865591651,8.20121521966083772e-07,113.700006686723384,134.244380272309172,15.2880000000000003,0,0,0.0435194095147296359,1.60882660749176723e-09,-0.000562873331420229127,7.72423853301427293e-08,2.21128406351508731e-05
0.39,31.2221816525004634,131.010395773780147,5.704329739781131,4.57922628245169783,0.000815489716137310881,30.9425419640016202,0.00111309493143926189,3.18402316666385765,357.640624933827439,15.1559126959619999,6.30488433186772657,69.9968167722787769,9.45855271408966431e-07,113.700007132429306,140.616382889747683,15.2880000000000003,0,0,0.0445406353688629561,1.78596578656278109e-09,-0.000611756345505213715,8.61868943159197994e-08,2.45968452142520012e-05
0.4,31.2221814256617982,131.010396387955836,5.84373750626454935,4.59349479979191955,0.000838670682925170751,29.5834243852937959,0.00113797512888990423,3.17521289611434332,345.465636880754005,15.505969085398343,6.45410901523083158,69.9964536498379317,1.08621525395706341e-06,113.700007600947828,147.185065961143067,15.2880000000000003,0,0,0.045569462889951777,1.97653506559195414e-09,-0.000663427505461186432,9.58835144134294998e-08,2.72901174189528038e-05
0.41,31.2221811937141673,131.010397015953487,5.98615797249314241,4.60939449845229365,0.000862163931524819621,33.360545626359837,0.00116210409424792778,3.16624854525325983,378.946870776686467,15.8471768437686258,6.60022848408685459,69.9960602026584695,1.24241947051318175e-06,113.700008093413757,153.73182724817184,15.2880000000000003,0,0,0.0465722905345462151,2.18109996727848554e-09,-0.000717942131686907965,1.06367950505874699e-07,3.01820283711074823e-05
0.42,31.2221809567080335,131.010397657635991,6.13155423418529733,4.63387609959193458,0.000887317919769279608,37.5676427387571721,0.001183742077125155,3.15743374731593907,416.232824001711379,16.155026338188506,6.73482947265292431,69.9956347739890248,1.41574639558456e-06,113.700008611107208,159.760443802515937,15.2880000000000003,0,0,0.0474770882933877245,2.400206535531791e-09,-0.00077537935552726017,1.17680930846389008e-07,3.32294321368729263e-05
0.43,31.222180714655078,131.010398312971745,6.27991949833728835,4.65367427313455995,0.000911660169575580258,33.0386483003103493,0.00120612360190941372,3.14823214930187856,375.903139513433644,16.4750454055619109,6.87353555569934649,69.9951756835756242,1.60752723178871754e-06,113.700009155418982,166.15023929888028,15.2880000000000003,0,0,0.0484176551665520677,2.63438237315801404e-09,-0.000835821567166909188,1.29864614855892046e-07,3.65287677570896608e-05
0.44,31.2221804673911407,131.010398982407111,6.43138341412837455,4.65757387742934892,0.000932929976641759203,30.4788052564327749,0.00123214974254881528,3.13809943757763454,353.075012538921555,16.8483715860516412,7.03046484016701978,69.9946811832270441,1.81916859536649675e-06,113.700009728069276,173.762989227436179,15.2880000000000003,0,0,0.0495148886868988364,2.88411342836306464e-09,-0.000899417740154189794,1.42975581697416844e-07,4.01983191819108926e-05
0.45,31.2221802146980103,131.010399666535704,6.58611776122768511,4.65827001030579346,0.000953562143933252499,35.4620561517945134,0.00125873275223327787,3.12754579585638304,397.209385356286873,17.2316459864824161,7.19073264961644831,69.9941493995125938,2.05218870761162579e-06,113.700010330973456,181.755888424112015,15.2880000000000003,0,0,0.0506413642318551335,3.14987863732273609e-09,-0.000966369542842942814,1.57083782729145849e-07,4.41725079750487196e-05
0.46,31.2221799565319174,131.010400365476642,6.74415901717088939,4.66907507286434065,0.00097630283571516251,41.3913707355688842,0.0012823814722795761,3.11722412848720953,449.71405889764344,17.5754687869478978,7.33738035579407555,69.9935783582983362,2.30821229426708146e-06,113.700010965912341,189.078525726536213,15.2880000000000003,0,0,0.0516519027755614896,3.43223060675433133e-09,-0.00103681314204437207,1.7224885851047691e-07,4.83373548649469587e-05
0.47,31.2221796928065203,131.010401079464799,6.90557672428163105,4.67806301106434042,0.000998761260684927557,28.0209900204918974,0.00130616618884544979,3.10657060381263461,331.007810630253402,17.9233234115620377,7.48533101007974988,69.9929660462147325,2.5889364060732201e-06,113.700011634803886,196.634049649816575,15.2880000000000003,0,0,0.0526742959306323727,3.73170463860384924e-09,-0.0011108841623615434,1.88532207060213475e-07,5.28148505664365441e-05
0.48,31.2221794239793269,131.010401807256216,7.07001851744381948,4.68642527483421745,0.00102109091231145262,27.6007969606275125,0.00132978852885184593,3.09563681785184297,327.203122301157407,18.2709832353803314,7.63313726727991071,69.9923104035261474,2.89614261094227829e-06,113.700012338884164,204.33305198470137,15.2880000000000003,0,0,0.0536961221459722679,4.04904859899578719e-09,-0.00118849531779471017,2.05948560519311644e-07,5.75998398329450787e-05
0.49,31.2221791502289392,131.010402548365278,7.23734841566291642,4.70156796398202914,0.00104489945272251677,34.6487244505178253,0.00135120419031512233,3.08484494341801163,389.60000969812296,18.589315545984995,7.7707981814672209,69.9916093757078812,3.23165731652504743e-06,113.700013079832303,211.511801733856089,15.2880000000000003,0,0,0.0546317638991248022,4.38486615800834454e-09,-0.00126967773493266863,2.2453662401782158e-07,6.26054017926546362e-05
0.5,31.2221788715876762,131.010403302704333,7.40754387012007864,4.72212438923579736,0.00106996435823571525,35.6033845714535389,0.00137072557486675028,3.0741588573465477,397.970310422105001,18.8826594549893159,7.8998011517407587,69.9908609011483378,3.5973597360057951e-06,113.700013859590555,218.236320199079358,15.2880000000000003,0,0,0.0554939729313439212,4.73968531279909998e-09,-0.00135450679800636423,2.44344941868023912e-07,6.78409867869358833e-05
0.51,31.2221785881337617,131.010404070060673,7.5805467220577798,4.73558879650721298,0.00109346949398930206,27.1956639286467201,0.00139183542187690463,3.06284319292573448,323.39843497208409,19.200774511812984,8.03722958125224807,69.9900628955037689,3.99519228958782199e-06,113.700014680103109,225.647740475438098,15.2880000000000003,0,0,0.0564289867670437692,5.11403675587933804e-09,-0.00144303978709531136,2.65418546512062939e-07,7.34915902759761199e-05
0.52,31.2221782998674264,131.010404850463857,7.75636795277497626,9.2843830497819102,-4.98025949517126243,32.7856403035426638,0.30896828572424917,2.75528483084635889,372.098451184341457,20.4102973260631337,8.17691106685133384,69.9892128712149599,6.58698639781494765e-06,113.700017842098987,254.967499596981526,15.2880000000000003,0,2.50644307058047655,0.0599837616640581037,5.50824912219207504e-09,-0.00155157780882523655,3.2008883433813824e-06,8.39955254331427125e-05
0.53,31.2221780065616272,131.01040564403084,7.93512499439659358,9.23159784422227325,-4.91204564386677411,34.4296672411226652,0.316802830011040482,2.73574605884238009,386.55624643486243,20.7352184633508543,8.31329239805681297,69.9882729506354906,-6.55958506152845192e-05,113.699941431487716,263.145494600318045,15.2880000000000003,0,2.51597489896978832,0.0609387943060717627,5.9126613990146651e-09,-0.00175320026706734123,-0.000106359676212611584,9.64197385328469651e-05
0.54,31.2221777080489886,131.01040645087474,8.11689619731919443,9.1807082300749876,-4.84611821104546703,30.2278255017323616,0.324729733528510811,2.71586086071660349,349.270324209843579,21.0582603071688119,8.44887882394964329,69.9872157652042688,-0.00031208439154401977,113.699679520438181,271.403914641472454,15.2880000000000003,0,2.52548728896495245,0.0618883098321930877,6.31372134553899759e-09,-0.00196166922554474746,-0.000218704376616626786,0.000109563650686728803
0.55,31.2221774045844178,131.010407270273248,8.30148129210161123,9.13403624947153858,-4.78359544214837484,32.043894883649827,0.332657748465382597,2.69580946174302172,365.250000591990727,21.3737880184532827,8.58171846988005882,69.9860374212661753,-0.000737152764596147821,113.699227557062088,279.59308496268693,15.2880000000000003,0,2.53496456491761268,0.0628157478499350719,6.71224419891152551e-09,-0.00217684513010552852,-0.000333720230472735104,0.000123401249958690417
0.56,31.2221770961686111,131.010408102210505,8.48888060140461143,9.09317865127461289,-4.7252060325412204,29.9031973516637954,0.340514336366791126,2.67574097883066297,346.226561946578727,21.6774699684702625,8.71030573876644354,69.9847340309903387,-0.00134499769186955265,113.69858107167309,287.589351828607164,15.2880000000000003,0,2.54440691676806274,0.0637083779940494088,7.10886940403999881e-09,-0.00239887526088951048,-0.000451446913929582174,0.000137917371772897963
0.57,31.2221767828689245,131.010408946489605,8.6790427703833668,9.04971261901676804,-4.66655612175085022,29.5685249133523804,0.348609772634818016,2.65502827843964528,343.182829683302316,21.9886856327101974,8.84138327557996817,69.9833016653740003,-0.00213980614581727119,113.697735604282087,295.900859081916167,15.2880000000000003,0,2.55381388941940646,0.0646231549666953786,7.50431693221769456e-09,-0.00262781239740468879,-0.000571874146108095126,0.000153245740099944479
0.58,31.2221764646649511,131.010409803152527,8.87198456108859546,8.99827733883033609,-4.60493006047577502,38.9620324797154538,0.357171457844155549,2.63319812354838634,426.12500585731533,22.32087787496177,8.97962378029332164,69.9817363262963283,-0.00312579483204095208,113.696686662753592,304.903340133448467,15.2880000000000003,0,2.56318471362147537,0.0655995866976868264,7.89924741838248065e-09,-0.00286381247767847997,-0.000695045193308991031,0.000169528447794214775
0.59,31.2221761411825582,131.010410673202472,9.06799702809378871,8.95884310441559961,-4.55041353528870918,31.5683242843806298,0.365410601759535769,2.61186470173528118,360.68438819711065,22.6254453154325255,9.10811637017823017,69.9800337801469539,-0.00430744357137277916,113.695429474746931,313.274998635830684,15.2880000000000003,0,2.57253325934486288,0.0664948373373654006,8.2939895420279183e-09,-0.00310749436281055127,-0.000821239366966048235,0.000186460158238968424
0.6,31.2221758126182323,131.010411556091157,9.26692880769695648,8.90476482430285721,-4.48956168839661185,28.0468653321511319,0.374414751569235482,2.58878343082456208,329.48595949860578,22.9683070188798339,9.24978555730226226,69.978189704593575,-0.00568928178296543123,113.693959213597083,322.83539131084018,15.2880000000000003,0,2.58184993336459367,0.0675026389685648709,8.68944401319915742e-09,-0.00335876079476737487,-0.000950366243781719977,0.00020458713814146761
0.61,31.222175478926772,131.01041245192755,9.46881601385508276,8.84937952627224789,-4.42909565497271185,32.8818219466686372,0.383662255540454966,2.56501778542586356,372.09845118432969,23.3171378409467849,9.39338972879241041,69.9761996164193221,-0.00727592890001871762,113.692270959233838,332.709521908601232,15.2880000000000003,0,2.59113573822780419,0.0685279903714398481,9.08628238462458196e-09,-0.00361782776461957436,-0.00108249581193893573,0.000223709782478627867
0.62,31.2221751402137393,131.010413360410439,9.67357789710199256,8.8187310537531598,-4.38178477234549657,40.9082153087951994,0.391987381209878583,2.5430100087188876,442.86563930529212,23.6032350260170567,9.51505377079565129,69.9740590195600589,-0.00907212165795710963,113.690359657181006,340.917482419517341,15.2880000000000003,0,2.60039010854225383,0.0693689770154547192,9.4852824509182533e-09,-0.00388477176746127983,-0.00121762710436568882,0.000243158999974702318
0.63,31.2221747963092362,131.010414281988943,9.8813472929215731,8.78142805556208117,-4.33203831823133978,23.1588399991771361,0.400748428469129947,2.51992594723818453,286.112512747078938,23.9074821984720636,9.64288713982057821,69.9717633853699965,-0.0110823887770678062,113.688220482369715,349.756044334850003,15.2880000000000003,0,2.60961444376771512,0.070263312149580745,9.88702907993784809e-09,-0.00415991975364557887,-0.00135588241123087779,0.000263732370551628473
0.64,31.2221744477519572,131.010415215184821,10.0917078142788714,8.73309820070135956,-4.27775669948224202,22.7349064433298338,0.410174660537123204,2.49525978262126502,282.307824417967538,24.2427395016358922,9.78137554883347349,69.9693081418135989,-0.0133112982999691373,113.685848563096897,359.626895004214646,15.2880000000000003,0,2.61878237854660068,0.0712487915379160369,1.02928795524431826e-08,-0.00444269990846730099,-0.00149693923315816907,0.000285604170838434177
0.65,31.2221740945238828,131.01041616003468,10.3046746920405159,8.70294795754885442,-4.23309190521620238,40.2558921653835213,0.418894865482058731,2.47192470336551517,436.778144778747503,24.5293665234664502,9.90283898944643859,69.9666887146599947,-0.0157632873041918149,113.683239169664589,368.173526579451959,15.2880000000000003,0,2.62791834913529998,0.0720913542312083128,1.07034969489764719e-08,-0.0047333254846303012,-0.00164086628104692179,0.000307878734212042816
0.66,31.222173736158723,131.010417117795356,10.5206106603917213,8.66907897815809037,-4.1873722108469833,34.2270528035841011,0.427932414307543751,2.44774659120774762,383.512515171600171,24.82663227742486,10.0278633662249472,69.9639005590627505,-0.0184428492836062122,113.680387503465184,377.143398581082977,15.2880000000000003,0,2.63701260611567578,0.0729651905295524289,1.11190504006788288e-08,-0.00503256640985718165,-0.00178800077180806634,0.000331302956284213769
0.67,31.2221733728264432,131.010418087991809,10.7393852957677325,8.62558748002564002,-4.13781272333038874,23.5329962634327252,0.437607275658840222,2.42202508543716633,289.156244010342505,25.1520478679273936,10.1625376696050669,69.9609387345920766,-0.021354754584858384,113.677288477628224,387.086892062992831,15.2880000000000003,0,2.64606801871127173,0.0739217657048394927,1.15405211607318538e-08,-0.00534034398280711607,-0.0019382637474368164,0.000356165167604791566
0.68,31.2221730046814159,131.010419070191602,10.9608803233791416,8.58551519727960333,-4.09063426279410791,29.4124264000382141,0.447278303444042125,2.3961342592092949,340.899992485846269,25.4689072586878318,10.2941102427652673,69.9577982600626598,-0.0245037444709054926,113.673937035078836,396.892735640240858,15.2880000000000003,0,2.65509111612047022,0.0748532012016809994,1.19688377781653409e-08,-0.00565662583614563817,-0.00209160051669854147,0.000382003541164562335
0.69,31.2221726317960915,131.010420064185752,11.1850410050591336,8.55553662678652849,-4.04888959777671964,36.2452551213303593,0.456562049023302996,2.37090908077232854,401.014072685363431,25.7567413412440018,10.4154739205595526,69.9544742679073295,-0.0278944969683177675,113.670328176425528,405.905570006213736,15.2880000000000003,0,2.66406166937742039,0.0756993379421992962,1.2404830973915124e-08,-0.00598145810115231942,-0.00224799478031775845,0.000408496422265217313
0.7,31.222172254044068,131.010421070307387,11.4119667841264825,8.52523483880062649,-4.00762922771064911,30.3803958939888794,0.465999784651157434,2.34517816740284779,349.270324209852845,26.045603550958301,10.5370666017343702,69.9509617327379942,-0.0315315880118902381,113.666457021312667,415.052051975507368,15.2880000000000003,0,2.67298994997745343,0.076548503035098428,1.28490731359434261e-08,-0.00631517876143964339,-0.00240756792431004452,0.000436114861145543199
0.71,31.2221718714735985,131.010422088413918,11.6416217436275033,8.48882517935394709,-3.96417067344549556,24.9444496795174757,0.475928413970765463,2.31819622165297057,301.331264063405797,26.3532787398514614,10.6650693955697875,69.9472556382978468,-0.0354197256487576786,113.6623185355255,424.906571084803602,15.2880000000000003,0,2.68188342354054976,0.0774529666910984821,1.3302375829024371e-08,-0.00665786427070002001,-0.00257031632892764554,0.000465201200747306087
0.72,31.2221714840853792,131.010423118492554,11.8740069004259574,8.44510912731165497,-3.91799367071919402,30.5719390049143307,0.48644700301763294,2.28972733574521214,350.79220534145287,26.6843531582914508,10.8010779829676409,69.943350684235881,-0.0395636693132890502,113.657907640409675,435.640054951710852,15.2880000000000003,0,2.69073499157391316,0.0784262085680939025,1.37654826233244711e-08,-0.00700969672681710926,-0.00273628614184190421,0.000495926654723604157
0.73,31.2221710918753033,131.010424160543067,12.1091270302266132,8.41933133179898263,-3.88065356760867086,38.7102917636691259,0.496069019743845874,2.26306433686038844,422.320318528233997,26.9598553975985027,10.9176499703217971,69.939241490946543,-0.0439683624940712808,113.653219050982386,444.671971495020898,15.2880000000000003,0,2.69953611481141298,0.0792361290678733898,1.42390789079908291e-08,-0.00737089219151661548,-0.00290553860544319042,0.000526852875312146729
0.74,31.2221706947836815,131.010425214717998,12.3470299962344949,8.38789076608826001,-3.84129199493469242,24.1881512115649855,0.506169788285361855,2.23516134622834262,294.482813471059444,27.2531137446191494,11.0402640783339976,69.934922762843982,-0.0486385466615746401,113.648247696022082,454.388126896215738,15.2880000000000003,0,2.70830335174333348,0.0800982424525070458,1.4723854675235574e-08,-0.00774166065226383586,-0.00307812992239210386,0.000559360860226020148
0.75,31.2221702931424971,131.010426280102536,12.5874602065841366,8.35288450871084187,-3.800878172198352,28.2624407814685021,0.516646218820770775,2.20623440114204028,330.246885564414924,27.5580875273945161,11.1668340806853656,69.9303890042594816,-0.0535789599436435476,113.642988514165523,464.603888464586362,15.2880000000000003,0,2.71702742848212919,0.0809947951095698199,1.52211093299918596e-08,-0.00812161894874059535,-0.00325384423927704619,0.000593367113375340175
0.76,31.2221698868478086,131.010427356970297,12.8304999123584338,8.32415151721511748,-3.76382620706702653,30.4346244889522737,0.526874951035261274,2.17768040821811049,349.270324209861712,27.8426522574094868,11.2861919373664463,69.9256348125646952,-0.0587943045682093254,113.637436472099907,474.237355673733703,15.2880000000000003,0,2.7257022889978666,0.0818313715044452078,1.57313315955827002e-08,-0.00851113144259378965,-0.00343280989892822677,0.000628231274693078
0.77,31.2221694758449431,131.010428445461002,13.0761932218363928,8.29696113187708839,-3.72796374523018592,28.4519401556730891,0.537142015006538243,2.14885863349306883,331.76876669607077,28.1217428957878965,11.4035267018142878,69.9206546407459939,-0.0642893066872034097,113.631586512400034,483.780961903325704,15.2880000000000003,0,2.73432763072461027,0.0826518662056130171,1.62551343912083527e-08,-0.00891045932677061135,-0.0036151056891513063,0.000664283905661466065
0.78,31.2221690601924031,131.010429545406197,13.3244965779908746,8.26444913610354881,-3.6902362685853296,23.3502854178071431,0.547908759760383113,2.11871805714189865,286.873437812889904,28.4184931960776161,11.5268830168383154,69.9154428308958984,-0.0700686810396914106,113.625433590509317,494.033097593864113,15.2880000000000003,0,2.74291265337674695,0.0835242711019756473,1.67933672451243119e-08,-0.00931964192455782096,-0.00380070915481759688,0.000702103798470628737
0.79,31.2221686399704907,131.010430656577711,13.5753495640591435,8.22898504624321347,-3.65171295637457449,33.2335460345858422,0.559040326300967116,2.08755295843006605,373.620332315953419,28.7254812334822773,11.6536858948881026,69.909993732983466,-0.0761372048387384259,113.618972584254195,504.752077613467179,15.2880000000000003,0,2.75145557318196587,0.084426772944836373,1.73468687376818415e-08,-0.00973871212235782879,-0.00398959574526508518,0.000741582424243667502
0.8,31.222168214972573,131.010431779530649,13.828914129683568,8.20391708251982443,-3.61824041515983241,33.6762604673232744,0.569601207220222117,2.05750896007718698,377.42502064505743,28.9963625913214926,11.7678108636408023,69.9043013979218841,-0.0824997504244701363,113.612198277561134,514.304065569089403,15.2880000000000003,0,2.75996298653457073,0.0852231614250712477,1.79158719216276929e-08,-0.0101682687284456955,-0.00418199241558077969,0.000781574801261687041
0.81,31.2221677852924486,131.01043291400083,14.085119488938961,8.17227713358713359,-3.58233913837813933,21.8967650028531189,0.580769566818010063,2.02587420709300803,273.937492693991885,29.2897061334635076,11.8896330291715007,69.8983598495859439,-0.0891611296529160741,113.605105515590807,524.749770125848272,15.2880000000000003,0,2.76841518415349697,0.0860855757851805709,1.8501341677965602e-08,-0.010608263042422442,-0.00437783574830005219,0.000823623293184689523
0.82,31.2221673511037565,131.010434059506025,14.3438330229867592,8.1379948461075351,-3.54575242677071278,28.1461706121642159,0.592295229202341567,1.99321484808477778,328.725004432770049,29.5923958336946988,12.0145984209597927,69.8921631625884174,-0.096126154109142381,113.597689132403772,535.638386531442848,15.2880000000000003,0,2.77682214411811934,0.086975467029721934,1.91043099230929253e-08,-0.0110585447221904672,-0.00457701913611939081,0.000867434402343012683
0.83,31.2221669123896142,131.010435216084488,14.6050697849068936,8.11611134218427743,-3.51494620983823758,35.7866448299838495,0.603040071450204662,1.96217771345895686,395.68750322465047,29.8499774936897886,12.1237587785126735,69.8857051496996604,-0.103399610733008129,113.589943998809176,544.99003153299941,15.2880000000000003,0,2.78518832792039017,0.0877327878438918102,1.97253572474797049e-08,-0.0115193647744241991,-0.00477961294814076027,0.000911423410522613589
0.84,31.2221664690501335,131.010436384002361,14.8689091271358951,8.09174385244963368,-3.4834663270661923,22.088842019270519,0.614100024472808537,1.930218473673599,275.459374825645227,30.1155541399810183,12.2355858308280627,69.8789797886752382,-0.110986163030105528,113.581865104819755,554.716719665619394,15.2880000000000003,0,2.79351430464232209,0.08851361404827153,2.03649644908964747e-08,-0.011991047404634695,-0.00498571703976904458,0.000957160163435735517
0.85,31.2221660213588379,131.010437562505246,15.1351411540181005,8.05734813580678022,-3.44811593100117086,24.091094711990543,0.626095138396246198,1.89586725594063532,292.960932339393764,30.4176130482711322,12.3600109715942708,69.8719809675225463,-0.118890416569388632,113.573447502071645,565.885669733390614,15.2880000000000003,0,2.80179329545002442,0.0894016738490045065,2.1024447897636969e-08,-0.0124731886634602013,-0.00519511598521464526,0.00100560669174449158
0.86,31.2221655691523168,131.010438752033195,15.4038945157411415,8.03044026751559237,-3.41634864818906259,30.1743181447845501,0.637647675581434759,1.86235460491760829,346.226561946558718,30.6912846356806845,12.4744476974055765,69.8647023423084903,-0.127117127289957332,113.564686080560307,576.099315600301793,15.2880000000000003,0,2.81003105763037109,0.0902063069436597476,2.17039702103436296e-08,-0.0129663603946255836,-0.00540801644902768816,0.00105474500850310832
0.87,31.2221651124519539,131.010439952521494,15.6751547002780462,8.00701617161557166,-3.38641181787650192,28.0986635723908975,0.649046818364957367,1.82900471473841475,327.964078366998024,30.9507380615358301,12.5838275667763853,69.857137566949234,-0.135670976966376339,113.555575804078472,585.865509273381463,15.2880000000000003,0,2.81821666033257889,0.0909691580474073919,2.24042169931063558e-08,-0.013470689769789183,-0.0056244313319001862,0.00110500400946076196
0.88,31.2221646512899795,131.010441163876408,15.9488988368275049,7.97859828957594086,-3.35474286804589328,24.2848446975389294,0.661001463509511722,1.79413485843815268,294.482813471041823,31.228332452113861,12.6994231509577808,69.8492801759465891,-0.144556567342524978,113.546111724487162,596.406107852735431,15.2880000000000003,0,2.82635750202657743,0.0917853357472398629,2.31259758750152432e-08,-0.0139862294388936621,-0.00584434147871482328,0.00115755339934638644
0.89,31.2221641857414234,131.010442385887046,16.2250709515977114,7.94533769120128675,-3.32143164741148711,26.6373019322636964,0.67352777953200671,1.75769067403332446,315.028134248086985,31.524176128952007,12.8212810300878619,69.8411237372332607,-0.153778531665574009,113.536288846371718,607.74370054118458,15.2880000000000003,0,2.83445481544646993,0.0926551589236849632,2.38700132000389624e-08,-0.0145130233086571362,-0.00606772450968289922,0.00121249989980336042
0.9,31.2221637157351317,131.010443618742642,16.5037283077946064,7.92433168875763361,-3.29355053039589052,29.4254818832653946,0.685126221788280754,1.72325977304174072,339.378142354214447,31.7709605563715272,12.9259403405377995,69.8326614498688514,-0.163341581839560546,113.526102100140562,617.27976924454822,15.2880000000000003,0,2.84251170693524458,0.0933807958337967564,2.46366875493571281e-08,-0.0150514448138293969,-0.00629469631694107301,0.00126729285638500842
0.91,31.2221632413360304,131.010444862261181,16.7848227843455149,7.89839771738547647,-3.26396219860732595,22.3924695887001484,0.697291603319595277,1.6872622744569461,277.742181023078899,32.0359842209357168,13.036858493082935,69.8238867986789558,-0.173250206583642985,113.51554663767422,627.604098081391498,15.2880000000000003,0,2.85052575254239082,0.0941600485951884641,2.54268211945994594e-08,-0.0156014883462906543,-0.00652521208264028683,0.0013245270396925891
0.92,31.222162762730985,131.010446115925902,17.0682118853541951,7.8677182901790772,-3.23276382360460035,26.6591260801355325,0.710035259899270854,1.64965338860109045,315.028134248062145,32.3191840503145471,13.1540292962852288,69.8147930138764252,-0.183508853800076255,113.504617662489366,638.731867009514303,15.2880000000000003,0,2.8584931165420957,0.0949927322470503488,2.62415886685033286e-08,-0.0161628714352802481,-0.00675911366104010782,0.00138427958071098058
0.93,31.2221622798349934,131.01044737996574,17.3539636505466532,7.84812112392266403,-3.2063953441880213,31.7107670128061976,0.721876538988128313,1.61401792831512236,359.162507065472823,32.5560597574107646,13.2549481478789968,69.8053733868270712,-0.194121984274272352,113.493310349224046,648.111255635159523,15.2880000000000003,0,2.86641793272621737,0.0956892672129964345,2.70811456975577041e-08,-0.0167360400630406428,-0.00699654483126658459,0.00144383488802821342
0.94,31.2221617925453039,131.010448654659939,17.6421598703980855,7.81849212507413149,-3.17626635920888356,23.0196349432827283,0.734803732342423355,1.57552791241227541,283.068750483778672,32.8327864337059054,13.3696793724506033,69.7956211141965071,-0.205093881457236255,113.48162006686141,659.157734929399453,15.2880000000000003,0,2.87430009757461669,0.0965029402870989927,2.79458844715290344e-08,-0.0173213201320586083,-0.00723759681499503219,0.00150698766424207454
0.95,31.2221613011301073,131.010449939268483,17.9325951727692186,7.79028501739807844,-3.14702328796245112,29.8134318711469,0.747738608148848072,1.53679369017762224,342.421873617487279,33.102624344788417,13.4819281149265908,69.7855291351449694,-0.216428967867188599,113.469542032697916,670.018209963127333,15.2880000000000003,0,2.88213640646517399,0.0972963734167555383,2.8837133454858772e-08,-0.017918300939725039,-0.00748206049566513352,0.00157169439712313537
0.96,31.2221608053163067,131.010451234539033,18.2254832725025864,7.7675717029159852,-3.12027591403543125,29.2121258459135476,0.760261070967741204,1.49884981799541772,337.095335156783449,33.3479065993557029,13.5855094954616735,69.7750905101689227,-0.228131595979455343,113.457071523913498,679.965207751161756,15.2880000000000003,0,2.88993305567568637,0.0980176393927314205,2.97544706628036259e-08,-0.0185278468552534485,-0.00773024491889255042,0.0016371563814899957
0.97,31.2221603051217578,131.010452540420431,18.5208126477628738,7.74215517545886911,-3.09273169782746615,18.6849131771391548,0.773184949991217785,1.45969781985656089,245.021887192993233,33.6030662137839542,13.6924504621873826,69.7642979622921047,-0.24020613583687242,113.444203807079134,690.390863694798099,15.2880000000000003,0,2.89768926740044197,0.0987679449258594966,3.06985550653802791e-08,-0.0191500844660268989,-0.0079821568457521027,0.00170503743904178552
0.98,31.2221598008130954,131.010453856177094,18.8183792091403248,7.70732402999762289,-3.06175231185964991,27.2247479333619289,0.787238776920218708,1.41751893168101528,319.593746642958081,33.8977211844023785,13.8131257276686927,69.7531442647618718,-0.252656873262665949,113.430934227358193,702.531520693908192,15.2880000000000003,0,2.90539974033357096,0.0996343452441081495,3.16709610018161018e-08,-0.0197844674971538077,-0.00823753413279386566,0.00177691549723020211
0.99,31.2221592922522611,131.010455182186746,19.1182922099584829,7.68847179406847925,-3.03734812987030844,29.7582508559467946,0.799727039244196747,1.37898841694053509,341.660948551705417,34.1213464937167501,13.9088851516960776,69.7416219852439809,-0.265488152041996606,113.417258065526653,711.810877337842953,15.2880000000000003,0,2.91306954462527878,0.100291978422787573,3.26714741522298076e-08,-0.0204316525106779077,-0.00849659711948820388,0.00184709422756582954
1,31.2221587794375246,131.010456518453992,19.4205553059903941,7.66046184270361774,-3.00960911925522145,26.6293518311379991,0.813324218145471955,1.33747030537503786,314.26720818227642,34.3834356201749713,14.0180184511008417,69.7297238939967059,-0.278703957833616678,113.403170979257126,722.76685730466852,15.2880000000000003,0,2.92069619956616666,0.101062674804660871,3.37008125666576018e-08,-0.0210916970499905598,-0.00875932403173490005,0.00192135485794126394
1.01,31.2221582625351068,131.010457864519623,19.7250422342623466,7.63402955068035638,-2.9827497425492342,27.8566864469124482,0.826878682338900717,1.29581971053103473,324.920316103697928,34.6370159829944058,14.1241061595706903,69.7174424773027823,-0.292308432574606092,113.388668454642925,733.445637512188796,15.2880000000000003,0,2.9282803802527817,0.10180836924329506,3.47600173817587919e-08,-0.0217643910112115535,-0.00902558886183852521,0.00199719779275271247
1.02,31.2221577414739073,131.01045922057952,20.0318103917010646,7.61000042874433635,-2.95707314076348515,23.2434162390367405,0.840283332768744784,1.25430693718553909,284.590631615404163,34.8780213319876538,14.2257185346792809,69.7047702707151302,-0.306305518972032398,113.37374618558583,743.665906556653908,15.2880000000000003,0,2.93582393337294079,0.10251710965789762,3.58492802005670015e-08,-0.0224500989459614289,-0.0092954915851474907,0.00207439468073757462
1.03,31.2221572163164787,131.010460586461647,20.3408137502160642,7.57977787275136183,-2.92925997463676779,18.9764873562239593,0.854531611300408556,1.21042695821949375,247.30469339049705,35.1455466944109176,14.3365574546698422,69.6916997931989215,-0.320699028437640199,113.358400000737831,755.095550024430622,15.2880000000000003,0,2.9433254946754186,0.103303808238862399,3.69693969639846645e-08,-0.023148789299036826,-0.00956897583742331165,0.00215529632104235081
1.04,31.222156687118968,131.010461962011021,20.6520113051689229,7.55550763812243176,-2.90397649262543966,30.2339840714033414,0.868210714620788138,1.1677353467084266,345.465636880722968,35.3840489681441355,14.4371634281530099,69.678223309716202,-0.335492883362383809,113.342625605231405,765.355800951020228,15.2880000000000003,0,2.95078612667913154,0.10400520660501783,3.81209567445850537e-08,-0.0238605446977738327,-0.00984603065928050733,0.00223657415748198477
1.05,31.2221561536198884,131.010463347952111,20.9656077620564467,7.52625744029874255,-2.87703471070792904,18.2013455292192674,0.882613274398824532,1.12296110904908342,240.456258798199826,35.6438138683974017,14.5451548757975395,69.6643331092697053,-0.350690826285253776,113.326418891059163,776.611069703198154,15.2880000000000003,0,2.9582098311225451,0.104769110715796865,3.93033529095279622e-08,-0.02458627079613665,-0.0101269604133548703,0.00232144911273740161
1.06,31.2221556160360407,131.010464743686555,21.2814378254206069,7.49281103637175416,-2.84875077458123771,25.9735125464740761,0.897682684898856054,1.0762258515672869,308.179683655939243,35.9218863994914699,14.6595203582218581,69.6500211586263305,-0.366296769376137532,113.309775563078716,788.751754386110633,15.2880000000000003,0,2.96559079800222847,0.105586835346631977,4.05180913081086102e-08,-0.0253255155132714946,-0.0104115453484581507,0.00240983104814134624
1.07,31.2221550742610603,131.010466149509881,21.5995862612571337,7.46912929634575118,-2.82438932423036038,30.607099562318389,0.911660438109007765,1.03201534192641109,348.509368144030759,36.1517595506360507,14.7569037318955711,69.6352792303831762,-0.382314656613141568,113.292691286904443,798.854482534124827,15.2880000000000003,0,2.97293528028805332,0.10626289345159548,4.17649755035270659e-08,-0.0260788883855088763,-0.01069997310499376,0.00249732123625747609
1.08,31.2221545282026405,131.010467565681012,21.9201268839377406,7.44337484496382995,-2.79946611983650362,20.5734570627568374,0.926016140781841246,0.986581362997234645,261.001578574662346,36.3892916151741233,14.8569083093482366,69.62009914647345,-0.398748168707503459,113.275162005896831,809.361661393906502,15.2880000000000003,0,2.98024374008403958,0.106961471653790233,4.30442050344822884e-08,-0.026846785376024758,-0.0109923457719287732,0.00258766717058433451
1.09,31.2221539781120185,131.010468991506343,22.2428678380657807,7.40722378704970286,-2.77089360857904898,18.9190795899231432,0.941868923375333011,0.937025542356788255,246.543753324744074,36.6756314440570605,14.9740283980305513,69.6044727232003595,-0.415600956192886395,113.257183680457103,822.12368943821707,15.2880000000000003,0,2.98751182744132571,0.107803522023414949,4.43576417337820223e-08,-0.027628567779629444,-0.0112883744283414338,0.00268389198313675505
1.1,31.2221534240583942,131.010470426796076,22.5677581141220536,7.3764510165915258,-2.74455683693542563,38.0574380819512328,0.957158858875654772,0.888636645289770599,413.189061738584087,36.9341568238071858,15.0813341579442532,69.5883915535240334,-0.432876587282395364,113.238752361214409,833.728769563226365,15.2880000000000003,0,2.99474096604530571,0.108563823700209242,4.57058819641139615e-08,-0.0284243001104495137,-0.0115880381750838538,0.00278056772197622258
1.11,31.2221528656750742,131.010471872572566,22.8950837224974997,7.35637012646934174,-2.72237583538807737,27.8425753358563881,0.971098361049042347,0.843475203861331235,324.159391037639693,37.1371266907040578,15.169020013632986,69.5718470942196774,-0.450578630028084515,113.219864090396783,842.890878976118074,15.2880000000000003,0,3.0019380886589131,0.109160834137244533,4.70873678231148126e-08,-0.0292353942746041671,-0.0118918168623331939,0.00287553798094989255
1.12,31.2221523030191257,131.010473328683389,23.224802941316927,7.31630765608918487,-2.69306818900924583,10.454634017359453,0.98795175181266992,0.790463449952100605,172.73281794065943,37.4382461321078139,15.2912257614899456,69.5548308819227259,-0.468710394776843509,113.200515177977707,856.588011514048503,15.2880000000000003,0,3.00910002879508287,0.11004635378831594,4.85032598619387228e-08,-0.0300617368506879146,-0.0121996158467840045,0.00298069585414359114
1.13,31.2221517366286712,131.010474793633279,23.5565023334239854,7.2870763359987043,-2.66794595197874251,32.8407233377023289,1.0034181434279652,0.740765824078601476,367.532807790070478,37.682991581818662,15.393554100396635,69.5373338478346028,-0.487275593856720535,113.180701497406488,867.796533864193293,15.2880000000000003,0,3.01622200390468853,0.110766175616164919,4.99567690664519956e-08,-0.0309018570117276133,-0.0125108444356466977,0.00308392788895204715
1.14,31.2221511659007653,131.01047626910767,23.8906504037678395,7.26539224510129866,-2.64575958999345273,18.156506736991016,1.01788938360636827,0.693391464606961438,239.695317731955441,37.8862829427855416,15.4811998856361779,69.5193474631257828,-0.50627723047103157,113.160419673572548,877.156774599026221,15.2880000000000003,0,3.02331349579219077,0.111364154437901611,5.14447984877454238e-08,-0.0317579792297939603,-0.0128262721898206485,0.00318636249744806482
1.15,31.2221505912780053,131.010477753879741,24.2269074758162155,7.22358499797294584,-2.61649994023487853,17.8982066720777624,1.03546719978754065,0.637565953742370572,237.412511535467729,38.1918677082696902,15.6049342050625075,69.5008631347721888,-0.525718183448322995,113.139666455558668,891.335066232750023,15.2880000000000003,0,3.03036585253797908,0.11226282608865272,5.29708729443311625e-08,-0.0326286093728969592,-0.013145300208206933,0.00330001381361542815
1.16,31.2221500128855034,131.010479247603769,24.5651794568600188,7.20361182159790481,-2.59529540210561249,46.9537187574656372,1.04986877363996611,0.589799578704955363,490.043774384589426,38.3809229011660449,15.6874936313527975,69.4818716770850102,-0.545601701404583639,113.118438190844671,900.152129779817642,15.2880000000000003,0,3.0373820829772229,0.112818973766293171,5.45355662322756182e-08,-0.0335137278505412278,-0.0134678757931285496,0.0034062015049266571
1.17,31.2221494299319993,131.010480752499689,24.9060800843450032,7.17302861283600546,-2.57047231264119302,8.28017185878504414,1.06599002070013515,0.537201721177284375,153.709379294867944,38.6229981622544969,15.7887266064598926,69.4623644052845179,-0.565930365315637229,113.096731933542529,911.512926640877026,15.2880000000000003,0,3.04437147211382264,0.113530979728666007,5.6134694856346969e-08,-0.0344162405191445545,-0.0137949973563945855,0.00351987608478905676
1.18,31.2221488434616319,131.010482265654758,25.248805127740269,7.12840527184545802,-2.54086233016004392,22.8142503721915908,1.08447655190870873,0.478004430600367292,280.025018221967457,38.938828443474172,15.9160827953240531,69.4423321828360542,-0.586706981919752346,113.07454448642919,926.450732519774419,15.2880000000000003,0,3.05131888709775678,0.114459794716255864,5.77757678465640905e-08,-0.0353324182402303399,-0.0141252690006395502,0.00364300618824844923
1.19,31.2221482530045691,131.010483788388996,25.5937201151642562,7.11437803855409978,-2.52226775243289714,39.8960495140414722,1.09815136745598685,0.431290741415203849,428.407813052929214,39.0863981419701929,15.9838368718243409,69.4217655985155915,-0.607934407444524538,113.051872593730153,933.455204964402355,15.2880000000000003,0,3.05823189680828644,0.114894019686246462,5.94551265263785459e-08,-0.0362645298244605868,-0.0144594577636033058,0.0037531591372457658
1.2,31.2221476581575246,131.010485321845238,25.9411387469995809,7.0755306967024989,-2.49509279728713462,4.08149005007725041,1.1159651146733478,0.373224892210057391,117.184374136023607,39.3663005080144117,16.0984381943091179,69.4006559085359669,-0.6296146801468816,113.02871386523546,946.840643486966201,15.2880000000000003,0,3.06510804693636763,0.115717243182732549,6.11713769675232514e-08,-0.0372139727660916811,-0.014798003773646793,0.00387887176355840432
1.21,31.2221470599658666,131.010486863097128,26.290256339421358,7.03787547488622156,-2.46853660295516164,32.030931284055427,1.13372794071733662,0.31494881478707315,359.923432132008998,39.6381451912828453,16.2102319992044919,69.3789934510368766,-0.651750470775727675,113.005065224875892,959.930451461311009,15.2880000000000003,0,3.07194303457282691,0.116516789718380406,6.29321303240927446e-08,-0.0381769779119244604,-0.015139520254694094,0.00400659172180623403
1.22,31.2221464576346612,131.010488414385804,26.6416890746499213,7.02114965784827394,-2.44943934784300454,23.1878505506767922,1.14799228716899115,0.265753672642141614,283.068750482576149,39.789844221312606,16.2793375987317042,69.3567689819146551,-0.674343856678623288,112.980924224820242,967.259351362160146,15.2880000000000003,0,3.07875084527221432,0.116963174672854275,6.47313054377304743e-08,-0.039157052721359567,-0.015485194706197386,0.00412503646522719997
1.23,31.2221458514824306,131.010489974828744,26.9951932884101673,6.9812959874608298,-2.42248258750817147,8.99294223208835852,1.16634621826524931,0.205212867520671971,159.796873822227951,40.0688130607519426,16.3936619570696855,69.33397367566009,-0.697396331326734509,112.956289031168509,980.836608761735647,15.2880000000000003,0,3.08552354389192374,0.117783679978989017,6.65725845898855993e-08,-0.0401528012248806368,-0.0158344800008092049,0.0042594461905609152
1.24,31.2221452419508942,131.01049154319,27.3504306232822536,6.94933103054929724,-2.39842843856087962,38.8056508675114529,1.18341530778262083,0.147793615377350973,418.515630199805003,40.3007581130147088,16.4913103712939311,69.3105979976851643,-0.720909809814207825,112.931157350815525,992.191091302465679,15.2880000000000003,0,3.09225873773213022,0.118465965529431463,6.84592877926632523e-08,-0.0411627093199315869,-0.0161868000057212164,0.00439170497560466364
1.25,31.2221446283036812,131.010493121556692,27.7079715851037065,6.92921558070418708,-2.37858725978489138,18.7323568359844472,1.19838669574748002,0.0957402729358464849,244.260946125734876,40.460823101303653,16.5633340729646505,69.2866327683475021,-0.744885675911225786,112.90552745157413,1000.05388651011197,15.2880000000000003,0,3.09896782770864876,0.118936963983753585,7.03854727370711527e-08,-0.042190117070382907,-0.0165432607777979725,0.0045190434495128327
1.26,31.2221440110311512,131.010494708559349,28.0674400548107741,6.88509879010947756,-2.35071379149706994,11.0167672122333329,1.2178566966094837,0.0310903564034408948,177.298446336408631,40.7574273679586909,16.6840474759542445,69.2620689779406149,-0.76932495173668114,112.879397977398995,1014.73468343182162,15.2880000000000003,0,3.10563585103902451,0.119809335688639856,7.23564489144507613e-08,-0.0432328381896595754,-0.0169030499967134269,0.00466451599731126324
1.27,31.2221433902957664,131.010496303746919,28.4287132692641542,6.86029313302110832,-2.32955438419589189,37.3418748775869531,1.23377940337705305,-0.0242395810614920784,405.579686079964688,40.9379437732002032,16.7633924271236765,69.2368966448707113,-0.7942292842166222,112.852766895772078,1023.70766759115963,15.2880000000000003,0,3.11225970954811038,0.120340467074750504,7.43729135633099201e-08,-0.0442906711769239791,-0.0172660502447466689,0.00479964692384394348
1.28,31.2221427655111476,131.010497908793781,28.7922455373857815,6.83093131815304755,-2.30699661374284126,12.0759038440020294,1.25060614103096301,-0.0823878479134629998,186.429688124688823,41.1416010666412504,16.850982442325968,69.2111067737885435,-0.819599244479516265,112.825633316545137,1033.88233857202613,15.2880000000000003,0,3.11885650442201667,0.120939630707098719,7.64305645523045887e-08,-0.0453661460338542072,-0.0176330681308514356,0.00494047734600872295
1.29,31.2221421374052603,131.010499521651383,29.1574778903490284,6.78960124923033259,-2.28058137787773951,19.8906321464116971,1.26984924714536329,-0.147552269627953953,254.153128984572163,41.4142968191041732,16.9633224785870418,69.1846899407856313,-0.845435552448517091,112.797996179513746,1047.59661132591236,15.2880000000000003,0,3.12541691762223595,0.121741747511936671,7.85365307931636895e-08,-0.0464561100603476662,-0.0180029773089532136,0.00509253160584009421
