Time,Latitude,Longitude,Altitude,Angle of Attack,Angle of Sideslip,X-Acceleration,Y-Acceleration,Z-Acceleration,Thrust,True Velocity,Ground Velocity,Pitch,Roll,Yaw,Dynamic Pressure,cp,parachute_deploy_gain,Wind Speed,Mach,omega_x,omega_y,omega_z,Cmq
0,31.2221860000000042,131.010383999999988,3.00000000364323682,0,0,0,0,0,2.2828121974499247,0,0,69.9999999962342088,0,113.699999993883324,0,15.2880000000000003,0,0,0,0,0,0,-0
0.01,31.2221859999997946,131.010384000000556,3.00000016469923247,0,0,0,0,0,34.2421869617492334,9.11367326775851009e-12,8.66229497295429822e-12,69.9999999962370651,-4.92863947922479589e-13,113.699999993882884,5.08594204168408172e-23,15.2880000000000003,0,0,2.67827100510624443e-14,-3.65918233213857746e-19,7.58941520739853104e-19,4.81114714040442593e-19,-1.83541113936281872e-32
0.02,31.2221859999996028,131.010384000001039,3.00000030885429547,0,0,0,0,0,25.8718762377664078,1.96992978605390895e-11,1.88456988716431921e-11,69.9999999962400494,-1.04152381447771591e-12,113.699999993882386,2.37621641206600858e-22,15.2880000000000003,0,0,5.78911013494094702e-14,-7.28448334638698292e-19,1.51788304147970621e-18,9.75781955236953991e-19,-7.93451985123442364e-32
0.03,31.222185999409362,131.010384001586402,3.00018176030779937,18.6493779029494604,-0.000129237623237530007,10.7928899806483045,-1.97644583900689674e-05,3.34983967390763571,180.342193598546658,0.0785672533977095078,0.0490694047558625918,69.9999999976775626,-4.2497891361524094e-12,113.699999994705607,0.00377978965327356543,15.2880000000000003,0,0,0.000230888677896110966,2.88330015245363835e-17,-7.25223402354589416e-10,1.08188208080271277e-11,1.51197624781400831e-13
0.04,31.2221859959356287,131.010384010943454,3.00162780953569674,9.74253989061216075,-4.88763086122285772e-05,51.6475445943311158,1.54548216767323456e-06,3.34965665682309899,548.635972453807767,0.346420694310776434,0.171860503977579737,70.0000000036447574,-2.28205307288861013e-11,113.699999999565534,0.0734838809649275282,15.2880000000000003,0,0,0.00101804013696402693,1.80009747884589399e-15,-1.58734069119923437e-08,2.61929145365345784e-11,1.45916869803439425e-11
0.05,31.222185985910329,131.010384038045004,3.00715844163023283,5.5769968489095687,-4.21135943534799539e-06,75.3242160169835273,4.73080294831520123e-05,3.34902689347595528,761.698429882464552,0.947854334293939504,0.409211128642743283,70.0000000010935537,-1.04766136577077691e-10,113.700000013612069,0.55013262299765131,15.2880000000000003,0,0,0.00278549703395658196,1.95473045844392346e-14,-1.13584749331540247e-07,4.14067569904437612e-11,2.85688606727574374e-10
0.06,31.222185966868647,131.010384089593572,3.01868664272593046,4.48500474963244322,2.31139019787050305e-05,56.3605563030587007,9.71465785775115924e-05,3.34799244711343214,590.487539073720654,1.60618980149218604,0.665693519146445256,69.9999999197690244,-2.82941102348924619e-10,113.700000040305838,1.57971028663545732,15.2880000000000003,0,0,0.00472017413217633904,1.01936766184118274e-13,-4.07864410983111553e-07,5.76522069423461223e-11,1.73837509686130208e-09
0.07,31.2221859390775336,131.010384164863126,3.03600551209402658,4.00448286551149391,4.63712119495135773e-05,85.8192455386477917,0.000147926970097503541,3.34656708333141317,855.293774977913927,2.27788210706903049,0.926660947343454056,69.9999996219982279,-5.49831570978999292e-10,113.700000079276109,3.1772067926123353,15.2880000000000003,0,0,0.00669410445039518576,3.35900025920073467e-13,-9.92070622953462368e-07,7.83315922772719921e-11,5.99658406989250883e-09
0.08,31.2221859009658012,131.01038426812616,3.06033476575187802,3.77263127792190334,7.06371256062416025e-05,17.6076228145981588,0.000196957592070898702,3.34480227118667583,241.217198863884818,2.92612482887636283,1.17954495655796454,69.9999989088305909,-9.15694670892462832e-10,113.700000132739973,5.24285298735243899,15.2880000000000003,0,0,0.00859912396431777512,8.49635706706491564e-13,-2.01744800413265681e-06,1.10032289818440005e-10,1.56647792516492608e-08
0.09,31.2221858556197738,131.010384390989856,3.0892797608365723,3.74258231141200604,9.5325675231994802e-05,53.4176180048964397,0.000237730218002333866,3.34289666486112669,563.093737704317618,3.46187703891102627,1.39384941462988121,69.9999975134546446,-1.31671842773002699e-09,113.70000019638816,7.33844512707370811,15.2880000000000003,0,0,0.0101735644468633635,1.80613395740032365e-12,-3.4856561047658452e-06,1.59232278560273843e-10,3.20202005890100843e-08
0.1,31.2221858028175774,131.010384534057465,3.12301320909491364,3.81071421019783685,0.000121971080758598364,50.732831688561788,0.000271545837515448313,3.34090447591365036,538.7437595981919,3.9029133825176725,1.57567038389986336,69.999995157830341,-1.72222432289554893e-09,113.700000270567642,9.32732681847184431,15.2880000000000003,0,0,0.0114696609641860067,3.37914451533694905e-12,-5.48904943388414521e-06,2.34452541412924053e-10,5.68476506314615152e-08
0.11,31.2221857431700727,131.010384695667796,3.16106164078641116,3.84323765504598036,0.000147145408783231387,40.0848474374385688,0.000307099758177995722,3.33859717034531034,442.865639305294906,4.36819921201157246,1.76578242121538631,69.9999915253729768,-2.07703942468805025e-09,113.700000354470319,11.6837607126815346,15.2880000000000003,0,0,0.0128370221364947634,5.76365694334259916e-12,-8.08162139954488366e-06,3.4437809457680147e-10,9.36754562129998513e-08
0.12,31.2221856770245907,131.01038487487628,3.20315617196047642,3.86558564807459826,0.000171348089099210797,43.7480799143332604,0.000342946594964391399,3.33600966231316054,475.585948135404465,4.83801864946757032,1.95742650583495204,69.9999862600106582,-2.3147200577597177e-09,113.700000447673773,14.3321420062794882,15.2880000000000003,0,0,0.0142177082532951912,9.17772063248746377e-12,-1.13223702306849879e-05,4.98555567062495836e-10,1.45354343598177095e-07
0.13,31.2221856047215205,131.010385070757366,3.24903338361815308,3.95285669440916232,0.000198169826234992146,48.2585391180499741,0.000371981107240517913,3.33344523512332414,515.915632623689476,5.21512035057569623,2.1172615234944101,69.9999789703044399,-2.35265113573284059e-09,113.700000549782459,16.6533950244453948,15.2880000000000003,0,0,0.0153259223232261182,1.38588880633063252e-11,-1.52681962163171846e-05,7.07166414280215559e-10,2.11287244421402401e-07
0.14,31.2221855263490333,131.010385283071088,3.29862557546706325,3.99981420118284792,0.000223008237377726162,44.9721767850953427,0.000403855591455553264,3.33052592490198407,486.239086056840392,5.63167615200940475,2.29059513099545553,69.9999692426645623,-2.0964169591742506e-09,113.700000660771011,19.4199179783547713,15.2880000000000003,0,0,0.0165500839355928395,2.00553635588333716e-11,-1.99811439493909854e-05,9.81252131659242702e-10,2.9859131057555361e-07
0.15,31.2221854420015994,131.010385511560628,3.35186028506811029,4.05975476911301225,0.000248539990764711958,43.4637160193537753,0.000433543226731567866,3.32747422849243879,472.54218587214001,6.01888316560526437,2.45383766868271946,69.99995661705006,-1.43188768134039915e-09,113.700000780625842,22.182048585914238,15.2880000000000003,0,0,0.0176879988684610287,2.80404916713566325e-11,-2.55291719775422389e-05,1.33309260321839681e-09,4.07727088477750495e-07
0.16,31.2221853515819241,131.010385756490507,3.40881389436676407,4.08854462484130732,0.000272210944932510383,34.4023069357135967,0.000465877824565354701,3.32404684464906053,391.12189082975641,6.44303061809316624,2.62971580822363071,69.9999405987561403,-2.27841984783363582e-10,113.700000909623355,25.4183784408083007,15.2880000000000003,0,0,0.0189344747787753703,3.81042963600432359e-11,-3.19913711614788564e-05,1.77662362644707755e-09,5.46937370926295155e-07
0.17,31.2221852554099399,131.010386016990765,3.46923909377793649,4.13347468842419552,0.00029684158695823977,43.4155809381403728,0.000495744973995866601,3.3205135250562221,471.78125980632376,6.83404379119085981,2.79420112365087148,69.9999206448319882,1.67575894446247236e-09,113.700001047478835,28.5969980778046526,15.2880000000000003,0,0,0.0200835795555658371,5.05622819343119236e-11,-3.94162603380559734e-05,2.32482468580976756e-09,7.14768170397066036e-07
0.18,31.2221851530022434,131.010386294375877,3.53351204963262022,4.16207877285686756,0.000320492787063832857,36.2151660219171347,0.000526966735016640565,3.31665933612355879,407.101567211914528,7.2444022294323478,2.96528531587496236,69.9998961790314524,4.45070668055043651e-09,113.700001195059045,32.1341903991183955,15.2880000000000003,0,0,0.0212895378539265934,6.5741708189353534e-11,-4.79243856484647045e-05,2.99669991322666987e-09,9.21230820748327094e-07
0.19,31.2221850444828668,131.010386588308563,3.60153760019172342,4.17456309251139679,0.000342914278589344943,40.9041800427263027,0.00055982867240863632,3.31244583927210501,448.953132831826849,7.67810673790947895,3.14433961722118216,69.9998665624008964,8.30674092292676784e-09,113.700001352409558,36.0967170721845179,15.2880000000000003,0,0,0.0225641073333706747,8.40032927522686365e-11,-5.75836346763551867e-05,3.80911503044151526e-09,1.17316671380156179e-06
0.2,31.2221849296486234,131.01038689934137,3.67347464118590317,4.20078915399145636,0.000366573034254704516,37.5214898208491761,0.000590466919182690893,3.30812712915434881,418.515630199161365,8.08216006412957277,3.31318683933006453,69.9998311045104487,1.34800080829191884e-08,113.700001520067786,39.9955165273270055,15.2880000000000003,0,0,0.0237515420632470921,1.05728805481567758e-10,-6.85028882131185225e-05,4.78351733027568889e-09,1.4690610466811608e-06
0.21,31.2221848088436893,131.01038722653837,3.74905730552401684,4.22722562033261262,0.000390310433246848657,36.0064697775761644,0.000620601272787201603,3.30359776763142721,404.818761014464428,8.48018829437500621,3.47992805775657654,69.9997890742529592,2.02433263776548733e-08,113.700001697833756,44.0315784885794201,15.2880000000000003,0,0,0.0249212734096428447,1.31320595517854955e-10,-8.07208291683553139e-05,5.93661589182972911e-09,1.81631626331753899e-06
0.22,31.2221846819136672,131.010387570319409,3.82840670130281646,4.2176244726165093,0.000410696285369717819,43.5935627685881499,0.000655758920494764063,3.29841875767922987,472.542185872136486,8.94831461811120121,3.67066782999472752,69.9997397083127737,2.88926538075102191e-08,113.700001886238866,49.0266756129506618,15.2880000000000003,0,0,0.0262970098082033268,1.61186003536399267e-10,-9.43348117723774896e-05,7.29106197993283208e-09,2.23980539128825791e-06
0.23,31.2221845484548304,131.01038793178239,3.91183756115468473,4.25320537954326383,0.0004356497720089569,36.207459360748949,0.000683686922722525747,3.29355466128287455,406.340642146102141,9.31799902525197865,3.82760028360492655,69.9996821549030983,3.9766623706965518e-08,113.70000208621326,53.1608354775167555,15.2880000000000003,0,0,0.0273834518362109196,1.95767624418301473e-10,-0.000109505708778552874,8.87784718088286285e-09,2.70740355927931971e-06
0.24,31.2221844093456014,131.010388308538637,3.99866964940866776,4.27135264557773553,0.00045883378920767232,37.3286080087975947,0.000713911697673520317,3.2882529474867046,416.232824001711379,9.7203332459195213,3.9956861712714935,69.9996155408946805,5.32509871046438109e-08,113.700002296918697,57.8502398901668755,15.2880000000000003,0,0,0.0285658473732890855,2.35534745143307651e-10,-0.00012617657385590063,1.07071802425012536e-08,3.25424194465518317e-06
0.25,31.2221842644570167,131.010388700938847,4.08900446593793809,4.29698686981540234,0.000482848983334858658,38.3649566400252979,0.000742483922667206905,3.28284626589867479,425.364080791506922,10.1009615935159527,4.1562806652626314,69.9995389781877293,6.97479781374676735e-08,113.700002518962805,62.4689963611702623,15.2880000000000003,0,0,0.0296844577155840929,2.80933085873043406e-10,-0.000144451636124542286,1.28055329635332884e-08,3.87142965072796435e-06
0.26,31.2221841140756986,131.010389108203611,4.18262110402873155,4.32755423691547136,0.000507438991606541483,41.7865661614553829,0.000769736419800412888,3.27732087646770287,455.80158342417883,10.4644497354123782,4.31094871887776954,69.9994515368878751,8.97024502886333285e-08,113.700002752408935,67.0452443356678742,15.2880000000000003,0,0,0.0307527002093570291,3.32431765373287754e-10,-0.00016436315770221847,1.51925047864838523e-08,4.56355359993810651e-06
0.27,31.2221839578137299,131.010389531387915,4.27982215321117465,4.33742811840656994,0.000529702335486379188,38.2242911032538473,0.000800211178185602123,3.27123004841987974,423.842199659872563,10.8736118498261902,4.48123226393084195,69.9993522521519935,1.13587393208351198e-07,113.700002998306658,72.3900346549699947,15.2880000000000003,0,0,0.0319551720828357214,3.90484337603431509e-10,-0.000186059811616844751,1.79019946498730075e-08,5.36790267753501075e-06
0.28,31.2221837957695953,131.010389970223883,4.38053283172365671,4.35979025650862262,0.000553527510562852902,44.1207307275094038,0.000828072271385077072,3.26514386100193477,476.346873201222195,11.2478718916014184,4.63949182586423614,69.9992400702920463,1.41938296327408329e-07,113.700003257081931,77.4582454645660761,15.2880000000000003,0,0,0.0330550782151640757,4.55595825375374429e-10,-0.000209619220926101062,2.09616181379585756e-08,6.25569396794615011e-06
0.29,31.2221836278828384,131.010390424876022,4.48480177698289584,4.38135974025744623,0.00057737648726709299,35.3536197607625553,0.000855659611391794222,3.2588361863853601,397.970310422111766,11.6195889013503368,4.79682445966682813,69.9991139044831527,1.7532937395312496e-07,113.700003529427192,82.6616578528940948,15.2880000000000003,0,0,0.0341475147840558241,5.28268525040872464e-10,-0.000235137545717689308,2.44023887909330158e-08,7.24907222782668121e-06
0.3,31.2221834544381096,131.010390894570321,4.59240982688131272,4.39617507281761988,0.000600356665334356751,33.1490797613948018,0.000884158719714270942,3.25217107922164672,378.185945710871067,12.0052186882677852,4.95887519756831807,69.998972627127344,2.14383684192303281e-07,113.700003815596887,88.2385269149682756,15.2880000000000003,0,0,0.0352808420099011907,6.09029939588318471e-10,-0.000262641159892275291,2.82471356422800846e-08,8.36561857411674722e-06
0.31,31.2221832755909574,131.01039137888381,4.7032380575360353,4.42235615181669761,0.000624899913490765827,34.9528590290802086,0.000910025197609511073,3.24555398289468222,394.16562209302117,12.3556398803864607,5.10879227158949156,69.9988150759387651,2.59766173767152649e-07,113.700004116072961,93.4639131761651498,15.2880000000000003,0,0,0.0363107024397255479,6.98403788157463991e-10,-0.000292187019282257228,3.25229566712151178e-08,9.57826248689966157e-06
0.32,31.2221830914257232,131.010391877587324,4.81722282885169673,4.45155794779377789,0.000649944303128982049,38.0379859115142835,0.000934821026682707218,3.23882361682650144,421.559393462426954,12.6924793110791878,5.25399282922068878,69.9986400687318024,3.12179641788393281e-07,113.700004431478234,98.6283237403037703,15.2880000000000003,0,0,0.0373006526995305274,7.96905013945712519e-10,-0.000323836613651358495,3.72580440687311147e-08,1.09050644159405278e-05
0.33,31.22218290196043,131.01039239063175,4.9343519698327194,4.48019701204722054,0.000675004219851668761,37.7093551175013246,0.000959261610436717115,3.23189933669563656,418.515630199168186,13.0256844327599097,5.39788776638052958,69.9984463826819052,3.72372687880250348e-07,113.700004762578004,103.87354288045799,15.2880000000000003,0,0,0.0382799263433428877,9.05047894999210997e-10,-0.000357667290238851605,4.24836225249657193e-08,1.23603484615852587e-05
0.34,31.222182707020778,131.010392918491164,5.05476263450916541,4.49049305198152204,0.000697378143373914754,29.5227085089536203,0.000987142430045659337,3.22427911658814059,345.465636880756449,13.4081741031825317,5.55863100914667463,69.9982327456812641,4.41143957445642244e-07,113.700005110463266,110.062177258613033,15.2880000000000003,0,0,0.0394040418267209702,1.02333461745717641e-09,-0.000393806243978271305,4.82396483202145133e-08,1.40087103268591529e-05
0.35,31.2221825067937928,131.010393460657156,5.17831168393457641,4.50711781535187139,0.000720712543856854714,32.3530371383660977,0.00101333646443235357,3.21661305844837253,370.576570052703289,13.7686530554979374,5.71176159517965232,69.9979978091806316,5.19362042776584697e-07,113.700005475786654,116.058400304168075,15.2880000000000003,0,0,0.0404634764462946869,1.15232390415689195e-09,-0.000432299813734132244,5.45552399130644805e-08,1.57912776608867467e-05
0.36,31.2221823012122108,131.010394017312592,5.30505329869157727,4.52767240178778962,0.000744729708600240731,36.5526511043957356,0.00103828652712813154,3.20885713174522058,407.862523277719447,14.1132764952183631,5.85938873702120233,69.9977401961163537,6.07939829707116331e-07,113.700005859608282,121.939407863977465,15.2880000000000003,0,0,0.0414763190843316643,1.29254043868676357e-09,-0.000473255972436325862,6.14699225552327593e-08,1.77198251922661022e-05
0.37,31.222182090341061,131.010394588280832,5.43493909097431604,4.55039311415752579,0.00076918150115683735,34.6835787828593496,0.00106234372950533948,3.20097384516078431,391.121890829766642,14.446930470491731,6.00318739776240751,69.9974584775585669,7.0785096329375243e-07,113.700006262864989,127.771540530283914,15.2880000000000003,0,0,0.042456928843506235,1.4445318520011827e-09,-0.000516746496826029863,6.90186481791334769e-08,1.98053803654614999e-05
0.38,31.2221818741223878,131.010395173719473,5.56801609611825477,4.56315131642791805,0.000792019287104061913,36.2353933787001239,0.00108827974821363053,3.19255015153205646,404.818761014460279,14.8084413239345949,6.1564787166299757,69.9971511865591651,8.20121521966083772e-07,113.700006686723384,134.244380272309172,15.2880000000000003,0,0,0.0435194095147296359,1.60882660749176723e-09,-0.000562873331420229127,7.72423853301427293e-08,2.21128406351508731e-05
0.39,31.2221816525004634,131.010395773780147,5.704329739781131,4.57922628245169783,0.000815489716137310881,30.9425419640016202,0.00111309493143926189,3.18402316666385765,357.640624933827439,15.1559126959619999,6.30488433186772657,69.9968167722787769,9.45855271408966431e-07,113.700007132429306,140.616382889747683,15.2880000000000003,0,0,0.0445406353688629561,1.78596578656278109e-09,-0.000611756345505213715,8.61868943159197994e-08,2.45968452142520012e-05
0.4,31.2221814256617982,131.010396387955836,5.84373750626454935,4.59349479979191955,0.000838670682925170751,29.5834243852937959,0.00113797512888990423,3.17521289611434332,345.465636880754005,15.505969085398343,6.45410901523083158,69.9964536498379317,1.08621525395706341e-06,113.700007600947828,147.185065961143067,15.2880000000000003,0,0,0.045569462889951777,1.97653506559195414e-09,-0.000663427505461186432,9.58835144134294998e-08,2.72901174189528038e-05
0.41,31.2221811937141673,131.010397015953487,5.98615797249314241,4.60939449845229365,0.000862163931524819621,33.360545626359837,0.00116210409424792778,3.16624854525325983,378.946870776686467,15.8471768437686258,6.60022848408685459,69.9960602026584695,1.24241947051318175e-06,113.700008093413757,153.73182724817184,15.2880000000000003,0,0,0.0465722905345462151,2.18109996727848554e-09,-0.000717942131686907965,1.06367950505874699e-07,3.01820283711074823e-05
0.42,31.2221809567080335,131.010397657635991,6.13155423418529733,4.63387609959193458,0.000887317919769279608,37.5676427387571721,0.001183742077125155,3.15743374731593907,416.232824001711379,16.155026338188506,6.73482947265292431,69.9956347739890248,1.41574639558456e-06,113.700008611107208,159.760443802515937,15.2880000000000003,0,0,0.0474770882933877245,2.400206535531791e-09,-0.00077537935552726017,1.17680930846389008e-07,3.32294321368729263e-05
0.43,31.222180714655078,131.010398312971745,6.27991949833728835,4.65367427313455995,0.000911660169575580258,33.0386483003103493,0.00120612360190941372,3.14823214930187856,375.903139513433644,16.4750454055619109,6.87353555569934649,69.9951756835756242,1.60752723178871754e-06,113.700009155418982,166.15023929888028,15.2880000000000003,0,0,0.0484176551665520677,2.63438237315801404e-09,-0.000835821567166909188,1.29864614855892046e-07,3.65287677570896608e-05
0.44,31.2221804673911407,131.010398982407111,6.43138341412837455,4.65757387742934892,0.000932929976641759203,30.4788052564327749,0.00123214974254881528,3.13809943757763454,353.075012538921555,16.8483715860516412,7.03046484016701978,69.9946811832270441,1.81916859536649675e-06,113.700009728069276,173.762989227436179,15.2880000000000003,0,0,0.0495148886868988364,2.88411342836306464e-09,-0.000899417740154189794,1.42975581697416844e-07,4.01983191819108926e-05
0.45,31.2221802146980103,131.010399666535704,6.58611776122768511,4.65827001030579346,0.000953562143933252499,35.4620561517945134,0.00125873275223327787,3.12754579585638304,397.209385356286873,17.2316459864824161,7.19073264961644831,69.9941493995125938,2.05218870761162579e-06,113.700010330973456,181.755888424112015,15.2880000000000003,0,0,0.0506413642318551335,3.14987863732273609e-09,-0.000966369542842942814,1.57083782729145849e-07,4.41725079750487196e-05
0.46,31.2221799565319174,131.010400365476642,6.74415901717088939,4.66907507286434065,0.00097630283571516251,41.3913707355688842,0.0012823814722795761,3.11722412848720953,449.71405889764344,17.5754687869478978,7.33738035579407555,69.9935783582983362,2.30821229426708146e-06,113.700010965912341,189.078525726536213,15.2880000000000003,0,0,0.0516519027755614896,3.43223060675433133e-09,-0.00103681314204437207,1.7224885851047691e-07,4.83373548649469587e-05
0.47,31.2221796928065203,131.010401079464799,6.90557672428163105,4.67806301106434042,0.000998761260684927557,28.0209900204918974,0.00130616618884544979,3.10657060381263461,331.007810630253402,17.9233234115620377,7.48533101007974988,69.9929660462147325,2.5889364060732201e-06,113.700011634803886,196.634049649816575,15.2880000000000003,0,0,0.0526742959306323727,3.73170463860384924e-09,-0.0011108841623615434,1.88532207060213475e-07,5.28148505664365441e-05
0.48,31.2221794239793269,131.010401807256216,7.07001851744381948,4.68642527483421745,0.00102109091231145262,27.6007969606275125,0.00132978852885184593,3.09563681785184297,327.203122301157407,18.2709832353803314,7.63313726727991071,69.9923104035261474,2.89614261094227829e-06,113.700012338884164,204.33305198470137,15.2880000000000003,0,0,0.0536961221459722679,4.04904859899578719e-09,-0.00118849531779471017,2.05948560519311644e-07,5.75998398329450787e-05
0.49,31.2221791502289392,131.010402548365278,7.23734841566291642,4.70156796398202914,0.00104489945272251677,34.6487244505178253,0.00135120419031512233,3.08484494341801163,389.60000969812296,18.589315545984995,7.7707981814672209,69.9916093757078812,3.23165731652504743e-06,113.700013079832303,211.511801733856089,15.2880000000000003,0,0,0.0546317638991248022,4.38486615800834454e-09,-0.00126967773493266863,2.2453662401782158e-07,6.26054017926546362e-05
0.5,31.2221788715876762,131.010403302704333,7.40754387012007864,4.72212438923579736,0.00106996435823571525,35.6033845714535389,0.00137072557486675028,3.0741588573465477,397.970310422105001,18.8826594549893159,7.8998011517407587,69.9908609011483378,3.5973597360057951e-06,113.700013859590555,218.236320199079358,15.2880000000000003,0,0,0.0554939729313439212,4.73968531279909998e-09,-0.00135450679800636423,2.44344941868023912e-07,6.78409867869358833e-05
0.51,31.2221785881337617,131.010404070060673,7.5805467220577798,4.73558879650721298,0.00109346949398930206,27.1956639286467201,0.00139183542187690463,3.06284319292573448,323.39843497208409,19.200774511812984,8.03722958125224807,69.9900628955037689,3.99519228958782199e-06,113.700014680103109,225.647740475438098,15.2880000000000003,0,0,0.0564289867670437692,5.11403675587933804e-09,-0.00144303978709531136,2.65418546512062939e-07,7.34915902759761199e-05
0.52,31.2221782998839075,131.01040485046758,7.75636900758130832,4.74481905247348479,17.7843955084931586,33.0231479917167547,-1.06112538432121917,3.05081237117296578,372.098451184341457,20.507984044652467,8.17730650366408263,69.9892123481260029,1.00885073862370502e-05,113.700021568590088,257.413964915282747,15.2880000000000003,0,6.26610767645119093,0.0602708528693764248,5.50868923055036091e-09,-0.00155031872553892014,7.35694377628240642e-05,8.43290531001271313e-05
0.53,31.222178007288182,131.010405644655521,7.93513738861389673,4.75488837183688151,17.544641188215941,34.6673219518203979,-1.08836970688848145,3.03879700210653469,386.55624643486243,20.8226614408658754,8.3173117549340887,69.9883001705859868,0.00039228152040368631,113.700428729569353,265.369608208401701,15.2880000000000003,0,6.28993865775067817,0.0611957807374955559,6.05789734620172551e-09,-0.00164666626257329923,0.000451650768082728551,9.09426554184536928e-05
0.54,31.222177710500425,131.010406453055083,8.11693221380415864,4.76473008768348283,17.3127115467750237,30.4655863828147417,-1.11594509280088472,3.02652280130942053,349.270324209843579,21.1357888177206625,8.45658781740023358,69.9873317305992799,0.00137605528240585429,113.701476138041201,273.40600450789583,15.2880000000000003,0,6.31372250182115557,0.062116159091503205,6.83843748115883429e-09,-0.00174717795795624833,0.00083945123199442688,9.79430958502328823e-05
0.55,31.2221774097959148,131.010407274964535,8.30155282994951271,4.77568998750952645,17.0926030806406217,32.2817179818605595,-1.14353211875663607,3.01408420884826755,365.250000591990727,21.44189135548433,8.59317947142691452,69.9863046358907468,0.00297634848368016685,113.703179700500911,281.377657445945658,15.2880000000000003,0,6.33742004070397691,0.0630158978247513935,7.84976181311577677e-09,-0.00185182124876386587,0.00123657818568731611,0.000105310743671300762
0.56,31.222177105193424,131.01040811038294,8.48899940162380062,4.78873134808821455,16.8869411524956661,30.1410353030824503,-1.170876717423188,3.00156206412838467,346.226561946578727,21.7367416686999562,8.72558092965731547,69.9852164689827987,0.00520784613726125046,113.705555054885323,289.164183028286857,15.2880000000000003,0,6.36103152966790653,0.0638825729413372984,9.09078948734039368e-09,-0.00196070578321271569,0.00164317356812849948,0.000113034126457815128
0.57,31.222176796777994,131.010408959128085,8.67922042782518766,4.79930423028068986,16.6801618432338259,29.806331847836141,-1.19906558962975973,2.98862071499166415,343.182829683302316,22.0390962096894114,8.86053341164303454,69.9840647631879165,0.00808521756630232145,113.708617823468472,297.259155445990416,15.2880000000000003,0,6.38455578207441832,0.0647713081322333073,1.05602821018396982e-08,-0.00207389403615559909,0.00205920423428813818,0.000121220234406688363
0.58,31.2221764845467185,131.010409821256417,8.87223252345294,4.80443991311489516,16.4626158715368938,39.1997646851151913,-1.22889556450388238,2.97500071355944273,426.12500585731533,22.3620140473540587,9.00270882394270622,69.9828469879580695,0.0116232556276127403,113.712383761335659,306.028209212513275,15.2880000000000003,0,6.4079907894864645,0.0657204833768318397,1.22567516261710106e-08,-0.00219150092235787658,0.00248482467499748592,0.000129968857341398179
0.59,31.222176168143676,131.010410697786256,9.06832657902797834,4.81524288709711534,16.2701641161108626,31.8059279535749688,-1.2576036026790367,2.9615748183243209,360.68438819711065,22.6583248010825287,9.1352016908895024,69.9815604627263781,0.0158376955197892452,113.716869628307222,314.186157948722609,15.2880000000000003,0,6.43137114801107312,0.0665914684365957743,1.41783235723325822e-08,-0.00231388065000027532,0.00292101700184484343,0.000139042414804574073
0.6,31.2221758477834506,131.010411588184127,9.2673510817082736,4.81689481561481614,16.0550059092629951,28.2842963153491773,-1.28900008115237474,2.94712072851815687,329.48595949860578,22.9920429749220503,9.28093123371061424,69.9802023930047312,0.0207444762529393617,113.722092404521732,323.50297342427649,15.2880000000000003,0,6.45467280040849811,0.067572398009292628,1.63237680939435639e-08,-0.00244102159101583331,0.00336746719962686914,0.000148839921743526641
0.61,31.2221755234389242,131.010412492574034,9.46934198040382924,4.8168264398784828,15.8410415083953193,33.1190309260960021,-1.32125770241237528,2.93221164744189444,372.09845118432969,23.3317979738597145,9.42865640403991634,69.9787699976478166,0.0263598797593702951,113.728069428580525,333.128004058808926,15.2880000000000003,0,6.47789818498066605,0.06857107623133675,1.86914146788154975e-08,-0.00257307350224983411,0.0038244239721859489,0.000159207024560212176
0.62,31.2221751952339446,131.01041341066977,9.6742183675606821,4.82986456362034566,15.6737984311481178,41.1451371666799517,-1.35029125432032471,2.91819347985688271,442.86563930529212,23.6106928554932196,9.5545054859942411,69.9772602877234533,0.032700565055668665,113.734818450229241,341.132932422237332,15.2880000000000003,0,6.5010458254501442,0.0693908957835811524,2.12797544630730681e-08,-0.00271011400815152851,0.00429188760807579141,0.000169687392007683384
0.63,31.222174863015276,131.01041434293424,9.8821129305160742,4.83832518462114525,15.4977605963289609,23.3954200633367613,-1.38086091469437733,2.90350911308148341,286.112512747078938,23.9074054362075969,9.6865848277696589,69.975670318740967,0.0397825615730157192,113.74235654847854,349.753772627613444,15.2880000000000003,0,6.52411916269154446,0.0702630871546762736,2.40863374731053819e-08,-0.00285235411931830272,0.00477028989455022517,0.000180834171673934153
0.64,31.2221745273390781,131.010415287903498,10.0926091181826312,4.83968231509623692,15.3054217718610097,22.9710928975478836,-1.41377065937332236,2.88786848557200937,282.307824417967538,24.2345034028353012,9.82936990911148101,69.9739970313669204,0.0476220447452434734,113.75070096147472,359.382549968498381,15.2880000000000003,0,6.54705200962206568,0.071224586578338564,2.71104439835128264e-08,-0.00299952789650569486,0.00525850315575325869,0.000192762639434716082
0.65,31.2221741882033896,131.010416245627368,10.3057220152688078,4.85071435475107915,15.1472918320174763,40.4916207156605594,-1.4442140851800318,2.87289498170425706,436.778144778747503,24.5143432803711185,9.95518938526673125,69.9722374639635376,0.0562347616984020249,113.759868465579117,367.722644967755286,15.2880000000000003,0,6.56990620862045827,0.0720472020490608989,3.03495604412293578e-08,-0.00315178380472871771,0.00575677213189083794,0.000204881917233848084
0.66,31.2221738451563873,131.010417217374624,10.521814225707228,4.85890076791910719,14.9853017078795876,34.4622615641897312,-1.47577849491347801,2.85737690488929186,383.512515171600171,24.8046868223264099,10.0846285023009141,69.9703884262730611,0.0656366368143068007,113.769876040083446,376.476899355170531,15.2880000000000003,0,6.59265522616508903,0.0729006940759067829,3.37996391187426494e-08,-0.0033095721464571526,0.00626628272971138569,0.000217682509639948265
0.67,31.2221734983848229,131.010418202683979,10.7407551628741054,4.8607835345012198,14.8095007031059698,23.767629112618053,-1.50958649937639455,2.84091504024951735,289.156244010342505,25.1226576725083319,10.2237693167159733,69.9684466877830005,0.0758446474068323051,113.780741774816775,386.182746876789395,15.2880000000000003,0,6.6153091816735845,0.073835389181907421,3.74589518488218005e-08,-0.00347288927347679834,0.00678676140817796245,0.000231347772107619044
0.68,31.2221731480595253,131.010419201136472,10.9624263988627106,4.86394516609531813,14.6421129926106435,29.6464221356721254,-1.54339002790649271,2.82428025898539881,340.899992485846269,25.4324255881229107,10.3598629508975666,69.9664088076228836,0.0868757330273610129,113.792483733353478,395.7564726646591,15.2880000000000003,0,6.637882942778905,0.0747459827570747665,4.1325613624030753e-08,-0.00364175502541857045,0.00731802011168653736,0.000245582869894563007
0.69,31.222172794268527,131.010420212535877,11.1867730443771034,4.87238566880717361,14.4940711205484689,36.4785390424818914,-1.57584459290475265,2.8079463450334945,401.014072685363431,25.7139472453069331,10.4858059030708759,69.9642714216755195,0.0987465396940661877,113.805119660799733,404.557822009387564,15.2880000000000003,0,6.66032370174045951,0.0755735671138352827,4.53973335203543456e-08,-0.00381623135655055363,0.00786000537390919504,0.000260191825192156634
0.7,31.2221724368993847,131.010421237226751,11.4138944005535805,4.88003456181009998,14.3476977200722082,30.612900192404922,-1.60884897104558711,2.79125122728045261,349.270324209852845,25.9965829415786942,10.6120316366002765,69.9620310845576512,0.111473507832816565,113.818667089280112,413.491101048969597,15.2880000000000003,0,6.68266125653979337,0.0764044322332002313,4.96706565078191132e-08,-0.00399654143455224851,0.00841314674763265873,0.000275474445969574691
0.71,31.2221720760150596,131.010422275078554,11.6437544112390032,4.88346168388020807,14.1933876676773565,25.1761136017572298,-1.64358413386750568,2.77376683721329975,301.331264063405797,26.2977440779557909,10.7447143470292072,69.9596842306656299,0.125073467639490982,113.833143968529342,423.117547290790299,15.2880000000000003,0,6.70491225149400449,0.0772897507454336635,5.41430728623443452e-08,-0.00418276548000392438,0.00897743519015841915,0.000291644073149570902
0.72,31.2221717116307147,131.010423326090205,11.8763539391850514,4.88192634378503865,14.0292640499735057,30.8027008554333754,-1.68039732657164298,2.75535061575459128,350.79220534145287,26.6219463677610975,10.8854455243063253,69.9572271829805885,0.139563580292329958,113.848568603462155,433.604674116642116,15.2880000000000003,0,6.72705607579910581,0.0782427949902303604,5.88117912410048753e-08,-0.00437504220975161624,0.00955303645901995485,0.000308804411762376616
0.73,31.222171343757072,131.010424390273613,12.1116976149317939,4.89054108456093406,13.8967372590671925,38.9400623945314948,-1.71407706062553888,2.73789541582275575,422.320318528233997,26.8918275364193242,11.0068086996119625,69.9546560758617773,0.154961616822696963,113.86495995421943,442.430610043980892,15.2880000000000003,0,6.74907676001360102,0.0790361946649171393,6.36739641168887667e-08,-0.00457353023107454765,0.01014017000065995,0.000326079503618217014
0.74,31.2221709723473033,131.010425467791805,12.3498331634783494,4.89522985605828787,13.7569149946551086,24.4168618311374388,-1.74944598552475572,2.71965030437507993,294.482813471059444,27.1792041038663861,11.1342588091680597,69.9519671581025904,0.171284659910797221,113.882336243375448,451.926772769885588,15.2880000000000003,0,6.77101306607862785,0.0798810209074200805,6.87263925357516168e-08,-0.00477838657250743721,0.0107390368472920529,0.000344317990163577991
0.75,31.2221705977492263,131.010426557742818,12.5905048289071981,4.89724094301416546,13.6132658130705764,28.4900244887607457,-1.78614258276385796,2.70073438139362576,330.246885564414924,27.4781732285627491,11.265704266083338,69.949156439657898,0.188549937044724891,113.900715861743805,461.913097870137619,15.2880000000000003,0,6.79284177218654861,0.0807599251895999987,7.39686814740240421e-08,-0.00498943331234370704,0.0113488830835568981,0.000363471815591859758
0.76,31.2221702198708719,131.010427660409903,12.8337947280719185,4.90254569187172695,13.4816149055143057,30.6609975754620869,-1.82198016649605354,2.68195716380538007,349.270324209861712,27.7572200307673,11.3899920491898641,69.946219977893989,0.206774485097762584,113.920116993492911,471.331377409940558,15.2880000000000003,0,6.81454398256199223,0.0815802836490892996,7.93968422656970985e-08,-0.00520691373416899521,0.0119701637617230777,0.000383157971150707287
0.77,31.2221698386693767,131.010428775942415,13.0797468419813363,4.90832008712873957,13.3541955042903204,28.6770221258756557,-1.85796384738328224,2.66294721428625936,331.76876669607077,28.0309796880537725,11.5123057414300938,69.9431536945118211,0.225975510290232412,113.940558009396071,480.663021502151025,15.2880000000000003,0,6.83612611382834778,0.0823851097800638588,8.50073593906813937e-08,-0.00543101487510294374,0.0126031597098805997,0.000403580826802184451
0.78,31.2221694542157273,131.010429904181905,13.3283174654615042,4.91037775043307168,13.2200414955778367,23.5740040620607765,-1.89571113329534069,2.6430881833715234,286.873437812889904,28.322165632988856,11.6406752623536374,69.93995341259496,0.246170256355017186,113.962057324875303,490.689436243103785,15.2880000000000003,0,6.85760765009852236,0.0832411601199023743,9.07978745160164516e-08,-0.00566179794411667773,0.013247796276040457,0.000425090808432753613
0.79,31.2221690666029978,131.010431044910632,13.5794460415564942,4.91015217189917497,13.0829867455575801,33.4558274294726417,-1.93474919530936784,2.62254734756888741,373.620332315953419,28.6235054095422221,11.7725253890557067,69.9366148705941129,0.267376144396124393,113.984633546474299,501.174489039140667,15.2880000000000003,0,6.87898410228979884,0.0841270607146288457,9.67662165906808846e-08,-0.00589931979782021363,0.0139039915844832596,0.000447625866594842758
0.8,31.2221686756337888,131.010432198690978,13.833294410532103,4.91587024889000634,12.9640296474582666,33.8970099557666913,-1.97179677192715652,2.60258845108903847,377.42502064505743,28.8894544767867778,11.891764241051705,69.9331335717985922,0.289611087391040523,114.008305815652065,510.518416179752819,15.2880000000000003,0,6.90027193612089196,0.0849089521583232532,1.02906950421736341e-07,-0.0061439648370136199,0.0145725479327325977,0.000470508952850587023
0.81,31.2221682814139854,131.010433365268511,14.0897916383165889,4.91711952033389199,12.8363067985989083,22.1159018513188919,-2.01098609546200269,2.58160987001150222,273.937492693991885,29.1775569820705094,12.018726544965693,69.929505057747761,0.312892812207099691,114.033093071859369,520.738736677874158,15.2880000000000003,0,6.92141695410627733,0.0857559619671314777,1.09218525385702293e-07,-0.00639574513067739988,0.0152532467226973271,0.000494662748339483576
0.82,31.2221678841305312,131.010434544171687,14.3488049499726884,4.91630247872287907,12.7060943104417738,28.3636165096848245,-2.0514417745842608,2.55994212046070091,328.725004432770049,29.4749401373350786,12.1488610050589738,69.9257247475223096,0.337239020758567543,114.059014235453972,531.394547799828501,15.2880000000000003,0,6.94245361698526953,0.0866302560404956096,1.1570009543237944e-07,-0.00665461228417085944,0.015945718018948167,0.000519916999708213172
0.83,31.222167483776893,131.010435735447032,14.6103492663397603,4.92279798826056858,12.5966249223575257,36.0022980295726924,-2.08917008606785926,2.5391588231468023,395.68750322465047,29.7280266463463221,12.2632635449040475,69.9217879107370095,0.362667516017388447,114.086088343075119,540.545785456440285,15.2880000000000003,0,6.96338840715504315,0.0873743643756029059,1.22348197627245584e-07,-0.00692075157417930149,0.0166502144241459024,0.000545339257055996759
0.84,31.2221670802606326,131.010436939366571,14.8745038394258771,4.92737818201443911,12.4847101293327185,22.3026146325061383,-2.12801627981834773,2.51774861522158266,275.459374825645227,29.9890408516761049,12.3803656816245038,69.9176897601817728,0.389195634669414647,114.114333942600084,550.06556314680347,15.2880000000000003,0,6.98422272535911581,0.0881417802522002497,1.29158750137044046e-07,-0.00719439327165276917,0.0173670914590709838,0.000571864520803364246
0.85,31.2221666738692178,131.010438155187074,15.141058598589245,4.92529857967496376,12.3588511438797166,24.3029135543215951,-2.17015581387626533,2.49482650662388439,292.960932339393764,30.2860417373288975,12.5100633790784155,69.9134255621104046,0.416840570846867042,114.143769424899602,561.000464440138217,15.2880000000000003,0,7.00493959885687545,0.0890149730702057551,1.36132892647942668e-07,-0.00747533860015519701,0.0180955964672639552,0.000600065518054628054
0.86,31.2221662644454305,131.010439383353372,15.4101420985592448,4.92754952704193894,12.2458494506818329,30.3840816139158569,-2.21075493759460873,2.4723236482252684,346.226561946558718,30.5551656031863139,12.6298326717840439,69.9089902386481441,0.445620149124073162,114.174413870721295,571.000184455269391,15.2880000000000003,0,7.02555211058714946,0.0898062389412179751,1.43264834645728036e-07,-0.00776396455773168022,0.0188364615790036216,0.000628756154094756766
0.87,31.2221658520194332,131.010440623807654,15.6817397020279099,4.93166365034883558,12.1394048672837815,28.3062702105414559,-2.25082795861199969,2.4498366827975171,327.964078366998024,30.8103427795406013,12.7445934034533348,69.9043787141303312,0.475551960575521238,114.206286112486083,580.562121539535383,15.2880000000000003,0,7.04603047733409049,0.090556520638530244,1.50552038363860541e-07,-0.00806038710990425976,0.0195897372298327391,0.000658195888120125926
0.88,31.2221654366317836,131.01044187646275,15.9558284158956667,4.93228266978335572,12.026716425368269,24.490207166782735,-2.29286459280592414,2.42635150482777062,294.482813471041823,31.0834570135582879,12.8655804608724491,69.8995858111696435,0.506653438846767057,114.239404823030199,590.88481969773602,15.2880000000000003,0,7.0664016794560025,0.091359529543043258,1.57992666018183557e-07,-0.00836467807025969255,0.0203553611030665993,0.000689080321913106749
0.89,31.2221650183668586,131.010443141115076,16.232352134131613,4.92947933065609867,11.9080951086905671,26.8403320213267129,-2.33692063454531418,2.40182904149624132,315.028134248086985,31.3746306699330653,12.9928337128807687,69.8946062282618215,0.538942094013749484,114.273788763671561,601.990885747906987,15.2880000000000003,0,7.08666400553335762,0.0922156258049335598,1.6558505254551901e-07,-0.00867690369560769961,0.0211332598541991296,0.000721478126888966138
0.9,31.2221645971593631,131.010444417958382,16.5113680125544882,4.93416199430148872,11.8090023708099565,29.6260633872412491,-2.37773434907562731,2.3784420135302029,339.378142354214447,31.6174955832419151,13.1029785079917964,69.8894344760078639,0.572435905835631753,114.309457203610989,611.330364183368488,15.2880000000000003,0,7.10682520725805844,0.0929297415826060708,1.73324757166271314e-07,-0.0089973289286193834,0.0219238472533982535,0.000753892107383375126
0.91,31.2221641730818789,131.01044570681654,16.7928278097824126,4.93539585517851265,11.7037477893888617,22.5905091598935144,-2.4205514415208107,2.35402066475048688,277.742181023078899,31.8784005180950842,13.2193852747084701,69.8840650751912023,0.607152012194911661,114.346428523198185,621.444487882601948,15.2880000000000003,0,7.12687920708865619,0.0936968876103698306,1.81210648773727051e-07,-0.00932599171620365763,0.0227269707189973781,0.000787857984683995355
0.92,31.2221637463328818,131.010447007181938,17.0765888678578435,4.93327861644266363,11.5926776538671259,26.8545316189853018,-2.46541188247507748,2.32853098548433168,315.028134248062145,32.1572989380872585,13.3420383008678005,69.8784924191730852,0.643107592653786253,114.384721155150004,632.348634357608603,15.2880000000000003,0,7.14681639701541194,0.0945169275247395441,1.8924415166310439e-07,-0.00966276082835089596,0.0235420794137215991,0.000823427467900823395
0.93,31.2221633168306489,131.010448319285899,17.3627191370143592,4.93800429883118586,11.4989909146885356,31.9034183615971294,-2.50711978638693145,2.30416030563827068,359.162507065472823,32.3905377581849621,13.4485316426254169,69.8727107766889901,0.680319829518092334,114.424353544015716,641.537195749018451,15.2880000000000003,0,7.16664710082889389,0.095202771834320285,1.97419831881751609e-07,-0.0100079474794039121,0.0243696856768982201,0.000859005211411871441
0.94,31.2221628844731924,131.010449643407838,17.651300347064403,4.93597531623503905,11.391743571410613,23.2094417632693713,-2.55265338532681119,2.27795696319675844,283.068750483778672,32.6631625751012038,13.5687966103678548,69.8667143638802202,0.718805439628715903,114.465343647518608,652.36394901160952,15.2880000000000003,0,7.18637104719374786,0.0960043875358662646,2.05733782619426232e-07,-0.0103617922100749625,0.0252101156794692811,0.000896837371992595194
0.95,31.2221624495431342,131.010450978819136,17.9421269290144814,4.93458096488118336,11.2876740518097129,30.000287921698618,-2.59822862833219004,2.25151370916904803,342.421873617487279,32.929045669036114,13.6866041162887377,69.8604971730262605,0.758581717397175392,114.507710047268759,663.009339758086526,15.2880000000000003,0,7.20598020755578261,0.096786195404938602,2.14189069855896775e-07,-0.0107240841844358677,0.0260626397016794319,0.000935724098615053706
0.96,31.2221620117613909,131.010452326262111,18.2354125966901357,4.93648616799564532,11.1925885691882563,29.3959129182696515,-2.64237152381221474,2.22546829641431687,337.095335156783449,33.1707268664303854,13.7958080188666941,69.8540530698730606,0.799665682145246692,114.551471045293454,672.75835641696392,15.2880000000000003,0,7.22549006813352612,0.0974968758224880883,2.22776270532346982e-07,-0.0110953963651106869,0.0269283521645654542,0.000975200761908731812
0.97,31.2221615711497087,131.01045368568839,18.5311457288236419,4.93637452140760669,11.094621342429777,18.8655242238914163,-2.687938701129851,2.1985903522841852,245.021887192993233,33.4222107031427953,13.9083725045911901,69.8473758495213843,0.842074595383907831,114.596645202690524,682.978660800305533,15.2880000000000003,0,7.24489867216412264,0.0982363761065257191,2.31493707083592375e-07,-0.011475850402745116,0.0278072828513759897,0.00101625790796947826
0.98,31.2221611279888869,131.010455056373559,18.829122032192771,4.92984196043708334,10.9842487938911422,27.4020899651480612,-2.73748609440941282,2.16974906816916446,319.593746642958081,33.7127778902060342,14.0346006264822396,69.8404591015292056,0.885825459891402489,114.643250823609108,694.885802856991972,15.2880000000000003,0,7.26418828777987891,0.0990907601234723157,2.40346807293706255e-07,-0.0118651500467111138,0.0286985148464891336,0.00105983737819933762
0.99,31.222160682138508,131.01045643869287,19.1294507153641327,4.93352929585569466,10.8975783343215724,29.9321442304091008,-2.78156090467579542,2.14307124659414283,341.660948551705417,33.9331913027603917,14.1360723755155444,69.8332962539839741,0.930935570895922937,114.691306532579503,703.981496046606821,15.2880000000000003,0,7.28337590158569004,0.0997389513651558285,2.49327791991775635e-07,-0.0122637453108058493,0.0296028321311451251,0.0011025714917889699
1,31.2221602335975597,131.010457832651099,19.4321353565495087,4.93096608495339517,10.7988802732535465,26.7996976540331708,-2.82954511273074205,2.11444934026556819,314.26720818227642,34.191671081352446,14.2508470805953031,69.8258807869873266,0.97742103792187085,114.740829702272052,714.726461614511436,15.2880000000000003,0,7.30245983133955701,0.10049903753696407,2.5843590599034335e-07,-0.0126717180125999109,0.030520168729277708,0.0011478949157673517
1.01,31.2221597825421888,131.010459237796596,19.7370495257450997,4.92920310417019092,10.7033471932965458,28.0233982049658508,-2.87738928533874105,2.08565363366073298,324.920316103697928,34.4417857364803055,14.3626006603921645,69.8182059181905572,1.02529861034146963,114.791838398608562,725.200024663952036,15.2880000000000003,0,7.32143737176218234,0.101234543889836159,2.67673012943846201e-07,-0.0130889773598161594,0.0314500832528287061,0.0011943317123892102
1.02,31.2221593288986057,131.010460654322486,20.0442505681630081,4.92880167695379257,10.6120753339865299,23.4063706254371411,-2.92472390826291395,2.05685033344387991,284.590631615404163,34.6795059265624843,14.46991607163746,69.8102648175671021,1.07458440748810102,114.844350028975313,735.223665727786511,15.2880000000000003,0,7.34031313416099263,0.101933626829869367,2.77034649237212281e-07,-0.0135157948072934068,0.032392934303504442,0.00124175313227398642
1.03,31.2221588727324679,131.010462082058808,20.3536923503175053,4.92406703173828575,10.5130864502858845,19.1355760223995901,-2.97503674626070458,2.02647264225725809,247.30469339049705,34.9435079000426612,14.5863932977184589,69.802050562866583,1.12529416557011364,114.898381605136152,746.438048155848151,15.2880000000000003,0,7.3590836984490684,0.102709967645976036,2.86521064292825109e-07,-0.0139521940196549142,0.0333485299152129627,0.00129156679988749246
1.04,31.2221584141036068,131.010463520853023,20.6653337562102699,4.92306700345043158,10.4232219155078578,30.3890767774598629,-3.02336802252635994,1.99674166976917644,345.465636880722968,35.1788367460645475,14.6927134814752574,69.7935559819835021,1.17744410140730915,114.953950664233659,756.503108614769758,15.2880000000000003,0,7.37775171521858031,0.103402036811092002,2.96131030387889973e-07,-0.0143982702162885855,0.0343168390685741551,0.00134179651686238484
1.05,31.2221579527338022,131.010464971415274,20.9793795708447242,4.91853011756794345,10.3273667054674103,18.3523238622257772,-3.07425666858276747,1.96560711799834187,240.456258798199826,35.4352514521609692,14.8063645172127316,69.7847738335517818,1.2310498768210747,115.011074166323681,767.548285145656791,15.2880000000000003,0,7.39632739409366113,0.10415609208596055,3.05854219767171247e-07,-0.014854642582826311,0.0352989414988713474,0.00139437469142226849
1.06,31.222157488851952,131.010466433156552,21.2956642989284752,4.91096406946509489,10.2266699169542026,26.1202616731669934,-3.12750612039837206,1.93313729930796718,308.179683655939243,35.7098418450697324,14.9263290109308517,69.7756965755284,1.28612784658559742,115.069769823601987,779.46627265426082,15.2880000000000003,0,7.41480287312566055,0.104963579988898881,3.15696601852535333e-07,-0.0153210694007539505,0.0362940700714070447,0.00144925757541695846
1.07,31.2221570223441773,131.010467906365619,21.6142726964951528,4.90973004506702448,10.140127773723318,30.7494713457121698,-3.17693919318691664,1.90215642130301688,348.509368144030759,35.9367500244296281,15.0294532384355826,69.7663164464343168,1.34269456822212319,115.130055579896776,789.379387221514548,15.2880000000000003,0,7.43318331395001053,0.105630921403999087,3.25651100970117185e-07,-0.0157979849574615937,0.0373028948282131609,0.001503819724594507
1.08,31.222156553108686,131.010469391292958,21.9352785818720797,4.90690972675265336,10.051549745253606,20.7113227045487669,-3.22771625043978538,1.87030448106898017,261.001578574662346,36.1712770922945666,15.1351764796985115,69.7566256508254412,1.4007657772972304,115.191948518712195,799.691498285574085,15.2880000000000003,0,7.45147017179282756,0.106320665205738199,3.35713766976010849e-07,-0.0162856906653654938,0.0383257832427023534,0.00156031367858045552
1.09,31.2221560814109012,131.010470887255963,22.2584898769650081,4.89687651384551614,9.94978459977553165,19.052328887999046,-3.28376825804546302,1.83574059560762159,246.543753324744074,36.4541984559277168,15.2578414049463582,69.7466162222451942,1.46035710762762583,115.255465630796493,812.225122542374152,15.2880000000000003,0,7.46965584401410521,0.107152665793128266,3.45893713787079007e-07,-0.0167838236851183924,0.0393617239152196027,0.00162056655343583095
1.1,31.222155607322712,131.010472394066511,22.5838554519487325,4.8902644001403992,9.85609181896278663,38.1859302963949006,-3.33786195971406574,1.80180717705223103,413.189061738584087,36.7096132570056781,15.3707668425446773,69.7362800218085113,1.52148407056025414,115.320623793411372,823.620896953628403,15.2880000000000003,0,7.48774388800357915,0.107903822596810542,3.56190222870002337e-07,-0.0172924710851727129,0.0404106519922176471,0.00168132512921044443
1.11,31.2221551304456924,131.01047391272013,22.9116615368889676,4.89071102686940318,9.7774156652969566,27.9661477386122463,-3.38723196574694851,1.76982002957343587,324.159391037639693,36.9100061551736545,15.4642683180672282,69.7256086975074965,1.58416223986710514,115.387439968428026,832.611297742083366,15.2880000000000003,0,7.50575164779412507,0.108493256551978001,3.665860190659248e-07,-0.0178125930816677748,0.0414742691170462974,0.00174129529568305477
1.12,31.2221546508340779,131.010475443061353,23.2418663283740976,4.87739784726449876,9.67298151612409463,10.5731876160872496,-3.44685437138589634,1.73273115068985861,172.73281794065943,37.2077216861874618,15.5919138747287445,69.7145938531010785,1.64840635698446625,115.455930247907446,846.070291517981673,15.2880000000000003,0,7.52367119652176619,0.109368768994165269,3.77084993622881182e-07,-0.0183441679137476277,0.042552248572695045,0.00180766722048904369
1.13,31.2221541690678954,131.010476983628791,23.5740559060985575,4.87125741061544648,9.58367157073185716,32.9541027861485816,-3.50162405991956316,1.69764076641298511,367.532807790070478,37.4496016373551512,15.6998664803141299,69.7032265770382367,1.71423269593895933,115.526112375917492,857.078965892399083,15.2880000000000003,0,7.54149056088119618,0.110080166125190879,3.87706674684777831e-07,-0.0188862873242080613,0.043642516000447322,0.00187312743590235592
1.14,31.2221536844858178,131.010478536059082,23.9086992282980866,4.87009861666620569,9.50497674629228406,18.2645486119286318,-3.5529178669018755,1.66392772696991287,239.695317731955441,37.6504067713001405,15.7932969879795859,69.6914982253946391,1.78165507698731496,115.598001501565108,866.267093974715067,15.2880000000000003,0,7.55923346799992224,0.110670835000319837,3.98422303906452712e-07,-0.0194404501062060177,0.0447477965473049646,0.00193836499785402894
1.15,31.2221531975611448,131.010480099150044,24.2454562207842486,4.85499131946528095,9.40070460523914875,18.0008133611013932,-3.61514247846068004,1.62469444639156735,237.412511535467729,37.9527019278391506,15.9223605793192444,69.6794000080493703,1.85068696228702234,115.671612410441568,880.204983983997408,15.2880000000000003,0,7.5768782622825297,0.111559835212033442,4.09254197821780585e-07,-0.0200057312644184547,0.0458659836216865416,0.0020106785846565247
1.16,31.2221527084269894,131.010481672561667,24.5842326208387441,4.85468311686212672,9.32556104781524553,47.0507038881818858,-3.66622910944240399,1.5905130287697915,490.043774384589426,38.1394500096525206,16.0107225234732873,69.666922619210041,1.92134323036943711,115.746961419549351,888.859551384248107,15.2880000000000003,0,7.59443246981540643,0.11210919931142925,4.20201705218953313e-07,-0.0205821649517092566,0.0469969023293831042,0.00207872419016156586
1.17,31.2221522162046625,131.010483258441297,24.9256428806397246,4.84692390066001533,9.23733299743578407,8.37139763340816856,-3.72337704111133228,1.55311963094100647,153.709379294867944,38.3788227871486853,16.1175157494231982,69.6540569949215325,1.99363644606789436,115.824062401270226,900.022460369089686,15.2880000000000003,0,7.61191933043462932,0.112813259485598297,4.31228222526953053e-07,-0.0211717146481375795,0.0481440863548785528,0.00215161631233372038
1.18,31.2221517220338285,131.010484853954011,25.268881764611379,4.82930220389406895,9.13178468906581031,22.8996101622779697,-3.78885350608560323,1.51135736482319438,280.025018221967457,38.6914328993568972,16.2500335747174809,69.6407936479998568,2.06758007381403974,115.90293020670002,914.714065887013817,15.2880000000000003,0,7.62930096311477346,0.113732606946729473,4.42386340907267357e-07,-0.0217719750259991393,0.0493026150684889794,0.00223056800892380402
1.19,31.2221512253907001,131.01048646037475,25.6143152034594763,4.83266099418022144,9.06610860093651105,39.9753250469609895,-3.8374492246448324,1.47752473910537563,428.407813052929214,38.8370885484472836,16.3237358811188713,69.6271227873095597,2.1431878412646248,115.983579992761364,921.583413822748184,15.2880000000000003,0,7.64660792827822799,0.114161203525010108,4.5364328009936847e-07,-0.0223844935324529135,0.0504752097910417391,0.00230187828107996338
1.2,31.222150725813254,131.010488078797124,25.9622573319655459,4.81868980094914789,8.96937311501047674,4.15457065375395551,-3.90060416423250667,1.43624631201132047,117.184374136023607,39.1141200981365031,16.4436070871452458,69.6130349817769627,2.22047061114334277,116.066023883776637,934.746685562226048,15.2880000000000003,0,7.66381258036272506,0.114975986252157797,4.64984255365684401e-07,-0.0230102534428733192,0.0516634328771045162,0.00238302648503404581
1.21,31.2221502244555751,131.010489706383538,26.3119023379939563,4.80537038903663127,8.87487159393372238,32.09767390819772,-3.96359911349868455,1.39470420377823823,359.923432132008998,39.3832034524553976,16.5606463391566479,69.5985200380348203,2.29944161016537718,116.150276547888254,947.620168918352533,15.2880000000000003,0,7.68091249767910522,0.115767413786449905,4.76461993079717761e-07,-0.0236468011712036887,0.052862395338613366,0.0024657143021614464
1.22,31.222149720421065,131.010491345290546,26.6638672427581298,4.80647267944805634,8.80737322134664069,23.2480445245064509,-4.01432144572770078,1.35892975854008524,283.068750482576149,39.5330144512526118,16.6356206558060258,69.5835679446134918,2.38011200210175344,116.236350480076581,954.810962314695644,15.2880000000000003,0,7.69794422152995672,0.11620824666271623,4.88026129142008088e-07,-0.0242965253284849712,0.0540763057258827548,0.00254301389088106315
1.23,31.222149214049999,131.010492994652765,27.0179080549099773,4.7913058725713551,8.71142365202639191,9.04648356416764443,-4.07943479840114787,1.31566981011059125,159.796873822227951,39.8092438139365754,16.7550671410921197,69.5681688769335125,2.46249091638374873,116.324256028393833,968.167768341277565,15.2880000000000003,0,7.71488788596433483,0.117020697081265251,4.99700283501810193e-07,-0.024958549736331305,0.0553032379458815102,0.00263046868712791008
1.24,31.2221487058299267,131.010494653271223,27.373685880204448,4.78149622210688197,8.62598307020487631,38.8523733054936073,-4.14005253826652364,1.27431119652719249,418.515630199805003,40.0388100859561504,16.858042309025457,69.5523123879895309,2.54658907950657953,116.414005270774382,979.33267698407758,15.2880000000000003,0,7.73173749752439576,0.117695987928066792,5.11504589740507243e-07,-0.0256319092861342288,0.056541166990281097,0.00271692180227920679
1.25,31.2221481949159489,131.010496323142803,27.7317721062170186,4.77986363458523833,8.55580497720668731,18.7720635137882894,-4.19331849709624738,1.23632913053341165,244.260946125734876,40.1969906544390909,16.9357965718158567,69.5359881707065171,2.63241536415806143,116.505608335339858,987.052070552617351,15.2880000000000003,0,7.74852160265229717,0.118161444762228798,5.23390609693598927e-07,-0.0263189026731501866,0.0577940154470864553,0.00280066651555523636
1.26,31.2221476818456907,131.010498002936089,28.0917900522075499,4.76123698484841551,8.4565543786030748,11.0493570825829224,-4.26242094945825123,1.18999747871166983,177.298446336408631,40.4908642209251965,17.0613420818306629,69.5191859270964727,2.71997739875437183,116.599074047599402,1001.50253942043196,15.2880000000000003,0,7.76521649541544168,0.119025787205338268,5.35393758766638091e-07,-0.0270181140927578563,0.0590589186601206684,0.00289599053310944307
1.27,31.2221471667944854,131.01049969220972,28.4536167154439212,4.75606884126749208,8.38160967379578103,37.367142767262159,-4.31907028874367072,1.14962643496784578,405.579686079964688,40.6694150140449366,17.1461940886777846,69.5018945347094217,2.80928514199392287,116.694413749039938,1010.31945977575629,15.2880000000000003,0,7.78178774541579976,0.119551138208724858,5.4751437657900282e-07,-0.0277294580592463112,0.0603354744611484251,0.00298524013794194487
1.28,31.2221466490736077,131.010501392553039,28.8177072249524286,4.74756712968859329,8.3016031264626573,12.0936868806962554,-4.37891799656594571,1.10728539636899348,186.429688124688823,40.8709834545288544,17.2391054924126514,69.4841034730453515,2.90034470742558348,116.791634706463157,1020.32341415220048,15.2880000000000003,0,7.79829044544992467,0.120144159145334439,5.59717101069398261e-07,-0.0284547061985213033,0.0616265474416561113,0.00307839233221975138
1.29,31.222146129501084,131.010503101990679,29.183501648620183,4.73046207771003591,8.20761818207024518,19.9008029406595384,-4.44728023701575736,1.06020686593862146,254.153128984572163,41.141212086162092,17.3562202156068714,69.4658017915551085,2.99316280427417425,116.89074484984819,1033.82393034000734,15.2880000000000003,0,7.81470189987161934,0.120939021301815511,5.72049853694794961e-07,-0.0291917734194620145,0.0629281621446605294,0.00317890153183762259
