Time,Latitude,Longitude,Altitude,Angle of Attack,Angle of Sideslip,X-Acceleration,Y-Acceleration,Z-Acceleration,Thrust,True Velocity,Ground Velocity,Pitch,Roll,Yaw,Dynamic Pressure,cp,cg,parachute_deploy_gain,Wind Speed,Wind Direction,Mach,omega_x,omega_y,omega_z,Cmq,Angle of Attack(total),Angle of Attack(gust),True Velocity(gust),Acceleration
0.0,31.222216000000007,131.010392,3.000000004412624,0.0,0.0,0.0,0.0,0.0,2.2828121974499247,0.0,0.0,69.99999999623412,0.0,119.9999999935444,0.0,1.274,1.0271675151847728,0.0,0.0,0.0,0.0,0.0,0.0,0.0,-0.0,0.0,90.0,0.0,0.0
0.01,31.22221599999084,131.01039200000497,3.000002745347096,0.0,0.0,0.0,0.0,0.0,34.242186961749226,3.465174813755316e-14,2.8705476994166025e-14,69.9999999962611,-2.1713911667908447e-11,119.99999999352175,7.352495975525499e-28,1.274,1.0271659134330349,0.0,0.0,0.0,1.0183245502395064e-16,-3.3305335486039093e-18,7.169286865560398e-18,5.624298769768554e-18,-7.715917190115602e-34,0.0,89.99999999999979,3.465174813755316e-14,0.0
0.02,31.222215999994315,131.0103920000094,3.0000030495639742,0.0,0.0,0.0,0.0,0.0,25.871876237766216,3.8197434737535036e-11,2.4171837235633357e-11,69.99999999628672,-1.1921727947863515e-11,119.99999999353136,8.93414285188691e-22,1.274,1.027164492361118,0.0,0.0,0.0,1.1225230367947217e-13,-6.657678965418802e-18,1.4338573731120796e-17,1.1241821275959074e-17,-1.7010872994127372e-30,0.0,89.99999999975682,3.8197434737535036e-11,0.0
0.03,31.222215999994315,131.0103920000094,3.0000030495639742,0.0,0.0,9.81877837424427,-2.5122800045972096e-05,3.3498614629347925,180.34219359854663,1.2659015405517447e-10,1.1364406173918436e-10,69.99999999631459,-1.6431898037347223e-11,119.99999999352724,9.812605835254651e-21,1.274,1.0271551940870716,0.0,0.0,0.0,3.720154642239108e-13,-9.991600645811728e-18,2.150108433310316e-17,1.6859343782149594e-17,-8.453698244545225e-30,0.0,89.99999999919412,1.2659015405517447e-10,10.374487003414373
0.04,31.222215999994315,131.0103920000094,3.0000030495639742,18.83801224594347,-0.0001111777826462,48.68248476615645,-1.016330065874988e-05,3.3497854396877287,548.635972453808,0.1556173050466994,0.0975908358443652,69.99999999633813,-2.0932768807056278e-11,119.99999999352085,0.0148286043323172,1.274,1.027133720825283,0.0,0.0,0.0,0.0004573186944143,-1.3322134194415637e-17,-1.04744143520903e-11,1.336824254131964e-11,5.0626055458604615e-15,18.83801224625964,89.06236267790787,0.1555998412814392,48.79759610369246
0.05,31.22221599164764,131.01039201704114,3.002326315126219,5.772385609593056,-4.395076213712875e-06,71.20344550265034,4.905512691849684e-05,3.349217396035405,761.6984298824663,0.8326471944351852,0.3620326097059287,70.00000001316391,-1.0866255162484559e-10,120.00000000231074,0.4245281043148827,1.274,1.027093426565204,0.0,0.0,0.0,0.0024469331205246,-5.0245994431125096e-18,-7.32924164976824e-07,2.217344936947165e-11,1.895424184525467e-09,5.772385609594774,84.74112356985832,0.8326465040582279,71.28217104309611
0.06,31.22221596664444,131.01039206837547,3.015081730143309,4.056581213689704,3.169093567502233e-05,53.16249142470188,0.0001203825427859,3.3481235983850643,590.4875390737236,1.657216205300742,0.6755452977614796,69.99999964391398,-3.9285905645317736e-10,120.0000000287861,1.6816755551786196,1.274,1.027050317124926,0.0,0.0,0.0,0.0048701272653724,3.095757869075056e-13,-7.483541766772344e-06,3.074135420506017e-11,3.8518749565858254e-08,4.056581213813337,79.59316473687034,1.657221183301277,53.26781792157489
0.07,31.22221592883117,131.0103921460222,3.034593611434361,4.115662018628709,6.450869598349036e-05,81.18203554989698,0.0001593212642178,3.347059402768047,855.2937749779172,2.099899704220947,0.8579771146174259,69.99999543281565,-8.233801910783518e-10,120.00000006883089,2.700101932075157,1.274,1.027003201295312,0.0,0.0,0.0,0.006171060252819,3.4704292086287e-12,-2.6327204536316785e-05,1.9541142932033486e-10,1.7170712165327165e-07,4.115662019133419,76.90111966094352,2.099909837223217,81.2510043180746
0.08,31.22221588914193,131.01039222747755,3.0542761843835606,3.459696193892355,8.037433511260004e-05,16.298214211652088,0.0002413456836072,3.344878926597744,241.2171988638792,3.051964775152957,1.2149999716613011,69.99998042886442,-1.0128995578004475e-09,120.00000011111383,5.703497661025892,1.274,1.0269597189470347,0.0,0.0,0.0,0.0089689344021769,1.458982438104473e-11,-5.702803872814215e-05,7.043261397829576e-10,5.405702492731987e-07,3.459696194824858,71.30331929508368,3.051977400323993,16.63790856991177
0.09,31.2222158241468,131.01039236098703,3.0886872184095737,4.313676956300389,0.0001337561018991,50.35975918308536,0.0002293282821279,3.344215841840564,563.0937377043203,2.893161298572128,1.191209213966114,69.99994788602814,-7.098432023887522e-10,120.00000018106356,5.125380275808925,1.274,1.026918932011013,0.0,0.0,0.0,0.0085022553945842,3.8672912027154325e-11,-0.0001115933708951,2.016054215232918e-09,1.0027525988343615e-06,4.313676958370176,72.2316578138625,2.893182308931483,50.47067588835877
0.1,31.2222157788302,131.01039245392113,3.109877853389092,4.035124630954496,0.0001457499816535,47.804664812504015,0.0002878217657545,3.341734392237128,538.7437595981891,3.5677148583138303,1.4531247507621967,69.99988403958329,1.9248461973355822e-09,120.0000002323013,7.7939962029572305,1.274,1.0268846934974103,0.0,0.0,0.0,0.0104845969583028,8.579678749070606e-11,-0.0001726817043215,3.984565639703107e-09,1.913455350430327e-06,4.0351246335824245,68.43243098813296,3.567737752667411,47.92132267234452
0.11,31.222215703308,131.01039260899836,3.148841432727305,4.043401107254707,0.0001752764476999,37.67622367577205,0.0003286462930162,3.3392563999062723,442.86563930529127,4.034183355956686,1.6436552022667772,69.99978525353545,7.302513231814865e-09,120.00000031883242,9.96528118825134,1.274,1.026848594915519,0.0,0.0,0.0,0.0118554331868328,1.5870341853361987e-10,-0.0002596204409236,7.232030302688121e-09,3.252930323390323e-06,4.04340111104746,65.92012987243639,4.034210888316708,37.82391391539392
0.12,31.222215627491828,131.01039276462643,3.186995101203875,4.17874459224363,0.0002066711490009,41.15991989399172,0.0003576945202315,3.336766085769504,475.58594813540793,4.361857560629481,1.7865750500940407,69.99963665601238,1.781774420198147e-08,120.00000041104812,11.649831899889556,1.274,1.0268114448194128,0.0,0.0,0.0,0.0128183893919737,2.682972478760441e-10,-0.0003710216542429,1.2215991071490164e-08,5.026311388647148e-06,4.178744597345269,64.21681651392016,4.361890024457652,41.29495143136631
0.13,31.22221554594398,131.01039293200228,3.2277173449026786,4.202734874672792,0.0002327160860324,45.44886120763352,0.0003953741266062,3.333578629398489,515.9156326236897,4.792165672014363,1.9646716520715424,69.99942424225341,3.613383418913551e-08,120.00000051758742,14.061726603124043,1.274,1.026779572895131,0.0,0.0,0.0,0.0140829618979635,4.248908088871395e-10,-0.0005056103199642,1.908859219307828e-08,7.5253154423526356e-06,4.202734881104192,62.048594618540655,4.792202226971676,45.570952718869485
0.14,31.222215454191247,131.01039312033683,3.2737880595608355,4.184830647080848,0.000257138757548,42.32232525579263,0.0004369426767266,3.329727443445437,486.2390860568421,5.269261304374574,2.158791628597544,69.99913473613935,6.515851355725497e-08,120.00000064630268,17.000925061330125,1.274,1.0267449573927567,0.0,0.0,0.0,0.0154850332441425,6.382432869666793e-10,-0.0006690086306358,2.8426433029675884e-08,1.0948547100483978e-05,4.184830654966803,59.74181173116622,5.269301695636157,42.45310707234106
0.15,31.222215353826755,131.0103933263496,3.3242182719560263,4.21963947489699,0.0002846467688673,40.886944113003565,0.0004726792395108,3.325585650885676,472.5421858721398,5.6781946837482895,2.329510773545807,69.99875162806286,1.0876776246115984e-07,120.00000079954532,19.742017654108928,1.274,1.0267115958081523,0.0,0.0,0.0,0.0166867950518804,9.204756288136623e-10,-0.000865746478554,4.08948221429571e-08,1.526771148078443e-05,4.219639484480408,57.84996018384879,5.678239395958187,41.02196629910223
0.16,31.222215247130432,131.01039354534575,3.3775922280208457,4.253495568077899,0.0003118339050386,32.26872905470846,0.0005078415214353,3.32090791922544,391.1218908297597,6.081244877834229,2.4981889727471702,69.99825581174558,1.7187028096464329e-07,120.0000009800088,22.644030778355887,1.274,1.026675762255412,0.0,0.0,0.0,0.0178712695992133,1.2856146928958252e-09,-0.0010961187242953,5.6923362293832417e-08,2.0702404729358337e-05,4.253495579487569,56.06022383757386,6.081293860589489,32.43916312841722
0.17,31.22221513260033,131.01039378041813,3.4348437275053194,4.364838523348639,0.0003448792023946,40.840448242802736,0.0005326487904353,3.3162727284953744,471.78125980632416,6.362544479165355,2.6250789114832647,69.99762801982864,2.5997588617291615e-07,120.00000119506798,24.78723182122683,1.274,1.0266409836796937,0.0,0.0,0.0,0.0186979513961862,1.747791994374917e-09,-0.0013624931601664,7.706724512977917e-08,2.6923621797558364e-05,4.364838536947241,54.85936171416122,6.362598652663785,40.97486885600156
0.18,31.222215014088988,131.01039402363364,3.4935801365785646,4.353948305387995,0.0003681615230806,33.992183768165326,0.0005718025428208,3.310131992647221,407.1015672119096,6.81502088160835,2.810667639293692,69.99684761766231,3.794979223522764e-07,120.00000144728236,28.437950785509614,1.274,1.0266048342046536,0.0,0.0,0.0,0.020027681385988,2.3221419748804155e-09,-0.0016616990447559,1.0147209890543081e-07,3.517105786247627e-05,4.353948320923495,52.99157233768714,6.815078712285162,34.152972512863755
0.19,31.22221488419521,131.01039429023237,3.558399965607869,4.432620772533925,0.0003996774584738,38.45149959021069,0.0005986099513107,3.304145139297767,448.95313283182486,7.1223367465208405,2.946425726785696,69.99589577323147,5.440084577183829e-07,120.00000176148238,31.060341085698347,1.274,1.026566130444714,0.0,0.0,0.0,0.0209308229359413,3.022391489754689e-09,-0.0020041563310821,1.3135864879722746e-07,4.433199397898183e-05,4.432620790516937,51.77883352025967,7.122399527709208,38.59320142454953
0.2,31.222214751373183,131.01039456280608,3.624052454705669,4.443889400961181,0.0004246617145652,35.23432408779927,0.0006337972852267,3.2968110145188256,418.5156301991588,7.530482904611057,3.1167566004785483,69.99474776398331,7.478025600151903e-07,120.00000211715036,34.72195181863731,1.274,1.026529240027363,0.0,0.0,0.0,0.0221302820454282,3.866698391504749e-09,-0.0023849544920781,1.668144671071589e-07,5.57780533277244e-05,4.443889421210987,50.22448880200342,7.530549610317194,35.38822625098952
0.21,31.222214608673173,131.01039485566503,3.6948551453492566,4.493351735844891,0.0004538195602194,33.79371564104691,0.0006629296043866,3.2891790438445727,404.8187610144608,7.868284042829251,3.2629204975089228,69.99338155599101,1.0150082652278477e-06,120.00000255293388,37.906665490338085,1.274,1.0264923657015164,0.0,0.0,0.0,0.0231230169900677,4.871073773182836e-09,-0.0028117605859743,2.089322918608601e-07,6.870935089180403e-05,4.493351758715364,48.992529909481824,7.868355328639073,33.95340801819282
0.22,31.22221446109996,131.01039515850383,3.767700382407304,4.5412639153933885,0.000482649303782,41.008966751568416,0.0006914639179131,3.2808061382386606,472.5421858721387,8.20057841132235,3.4071691679735228,69.9917708347139,1.3454961520984431e-06,120.00000305929996,41.175744234065135,1.274,1.0264494137127138,0.0,0.0,0.0,0.0240995709751246,6.054779813287368e-09,-0.0032829112061357,2.580881224843564e-07,8.3609968899004e-05,4.54126394098788,47.82515604752711,8.2006542256977,41.13999323561041
0.23,31.22221430675399,131.0103954752338,3.843768625625224,4.52371495179584,0.0005047555656171,33.98493478127787,0.0007294889663961,3.2705214710765107,406.340642146096,8.647938096586296,3.5908865300848416,69.98989017772566,1.7539876018835507e-06,120.00000365514876,45.79040229326471,1.274,1.0264133390858623,0.0,0.0,0.0,0.0254142776666487,7.436335125872812e-09,-0.0038001790077148,3.1489825108822685e-07,0.0001020628978177,4.523714979897577,46.31461705147579,8.648017383405135,34.14194053232237
0.24,31.222214142622448,131.0103958120587,3.92493179063287,4.57837522350066,0.0005351929930195,35.051650311058864,0.0007555049947555,3.26053011385611,416.2328240017099,8.954297884844461,3.72617527247482,69.98771316795013,2.25257161141768e-06,120.0000043564586,49.09180568115741,1.274,1.0263750048312463,0.0,0.0,0.0,0.0263146218848643,9.034877387788232e-09,-0.0043732521010013,3.809642748985157e-07,0.00012161410144,4.578375254714954,45.32798984252032,8.954381952763216,35.20297212911011
0.25,31.22221397517227,131.0103961556623,4.0071748888306855,4.6034117733065,0.0005618935542827,36.03738579534623,0.000785606492708,3.249069743648399,425.3640807915084,9.311611941121669,3.8789349536029696,69.98520781816889,2.8559738498748624e-06,120.00000517181904,53.08749562138344,1.274,1.0263373768840591,0.0,0.0,0.0,0.0273647110956883,1.0873791100894836e-08,-0.0049950711786164,4.5609738277273444e-07,0.0001444478241125,4.603411807525074,44.2165428352526,9.311700203154778,36.183554686886296
0.26,31.22221379934012,131.01039651647062,4.09364247475714,4.621386912291471,0.0005881033207375,39.29107511182762,0.0008162761165496,3.236407051295005,455.80158342417656,9.67833954512075,4.034902068846398,69.98234620927953,3.5784678110229355e-06,120.00000612171208,57.350948423913096,1.274,1.0263006300381676,0.0,0.0,0.0,0.0284424679130479,1.2973286442992724e-08,-0.0056712051373577,5.414206381221602e-07,0.0001704578711045,4.621386949630312,43.12063533194282,9.678431924174348,39.42414126789902
0.27,31.222213616776543,131.01039689108487,4.183310605341074,4.617158109135719,0.0006115457810536,35.90419462403674,0.0008503454714941,3.221982799915672,423.8421996598744,10.088790784535757,4.205862468567124,69.97909721779352,4.436165972465058e-06,120.000007221354,62.31798301949865,1.274,1.026260090595354,0.0,0.0,0.0,0.0296487219805601,1.5355910600537293e-08,-0.0064045199323113,6.379142666348734e-07,0.0002006609239367,4.617158149547818,41.94410287616451,10.08888684592241,36.048472443180565
0.28,31.22221342607797,131.0103972823952,4.277051150896916,4.642105655370123,0.0006389739579882,41.51133203546672,0.0008785747638736,3.2071101123224945,476.3468732012228,10.432377224420517,4.35383399240675,69.97542808435722,5.446665372087172e-06,120.00000849080963,66.63429581008447,1.274,1.0262212716723291,0.0,0.0,0.0,0.0306584788590473,1.8045308789081613e-08,-0.0072006835403936,7.469524967369969e-07,0.0002332868227611,4.642105699250441,41.0023231023774,10.432477594215127,41.63503624837164
0.29,31.22221323001776,131.01039768469093,4.373143569786686,4.62134615173668,0.0006600657405645,33.17552944492765,0.0009148746278066,3.1894209319791806,397.9703104221098,10.876662296046485,4.536381530986506,69.9713027936179,6.629751536885327e-06,120.00000994797426,72.43000748232016,1.274,1.026183007522519,0.0,0.0,0.0,0.0319641703260467,2.1067646517035105e-08,-0.0080566154554079,8.688043379161898e-07,0.000272130659453,4.621346198772975,39.83162628795024,10.876765978930557,33.32848872465723
0.3,31.22221302403368,131.01039810736614,4.4744193758467325,4.664362353358112,0.0006905183788532,31.08096762732793,0.0009381960428197,3.172549142946348,378.1859457108735,11.168362145070317,4.66647911311536,69.96668711012893,8.005507138509574e-06,120.00001161892672,76.36634300732833,1.274,1.0261430389738484,0.0,0.0,0.0,0.0328214509167604,2.4447409007156216e-08,-0.0089829108229115,1.0056222251461646e-06,0.0003115527202986,4.664362404357781,39.09908960432563,11.168470611443622,31.242464973103964
0.31,31.22221281503337,131.01039853619727,4.576593712520673,4.700143580504286,0.0007196683316923,32.79732593144512,0.0009620705970519,3.154230688182399,394.1656220930229,11.470279728974068,4.800072153432283,69.96154070456518,9.597499105113692e-06,120.00001352112182,80.55022837857167,1.274,1.0261054058068628,0.0,0.0,0.0,0.0337087616009043,2.8214060606649844e-08,-0.0099686353219717,1.1565909895184251e-06,0.0003550834484269,4.700143635477137,38.36463422765983,11.47039277421126,32.94865339301887
0.32,31.222212598991007,131.01039897947376,4.68216432480395,4.718667719113184,0.0007464384342556,35.7316568886908,0.0009885845337584,3.133859770838664,421.5593934624264,11.808280530415894,4.946054328851105,69.95582953472353,1.14278227255889e-05,120.00001568218067,85.36654007972253,1.274,1.026068246703101,0.0,0.0,0.0,0.0347021168382987,3.2392058795580455e-08,-0.0110163301561155,1.3226102501723267e-06,0.0004039614423012,4.718667778018562,37.5686120062341,11.808397780690962,35.8688218659563
0.33,31.222212376029034,131.0103994369436,4.791055524254013,4.72141404831576,0.0007708346814671,35.42013590291081,0.0010176135371143,3.1111955852784385,418.5156301991632,12.181577273013426,5.104163223586657,69.94951809396906,1.351997394754887e-05,120.00001812674968,90.84831229869296,1.274,1.0260310883392356,0.0,0.0,0.0,0.0357992034445943,3.700677535501642e-08,-0.0121310534481307,1.5051409581878843e-06,0.0004588955105349,4.721414111097893,36.7208578211118,12.181698355442045,35.55651229220977
0.34,31.222212145785647,131.0103999093516,4.903491659547144,4.73024573449122,0.0007962944975467,27.63851074646407,0.0010446307681611,3.0871492806781062,345.4656368807584,12.53557620048282,5.2556261014174765,69.94256797855994,1.5899658158227497e-05,120.000020882338,96.20413272674828,1.274,1.0259901535019136,0.0,0.0,0.0,0.0368395817555172,4.208561016221623e-08,-0.0133180771902383,1.7057647550599631e-06,0.0005184333231541,4.730245801363397,35.94841996438923,12.535701282129995,27.810389570354005
0.35,31.222211909310875,131.01040039453565,5.018822212845608,4.780248518778662,0.0008286678570753,30.332092807652543,0.0010618579815451,3.063967690608957,370.5765700527057,12.774786382148209,5.367579971644358,69.93493776125636,1.8594985713558667e-05,120.00002397748868,99.9096898192772,1.274,1.025950003202184,0.0,0.0,0.0,0.0375426220587071,4.7658312175989686e-08,-0.0145774693288123,1.9252724355785177e-06,0.0005782798420984,4.780248590437683,35.44790728185619,12.774916548990808,30.486451961956565
0.36,31.22221166933814,131.0104008868675,5.135354490370708,4.798132156899578,0.0008554457330409,34.32674769697476,0.0010851169437774,3.0374319611165923,407.8625232777224,13.09301701329486,5.506730645516068,69.92658597246795,2.163521613217148e-05,120.0000274401514,104.94818266210537,1.274,1.0259105142325406,0.0,0.0,0.0,0.0384778908056978,5.3755109608570216e-08,-0.0158991451700967,2.162609490834569e-06,0.0006464142451675,4.798132232978766,34.796094028187134,13.09315138639638,34.46087058603792
0.37,31.222211421355144,131.01040139563804,5.255882891363927,4.797392186816851,0.0008791822061288,32.551601855236584,0.00111162791192,3.0078619428913056,391.1218908297639,13.457513730739372,5.661815946371007,69.91747693543164,2.5047738471809164e-05,120.0000313040604,110.87154396328836,1.274,1.025872170958032,0.0,0.0,0.0,0.0395491312153729,6.040098808671168e-08,-0.0172926678053148,2.420031948898497e-06,0.0007226353721561,4.797392267189059,34.07332166419882,13.457651832357364,32.69027405888565
0.38,31.22221116634284,131.01040191882743,5.379799334000849,4.811698494594017,0.0009057112478668,34.02947987649063,0.0011338447913587,2.9774881690446744,404.81876101445977,13.77554886562956,5.800899861213392,69.90756948297444,2.886339581486796e-05,120.00003560072224,116.17243393848278,1.274,1.02583050512925,0.0,0.0,0.0,0.0404838339452728,6.762496638941508e-08,-0.0187646375218858,2.69955777313946e-06,0.0008026686661094,4.8116985796350695,33.46655348088405,13.775691134419684,34.15949264475229
0.39,31.222210906095896,131.01040245274032,5.505993307722699,4.813508003664984,0.000929862892873,29.00025983045028,0.0011579891265804,2.9442136901860865,357.6406249338268,14.124492165837273,5.950648592462506,69.8968186645841,3.311602501056718e-05,120.00004036395212,122.13093644173792,1.274,1.02579027384009,0.0,0.0,0.0,0.0415093739609825,7.545934774906889e-08,-0.020311592409804,3.0013532510753577e-06,0.0008908380763632,4.813508093268025,32.821616487639595,14.124638228358922,29.149330452482886
0.4,31.222210638473225,131.0104030017851,5.635788650457906,4.841647069358873,0.0009592124397379,27.71178845184976,0.0011749448424961,2.91135549588368,345.4656368807565,14.390874239274588,6.07193451174791,69.8851815212744,3.783947407715338e-05,120.00004563180136,126.77947425345651,1.274,1.0257493418632293,0.0,0.0,0.0,0.0422922854866381,8.39343718693383e-08,-0.021938519432511,3.3271332720311508e-06,0.0009803271643914,4.841647164150728,32.348088166612904,14.391024912012275,27.864299944624147
0.41,31.22221036681104,131.01040355909262,5.767123077463226,4.86553909860892,0.0009876699832274,31.306062598221665,0.0011918093836199,2.876450850006428,378.9468707766882,14.663028799871563,6.195223154320929,69.87261222561014,4.307011032901644e-05,120.0000514391194,131.6183642808765,1.274,1.025708445186429,0.0,0.0,0.0,0.0430921644173401,9.308325447883581e-08,-0.0236371933433427,3.6760977501392174e-06,0.0010761942383903,4.865539198612839,31.87689439156756,14.663183942709727,31.437931330109585
0.42,31.22221008906472,131.01040412887247,5.901259531771367,4.867510642114694,0.0010118258958528,35.308283402190774,0.0012128114559048,2.8374461227958245,416.23282400171047,14.9952917972178,6.33928625560071,69.85906967380902,4.884273094936628e-05,120.00005782486392,137.64909586091787,1.274,1.0256701057426505,0.0,0.0,0.0,0.0440686959134695,1.0293499639582845e-07,-0.0254093547296826,4.049238334851429e-06,0.0011830797791891,4.867510747027452,31.315270489291198,14.995450734457847,35.422111438762386
0.43,31.222209804115888,131.01040471342728,6.038886819939341,4.854590670645608,0.0010330089741511,31.00586934514032,0.0012363751872706,2.794478603999558,375.90313951343126,15.369430568701889,6.497852263156962,69.8445117629242,5.519340856908871e-05,120.00006482835984,144.60167924299955,1.274,1.0256308158337524,0.0,0.0,0.0,0.0451682983415116,1.135186446762958e-07,-0.0272634397889413,4.449073329427772e-06,0.0013010625065656,4.854590780289497,30.70250814963406,15.369592833372094,31.13154422839874
0.44,31.22220951192321,131.01040531284193,6.180028459770617,4.866912332640401,0.0010595850174406,28.57707721036899,0.0012525768202179,2.752165534925872,353.07501253892326,15.659290812546615,6.627318538707029,69.82889155423543,6.216182865383864e-05,120.00007249162944,150.1053167542629,1.274,1.025586171750536,0.0,0.0,0.0,0.0460202245100907,1.2486676023179565e-07,-0.0292060158163984,4.8779154055816594e-06,0.001420032405556,4.866912447705031,30.24619499837236,15.659457251771938,28.709297424144207
0.45,31.222209215425703,131.01040592106523,6.322872201489905,4.881836476567178,0.0010866574689855,33.31904824532484,0.0012669045761511,2.7082028218433374,397.2093853562887,15.934249290371609,6.751662050993672,69.81215834018458,6.97909417564726e-05,120.00008085697964,155.42080512416243,1.274,1.0255397023523487,0.0,0.0,0.0,0.0468283602442113,1.3701614206272197e-07,-0.0312276295846745,5.334643585560923e-06,0.0015449645531859,4.8818365972149325,29.82567893138932,15.934419982127675,33.428929688274074
0.46,31.22220891307435,131.0104065412864,6.468371919199588,4.869610441729251,0.0011078049156487,38.95909776354321,0.0012868374716666,2.6582856015412624,449.7140588976424,16.292139278621757,6.904766425053949,69.79426683863348,7.812149592850748e-05,120.00008996920153,162.4785746623087,1.274,1.02549635315424,0.0,0.0,0.0,0.0478802236363867,1.499987870203256e-07,-0.0333272350234362,5.819761874615242e-06,0.0016858511402973,4.869610567434908,29.29014635640275,16.292313292210977,39.04968351401366
0.47,31.22220860266524,131.01040717804253,6.6178810515614845,4.838450928223533,0.0011247917292402,26.253747818137555,0.0013104398935566,2.6026193242279367,331.0078106302504,16.710658191447514,7.078951441335346,69.77517236812905,8.719457259907165e-05,120.0000998741591,170.9309671061642,1.274,1.025453319323251,0.0,0.0,0.0,0.0491102725711187,1.6384464803343264e-07,-0.0355167087264168,6.3368207228363735e-06,0.0018427306558807,4.838451058652396,28.68386015667837,16.710834873319172,26.382435512333956
0.48,31.222208284201663,131.0104078313267,6.771393590864176,4.869339340099417,0.0011561785713505,25.860860976019296,0.0013165328518772,2.5543454292827983,327.20312230115803,16.911139899671,7.177575416403102,69.75482343794755,9.70562828082882e-05,120.00011062072316,175.0543877818846,1.274,1.0254092882449153,0.0,0.0,0.0,0.0496995461609974,1.7858865391586845e-07,-0.0378054080201581,6.88909442277235e-06,0.0019849793891693,4.869339477030596,28.40887970825325,16.911321511776286,25.986704537635287
0.49,31.22220796480208,131.01040848648364,6.924537656029012,4.881367714530694,0.0011829003785372,32.565703383222065,0.0013261973190012,2.5011623511055703,389.6000096981238,17.169005224738054,7.296160258358563,69.73316318155707,0.0001077573203115,120.000122255028,180.4309832312717,1.274,1.025367445590036,0.0,0.0,0.0,0.05045746454003,1.942747077649401e-07,-0.0401641298712614,7.47069711110948e-06,0.002140948887153,4.881367857509675,28.058569663954906,17.169191034294997,32.66161128464712
0.5,31.222207637929923,131.01040915697027,7.081324512896956,4.862566137860805,0.001202418260511,33.47759680712428,0.0013425340759632,2.4399894027711366,397.970310422106,17.52898693231981,7.450304424940405,69.71015149227495,0.0001193385310595,120.0001348274002,188.0736471953394,1.274,1.0253278572281015,0.0,0.0,0.0,0.0515154948878309,2.109295159784217e-07,-0.0426011733481599,8.084173008518589e-06,0.0023184335011768,4.862566286171007,27.57768313050809,17.529175807738486,33.56639745442473
0.51,31.22220730314019,131.01040984370235,7.24202048914867,4.8479762258125,0.001223054804074,25.49162310288008,0.0013562860883156,2.3767006597692686,323.39843497208153,17.86914397471067,7.597652147346554,69.68574349602717,0.0001318441288964,120.00014838524436,195.4407439266201,1.274,1.025286455263166,0.0,0.0,0.0,0.0525152689856776,2.2858192086249162e-07,-0.0451315948093539,8.734206149830708e-06,0.002503767471626,4.847976379721193,27.13799345359824,17.86933609171003,25.602178740977283
0.52,31.222206962738102,131.01041054193402,7.405210501673173,4.865306299521403,0.0012516517170965,30.733671928447727,0.0013599291289974,2.317711624364424,372.098451184342,18.08534843773428,7.701914987606457,69.65988568649581,0.0001453248538387,120.00016298000436,200.19561780583155,1.274,1.0252426840672306,0.0,0.0,0.0,0.0531507657929359,2.4726951523704535e-07,-0.0477531686556663,9.421346966092632e-06,0.0026812161964639,4.865306460134566,26.8699055233151,18.085545046726228,30.820940596104087
0.53,31.222206619320115,131.01041124632013,7.569307468221277,4.848802699234936,0.0012715119568563,32.301199055744725,0.0013711327835325,2.2490252325653923,386.55624643486095,18.41963113311156,7.8474319110539055,69.6325258319474,0.0001598315062727,120.0001786629144,207.6614205945027,1.274,1.0251993415311351,0.0,0.0,0.0,0.0541332845214831,2.67031759303889e-07,-0.0504479325599339,1.0141887756417996e-05,0.0028848299490111,4.848802865552398,26.45837260670532,18.419830861742675,32.37940050117613
0.54,31.22220626697288,131.01041196903336,7.737918664599091,4.831496690588052,0.0012913635058467,28.31291960103712,0.0013809098107221,2.177242866245296,349.2703242098436,18.75116898748492,7.992112829440902,69.60362200959217,0.0001754082864028,120.00019548734956,215.20067397992847,1.274,1.0251561018460285,0.0,0.0,0.0,0.0551077428911958,2.878941684235108e-07,-0.0532336286085667,1.090122304443916e-05,0.003098869611663,4.831496862756785,26.061835558272342,18.751371834390056,28.396510432451375
0.55,31.222205908994248,131.01041270328463,7.909026079894722,14.193861641631903,17.30827178555825,30.54741720668075,-1.1206419029467845,1.502983954635326,365.2500005919912,21.8890205352718,8.113323699629928,69.57312211246325,0.0001921068626005,120.00021350480982,293.246240929438,1.274,1.025112921033824,0.0,7.519210697837553,0.0,0.0643296876565522,3.0989272306468813e-07,-0.0561100530405476,1.1700476995263424e-05,0.0038128415497007,22.245252871972426,41.161555875709446,24.566634922506456,30.604893351252613
0.56,31.222205546564343,131.01041344664463,8.081909946161325,4.785984121001267,21.282330451882263,28.470499588529016,-1.4709665301179096,1.890660046741224,346.22656194657776,20.7465912916738,8.24480645417527,69.54097415464405,0.0002099796112633,120.00023276987916,263.43052030669134,1.274,1.0250709539098009,0.0,7.546643356335292,30.000012855656493,0.0609723189065752,3.3296850471894137e-07,-0.0663687823322451,0.0135876122741358,0.0042744982281516,21.78943520462652,43.54307274690573,24.0132662771639,28.571098767207072
0.57,31.222205179969823,131.01041420541662,8.258425056245468,4.782425221149036,21.03954786611028,28.160278258410525,-1.7784197971923863,1.8123364948112648,343.1828296833045,21.00844944526257,8.372917758869114,69.50294694945941,0.0210379424507234,120.02246589255763,270.1178136022432,1.274,1.0250279191823897,0.0,7.573861694433826,30.000012855656493,0.0617420188200256,3.6771197843848093e-07,-0.0693895922587542,0.0282310737606883,0.0045253848105278,21.55217659572933,43.08666913458365,24.23955977736884,28.27452231491417
0.58,31.222204808122463,131.01041497526293,8.436751566484737,4.766375597342304,20.78971783594104,37.094703290039845,-2.0972096952096404,1.7309488821290149,426.12500585731766,21.275856437722,8.500381650885865,69.46317838208671,0.0641827821307131,120.06853297952328,277.0332466913736,1.274,1.024981594484354,0.0,7.601138657571382,30.000012855656493,0.0625280306675592,4.115556606193642e-07,-0.072495060166371,0.043095321001597,0.004788011762531,21.3055008314518,42.62212600581511,24.470309193646024,37.19423994000036
0.59,31.222204431664046,131.01041575751285,8.617821307395724,4.716255380123733,20.41115834810892,30.0717803506779,-2.4428810889361654,1.6344390772587478,360.68438819710633,21.670017791797736,8.675579145133623,69.42160079312453,0.1298347753861383,120.13865018927991,287.38809542855967,1.274,1.0249386802161349,0.0,7.628216035782698,30.000012855656493,0.0636865692709059,4.646357883994952e-07,-0.0756800747986967,0.0581803207797449,0.0050908817849372,20.926276154637197,41.93351178537874,24.808808978469663,30.21507955593316
0.6,31.222204046450383,131.01041656036924,8.80379644975099,4.699557317705511,20.17050869922118,26.730723400417777,-2.785684108360849,1.547411561920398,329.4859594986072,21.92454364769004,8.798334482906236,69.37813905183512,0.2181697207492379,120.23301931153854,294.17354075135734,1.274,1.024891335813742,0.0,7.6552327510023375,30.000012855656493,0.064434736999649,5.270809149359219e-07,-0.0789660473629428,0.073577703834571,0.0053742194802357,20.688519546295097,41.49861927002093,25.027879474512662,26.919994279404698
0.61,31.22220365977453,131.0104173688698,8.990317460917199,4.68397507143131,19.939891525785136,31.330169521826896,-3.136664520185048,1.4588565694408584,372.0984511843332,22.16538907034319,8.915986040025905,69.33269466043112,0.3294871343116735,120.3519754939514,300.66676331643407,1.274,1.0248423929069768,0.0,7.682495859212666,30.000012855656493,0.0651427023254616,5.990915483226562e-07,-0.0823281570840141,0.0891729046341582,0.0056644847354574,20.46082920444901,41.0879533489959,25.234696262182556,31.52057183917829
0.62,31.22220326806772,131.0104181902812,9.179516207525609,4.64699800769524,19.630221012986976,38.95855429696831,-3.5112627336779094,1.3589272332566786,442.86563930529206,22.48675909644019,9.064067019991151,69.28517227579621,0.4638953082627447,120.4956508624446,309.4429189906452,1.274,1.0247996097896497,0.0,7.709363503121379,30.000012855656493,0.0660873299353631,6.807911999981169e-07,-0.0857631646609852,0.1049491832107012,0.0059862718251083,20.15162952676672,40.54140786932337,25.51029485024592,39.140063900305904
0.63,31.22220286938305,131.01041902852177,9.37253031618624,4.588600594417921,19.243418119968343,22.08920870882489,-3.915921058558177,1.2457798702687934,286.11251274707456,22.894593663217083,9.244759838113367,69.23546706431755,0.621460192296567,120.66413354906685,320.76327978890293,1.274,1.024756158874558,0.0,7.7361332928366275,30.000012855656493,0.0672860794757153,7.722873001082765e-07,-0.0892842367269053,0.1209599059802905,0.0063449535808331,19.76275159990112,39.85971436120734,25.860833376912687,22.468189660140663
0.64,31.2222024628006,131.0104198853655,9.56986975153852,4.590561035812024,19.09412221511321,21.687550793575674,-4.281206905263124,1.1589903607954803,282.3078244179702,23.02895159988756,9.322617904649531,69.18345462701136,0.8023099821139033,120.85757961288807,324.53300410856065,1.274,1.024708534665538,0.0,7.762976637936408,30.000012855656493,0.067681101486767,8.737197399175235e-07,-0.0929056606689682,0.1372627785880113,0.0066409289275919,19.618166679214745,39.620053493951936,25.97304022249801,22.136437171460415
0.65,31.222202058574783,131.01042074016968,9.765508286799768,4.5732712009462535,18.874556645137293,38.33425967672377,-4.667116456937777,1.0618842227144871,436.7781447787504,23.237326130647684,9.428416813279982,69.12898954568564,1.0066389177460071,121.07621731482593,330.4263581244376,1.274,1.0246641738210605,0.0,7.789952134666339,30.000012855656493,0.0682936560277067,9.852978376375907e-07,-0.0965774581419955,0.1536395854540224,0.0069657238743483,19.40106432756592,39.25834592253205,26.14880145130254,38.63191736229978
0.66,31.22220164746499,131.0104216113992,9.964836458495151,4.501920432835893,18.45227911150337,32.59575299079376,-5.118185941684069,0.933423615500056,383.5125151715984,23.683512374636106,9.624070812326371,69.0719447044589,1.2342928084173987,121.31990371346714,343.2308264543199,1.274,1.0246195561629028,0.0,7.816241438649049,30.000012855656493,0.0696051376853054,1.1070646959839333e-06,-0.1003113622092863,0.1701386565824122,0.0073738153289451,18.97493137669312,38.52914310286406,26.532144677781652,33.008335614151555
0.67,31.22220122518923,131.010422507309,10.170250276967282,4.463493852949194,18.160104261376183,22.42479758911974,-5.54722336645598,0.8196545388213505,289.15624401033847,23.970445014676,9.759785914879185,69.01217425011009,1.4851696586313023,121.58855320026828,351.59095336952026,1.274,1.024572383541697,0.0,7.842580642895817,30.000012855656493,0.0704485874254931,1.2390732083825217e-06,-0.1041486409222599,0.1869295619042616,0.0077484914032648,18.68261875240736,38.04753296351103,26.775505307884156,23.115256164562748
0.68,31.222200801912656,131.01042340777917,10.375885715578503,4.44707921679197,17.955344456523296,28.00172271278961,-5.95500610374264,0.7176048936369471,340.89999248584934,24.14059427157579,9.85149715478385,68.94949399070124,1.759396021226636,121.88232665657276,356.5930187458286,1.274,1.0245245285832842,0.0,7.869261726303571,30.000012855656493,0.0709488167760717,1.3815303524454413e-06,-0.1080587742193616,0.2038801336516259,0.0080963051742351,18.48023206867578,37.73626250497133,26.915075213473195,28.63692597614034
0.69,31.22220037613591,131.01042431578952,10.582615332052235,4.4020789983018,17.64574485459149,34.47844497503612,-6.405210819956486,0.596555849608099,401.0140726853658,24.438601547148465,9.991683154783924,68.8837262991561,2.056876042244148,122.2011487517116,365.4441401010138,1.274,1.024479631064582,0.0,7.89551806056402,30.000012855656493,0.0718248228587312,1.5345597955495036e-06,-0.1120186709518167,0.2208923695886496,0.0084964405086987,18.16958423332625,37.2357807020958,27.166778928355903,35.073433998204145
0.7,31.22219994190668,131.01042524264273,10.793728730766215,4.342183783246071,17.28411841880294,28.88489739021737,-6.887225116174691,0.4628991765108298,349.270324209851,24.80306131795038,10.157190663753072,68.81469682690023,2.377344296615505,122.54476431351172,376.4177295343904,1.274,1.0244351749185203,0.0,7.921502744998784,30.000012855656493,0.072896140354525,1.6981879114522232e-06,-0.1160493842485548,0.2380497976263793,0.0089332518457824,17.805045976907586,36.64327395607796,27.477053265933897,29.698239723792856
0.71,31.222199500725218,131.010426185188,11.008307716684536,4.301885390470059,16.999525288165852,23.697532894671145,-7.347406883038776,0.3405059560350187,301.3312640634036,25.05762163143189,10.281255573603753,68.74220597608308,2.7206320374316006,122.91302375157969,384.17601062119263,1.274,1.0243880468141104,0.0,7.947621539695942,30.000012855656493,0.0736444708107566,1.872501193997686e-06,-0.1201605931573583,0.2553880107864525,0.0093444643657239,17.519806856797345,36.20394889071975,27.688895664533423,24.812766824863402
0.72,31.22219905695589,131.01042713511674,11.223935372174545,4.268144875559811,16.742091025629918,29.019692427682457,-7.799614228143898,0.2220691618535191,350.7922053414578,25.265217979259567,10.387670538218131,68.66603567575346,3.086593133529952,123.30580396098776,390.5599033820545,1.274,1.024337302174265,0.0,7.973689218723187,30.000012855656493,0.0742547781133651,2.0576426400515124e-06,-0.1243297848065756,0.2728123945382557,0.0097485885412994,17.262474600937846,35.82447594434864,27.857794739714137,30.050388440381294
0.73,31.222198609055752,131.0104280952577,11.441437679966771,4.213330307767848,16.40965339695317,36.72019216331842,-8.294133561239809,0.0862020707622886,422.3203185282354,25.574368920481007,10.532806845784249,68.58597179816303,3.474913836374307,123.72280427510609,400.1679811895752,1.274,1.024292465384646,0.0,7.999480970576408,30.000012855656493,0.0751635608672649,2.253687021026271e-06,-0.1285458561820959,0.2902755094458953,0.0102022848562301,16.92751156646282,35.30755048854984,28.11689665370316,37.645352898328895
0.74,31.22219815303174,131.01042907266273,11.662871647173088,4.141534707967914,16.01851644358197,22.883655781106327,-8.831671248184355,-0.0663483127520298,294.4828134710563,25.96945234877168,10.710813010569275,68.50179782382693,3.8851827987011736,124.16362145506872,412.6186296416232,1.274,1.0242470321640116,0.0,8.025098849212016,30.000012855656493,0.0763249093147909,2.4606459673797047e-06,-0.1328242316773076,0.3078358867636017,0.010704473393234,16.5316602080838,34.68219205864253,28.45298430515468,24.52885078928021
0.75,31.22219768853392,131.01043006758715,11.888316430502222,4.108980253564865,15.77353554488938,26.716193315687505,-9.290075972599434,-0.186244723667067,330.24688556441737,26.12965829446576,10.79968939961544,68.41327647072775,4.317042302291226,124.62791219394448,417.71619042966,1.274,1.0241984712898409,0.0,8.050770896111443,30.000012855656493,0.0767959541640908,2.6785676461665663e-06,-0.1371771374401686,0.325538367007559,0.0111232389687128,16.286782597570173,34.35128793336979,28.576180290499863,28.285953827915172
0.76,31.222197225362446,131.01043106260363,12.112691635198328,4.053033795893599,15.446343983987754,28.73352110661226,-9.800891660059667,-0.327375490760032,349.2703242098581,26.41213592467933,10.935282843277264,68.3201513667191,4.770164992220433,125.1153684196888,426.787349112388,1.274,1.0241522053390697,0.0,8.076456996563044,30.000012855656493,0.0776263620255069,2.907618226582996e-06,-0.1415588096367889,0.343199435301528,0.0116023742303151,15.956709791685132,33.86504036766019,28.809158520909214,30.360828170988846
0.77,31.22219675236837,131.01043207708705,12.3416564029284,3.9932295334064896,15.107068368452792,26.797294590800668,-10.324097928267305,-0.4733135504239922,331.76876669606884,26.706083417398865,11.075537500723163,68.22219154505194,5.243931742960278,125.6253707779329,436.3302708890303,1.274,1.0241065975906936,0.0,8.101636574317618,30.000012855656493,0.0784904886423393,3.147747963024703e-06,-0.1459877809836803,0.3608897083682529,0.0120982792131226,15.61403313793772,33.36256950960392,29.051695938434428,28.721177224055822
0.78,31.22219627394784,131.010433103048,12.572884368553844,3.937393573348324,14.78502744439411,21.893057373758698,-10.838348130295664,-0.6159008606279571,286.8734378128874,26.963390609336304,11.202004469519384,68.11914496307304,5.737792551726462,126.15737663680332,444.76878964334674,1.274,1.0240588105546735,0.0,8.126946201016388,30.000012855656493,0.0792469338287768,3.398982935730778e-06,-0.1504622931523688,0.3785981898082295,0.0125889477489837,15.2890271719051,32.90149674192334,29.26012849627768,24.436756847713976
0.79,31.222195790712888,131.01043413930495,12.806034953232585,3.888907898223172,14.491162174243836,31.221154717258447,-11.329315001420404,-0.7501784134600743,373.6203323159581,27.16001123360215,11.305455641519917,68.01075420032477,6.2511502163059935,126.71079505937443,451.26896259221314,1.274,1.0240083170932772,0.0,8.152123556881058,30.000012855656493,0.0798250229653464,3.661359374047401e-06,-0.1549718350933376,0.3962820014858309,0.0130605133839772,14.993112749745029,32.50585993036537,29.41208721966332,33.221629218513954
0.8,31.22219530384777,131.01043518377608,13.040502695241983,3.813725396976532,14.104770374857845,31.56964061313291,-11.89874432396166,-0.914592224830347,377.42502064505805,27.516439828408224,11.470458332798884,67.8967645495063,6.783317514089371,127.28494055302276,463.1805145318011,1.274,1.0239625010683884,0.0,8.177102834178434,30.000012855656493,0.080872803503014,3.934898062423333e-06,-0.159501699658626,0.4138822523004393,0.0136183755642529,14.6011629849286,31.92713681229222,29.70970167984812,33.749945242431146
0.81,31.222194805635688,131.01043624858096,13.279853287818629,3.742833593341383,13.73595735639648,20.30083597446833,-12.45747123904388,-1.0752516805248356,273.9374926939922,27.834071267128248,11.620904786410748,67.77692945190317,7.333498500625882,127.87901262954212,473.92463346064216,1.274,1.0239149950770308,0.0,8.20183260682839,30.0000128556565,0.0818065661465691,4.21949169244951e-06,-0.1640754994443925,0.431485593181678,0.0141702736210619,14.227291973342345,31.39142500343543,29.9711016345804,23.84258159491846
0.82,31.222194302285807,131.01043732342072,13.521072445050605,3.693619267036413,13.445605203241223,26.15724974074429,-12.937420434457676,-1.2076674798582137,328.725004432774,27.98747511096944,11.708343990867691,67.65097967129897,7.9009866029078974,128.49230954567656,479.151876699668,1.274,1.0238644186635044,0.0,8.226706832129356,30.000012855656493,0.0822576562015354,4.515167406075679e-06,-0.1686814664416315,0.4490439086899404,0.0146480156225817,13.93469384803605,31.02811661650011,30.08017420550176,29.206797534811948
0.83,31.222193797938537,131.01043840191136,13.762281821242524,3.62218641330836,13.079404839019263,33.32430096820247,-13.489450995886008,-1.367647584365686,395.6875032246518,28.281874166504924,11.850423657356576,67.5186532787247,8.484982114912722,129.1240313082092,489.2739167047444,1.274,1.0238188483711983,0.0,8.251408625419538,30.000012855656493,0.0831231471856656,4.821985623528522e-06,-0.1732864390148782,0.4664314867477555,0.0152058397415312,13.563270475553566,30.5116426394157,30.318584911236865,35.977003531489
0.84,31.22219328238376,131.0104394993153,14.00799253252496,3.538623887745125,12.673139810909827,20.2106532152772,-14.08712700450447,-1.5449745719335106,275.45937482564227,28.65367528087724,12.02285146858558,67.37971698376217,9.084495856564656,129.77317493203432,502.2108773126572,1.274,1.0237739661568126,0.0,8.275751251755558,30.000012855656493,0.0842161398695461,5.139777677605545e-06,-0.1779096709144739,0.4837172560047272,0.0158163872473147,13.150110418248085,29.91545274347152,30.628174938519283,24.68409603483901
0.85,31.222192757612174,131.01044061201486,14.257155411191476,3.482954323269356,12.365226047927004,22.010483805564004,-14.564049267566062,-1.6799127542377663,292.9609323393965,28.80065833883684,12.108437409285278,67.23392223175989,9.698610164592488,130.43881641853582,507.3642743856989,1.274,1.0237227741398531,0.0,8.300191625157442,30.000012855656493,0.084648376365768,5.468441730894798e-06,-0.182558574975622,0.5009244706809279,0.0163125425988074,12.839034882745276,29.540866219848446,30.727941070646413,26.44607788094366
0.86,31.22219223410138,131.0104417247513,14.50525244601607,3.413152399772216,12.010472994230154,27.67725909078232,-15.088413296668808,-1.8334226832880225,346.2265619465616,29.03916008926245,12.229804936832233,67.08101556633271,10.326417639172329,131.1200445884822,515.7898690038861,1.274,1.023674789281455,0.0,8.32459873955887,30.000012855656493,0.085349598760198,5.8080632018999125e-06,-0.187190000359993,0.5178938887228671,0.0168644955537546,12.479178460449672,29.071121320901668,30.911974420187317,31.57613537665716
0.87,31.2221917004168,131.01044285370276,14.757093124793688,3.332099658198184,11.618683504071884,25.58355258347924,-15.655648913926427,-2.0035879966039905,327.9640783669946,29.353286463107818,12.381058868073737,66.92078724532153,10.96679336040614,131.81571352805364,526.996423638365,1.274,1.0236288969245204,0.0,8.34853938610788,30.000012855656493,0.0862730992490762,6.158442712527598e-06,-0.1918137971333952,0.5346593520441298,0.0174675796053978,12.080730631096396,28.52598350210153,31.165862512595364,30.060470231982542
0.88,31.22219115780736,131.01044399648595,15.011990781283991,3.2562118404995264,11.246493382099878,21.832532318802688,-16.188733281420998,-2.163115318032763,294.4828134710421,29.610735823830467,12.51057037138001,66.75302485889569,11.61864882116328,132.52471739857347,536.2681082124633,1.274,1.0235805388426191,0.0,8.372499013295398,30.000012855656493,0.087030026454999,6.519402928713787e-06,-0.1964363217855729,0.5512397498705547,0.0180449846738733,11.702562758900928,28.03176413267232,31.366008484254152,27.26561241908312
0.89,31.22219061012112,131.01044514761915,15.268319979617912,3.183397829146604,10.886258437500366,23.9328762399972,-16.69166460980662,-2.3137511490847595,315.02813424808807,29.82501184463012,12.623503395063135,66.57751705480335,12.280913886255057,133.24597078304828,544.0441309735737,1.274,1.0235293752791452,0.0,8.396409034172862,30.000012855656493,0.0876600666804334,6.890863372997647e-06,-0.2010421752184403,0.5675780320635792,0.0186012715469454,11.336771042097531,27.57276420426267,31.52475120549527,29.270252423667007
0.9,31.222190056706715,131.01044630783653,15.5263072632444,3.1029104712540243,10.50191563924706,26.4371789514403,-17.22099503445175,-2.4754721657898022,339.3781423542166,30.090212119776208,12.756829858975104,66.39407575243969,12.952447661595016,133.97831130322578,553.7485708475131,1.274,1.0234837388140003,0.0,8.420118059727864,30.000012855656493,0.0884397864608469,7.272699342435383e-06,-0.2056184320777638,0.5836266766279801,0.0191933757536168,10.945784570196963,27.064684596729784,31.730627717467296,31.648302692730457
0.91,31.22218949416424,131.01044748116288,15.787177146437488,3.0176879532994385,10.103663246708663,19.603955556732068,-17.76395040618529,-2.643781969165807,277.7421810230785,30.383804772716022,12.9018249416936,66.20253604773512,13.632058333011193,134.7205204629687,564.5930829450425,1.274,1.023436404813438,0.0,8.443650411045203,30.000012855656493,0.0893029635174741,7.664682833568382e-06,-0.2101665575915008,0.5993880435386518,0.0198088361841939,10.540201371202055,26.529845613761857,31.96267180856245,26.586887568954417
0.92,31.22218892299716,131.01044866651043,16.050621498158456,2.9423640306672345,9.739274604762697,23.499895227478778,-18.22800614209913,-2.7866691482873214,315.0281342480675,30.56627217716961,13.003272905130927,66.00274337647602,14.318568896223352,135.4713947849739,571.3802218872556,1.274,1.0233859136578225,0.0,8.467118690785489,30.000012855656493,0.0898395320537644,8.0665970403438e-06,-0.2146840682691536,0.6148505165054003,0.0203556276204947,10.1699270837631,26.08500447668545,32.08875727827381,29.870902372725535
0.93,31.222188348894782,131.01044985674886,16.314492582709867,2.855751098342738,9.339857427572609,28.130747438988408,-18.744728949317,-2.949968500100248,359.16250706547066,30.84173002322644,13.14203143310033,65.79455838280958,15.010804793099291,136.22973191211224,581.7102389314182,1.274,1.0233407575091376,0.0,8.490494408562867,30.000012855656493,0.0906494199339653,8.478334529871404e-06,-0.2191477209705116,0.6299328701556864,0.0209655803609174,9.762984929887748,25.56011292961237,32.302342557225984,33.932375823262056
0.94,31.222187762995908,131.01045106218027,16.581930691798625,2.762749644583891,8.921626904367612,19.699459689422586,-19.289104997746414,-3.1249653849999945,283.06875048378083,31.16847152999797,13.30183042116434,65.57788014359312,15.707521285629744,136.99425037342309,594.0857043524189,1.274,1.0232914783978162,0.0,8.513590010622666,30.000012855656493,0.0916100487228582,8.899554888581678e-06,-0.2235642674930668,0.6446553492283443,0.0216141390449095,9.336295528266833,24.993107779485413,32.56422115151965,27.74713845294176
0.95,31.222187166792263,131.01045228045697,16.852249199664488,2.6817922040598527,8.543289091260032,25.97314715501584,-19.72386121039497,-3.264410848386341,342.421873617488,31.349796913293588,13.403983414099985,65.35261621511204,16.407526203473743,137.7637233643935,601.0025017598992,1.274,1.0232418269359267,0.0,8.53668319090202,30.000012855656493,0.0921432794508414,9.329955871321098e-06,-0.2279335185027346,0.6590134797253399,0.0221641814053153,8.951335664173534,24.5365580410611,32.68680637737509,32.776385590392564
0.96,31.222186568451065,131.0104535022058,17.122589729268988,2.586901584529093,8.123046472723537,25.21149049085128,-20.24270307203249,-3.4352345480708,337.09533515678265,31.66777024538131,13.561491601674447,65.11869035492293,17.109654898069685,138.5369509832777,613.2400512669029,1.274,1.0231951201821403,0.0,8.559712196660177,30.000012855656493,0.0930781501414409,9.769424483098644e-06,-0.2322278341454735,0.67291450253071,0.022810208293485,8.522384707024328,23.974263941954813,32.939465245935544,32.514413985692826
0.97,31.222185954761407,131.01045474168907,17.39734718078104,2.494207978761381,7.711166818715244,15.016052392803395,-20.72230966166453,-3.595024956554726,245.0218871929888,31.94568155936206,13.70355274842842,64.87607340894132,17.81268161508321,139.31266194976007,624.0342073250929,1.274,1.0231476260761452,0.0,8.582436023844679,30.000012855656493,0.093895280269462,1.0217497841135648e-05,-0.2364582139236366,0.6863910702943922,0.0234289376638071,8.102194506526006,23.440449800949967,33.15329546880792,25.842216460969112
0.98,31.222185334217023,131.0104559892133,17.673562899770722,2.411833786802276,7.332278075183824,22.92975293721545,-21.081858199327456,-3.716137632206709,319.593746642963,32.07830167058503,13.787239927128471,64.62474237894449,18.51546106174184,140.08966881462052,629.2095330264731,1.274,1.0230935628253934,0.0,8.605227340844774,30.000012855656493,0.0942853733649209,1.06739111891608e-05,-0.240611267087291,0.6993965161378743,0.0239387704477966,7.716699486465206,23.00692879849349,33.22691209742799,31.36922048441424
0.99,31.2221847116322,131.01045723979922,17.949695028851437,2.3144417775446127,6.909567866353997,25.126653225133303,-21.550171950012448,-3.877325083436943,341.66094855170127,32.381200738630895,13.940674672665237,64.36470763395516,19.216848035127367,140.86677889751743,641.1312410383766,1.274,1.0230490803133316,0.0,8.627834795298865,30.000012855656493,0.0951759586738279,1.1138491998016584e-05,-0.2446614191375833,0.71184917208057,0.0245709209490506,7.285106276110183,22.45224499651194,33.46392430487918,33.32855027110922
1.0,31.222184072151528,131.0104585081431,18.230336525750907,2.2163484843752594,6.48648693613957,21.94053885578583,-22.00085329671608,-4.0352312943258255,314.2672081822764,32.67993432854089,14.093239679676266,64.09602759411166,19.915670830983608,141.6427638586605,652.9977522457438,1.274,1.022999484445133,0.0,8.650142564260642,30.000012855656493,0.096054311063343,1.16106444531584e-05,-0.2486221641056936,0.7237871964611527,0.0251983617874668,6.853153097903663,21.900416667625944,33.69665424158174,31.33221796593049
1.01,31.22218342402312,131.01045978542768,18.51276968662728,2.1210688221441374,6.073724396029196,22.88819079302472,-22.39265884945398,-4.175756071152714,324.92031610370094,32.922820742187824,14.22358929910446,63.81876565945036,20.61085660136529,142.41649806012325,662.7223699231564,1.274,1.0229507481225095,0.0,8.672523577071464,30.000012855656493,0.0967685219579987,1.2089991002295894e-05,-0.2524847168142818,0.7351793770723003,0.0257793309100184,6.432122102833957,21.384639677668897,33.87509329092524,32.291444484440454
1.02,31.222182768078937,131.0104610707208,18.79671129205695,2.0223829819966124,5.653004266586289,18.282873439329467,-22.79067205269732,-4.32137060384064,284.59063161543185,33.19807345388595,14.368006547492897,63.53301509229836,21.30136383918877,143.18688345207937,673.8317571040445,1.274,1.0229039803623294,0.0,8.69476084361239,30.000012855656493,0.0975778721303978,1.2576199220660806e-05,-0.2562343955856508,0.7459791921825663,0.0263801933150157,6.002766776779171,20.847480570174817,34.08460532931095,29.535613041003156
1.03,31.22218209993432,131.010462367797,19.08337231226097,1.9271014132205264,5.243341734929054,14.005382887571091,-23.11380205066113,-4.444248415422544,247.3046933904342,33.40239729112797,14.483719844455024,63.238905823628095,21.98617311488432,143.95283861934007,682.1329517896421,1.274,1.022853416101322,0.0,8.716835228725683,30.000012855656493,0.0981787512115305,1.3068786756231148e-05,-0.2598665316003115,0.7561690406124287,0.0269180562098627,5.5853360411887225,20.35265936814457,34.224870363242005,27.3888652383154
1.04,31.222181425698047,131.01046367079172,19.37091349111068,1.83287204010088,4.837896208489156,24.470118101437496,-23.38430012330941,-4.55204197867574,345.4656368807608,33.56823676146387,14.583939546235076,62.93659341824616,22.664318144672777,144.71333292651556,688.9041809401036,1.274,1.0228049544826707,0.0,8.738839697338403,30.000012855656493,0.0986665187496329,1.3567397718126667e-05,-0.2633658793389582,0.7657021897338173,0.0274152211164585,5.172685132091388,19.878612872137708,34.32726903176726,34.15162160616877
1.05,31.22218074418392,131.01046498062937,19.659638925321165,1.7273307485926777,4.4043644852570445,12.808204289290032,-23.77430066743804,-4.704270162147949,240.4562587980608,33.91410440771939,14.760435311739563,62.62627102064269,23.334862686036427,145.4673602240792,703.1539544975194,1.274,1.022755494436122,0.0,8.760632476725533,30.000012855656493,0.0996834461048452,1.407160342131004e-05,-0.2667215347230548,0.7745459377106912,0.0280498217380037,4.73035077192108,19.30084852826331,34.60525921004807,27.411633061538087
1.06,31.222180042979662,131.0104663074054,19.95281976478865,1.633109261944932,4.0015468722787215,19.96109037481721,-23.962927198731467,-4.7901501396595725,308.1796836557233,34.036099020631035,14.843416284032235,62.30816420916504,23.99691695580012,146.21395675752106,708.201831516598,1.274,1.0227013895379469,0.0,8.782244481511908,30.000012855656493,0.1000423548209116,1.4580615014627464e-05,-0.2699426480963042,0.7827187528322797,0.028489886854561,4.321467954586173,18.848077392190568,34.66414967433642,31.55332862383627
1.07,31.2221793446542,131.01046763200677,20.244317955982595,1.5293196994186489,3.5770616730175737,24.12688068893102,-24.260192916575047,-4.9169100653707885,348.5093681440431,34.32565968182637,14.99807485711538,61.98250815758849,24.64968099470637,146.95224990885987,720.2829163627911,1.274,1.0226540159946436,0.0,8.803921651054418,30.000012855656493,0.1008937927532895,1.5094273756880424e-05,-0.2730016728654228,0.7901464105540909,0.0290570475188404,3.889877807328401,18.30444947650981,34.88717827840298,34.56644813570372
1.08,31.22217862558633,131.01046897350616,20.54032030047955,1.42372636473623,3.15051997685471,14.362309494648436,-24.5560159188476,-5.046720017580989,261.0015785751465,34.64434265676575,15.166350049884612,61.64958799659229,25.292368826919304,147.6813724805155,733.6985035538127,1.274,1.0226061614050743,0.0,8.825211426001976,30.000012855656493,0.1018308412853173,1.5611751690267828e-05,-0.275905383582071,0.796840755384969,0.0296379005213382,3.456982712118512,17.748163373115613,35.13897583032358,28.891923348275345
1.09,31.222177894141826,131.01047032454147,20.83848096761869,1.3247409000213208,2.7413206163573927,12.562675822435798,-24.69165807737649,-5.124228400730768,246.54375332456465,34.7986124804718,15.264946728664968,61.3097001789195,25.924279266345263,148.40054253685992,740.2261114093577,1.274,1.0225512795791307,0.0,8.846571525210399,30.000012855656493,0.1022846339394427,1.613243672975169e-05,-0.2786475333438429,0.8027789561488684,0.0300648907026846,3.044410914364334,17.276085896566883,35.22905384787762,28.17368486961797
1.1,31.222177160328503,131.01047167742067,21.13628278004091,1.2238927208372044,2.3297619129218594,30.51073757459168,-24.81820658745832,-5.201916704795832,413.1890617384087,34.977062203461706,15.374597281593823,60.96316668010456,26.544766145608648,149.1090298553774,747.8160495487507,1.274,1.0224981043155532,0.0,8.867830258244794,30.000012855656493,0.1028095021941062,1.665603593777508e-05,-0.2812087010320031,0.8079140331609117,0.0304959495196192,2.631516349392745,16.7920067970897,35.342919511471344,39.6725147043516
1.11,31.22217641411415,131.01047303954175,21.436171926872728,1.1122840843017072,1.8998603508173617,20.57594159858718,-25.14531584331664,-5.353713478286116,324.1593910379213,35.43575176242516,15.607417469321712,60.61034744225067,27.153221904560706,149.80613711308328,767.5362833809799,1.274,1.0224548851875197,0.0,8.888812595937074,30.000012855656493,0.1041580995521202,1.7181902260055006e-05,-0.2835842752328603,0.8122316754310444,0.0311559761796185,2.201406769368344,16.180625405268863,35.734126443938784,32.928992233838606
1.12,31.222175638802312,131.01047442217552,21.74194728118768,1.008888031029441,1.488514958151154,3.842275459697555,-25.24942385612525,-5.431118353705134,172.7328179403806,35.6583296514894,15.738422758711552,60.25162393343633,27.74910092602473,150.49122650830324,777.1857868105977,1.274,1.0223979224661404,0.0,8.909696346482297,30.000012855656493,0.1048126956644509,1.7708890083398646e-05,-0.2857827993274341,0.8157344157774739,0.0315938020978975,1.798138712627045,15.681158018552726,35.89211873359267,26.11117638763933
1.13,31.222174864422705,131.01047580375783,22.046446386117942,0.9109453991909529,1.0878108935259592,24.89038923560146,-25.158768373208087,-5.4431158000616575,367.5328077894322,35.68203099368937,15.7822104799033,59.88738694803399,28.3319256766081,151.16372715918902,778.196527835076,1.274,1.0223460397860296,0.0,8.930743019547807,30.000012855656493,0.1048827228458458,1.823681215409096e-05,-0.28778249304499,0.8183771201920677,0.0318350874063223,1.4188214649694004,15.268358731713445,35.85289366387228,35.80673975621575
1.14,31.22217408951276,131.0104771857553,22.35012861008497,0.8013503283958249,0.6735916713282896,10.72840467191745,-25.3660522879762,-5.5645090306412985,239.6953177322812,36.10707436018907,16.005080905167112,59.51806393603732,28.901256189225005,151.82310025783826,796.8234182620747,1.274,1.0223022138470996,0.0,8.951460824694395,30.000012855656493,0.1061324466441033,1.8765415680851428e-05,-0.2895683632069387,0.8201375171221446,0.0324132705061132,1.0468326049727703,14.690375844662633,36.21287945518887,28.098025486372727
1.15,31.22217327729981,131.01047859199215,22.661096002990167,0.6999787734584197,0.2720253922775744,10.2854617661296,-25.281531696128507,-5.585995640603173,237.4125115347709,36.216658239256,16.088360198532587,59.144108786547726,29.45670601038098,152.46885758120197,801.643483200351,1.274,1.0222426194541194,0.0,8.97189092517744,30.000012855656493,0.1064549289741962,1.9293219489780826e-05,-0.2911512280345406,0.8210096153865217,0.0326883855134927,0.7509756426257416,14.244313828218049,36.2593877274263,27.85946725875608
1.16,31.222172475281145,131.01047999112978,22.968741370295685,0.5967914481515083,-0.1279708380616788,37.6833103602044,-25.21849672851775,-5.618663457626935,490.043774385954,36.39251059999002,16.202060992230034,58.7659833260004,29.9979409652106,153.10056043095128,809.4233293760003,1.274,1.02219674531104,0.0,8.992575622618093,30.000012855656493,0.1069721992385544,1.982019516323735e-05,-0.2925130253634234,0.8209740311920707,0.032999766238058,0.6103572525430956,13.775421040751764,36.37240900446668,45.68997522432925
