Time,Latitude,Longitude,Altitude,Angle of Attack,Angle of Sideslip,X-Acceleration,Y-Acceleration,Z-Acceleration,Thrust,True Velocity,Ground Velocity,Pitch,Roll,Yaw,Dynamic Pressure,cp,parachute_deploy_gain,Wind Speed,Mach,omega_x,omega_y,omega_z,Cmq,Angle of Attack(total),Angle of Attack(gust),True Velocity(gust),Acceleration
0.0,31.222186000000004,131.010384,3.000000003643237,0.0,0.0,0.0,0.0,0.0,2.2828121974499247,0.0,0.0,69.99999999623421,0.0,113.69999999388332,0.0,15.288,0,0.0,0.0,0.0,0.0,0.0,-0.0,0.0,90.0,0.0,0.0
0.01,31.22218600000153,131.01038399999584,2.99999882256592,0.0,0.0,0.0,0.0,0.0,34.24218696174923,7.502283530665459e-11,7.190531319924593e-11,69.99999999623329,-4.83564628150269e-13,113.69999999388072,3.446445726795683e-21,15.288,0,0.0,2.204725565824978e-13,-3.659182332138578e-19,7.589415207398531e-19,4.811147140404426e-19,-1.5108918610345807e-31,0.0,89.9999999995224,7.502283530665459e-11,0.0
0.02,31.22218600000288,131.01038399999217,2.999997775701936,0.0,0.0,0.0,0.0,0.0,25.871876237766408,1.5320717031631675e-10,1.4674636035870463e-10,69.99999999623222,-9.67129256300373e-13,113.69999999387804,1.4372842949972735e-20,15.288,0,0.0,4.5023593667086093e-13,-7.284483346386986e-19,1.5178830414797062e-18,9.757819552369542e-19,-6.170906918166791e-31,0.0,89.99999999902465,1.5320717031631675e-10,0.0
0.03,31.22218599928065,131.01038400193067,3.000201659671132,18.81500467334555,-0.00012974450181,11.96616230539064,-1.8916256735984712e-05,3.349833086198469,180.34219359854663,0.0882870268161719,0.0553390044312322,69.99999999799445,-4.212591857125379e-12,113.69999999488518,0.0047728553458352,15.288,0,0.0,0.0002594525584132,3.2187251995663407e-17,-7.20264389268894e-10,1.2365134327422308e-11,1.6874092354518158e-13,18.815004673776716,89.46786891739345,0.0882666465974854,12.426199017587786
0.04,31.22218599548236,131.0103840121632,3.001799604587872,9.46752327608497,-4.6177622759613696e-05,55.21900012092241,3.931876292165237e-06,3.349616504302861,548.6359724538078,0.3767519978512604,0.1853356633749705,70.00000000507204,-2.4624598767003407e-11,113.70000000019972,0.086915163246288,15.288,0,0.0,0.0011071759353184,1.6174128009138757e-15,-1.3693172015529268e-08,2.7753303060112748e-11,1.3689612277852356e-11,9.467523276196548,87.63554493451223,0.3767447442872393,55.32050167054111
0.05,31.222185984749512,131.01038404118162,3.00777936418888,5.376730308971262,-2.257790939128127e-06,80.28807156553681,5.266841443842784e-05,3.348887800834877,761.6984298824644,1.018787885905993,0.4366201147110198,70.00000000894464,-1.1355399380652658e-10,113.70000001523856,0.635552918586145,15.288,0,0.0,0.0029939522895272,1.6418815498809788e-14,-9.32122351075408e-08,4.303264669380585e-11,2.5199270302492604e-10,5.3767303089717045,83.57022052969386,1.0187875312530217,80.35788377762394
0.06,31.22218596447235,131.01038409608267,3.0201664202003013,4.296730121134882,2.4863835723705905e-05,60.21296515808257,0.0001057204249726,3.347700952379021,590.4875390737208,1.721098934225416,0.7081674028809783,69.99999995523842,-3.0560354507026086e-10,113.70000004366592,1.8138247671743823,15.288,0,0.0,0.0050578622752421,8.328976953118383e-14,-3.2824985336199985e-07,5.923438275930214e-11,1.4991363363716091e-09,4.296730121206683,79.20467073327266,1.7211028398275985,60.305955550063224
0.07,31.22218593493329,131.01038417609837,3.038741944736831,3.8204913578752526,4.8016684030909405e-05,91.4060317508128,0.0001597686613101,3.346072557365335,855.2937749779139,2.4375792548422868,0.9844712334613328,69.99999973536046,-5.939103491363046e-10,113.7000000850886,3.6383156301599167,15.288,0,0.0,0.007163413150771,2.709313825263564e-13,-7.906546256197275e-07,7.920022733617308e-11,5.114174483651565e-09,3.820491358176508,74.87999294483174,2.437586797285377,91.46725557277466
0.08,31.222185894468456,131.01038428575305,3.0647976109320942,3.588632851766762,7.220043782492885e-05,19.18449428359557,0.0002119618497595,3.3440615022685813,241.2171988638848,3.1292508166901074,1.2522236515868983,69.99999919480445,-9.914748373602156e-10,113.7000001418522,5.996012698481753,15.288,0,0.0,0.0091960591623389,6.80386533246681e-13,-1.5973238302190878e-06,1.0839624626357699e-10,1.3263625118823921e-08,3.58863285249208,70.86684630658345,3.1292621579083604,19.473766155861934
0.09,31.22218584634549,131.01038441616095,3.0957981580345013,3.551302481506045,9.685468678862004e-05,57.102946699906326,0.0002554087225869,3.341892818148368,563.0937377043176,3.701810007254615,1.479132491047967,69.99999812344194,-1.4359264356978275e-09,113.7000002093888,8.390904013834115,15.288,0,0.0,0.010878666406854,1.440096519545733e-12,-2.748643691533636e-06,1.5214952332699618e-10,2.6999776649034504e-08,3.5513024828250237,67.68737872952666,3.701825221153239,57.20065357568538
0.1,31.222185790329306,131.01038456796124,3.1319266121977414,3.608446747536112,0.0001234669721807,54.26147302645416,0.0002914860332524,3.3396271157106168,538.7437595981919,4.174070299823608,1.6716491241860567,69.9999963052332,-1.902380107712657e-09,113.70000028805804,10.668380938744466,15.288,0,0.0,0.0122665227999911,2.687800116751415e-12,-4.315796035622946e-06,2.1749089204950437e-10,4.7802076800548326e-08,3.608446749645647,65.17160335282355,4.174089693970246,54.36414778470795
0.11,31.222185727066616,131.0103847393952,3.172681775073216,3.633547373470009,0.0001485939126744,42.987553988990406,0.0003293995000288,3.337005588796181,442.8656393052949,4.672024955140527,1.8729475711242067,69.99999349387662,-2.3433348587116544e-09,113.70000037699285,13.365573690709628,15.288,0,0.0,0.0137298902182575,4.5789425819531184e-12,-6.340230783164189e-06,3.1157625832417107e-10,7.860218435507205e-08,3.6335473765043056,62.62546922225161,4.672048296217748,43.116880735560244
0.12,31.22218565692512,131.0103849294629,3.2177790417108385,3.650108937861461,0.0001727442530266,46.86777100765684,0.000367618259785,3.334068179146888,475.58594813540446,5.17479364099247,2.0758708919414386,69.99998941286465,-2.702771525550512e-09,113.70000047573096,16.396890189902592,15.288,0,0.0,0.0152074069417046,7.288473386564583e-12,-8.86736416607888e-06,4.42271554299792e-10,1.217615295152289e-07,3.6501089419435786,60.16906436414164,5.174820775596283,46.986210423745625
0.13,31.222185580265183,131.0103851371844,3.2669395832841857,3.7280113734654137,0.0001995014041665,51.64515456841877,0.0003986198234033,3.3311573548369657,515.9156326236895,5.579364582999854,2.2451120211463422,69.99998375846928,-2.9114380666036422e-09,113.70000058383452,19.060875702782603,15.288,0,0.0,0.0163963474924215,1.100846422415094e-11,-1.1941028436408576e-05,6.179653149059831e-10,1.7678562106638216e-07,3.728011378795934,58.279338776943774,5.579395920607139,51.75247433579817
0.14,31.22218549718016,131.01038536230575,3.320091807147376,3.768719651034081,0.0002242721760019,48.1660778383537,0.0004326225136175,3.32784677779744,486.2390860568404,6.025734265159953,2.428648685938864,69.99997621008868,-2.890941335368725e-09,113.70000070125378,22.232643351545065,15.288,0,0.0,0.0177081261985351,1.5941871344608664e-11,-1.560901486259027e-05,8.477542742712431e-10,2.495765160917323e-07,3.7687196576976176,56.27980129251342,6.025769493750979,48.280903250602165
0.15,31.22218540777004,131.01038560455507,3.377159065217065,3.821894709649632,0.000249725644238,46.56959330999435,0.0004643042952466,3.324387732286376,472.54218587214,6.441023336496372,2.6014999612196745,69.99996641132823,-2.546763407193136e-09,113.70000082794672,25.402620271850456,15.288,0,0.0,0.0189285691155931,2.2314099732464315e-11,-1.992367942778425e-05,1.1417519574710292e-09,3.4051816697623295e-07,3.821894717796148,54.501255563441134,6.441062563308839,46.68809885900716
0.16,31.22218531193176,131.01038586421257,3.4382223512025254,3.8463320955387794,0.0002733212404609,36.974247749122085,0.0004987816203583,3.3205066466509234,391.1218908297564,6.895451966878468,2.7877331692857847,69.99995397923414,-1.77088415515292e-09,113.70000096417354,29.113317717489338,15.288,0,0.0,0.0202640360420561,3.0367358387834494e-11,-2.4945905791363795e-05,1.5114297685186711e-09,4.5643121540033697e-07,3.846332105235269,52.641145594326446,6.895494900078523,37.12304892183151
0.17,31.222185210004127,131.010386140357,3.503019838429153,3.8860314262554336,0.000297865039677,46.520531453299206,0.0005306403365217,3.31650761597812,471.78125980632376,7.314788342774694,2.9619016331667103,69.99993849340957,-4.3039914767238207e-10,113.70000110959404,32.761746921137856,15.288,0,0.0,0.0214963781445172,4.0366633128431416e-11,-3.0713078585132897e-05,1.96747427715988e-09,5.961228045584824e-07,3.886031437653654,51.00464968745696,7.314835131305714,46.63860064094784
0.18,31.22218510147516,131.01038643438045,3.571950002194137,3.9107265153396016,0.0003214293682635,38.895647526122765,0.0005639254295027,3.312149448254175,407.10156721191447,7.754626295791602,3.1430587898572058,69.9999195084231,1.6149322372810674e-09,113.70000126508234,36.81988229018681,15.288,0,0.0,0.0227889722876034,5.2593391349219385e-11,-3.731786027786564e-05,2.525509173087448e-09,7.6786585232224e-07,3.9107265285284982,49.36615848311875,7.754676785798701,39.036415444581515
0.19,31.222184986476247,131.0103867459258,3.644912152926752,3.920599115663931,0.0003437679584038,43.86258669386953,0.0005989384366483,3.307389681300437,448.9531328318269,8.219206165926856,3.332657190859447,69.99989653019398,4.538529095696477e-09,113.70000143063515,41.36350714675367,15.288,0,0.0,0.02415428010977,6.735860419174937e-11,-4.481243905342629e-05,3.199401151670645e-09,9.773118416308382e-07,3.92059913071168,47.71893898797248,8.21926016487149,43.987104227715655
0.2,31.222184864792144,131.01038707557822,3.722074668489528,3.943376465171875,0.000367328732016,40.28070981710589,0.0006315894240138,3.30251450988504,418.51563019916136,8.65238089736321,3.511445117640573,69.99986902534273,8.534090245934178e-09,113.7000016067622,45.83799876721736,15.288,0,0.0,0.025427299120469,8.499785987217288e-11,-5.328041996372527e-05,4.006766070954748e-09,1.2232205148646746e-06,3.9433764822533854,46.2587826635041,8.652438597225508,40.41586552155969
0.21,31.22218473678744,131.01038742234647,3.803156063113743,3.9664546506877016,0.000390962054969,38.67679184347145,0.0006636984664108,3.297405915846789,404.8187610144644,9.079179692250786,3.688002035198235,69.99983642883521,1.3827831253856693e-08,113.70000179318536,50.47126980736161,15.288,0,0.0,0.0266815841422463,1.0586558589671407e-10,-6.275155280099118e-05,4.961340042512481e-09,1.5117124669161171e-06,3.9664546699249135,44.88773728276958,9.079241104426773,38.817098210937615
0.22,31.2221846022986,131.01038778667507,3.8882846911135607,3.956175711337521,0.0004112685792646,46.713636108302936,0.0007011135033803,3.291572407481395,472.5421858721365,9.580256326712124,3.889976788904857,69.99979815126248,2.0662823443484168e-08,113.70000199039316,56.195522894218605,15.288,0,0.0,0.0281541581291438,1.3033127211465288e-10,-7.330053770532661e-05,6.0817207473359025e-09,1.8632831045819008e-06,3.956175732680424,43.35679625546934,9.580320928629488,46.8294591882524
0.23,31.222184460898035,131.01038816972698,3.977794004014759,3.9879066397329104,0.0004360962274406,38.89105719050748,0.0007308686121188,3.286096544282012,406.3406421461021,9.977039034039262,4.056142701351626,69.99975353557706,2.9316661139418326e-08,113.70000219928508,60.9462612310605,15.288,0,0.0,0.0293202403623685,1.5880617816859538e-10,-8.505067486192354e-05,7.393319440773217e-09,2.2514912291167663e-06,3.987906663538912,42.20670487756048,9.97710753587448,39.0296395118868
0.24,31.222184313516166,131.01038856897196,4.070963590490852,4.003523997322975,0.000459165577055,40.0792299321398,0.0007630441688766,3.280134925833028,416.2328240017114,10.408422364424831,4.234121060914368,69.99970190737699,4.010976417051318e-08,113.70000241888,66.32994780718496,15.288,0,0.0,0.030588009649109,1.91711512587616e-10,-9.795845222523724e-05,8.904557280909524e-09,2.7052895870113487e-06,4.003524023611085,41.011349410369874,10.408494489985014,40.21323112692186
0.25,31.22218416001652,131.01038898478134,4.167901030441617,4.0261356185860135,0.0004830526730531,41.17760020658354,0.0007934613160587,3.2740610008587527,425.36408079150686,10.816813039390448,4.4041629376391525,69.99964258149416,5.3372865854010094e-08,113.70000264972064,71.63651430352668,15.288,0,0.0,0.0317882126436337,2.2947426169209347e-10,-0.0001121037688082,1.0637152702866709e-08,3.217380562698304e-06,4.026135647516394,39.93186687113378,10.816888917126896,41.30755663120434
0.26,31.222184000702686,131.0103894163294,4.26837241014618,4.053359329950934,0.000507503069958,44.80261175215926,0.0008224724146494,3.2678597736729302,455.8015834241788,11.207047269494833,4.567925492611352,69.99957484039399,6.947299261165984e-08,113.70000289176392,76.89781807056055,15.288,0,0.0,0.0329350617559806,2.7254099134167665e-10,-0.0001275114371842,1.260720913253598e-08,3.7915697709142366e-06,4.053359361668992,38.945390435244384,11.207126987890645,44.921630958721536
0.27,31.22218383516388,131.01038986473338,4.372698316214008,4.0614460923241,0.0005296455772492,41.029837477288126,0.0008548809954683,3.2610328932384265,423.84219965987256,11.645685385842508,4.748226940060522,69.99949794024376,8.879821051920497e-08,113.70000314600205,83.0342688744587,15.288,0,0.0,0.0342241635563461,3.2137296827284217e-10,-0.0001442952656441,1.4842505534226832e-08,4.458527942364847e-06,4.061446126801262,37.8838346421185,11.645768582375233,41.15922617924542
0.28,31.222183663504484,131.01039032970942,4.48079961904222,4.081133040992532,0.0005533279247169,47.27661484082626,0.0008845140695959,3.254218495915602,476.3468732012221,12.047344998676092,4.915789434712848,69.99941106884992,1.1178948978424788e-07,113.70000341275257,88.85982357848233,15.288,0,0.0,0.0354045979054623,3.764736350660473e-10,-0.0001625146963723,1.7365685655384934e-08,5.194620655212288e-06,4.081133078439725,36.956255322213885,12.047431915223257,47.38848224631549
0.29,31.22218348566054,131.0103908114315,4.592727908358551,4.1001100265020245,0.0005770279952742,37.989969791857405,0.0009138463939581,3.247164755122801,397.97031042211177,12.446314684600782,5.082367374004485,69.99931338876085,1.3891902435864665e-07,113.70000369260468,94.8417675268915,15.288,0,0.0,0.0365771315767517,4.3836067907166327e-10,-0.0001822432988888,2.0202163500922312e-08,6.018074062137429e-06,4.100110067036654,36.07377590258778,12.446405323946324,38.12849176886316
0.3,31.222183301933686,131.01039130907952,4.708251093558373,4.112858061667493,0.0005998635114143,35.655053282557844,0.000944131403186,3.2397207148238625,378.1859457108711,12.860033399289696,5.253940723820665,69.99920403105713,1.707002607527005e-07,113.7000039856728,101.2505662360602,15.288,0,0.0,0.03779301412572,5.075709863465428e-10,-0.0002035013069687,2.3370674033523645e-08,6.94335970778e-06,4.112858105337573,35.19685285507256,12.860127625629724,35.80193592228613
0.31,31.222183112488807,131.0103918222051,4.827243246502713,4.136140889545823,0.0006242383343011,37.56633644061071,0.0009716215464757,3.232339252743767,394.1656220930212,13.2364445751808,5.4126574282679245,69.99908210036875,2.0768081583188525e-07,113.7000042923011,107.26326115439352,15.288,0,0.0,0.0388992619788015,5.846561731689753e-10,-0.0002263323252403,2.6893437641668458e-08,7.948283231812338e-06,4.1361409365698805,34.43286455705216,13.236542630309057,37.70514091683033
0.32,31.22218291741533,131.01039235056504,4.949637017503345,4.1622282001352975,0.0006491019906456,40.83513712643371,0.0009979686925508,3.224840963348891,421.55939346242695,13.59846554462374,5.566374262777002,69.99894668612772,2.504388718903276e-07,113.70000461297312,113.2095365840355,15.288,0,0.0,0.0399632243410653,6.701756367872645e-10,-0.00025078340164,3.0793566854276295e-08,9.047716714467492e-06,4.16222825066026,33.72644865222576,13.598567505326,40.96227562489027
0.33,31.222182716732533,131.01039289410716,5.075419569102976,4.187801887681037,0.0006739743721461,40.48743503284469,0.0010239291638211,3.217136801802925,418.5156301991682,13.956637761217308,5.718704299733134,69.99879684673242,2.995902922462564e-07,113.70000494831164,119.25032483364384,15.288,0,0.0,0.0410158804634189,7.647061680070125e-10,-0.0002769136723495,3.509664608790402e-08,1.0253455741189656e-05,4.187801941818244,33.053267359159875,13.956743628864118,40.61505097607
0.34,31.222182510255863,131.01039345333336,5.204736257784645,4.19642921746386,0.0006961879027693,31.814592723444047,0.0010535137542081,3.208669900766693,345.46563688075645,14.367047160772364,5.88887983533068,69.99863160305904,3.557915789971256e-07,113.70000529927128,126.36523219087664,15.288,0,0.0,0.042222056531773,8.688448410811866e-10,-0.0003048202762282,3.9835373705550826e-08,1.1618525957862828e-05,4.196429275109305,32.30947868183619,14.367156517712404,31.97598901989736
0.35,31.222182298183583,131.0103940277045,5.337435501771672,4.210915783240843,0.0007193441544952,34.813487415034444,0.0010813034848195,3.200164272309822,370.5765700527033,14.754132934586384,6.050986755458457,69.99844991734221,4.1975736284587617e-07,113.70000566632532,133.26448209504355,15.288,0,0.0,0.0433596939127697,9.832256819293898e-10,-0.0003345386312107,4.503361101379695e-08,1.309465610343774e-05,4.210915844572415,31.63649055965014,14.75424592890194,34.96026256388454
0.36,31.222182080444604,131.0103946174141,5.4735747500461605,4.22903876037745,0.0007431682866607,39.2632255716727,0.0011077666085529,3.1915717453569297,407.8625232777193,15.124417129017054,6.2072589919251575,69.99825073022951,4.922382611919288e-07,113.70000605036684,140.03566173682628,15.288,0,0.0,0.0444479595865755,1.1084921261805627e-09,-0.0003661511460057,5.0723697896912267e-08,1.4691545926915382e-05,4.229038825557203,31.017264542603208,15.124533865618538,39.39272792946638
0.37,31.22218185710795,131.01039522227452,5.613102797925907,4.249164960780052,0.0007674149135003,37.28328237034959,0.001133274451316,3.1828514669894137,391.1218908297666,15.483077353331511,6.359470679857624,69.99803294268581,5.740349991123437e-07,113.70000645214331,146.75405277514704,15.288,0,0.0,0.0455020695186381,1.245311285088233e-09,-0.0003997125883071,5.6934243389647934e-08,1.641828325195534e-05,4.2491650299519,30.439178816713017,15.483197898584232,37.418894813348615
0.38,31.2221816281124,131.0103958424523,5.756069531572451,4.260095806433531,0.0007900626414612,38.9278000801764,0.0011607546399008,3.1735466295306622,404.8187610144602,15.87126705947922,6.521735074464384,69.99779542676283,6.659911329739736e-07,113.70000687263192,154.20298254405043,15.288,0,0.0,0.0466429667223463,1.3943646956867835e-09,-0.0004353006984059,6.369875435270817e-08,1.8328108041903096e-05,4.260095879559656,29.83470194713067,15.87139116222873,39.05694584372078
0.39,31.22218139339905,131.0103964781077,5.9025231349944285,4.274091258047817,0.0008133283308351,33.320076729592266,0.0011870382950339,3.164143363712209,357.64062493382744,16.24457853509073,6.678818328235205,69.9975369905506,7.690136753559805e-07,113.70000731287368,161.54010621938565,15.288,0,0.0,0.0477401448128051,1.5563705124515804e-09,-0.0004730068442167,7.105463478762673e-08,2.0383860516746246e-05,4.274091335289374,29.274934656826048,16.244706292406182,33.46997636540994
0.4,31.22218115316572,131.01039712870306,6.0523126585892895,4.286421841403391,0.0008363022448449,31.88018820767003,0.0012133780841982,3.1544430614236454,345.465636880754,16.62063299903514,6.836764518435374,69.99725641601981,8.840594270905819e-07,113.70000777359816,169.10340080049767,15.288,0,0.0,0.0488453895716005,1.7320643186450851e-09,-0.0005128553637434,7.9027539265021e-08,2.2612406375611563e-05,4.286421922834417,28.730746964325096,16.620764365084565,32.03586915718869
0.41,31.22218090752676,131.01039779392735,6.205351877049411,4.30025870409831,0.0008595777771371,35.882550741685804,0.0012389121673015,3.1445895889870297,378.94687077668647,16.987310563534386,6.99141560549392,69.9969524610574,1.0121301778427253e-06,113.70000825570062,176.64448930727934,15.288,0,0.0,0.0499230826371405,1.922193031274436e-09,-0.0005548883906878,8.764667734700782e-08,2.5005077415911235e-05,4.300258789847355,28.21875643368965,16.987445585695873,36.020076248499606
0.42,31.222180656535848,131.0103984736348,6.36160173428776,4.322008670726048,0.0008844838439129,40.34064925656127,0.001261804338223,3.134918999355981,416.2328240017114,17.318628721060172,7.133856886815013,69.99662385300175,1.154276942054023e-06,113.70000876021427,183.59942989625057,15.288,0,0.0,0.0508968652507098,2.1275184665783874e-09,-0.0005991661829955,9.694534598491077e-08,2.752657757470936e-05,4.322008761057615,27.772396468009568,17.318767655457478,40.462275036947325
0.43,31.222180400205527,131.0103991677914,6.521055075967404,4.339436441324956,0.0009085827200945,35.541853595187746,0.0012854696362701,3.124839917627212,375.9031395134336,17.662848429084132,7.280642039343927,69.99626930133451,1.3115939750280808e-06,113.70000928827632,190.96736675963504,15.288,0,0.0,0.0519085689713619,2.3488101247838237e-09,-0.0006457514522491,1.0695800287133593e-07,3.0255957891170616e-05,4.339436536261635,27.322335771349252,17.662991148924057,35.67895714766603
0.44,31.22218013836212,131.0103998768696,6.683849332059896,4.342209064313268,0.0009296474314902,32.82948243168077,0.0013129688908547,3.113754688841357,353.0750125389216,18.063580761318697,7.446730341918701,69.99588746395321,1.4852372182848018e-06,113.7000098413532,199.7278270846888,15.288,0,0.0,0.0530863610987301,2.586862292117705e-09,-0.0006947575786514,1.1773083546077225e-07,3.329010177793299e-05,4.342209163639375,26.81344244367223,18.06372678999575,32.9768158972058
0.45,31.22217987077456,131.0104006014978,6.850166573233225,4.3420317510315165,0.0009500780330031,38.11022602597878,0.001341042003417,3.1022288449712887,397.2093853562869,18.47486275310604,7.616350301328129,69.99547690348253,1.6764536248320808e-06,113.70001042108892,208.92306716049887,15.288,0,0.0,0.0542951637545535,2.842521175226318e-09,-0.0007463379956615,1.2932090054593452e-07,3.657529369088674e-05,4.342031854775571,26.30944884471334,18.47501199101448,38.23628058998621
0.46,31.22217959739673,131.01040134180155,7.020045503401754,4.351169003849846,0.0009725797783515,44.3937050866137,0.0013660055515545,3.09098240974522,449.7140588976434,18.844323061800488,7.771531995684422,69.99503610583268,1.8865779683531e-06,113.70001102895836,217.3591612614144,15.288,0,0.0,0.0553810645782081,3.1166808800591503e-09,-0.000800596194505,1.417768495237597e-07,4.001824400409673e-05,4.351169112337076,25.873596578896564,18.844475834274814,44.50118229261506
0.47,31.22217931813738,131.01040209802923,7.193559875579052,4.358630093683735,0.0009947969928181,30.22514089990685,0.0013910994973101,3.079396422776949,331.0078106302534,19.2180591098146,7.9280875671397615,69.99456352718363,2.1170044481277104e-06,113.70001166656292,226.0625808853568,15.288,0,0.0,0.0564795377574197,3.4102493884459798e-09,-0.0008576351980594,1.551487523304888e-07,4.3718862242359527e-05,4.35863020698899,25.44665981168229,19.218215372160817,30.381603425148434
0.48,31.22217903348153,131.01040286886197,7.370336324605091,4.365514409145237,0.001016880998596,29.779838936311712,0.001416009414045,3.067527859335786,327.2031223011574,19.5915905767454,8.084483592791102,69.99405758812365,2.369198154608765e-06,113.70001233476164,234.93171707892955,15.288,0,0.0,0.057577416115756,3.7241711041759195e-09,-0.0009173883913609,1.6944871263079066e-07,4.767297940601472e-05,4.365514527349481,25.03354780044292,19.59175030803913,29.937410312943754
0.49,31.22217874361868,131.01040365378466,7.5502307795521535,4.3786401372577615,0.0010404145545081,37.2489281064929,0.0014385799934191,3.0558405437943126,389.60000969812296,19.93403005898306,8.23012235628909,69.99351671352461,2.644660619562788e-06,113.700013034871,243.21198709852868,15.288,0,0.0,0.0585839249886784,4.059374595909599e-09,-0.0009798792959512,1.8470833984680338e-07,5.180951737438081e-05,4.378640260624215,24.667474291142685,19.934193486919103,37.37406598941686
0.5,31.22217844858332,131.0104044527036,7.733219389747018,1.0879540988464562,0.0001689700576365,38.248039584546994,0.001416898279643,3.260581623868706,397.97031042210494,19.76542789292856,8.3664649573212,69.99293932307316,2.9449363413826395e-06,113.70001376847225,239.11100723370416,15.288,0,1.2525784889493092,0.0580885416500194,4.416769394513709e-09,-0.0010472760810716,5.18679161945689e-06,5.490370228757192e-05,1.0879541119660712,24.504539472311063,19.765454434683143,38.38676759763167
0.51,31.22217814844113,131.01040526549988,7.919236395588883,1.149555487768266,0.0005079424799348,29.337068709595886,0.0014201627247209,3.2536796714880296,323.3984349720841,20.10493382287236,8.513989437111823,69.99233585826893,1.1109732231936524e-05,113.70002287871596,247.39143877312603,15.288,0,1.2575490037981345,0.0590864383386251,4.792776034305247e-09,-0.0010637725965035,5.194122220810808e-06,5.672544543111326e-05,1.1495555999728309,24.1419934802658,20.10501361029053,29.516944860419866
0.52,31.222177843123056,131.01040609229145,8.108288383661856,1.208014614813333,0.0005394659408783,35.17349518724838,0.0014427228662779,3.2465506491631704,372.0984511843415,20.45327191067156,8.66432931638381,69.99172254604935,1.928687276010176e-05,113.70003200919857,256.033663725262,15.288,0,1.2625016560293707,0.0601102981779812,5.173869116658822e-09,-0.0010818685728535,5.202694483748777e-06,5.868888815028382e-05,1.208014735250795,23.780271691773702,20.453356649783395,35.323007472275286
0.53,31.22217753249003,131.01040693346215,8.300486837413963,1.2645876977581267,0.0005706507970039,36.9141647683163,0.0014648766584246,3.2392268600473884,386.5562464348624,20.797908308167248,8.813336403456866,69.99109844946015,2.747770949643236e-05,113.7000411615553,264.72977482729846,15.288,0,1.2674372663185054,0.0611232856014019,5.560589826052441e-09,-0.0011016373625287,5.212111564156449e-06,6.076715245601986e-05,1.2645878264915698,23.43266113554753,20.79799794578483,37.05601372704733
0.54,31.222177216445186,131.01040778927555,8.495908715818391,1.3192757919977751,0.0006014915623155,32.45907234778885,0.0014867313290333,3.231700123399514,349.2703242098436,21.140520525523584,8.96158361519207,69.99046259305786,3.568358978183421e-05,113.70005033735438,273.5184805436332,15.288,0,1.2723594424182207,0.0621303307707227,5.953503112015049e-09,-0.0011231513721717,5.222422445960942e-06,6.297329079561377e-05,1.3192759290909286,23.096807007908527,21.14061500759725,32.61955342393487
0.55,31.22217689526517,131.01040865897934,8.694341303172159,1.3725838159330683,0.0006321484105434,34.3820422384491,0.0015078892678887,3.22400517632634,365.2500005919907,21.47504983086608,9.106996428786136,69.9898139673799,4.3905931712731686e-05,113.70005953770944,282.2379492919513,15.288,0,1.277262447348381,0.0631136274276746,6.353215812341722e-09,-0.0011464425947369,5.233658578886943e-06,6.529510717426263e-05,1.3725839614743331,22.77794599625079,21.475149128506207,34.532868982133635
0.56,31.22217656895256,131.0104095425666,8.89578450109167,1.4249336804129824,0.0006628010994525,32.1112779625776,0.0015280457371301,3.2161762952790305,346.2265619465787,21.7968379392376,9.247978786542932,69.98915153745614,5.21462071341708e-05,113.70006876417963,290.75395922017395,15.288,0,1.2821462199715874,0.0640594851172403,6.760332526319355e-09,-0.0011715732257905,5.245865309224442e-06,6.77249476708127e-05,1.4249338345305986,22.479456099819632,21.79694205179084,32.271937727492606
0.57,31.22217623758056,131.01041043983827,9.10018345183438,1.47506548707202,0.0006928350142251,31.754644532793844,0.0015485669690281,3.208084901253964,343.1828296833023,22.12675530439478,9.39167344942414,69.98847423748937,6.040595299836809e-05,113.70007801829288,299.61640528960214,15.288,0,1.2870086424314169,0.0650292406842339,7.17548144791357e-09,-0.0011985950680683,5.25908380383688e-06,7.033434386993109e-05,1.4750656497477308,22.181229214595955,22.12686413466432,31.916285193233364
0.58,31.2221759011294,131.0104113508484,9.307555496510425,1.5220366137987384,0.0007217789452839,41.709251395217066,0.001570387465515,3.199622197744539,426.1250058573153,22.47926516195269,9.543031113068464,69.98778096776854,6.868677369825576e-05,113.70008730178058,309.2329015736924,15.288,0,1.2918497297130112,0.0660654011075583,7.599303280587553e-09,-0.0012275724177871,5.273361718444018e-06,7.318090989901701e-05,1.522036784899221,21.870786629646165,22.479378538724287,41.83179695666722
0.59,31.22217555920448,131.0104122766699,9.518208694953136,1.569422097286283,0.0007513640725786,33.87045157190792,0.0015900877777063,3.1911406035879266,360.68438819711065,22.802050550485063,9.684139432790175,69.98707057339972,7.69903677003548e-05,113.70009661700534,318.1709308643551,15.288,0,1.2966755233232947,0.0670142099738254,8.03243688740518e-09,-0.0012586309743821,5.288777456646053e-06,7.610831513395621e-05,1.5694222770995756,21.594354535702674,22.80216857447759,34.02044783016835
0.6,31.22217521201589,131.0104132167316,9.73198219080492,1.612440651577295,0.0007792548304838,30.135842236273383,0.0016122799129011,3.1821364514626014,329.4859594986058,23.16605083714548,9.83928430109564,69.98634185992991,8.531851999549024e-05,113.70010596556402,328.4035063739484,15.288,0,1.3014817361828417,0.0680841547826341,8.475594411052581e-09,-0.001291807009869,5.305368406511553e-06,7.935979097121235e-05,1.6124408398254024,21.29022377291886,23.16617324220801,30.30338235716819
0.61,31.22217485951764,131.0104141711587,9.9489138242675,1.653500643488166,0.0008065747595185,35.25885304731917,0.0016346882535036,3.172838839522142,372.0984511843297,23.536470910771342,9.996553185198282,69.98559358930889,9.367309954241074e-05,113.70011534950577,338.98260909271005,15.288,0,1.3062698947573,0.0691729747756966,8.929489237897421e-09,-0.0013271774534874,5.323192199014601e-06,8.283467382448394e-05,1.653500840156349,20.989225358393888,23.53659760723829,35.401322393185175
0.62,31.222174501823485,131.01041513964188,10.16891756242841,1.697898889031119,0.0008358923278563,43.764985947049794,0.0016525412495906,3.163830700576244,442.86563930529206,23.839428122709705,10.130647420595524,69.98482447815528,0.0001020560682137,113.70012477075151,347.7580723364489,15.288,0,1.311041957130784,0.0700635307353574,9.3948699224987e-09,-0.0013648005179977,5.342298490453008e-06,8.627752206595725e-05,1.6978990947299724,20.75018177027399,23.83955942436952,43.87919578089675
0.63,31.222174138755182,131.010416122666,10.392133818503584,1.7396054372879384,0.0008642715929983,24.948141354962846,0.0016714647308776,3.1544474969092926,286.11251274707894,24.16192573386889,10.27135295564973,69.98403322758135,0.0001104694370164,113.70013423168844,357.2229356221223,15.288,0,1.3157891579029728,0.0710115226159507,9.87247335145863e-09,-0.0014047730159959,5.362756227774216e-06,9.000384112579733e-05,1.739605651915984,20.501338783594097,24.16206149333325,25.146775118725643
0.64,31.22217377088541,131.01041711867384,10.618120771834208,1.7776172251375455,0.0008911072029867,24.49651919420339,0.001692337963953,3.1445511766532817,282.30782441796754,24.517784828341195,10.423407368854257,69.98321849902321,0.0001189153091844,113.7001437337364,367.81486673930834,15.288,0,1.3205161810301669,0.0720575706495134,1.0363131710151704e-08,-0.0014470559366166,5.384567851871029e-06,9.407635169848448e-05,1.7776174484189713,20.23306954768507,24.51792480313331,24.697523308999518
0.65,31.222173398196805,131.01041812771274,10.846894163730257,1.8182024121882416,0.0009195151503079,43.06784172305924,0.0017096605623041,3.134866232648692,436.7781447787475,24.821383041169607,10.55748671092216,69.98237893362392,0.0001273958411784,113.7001532792084,376.9721208720762,15.288,0,1.3252157895024543,0.0729500316118956,1.0867621508771548e-08,-0.0014917253909025,5.407792392853457e-06,9.817914287996208e-05,1.818202644622173,20.01048964296819,24.82152747827165,43.18178296344446
0.66,31.222173020196816,131.01041915112216,11.078838160380288,1.856772594799676,0.0009472616949584,36.67476351860401,0.0017275163252445,3.1248549572991,383.51251517160017,25.13644188372739,10.695408958873635,69.98151313491307,0.0001359132674029,113.70016287117384,386.5940909036103,15.288,0,1.3298948456015662,0.0738761826957019,1.1386691789364945e-08,-0.0015389505971858,5.432537167295906e-06,0.0001025706684047,1.8567728363454248,19.78449167602182,25.13659067924648,36.807648670269565
0.67,31.222172637067366,131.01042018840755,11.313814094232155,1.8919402181772027,0.000973591026287,25.33576213496797,0.0017470932448393,3.1143272164332227,289.1562440103425,25.48176717865893,10.843617144662351,69.98061963315983,0.0001444699636064,113.70017251189576,397.28017537845614,15.288,0,1.3345580783021915,0.0748912947416903,1.1921206654473453e-08,-0.0015887674558729,5.458844594069251e-06,0.0001073432607806,1.891940468590622,19.54210948849568,25.48192010997971,25.52645451336766
0.68,31.22217224897381,131.01042123911938,11.551696175236357,1.9266865081058084,0.0009999699298939,31.566434799835697,0.001765869110466,3.10363286204524,340.8999924858462,25.817913064980715,10.988599486043972,69.97969692464164,0.00015306838767,113.7001822037476,407.8215347686624,15.288,0,1.3391906878226347,0.0758794361673505,1.2472043229072232e-08,-0.0016412173268041,5.48676005204758e-06,0.0001123471893406,1.9266867675051864,19.312008302942324,25.818070139889983,31.718643508714855
0.69,31.22217185599461,131.0104223030443,11.792425979386389,1.9626927320292693,0.0010272734988785,38.80805768768875,0.0017824579118965,3.09300286794349,401.0140726853634,26.122902531857644,11.122827550185608,69.97874347934406,0.0001617110689646,113.70019194930178,417.50406371262886,15.288,0,1.3438015459192167,0.0767760156899181,1.3040084574848071e-08,-0.0016963541248181,5.516335471436315e-06,0.0001174905384358,1.9626930007616707,19.10846991002328,26.1230638956015,38.931118805002775
0.7,31.2221714579974,131.01042338054248,12.036108577185104,1.9975829052008247,0.0010542870769443,32.58818525564592,0.0017989067775558,3.082128612504209,349.27032420985284,26.42902029989041,11.257358213845269,69.97775773973262,0.000170400608546,113.70020175150556,427.33632735248113,15.288,0,1.3483945943481024,0.0776759187915648,1.3626199621386784e-08,-0.0017542837934582,5.5476505761098285e-06,0.0001229237209259,1.9975831833046132,18.908522739957625,26.429185906917187,32.7336117511707
0.71,31.22217105503493,131.01042447147054,12.282705522992524,2.029963016999985,0.0010802357014615,26.82280222594092,0.0018164101376766,3.070797049681752,301.33126406340574,26.755365360129407,11.39873293902758,69.97673809671707,0.0001791397188478,113.70021161316176,437.9445958805933,15.288,0,1.3529563751229852,0.078635278389441,1.42313100866956e-08,-0.0018150674875088,5.580763021295348e-06,0.000128750273789,2.029963304300802,18.699639996116293,26.755535043156588,26.998009502028495
0.72,31.22217064710956,131.01042557582224,12.532217527860368,2.059451505243488,0.0011048962454474,32.78674515182322,0.0018352585608555,3.058933386892552,350.79220534145287,27.106851563642863,11.548637270367736,69.97568289083512,0.0001879312210724,113.70022153726012,449.51599430713605,15.288,0,1.357497335680058,0.0796685371553797,1.4856354308300006e-08,-0.0018787855146262,5.615741529383266e-06,0.0001350175964631,2.0594518015043994,18.479405805925577,27.10702512033924,32.9291320032008
0.73,31.222170234218563,131.01042669360507,12.784649285353575,2.0925254555657222,0.0011317364293488,41.41297767383503,0.001850141070677,3.047472935533107,422.320318528234,27.398693865836936,11.678019679140142,69.97459039947923,0.000196778066641,113.70023152693568,459.2362752332791,15.288,0,1.3620203790079983,0.0805265071709954,1.5502298493918224e-08,-0.0019455251222899,5.652660076881906e-06,0.0001413156521534,2.0925257614778747,18.301543543748306,27.398871638579536,41.52495411832971
0.74,31.222169816300173,131.01042782498712,13.040051209969944,2.1232417020158385,0.0011575637289674,26.01375272382805,0.0018659875283069,3.035552375565901,294.48281347105944,27.709621110791524,11.81385286553403,69.9734588894743,0.0002056832612366,113.70024158546455,469.70695323000734,15.288,0,1.3665177333199654,0.0814405768259174,1.6170114319313377e-08,-0.0020153751421794,5.69159407806392e-06,0.0001480469270607,2.123242017415683,18.115507640367618,27.709802940476862,26.19026369632777
0.75,31.222169393707965,131.0104289690071,13.2981519105697,2.15212149796234,0.0011825930978314,30.331130712224123,0.0018823821963589,3.023223740525673,330.24688556441487,28.03314591263321,11.953916883690477,69.97228658349276,0.0002146499186307,113.70025171564843,480.7272325257509,15.288,0,1.3709864138637966,0.0823916794937591,1.686085873925467e-08,-0.0020883088005094,5.732556676202521e-06,0.0001551917763369,2.1521218227276044,17.925778055786115,28.03333167392261,30.48142673187504
0.76,31.222168966333168,131.01043012596088,13.559038279202968,2.181820178390331,0.0012082930639954,32.63187183165392,0.0018971826383894,3.0108992248801125,349.27032420986166,28.33479026319544,12.086394843661468,69.97107167350339,0.0002236812330781,113.70026192102983,491.1161026224453,15.288,0,1.3754340748555056,0.0832784817183647,1.7575520736516092e-08,-0.0021644435197654,5.7756396967396895e-06,0.0001625764092176,2.181820512805112,17.752951165298942,28.334980061426087,32.770483319279464
0.77,31.222168534119245,131.0104312960023,13.822756774629235,2.2111332066501466,0.0012340113084978,30.527254485010086,0.0019113841752909,2.9983939740972367,331.7687666960708,28.63058698505741,12.216779282370643,69.96981230488838,0.0002327805086941,113.70027220519388,501.4107890479858,15.288,0,1.379861201345354,0.0841481050987886,1.8315124619214663e-08,-0.0022438791490137,5.820926918915221e-06,0.0001702981709351,2.21113355082397,17.586922205954124,28.63078082310045,30.67415257949045
0.78,31.22216809712965,131.01043247895907,14.089260881676676,2.2381823908676046,0.0012586716179488,25.115427664030445,0.0019265086936372,2.985386670417355,286.8734378128899,28.945356677490366,12.35357676928462,69.96850654501809,0.0002419588099156,113.70028258260612,512.4834754359746,15.288,0,1.3842581738297663,0.0850734999171125,1.9080745697079616e-08,-0.0023266716690018,5.868478799598744e-06,0.0001785184718852,2.2381827446030065,17.413350640194597,28.94555438916576,25.29223683327529
0.79,31.222167655450992,131.0104336745957,14.358486209455313,2.263591807314445,0.0012825971840407,35.592503311393386,0.0019420516418953,2.9719598470862505,373.6203323159534,29.27112872255772,12.494057192232065,69.96715252146113,0.000251204349377,113.70029303500206,524.0705629398307,15.288,0,1.3886301454135224,0.0860312401312142,1.9873468622986293e-08,-0.0024128748955457,5.918355202874655e-06,0.0001872113604846,2.263592170498129,17.23718707130414,29.271330192452247,35.71636657158461
0.8,31.222167208865464,131.01043488350464,14.630604222687916,2.2912157375898072,0.0013079973899816,36.05956523276917,0.0019549730075121,2.9587786454665275,377.42502064505743,29.558186284002048,12.621173631815264,69.96574818816488,0.0002605284464582,113.7003035775166,534.3859624494366,15.288,0,1.392983100321744,0.0868752022993909,2.069435734914469e-08,-0.0025026628144119,5.970685341729011e-06,0.0001960770201572,2.291216110742256,17.08575444567301,29.558391743751592,36.18074929670644
0.81,31.222166757473925,131.0104361054118,14.90553954395026,2.316213411900212,0.0013321062614931,23.56645987775801,0.0019691061127784,2.9450031770203924,273.9374926939919,29.869364431635475,12.756467953079213,69.96429150086637,0.0002699348641243,113.70031421399824,545.6824344942953,15.288,0,1.397314820879428,0.0877900660751233,2.1544567792977968e-08,-0.0025960749179612,6.025523688525408e-06,0.000205531462065,2.3162137947536072,16.924172090726508,29.8695736783977,23.749759551625296
0.82,31.22216630146192,131.01043733981277,15.1831512101333,2.3397024307774705,0.0013555162960671,30.19067360669584,0.0019835788898271,2.930800836550206,328.72500443277005,30.19058593250108,12.895115882179825,69.9627803739173,0.0002794274747157,113.70032494829114,557.4674517430309,15.288,0,1.4016216484216473,0.0887344570600028,2.2425286385790072e-08,-0.0026931266683148,6.082911030861424e-06,0.0002155022716075,2.3397028232211947,16.760469672617766,30.190798856502937,30.332595838538932
0.83,31.22216584081285,131.01043858675288,15.463454894015074,2.3662382472826806,0.0013808645244043,38.29023158634465,0.001994869523968,2.9170131499718086,395.68750322465047,30.463459515985203,13.017091834169904,69.96121267360806,0.0002890102683138,113.7003357846512,567.5749038559965,15.288,0,1.40589944845845,0.0895367547809106,2.3337669791138524e-08,-0.002793920621593,6.1429387795281405e-06,0.0002255823537874,2.3662386499688743,16.624964229368892,30.46367642167745,38.40118233378393
0.84,31.222165375421884,131.0104398465172,15.746534527275983,2.391404026360912,0.0014056150603899,23.76225444755597,0.0020064188181773,2.902838801356348,275.4593748256452,30.74493037121229,13.141921506768515,69.95958624767887,0.0002986873079119,113.70034672753654,578.0959969879892,15.288,0,1.410155925134994,0.09036432918077,2.4282873477505453e-08,-0.0028985786162435,6.205710612208544e-06,0.0002361884359353,2.391404439215789,16.487393176611267,30.745151164709643,23.93890585558935
0.85,31.222164905580502,131.01044111831342,16.03216716885808,2.4128477346516304,0.0014283282834056,25.882865235328225,0.0020200375142983,2.887791378628063,292.96093233939376,31.065537391779788,13.280083314208198,69.95789890568332,0.0003084627655729,113.70035778095888,590.1993985414879,15.288,0,1.4143876745652075,0.0913069393931548,2.52621664063113e-08,-0.0030070575901088,6.271234367196048e-06,0.0002475761103443,2.4128481571639457,16.332673094389413,31.065761753061867,26.043464744868196
0.86,31.222164431116514,131.01044240260995,16.3204890474338,2.43598350881236,0.0014522063143807,32.33129281029055,0.0020315600719841,2.8729179241066305,346.2265619465587,31.35573090591244,13.407720213559136,69.95614837977449,0.000318340977503,113.70036894976192,601.2607481963935,15.288,0,1.4185976102008604,0.092160167681768,2.627672246123244e-08,-0.0031195359279783,6.339648959589725e-06,0.000259228659477,2.435983941416394,16.195852422081284,31.35595901794685,32.458683835156265
0.87,31.222163952053723,131.01044369934215,16.611484529962233,2.4596438135793632,0.0014765686322615,30.127557264181025,0.0020419043301477,2.858004194296304,327.964078366998,31.63071081347568,13.530043535501436,69.95433236794663,0.0003283263833489,113.70038023862092,611.8356261420704,15.288,0,1.422785529474658,0.0929686886387856,2.7327791585881944e-08,-0.0032360928398779,6.411036332110941e-06,0.0002712650737345,2.4596442565123637,16.068770576074694,31.63094275233404,30.262813795985586
0.88,31.22216346842741,131.0104450084141,16.905129123597767,2.481147745335999,0.0014997985285165,26.080396986300663,0.002053117380085,2.8424929080235417,294.4828134710418,31.92515795613921,13.658951231612567,69.95244849406507,0.0003384312620693,113.70039166336096,623.2621020444233,15.288,0,1.4269497749500673,0.0938344358135439,2.8416657321821045e-08,-0.0033567903596088,6.485468856356791e-06,0.0002839938809165,2.481148198349936,15.934546919795862,31.925393543941134,26.234840901185123
0.89,31.222162980318327,131.01044632960662,17.20136320850502,2.50051168775084,0.0015218691281079,28.572537213166587,0.0020651855853758,2.8263555828813414,315.028134248087,32.23918324056231,13.79448331179944,69.95049444065897,0.0003486448276343,113.70040320672511,635.5655023290543,15.288,0,1.4310853004418276,0.0947577357667794,2.9544611335967607e-08,-0.0034816879801518,6.5630180709684045e-06,0.0002974494921003,2.5005121505791803,15.7935363823126,32.23942229520591,28.711986572573927
0.9,31.222162487652025,131.01044766312222,17.50024731884639,2.523334719983412,0.0015461982416957,31.526891755759827,0.0020738816649176,2.8108008911639386,339.37814235421445,32.50065678194553,13.911886932993848,69.94846770316036,0.0003589796644117,113.70041488501836,645.8981836013857,15.288,0,1.43519948163812,0.095526583614904,3.071294647854792e-08,-0.0036109252405728,6.6438053997567134e-06,0.0003109836244164,2.5233351934011803,15.679236253313476,32.500899658197355,31.651943222022723
0.91,31.222161990498343,131.01044900877105,17.80173021040555,2.544029530769585,0.0015693785583062,24.065391983782007,0.002083430065068,2.794625440912958,277.7421810230789,32.78169693645252,14.035909882085535,69.94636581536618,0.0003694406710906,113.70042670333773,657.0978942090525,15.288,0,1.4392911094353311,0.0963529502516707,3.192300603324126e-08,-0.0037445516517608,6.7278981906632285e-06,0.0003252711671099,2.544030014516025,15.557839215256456,32.78194345385996,24.22711346877209
0.92,31.22216148905677,131.010450366011,18.10566044467428,2.562622315960059,0.0015913811948859,28.58774914392757,0.0020938074424289,2.777803171602992,315.02813424806214,33.082231649749865,14.166531983703088,69.9441862588012,0.0003800328825943,113.70043866674112,669.1818190245857,15.288,0,1.4433582627350567,0.0972366243856878,3.3176198050647715e-08,-0.0038825462021671,6.815320519955546e-06,0.0003403400554375,2.5626228097522072,15.429745259249396,33.08248162332338,28.722388409746305
0.93,31.22216098323795,131.01045173508518,18.412110049090074,2.584476374377686,0.0016155431490456,33.94283508269118,0.0021010209973281,2.761566059335913,359.1625070654728,33.33316075176839,14.280030840160912,69.94192646445434,0.000390761464058,113.70045078083427,679.3518268931625,15.288,0,1.447403038113994,0.0979745040612477,3.447383297153683e-08,-0.004025069207191,6.906208937459146e-06,0.0003554992598917,2.584476878969065,15.325608920971602,33.333414520692784,34.05498942835156
0.94,31.222160472933503,131.01045311628835,18.721165686561807,2.602438867669655,0.0016374190378205,24.722355161005503,0.0021103826991913,2.7442519994757166,283.0687504837787,33.62680008647665,14.408096430405688,69.93958380518032,0.0004016394049375,113.70046306240576,691.353151797566,15.288,0,1.4514253964109811,0.0988379282472874,3.581726091893511e-08,-0.0041722544053922,7.000685243442136e-06,0.0003717340000637,2.6024393824361263,15.204502538210615,33.627057291657614,24.874198845334437
0.95,31.22215995842928,131.01045450884348,19.032609186251456,2.6204130863100787,0.0016594059467518,31.925284905945965,0.002119006598005,2.726755274197053,342.4218736174873,33.91307970777055,14.53354337189276,69.93715567376351,0.0004126566788195,113.7004754947028,703.1538089390817,15.288,0,1.4554237343507297,0.0996797289512132,3.7207973039472006e-08,-0.00432404645473,7.098753935858662e-06,0.00038852641614,2.620413611362356,15.088539428550366,33.9133403666471,32.04152017525654
0.96,31.22215943943588,131.01045591353764,19.346667272131697,2.639854461948413,0.0016824621471276,31.284965493853417,0.0021258192083491,2.7094474031228275,337.09533515678345,34.17307945170259,14.649868564833454,69.93463931778724,0.0004238265864155,113.70048809510128,713.9552724114883,15.288,0,1.4594011891945096,0.1004442945855265,3.864727745389384e-08,-0.0044807195420778,7.200627789826633e-06,0.0004056782724408,2.639854997711891,14.985461561464346,34.17334373223862,31.40207279306567
0.97,31.222158915973008,131.0104573303174,19.66332759161485,2.6579191049360915,0.0017047827648199,20.1166550919036,0.0021329135480068,2.691627652039444,245.02188719299323,34.4436786177099,14.76973650719048,69.93203194872031,0.0004351548658069,113.700500869661,725.284874673812,15.288,0,1.4633573817399956,0.1012400234065534,4.013663968187536e-08,-0.0046423589016496,7.30640290548149e-06,0.0004236282396718,2.657919651265536,14.879499966328796,34.443946404360354,20.295927573115613
0.98,31.22215838832484,131.01045875841024,19.982373337155654,2.6721871212117,0.001724764314183,29.1719349702976,0.0021420507617186,2.6726379007738275,319.5937466429581,34.75658843021027,14.904047037503124,69.9293307038522,0.0004466551139197,113.70051383526165,738.5000658073056,15.288,0,1.4672896512829776,0.1021601244474371,4.1677664239995175e-08,-0.0048088716393338,7.416061404474568e-06,0.000442795990727,2.6721876774329627,14.757891929658266,34.756859355555164,29.294108415316316
0.99,31.222157856345326,131.01046019821342,20.30392038409176,2.691773600535313,0.0017482940304983,31.85662788019528,0.0021466016646212,2.654852711705992,341.6609485517054,34.99346374178582,15.012140754521,69.92653275265107,0.0004583178885601,113.70052697637918,748.5773936811823,15.288,0,1.471200988605014,0.1028567458205417,4.3271748476510763e-08,-0.0049804837939648,7.529790708419938e-06,0.0004617090686062,2.691774167871777,14.668862380951223,34.9937383631699,31.967060975729165
1.0,31.222157320033205,131.01046164973067,20.627972545591003,2.707658403491504,0.0017695465063166,28.53515230909875,0.002153114551733,2.635905745695301,314.2672081822764,35.271541326659815,15.134294900581423,69.9236351789779,0.000470156981987,113.70054031050554,760.4982214695204,15.288,0,1.475090224020494,0.1036744820011951,4.49204093040518e-08,-0.0051572661429678,7.647679412039723e-06,0.0004818816695938,2.7076589812902565,14.5646493058427,35.27181928637499,28.65663834157027
1.01,31.222156779565847,131.01046311247967,20.95439563411293,2.7237250129931425,0.0017910148948936,29.834356431080515,0.0021587834969476,2.616816492043145,324.9203161036979,35.54052740965833,15.253232150009287,69.92063496024862,0.0004821864607277,113.70055385518634,772.1175904211937,15.288,0,1.4789568191665858,0.1044655039925524,4.6625253724527135e-08,-0.0053392140257913,7.769767845794532e-06,0.0005026712035034,2.723725601400063,14.465555092313116,35.5408087416201,29.948899092790214
1.02,31.22215623486821,131.0104645866648,21.28325053022416,2.740306142064491,0.0018129305205815,24.93822382744304,0.0021633721818088,2.597685865859465,284.59063161540416,35.7960707654434,15.36745426864258,69.9175291696545,0.0004943971345893,113.70056759503412,783.2361218256798,15.288,0,1.482801730196039,0.1052170218803532,4.838776758307845e-08,-0.0055264802835085,7.896199649773629e-06,0.0005240262870558,2.740306741306039,14.373075961482828,35.7963555399036,25.073152657883153
1.03,31.222155686007326,131.01046607210387,21.61448829349113,2.7542064453965653,0.0018331702329368,20.40929382338929,0.0021691609940878,2.5775991557391764,247.30469339049705,36.080017420102585,15.491347636347136,69.91431473562689,0.0005068032609215,113.70058154795392,795.6858819859282,15.288,0,1.4866242724321923,0.1060520356192234,5.0209544302033167e-08,-0.0057191097638363,8.027048563445077e-06,0.0005465758559759,2.754207054995914,14.271050468385363,36.08030537380937,20.571419408547456
1.04,31.22215513304343,131.01046756863337,21.94806530218832,2.7699800455576127,0.0018547465798454,32.348244501981085,0.0021729047839981,2.557851652906084,345.46563688072297,36.33291730050816,15.604474634049565,69.91098848690682,0.0005194192481717,113.70059573199464,806.8537114431657,15.288,0,1.4904250011017155,0.1067958005404198,5.2092194673728494e-08,-0.0059171782911151,8.162409822035019e-06,0.0005694509003557,2.769980666032096,14.182199015111935,36.33320864341958,32.44921466167924
1.05,31.222154575698664,131.01046907700885,22.284198988431804,2.783510544275462,0.0018749392273173,19.58147980295924,0.0021775128505239,2.53724800012768,240.45625879819983,36.60858757468062,15.725335392778431,69.90754733990667,0.0005322364936742,113.70061013273477,819.1174641235982,15.288,0,1.4942060157241632,0.1076065049770387,5.4037162104627794e-08,-0.0061209976728786,8.3025380725469e-06,0.0005935161275649,2.783511175246805,14.086088217030795,36.60888208944569,19.745176206593214
1.06,31.222154014204182,131.010470596602,22.622713717593143,2.79506664504958,0.0018938843223793,27.82348389216732,0.0021827845647435,2.5158194820844546,308.17968365593924,36.90386182867988,15.85284881888184,69.90398794230696,0.0005452774317461,113.70062477932802,832.357215916366,15.288,0,1.4979657236065311,0.1084748422205758,5.6046243905552884e-08,-0.0063304953218012,8.447432972742605e-06,0.0006187607019798,2.7950672861705845,13.984193714913154,36.90415931933352,27.936993544916003
1.07,31.22215344844721,131.01047212771962,22.96369951369451,2.810042031233192,0.0019152450404363,32.73631824119207,0.0021849272046123,2.495233845918104,348.5093681440308,37.14757524334984,15.962531595642838,69.90030700151348,0.0005585340345915,113.70063965775988,843.3596830259654,15.288,0,1.5017062917793615,0.1091916311504045,5.812102692119679e-08,-0.0065459025482865,8.597299884737847e-06,0.0006440194713465,2.810042683398134,13.902409421172708,37.14787608933723,32.83127668410608
1.08,31.22215287832972,131.01047367062844,23.307234833764248,2.823899146924865,0.0019359635016271,22.089634615058063,0.0021871274469582,2.4741026951344893,261.00157857466235,37.39949905603493,16.074941588165522,69.89650107095224,0.0005720293164021,113.70065479838216,854.8090926111811,15.288,0,1.5054279662233765,0.1099325625084508,6.026316998272317e-08,-0.0067673939052729,8.752308214768791e-06,0.0006703041402208,2.823899810000776,13.818718056244164,37.39980315647058,22.2277562150652
1.09,31.22215230411953,131.01047522460044,23.653115814212622,2.8333425125857943,0.0019537339215669,20.33180432516353,0.0021916738229121,2.451327657828856,246.54375332474407,37.70365090082623,16.205236273472735,69.89256678949464,0.0005857548034512,113.7006701859096,868.7402539929203,15.288,0,1.5091285636666147,0.1108270228825541,6.247456309515397e-08,-0.0069948408101445,8.912421063413185e-06,0.000698443810431,2.833343185636042,13.717741881709696,37.70395779263293,20.479044880223523
1.1,31.22215172589065,131.0104767894345,24.001288246907777,2.844566035834055,0.00197279242569,40.63261288598753,0.0021942518954335,2.428887089299629,413.1890617385841,37.97805685733951,16.325206897405156,69.88850057941214,0.0005997338861678,113.70068585086273,881.4021195960335,15.288,0,1.512808814822685,0.1116340570032402,6.475697412366067e-08,-0.0072283184410274,9.077740343401093e-06,0.0007269854605321,2.844566719367358,13.628595825285338,37.97836674284903,40.70514374437004
1.11,31.22215114325265,131.01047836619244,24.35205616019985,2.859756462244706,0.0019947207851137,29.793345931875223,0.0021933570089369,2.4075773384992147,324.1593910376397,38.19305105216792,16.424625539195336,69.88429888994065,0.0006139671630701,113.700701791732,891.3795861343762,15.288,0,1.5164722320486494,0.112266463014941,6.711189353934019e-08,-0.0074683073564496,9.2486515730078e-06,0.000755348917988,2.859757157339803,13.56099798818735,38.19336438217608,29.890464955702107
1.12,31.22215055626628,131.01047995470915,24.70537531149472,2.8666164116946087,0.0020109431185478,11.34361494344221,0.0021974376254969,2.383192109462261,172.73281794065943,38.513033473353694,16.56010279471016,69.87995816657818,0.0006284542072033,113.70071800486912,906.3473975949804,15.288,0,1.5201172292816505,0.1132074858805927,6.95411807234566e-08,-0.0077148383908655,9.42523205724494e-06,0.0007867937401108,2.8666171164482206,13.4585799704342,38.51334935156003,11.59125573199128
1.13,31.22214996550544,131.01048155342443,25.06080619732124,2.8775349006996485,0.0020300461458061,35.09093512660512,0.0021980079983386,2.359959377055368,367.5328077900705,38.77273176240332,16.674738144923083,69.87547452287983,0.0006432192788266,113.70073452106234,918.5804785424672,15.288,0,1.5237414029579672,0.1139713155222343,7.204709387952508e-08,-0.0079675246666747,9.607265919401045e-06,0.0008180151097095,2.877535616176742,13.377834925066493,38.77305064130616,35.17020246106354
1.14,31.222149370327347,131.01048316408617,25.418847015910604,2.891263527824216,0.0020512499758674,19.509395828733712,0.0021959198741551,2.3375257497985142,239.69531773195544,38.98811182763092,16.77400770743041,69.87084431518512,0.0006582629736073,113.70075133902796,928.7821923319258,15.288,0,1.5273495537071884,0.1146048820184175,7.463093690972239e-08,-0.0082271067004928,9.795328602090036e-06,0.0008493289054744,2.8912642548513143,13.312715165149784,38.98843403722359,19.64893272051303
1.15,31.222148771203795,131.0104847854117,25.77913674133599,2.896438712983099,0.0020664491418405,19.232617854074007,0.0021988925354645,2.311741174762539,237.41251153546767,39.31288387218964,16.910887332475905,69.86606381039891,0.0006735936108431,113.7007684668966,944.28752113585,15.288,0,1.5309373241243327,0.1155600137043732,7.729495946060986e-08,-0.0084931897861147,9.98919771185641e-06,0.0008840712626515,2.896439449503673,13.212604679004992,39.31320846926172,19.371054220539136
1.16,31.22214816826846,131.01048641703775,26.14157534663198,2.910370812772512,0.0020879423786744,50.057460562479854,0.0021952163084701,2.288956417086696,490.0437743845894,39.51306857691274,17.00474567053253,69.86112905879277,0.0006892199680304,113.70078591376452,953.8955872235396,15.288,0,1.5345062449749955,0.1161489306621377,8.00410958468379e-08,-0.008765826073227,1.018896563334386e-05,0.0009170648100418,2.9103715610882697,13.154059292558571,39.513396550134566,50.109766356095925
1.17,31.222147560676863,131.0104880612605,26.506815747753784,2.9196377370958664,0.0021062326996444,9.022833274945077,0.0021939118608251,2.264216927626004,153.70937929486794,39.769950381610926,17.118046494553052,69.85603622889539,0.0007051514091634,113.70080369102322,966.3049057754024,15.288,0,1.5380610191335202,0.1169045183241438,8.28705450359742e-08,-0.0090459912168422,1.0395389791106667e-05,0.0009524943209298,2.9196384961584214,13.077978245485204,39.770281227869646,9.302591220517726
1.18,31.22214694954307,131.0104897150511,26.87400269594305,2.9227137247609525,0.0021200661571919,24.44086225050812,0.0021959976998168,2.2367925558481176,280.02501822196746,40.10568283735509,17.258468747016142,69.85078131870583,0.0007213962495063,113.7008218056356,982.6539349850688,15.288,0,1.5415940127867085,0.1178918987364581,8.578623877447814e-08,-0.0093325780296271,1.0607733853854765e-05,0.0009909309893733,2.9227144930161435,12.97804830273958,40.10601585656824,24.543002939913773
1.19,31.2221463343657,131.01049137977296,27.243525088167043,2.938481315453879,0.0021431757370456,42.562878228960734,0.0021888858747005,2.214131050720721,428.4078130529292,40.261560393017135,17.336769672241935,69.84536020134654,0.000737963757185,113.700840268118,990.2721301954156,15.288,0,1.5451114058863669,0.1183505992048878,8.878957251171862e-08,-0.0096263656245295,1.082661870111977e-05,0.0010260615297813,2.938482096329013,12.935426244014309,40.2618970422746,42.62042918876259
1.2,31.22214571471357,131.01049305659845,27.61571695566117,2.943465470340255,0.0021585433732753,4.559788420325983,0.0021881391201363,2.1869345133068183,117.1843741360236,40.55890181162984,17.463777528799785,69.8397689220332,0.0007548638353637,113.70085908990346,1004.9170126192718,15.288,0,1.548607964700777,0.1192251479747094,9.18821745785242e-08,-0.0099278736581291,1.1052485792987075e-05,0.0010659758137068,2.9434662611104816,12.849499416436062,40.55924087482995,5.0571096281951675
1.21,31.222145091702927,131.01049474249297,27.98972225765966,2.9486849631604843,0.0021740727934831,34.21321823873472,0.002186487804032,2.159527226526336,359.92343213200894,40.84763236333012,17.587752421806126,69.83400320338697,0.0007721053452062,113.7008782784784,1019.2389177065874,15.288,0,1.5520827845426013,0.1200743943225613,9.506711843536021e-08,-0.0102359546558255,1.1284557791573573e-05,0.0011068392734254,2.9486857639274056,12.767351511386778,40.847973865885855,34.281304888730936
1.22,31.222144464484447,131.01049643976566,28.366196847718395,2.962729983379873,0.0021962025240655,24.82796139937627,0.0021783026639334,2.1355991589353978,283.0687504825761,41.00797036601902,17.66731467522538,69.82805885750624,0.0007896988387074,113.7008978465956,1027.219047960152,15.288,0,1.5555433393851317,0.120546230975441,9.834544762749533e-08,-0.0105518099719344,1.152377779434624e-05,0.0011454307775918,2.962730796651037,12.724800575146745,41.00831534470471,24.919639960512395
1.23,31.22214383339775,131.01049814749342,28.744881737427363,2.9665105903384767,0.0022107967437593,9.763474751534991,0.0021760304214834,2.107079985729807,159.79687382222795,41.3043227530197,17.793759738685974,69.8219317632282,0.0008076614939885,113.7009178148684,1042.0815971107447,15.288,0,1.5589856300134397,0.1214179016026784,1.0171957935768953e-07,-0.0108750574810753,1.176992741635103e-05,0.0011890082825891,2.966511413401962,12.642003884712455,41.30467002416005,9.988254603544744
