Time,Latitude,Longitude,Altitude,Angle of Attack,Angle of Sideslip,X-Acceleration,Y-Acceleration,Z-Acceleration,Thrust,True Velocity,Ground Velocity,Pitch,Roll,Yaw,Dynamic Pressure,parachute_deploy_gain,Wind Speed,Mach,Angle of Attack(total),Angle of Attack(gust),True Velocity(gust),Acceleration
0.0,40.242864999999995,140.01045,5.400029662165046,0.0,0.0,0.0,0.0,0.0,0.0,0.0,0.0,1.0989650651190621e-13,79.99999999569611,282.9999999847757,0.0,0,0.0,0.0,0.0,90.0,0.0,0.0
0.01,40.24286499999995,140.01045000000013,5.400029580411315,0.0,0.0,0.0,0.0,0.0,0.0,5.254855059445511e-12,5.191827446567288e-12,-1.483602837910738e-12,79.99999999570157,282.99999998477386,1.690465543059848e-23,0,0.0,1.5443065550440163e-14,0.0,89.99999999996653,5.254855059445511e-12,0.0
0.02,40.24286499999994,140.0104500000002,5.4000295622438195,0.0,0.0,0.0,0.0,0.0,1.8663281614264753,5.173681225514782e-12,5.118911421138357e-12,-2.8389930848909612e-12,79.99999999570699,282.9999999847723,1.6386423396915682e-23,0,0.0,1.5204510381136597e-14,0.0,89.99999999996706,5.173681225514782e-12,0.0
0.03,40.24286499999993,140.0104500000002,5.400029556566477,0.0,0.0,0.0,0.0,0.0,0.0,6.6405805852418885e-12,6.556835125076069e-12,-4.194383331871207e-12,79.99999999571233,282.9999999847707,2.6995846009922316e-23,0,0.0,1.9515461437230264e-14,0.0,89.99999999995772,6.6405805852418885e-12,0.0
0.04,40.24286499999994,140.0104500000002,5.400029555431009,0.0,0.0,0.0,0.0,0.0,0.0,6.640580585241975e-12,6.556834547021893e-12,-5.751250507456677e-12,79.99999999571777,282.99999998476886,2.6995846009925983e-23,0,0.0,1.9515461437230273e-14,0.0,89.99999999995772,6.640580585241975e-12,0.0
0.05,40.24286499999994,140.0104500000002,5.400029555431009,0.0,0.0,0.0,0.0,0.0,0.0,6.661973187720291e-12,6.58118533327198e-12,-7.216537260948946e-12,79.99999999572333,282.99999998476704,2.717006018295196e-23,0,0.0,1.9578330414324743e-14,0.0,89.99999999995758,6.661973187720291e-12,0.0
0.06,40.24286499999992,140.01045000000033,5.400029499793053,0.0,0.0,0.0,0.0,0.0,0.0,9.807424228726268e-12,9.676981219331566e-12,-8.608559676766576e-12,79.99999999572879,282.99999998476545,5.888365540195472e-23,0,0.0,2.882224029620311e-14,0.0,89.99999999993756,9.807424228726268e-12,0.0
0.07,40.24286499999992,140.01045000000033,5.4000294986575845,0.0,0.0,0.0,0.0,0.0,0.0,9.774004538238718e-12,9.652417599866158e-12,-1.0055530345840254e-11,79.99999999573424,282.99999998476375,5.848303631209231e-23,0,0.0,2.8724025889708976e-14,0.0,89.99999999993777,9.774004538238718e-12,0.0
0.08,40.2428649999999,140.0104500000004,5.400029461187125,0.0,0.0,0.0,0.0,0.0,0.0,1.185889951288964e-11,1.1700162395170747e-11,-1.1612397521425847e-11,79.99999999573981,282.9999999847619,8.609414503481272e-23,0,0.0,3.48511539255882e-14,0.0,89.99999999992451,1.185889951288964e-11,0.0
0.09,40.2428649999999,140.0104500000004,5.400029461187125,0.0,0.0,0.0,0.0,0.0,0.0,1.1907502384931307e-11,1.1748884161312246e-11,-1.3077684274918274e-11,79.99999999574527,282.99999998476017,8.680129285950633e-23,0,0.0,3.4993988947750983e-14,0.0,89.99999999992419,1.1907502384931307e-11,0.0
0.1,40.2428649999999,140.0104500000004,5.400029461187125,0.0,0.0,0.0,0.0,0.0,0.0,1.1831479000645644e-11,1.167569692930956e-11,-1.4506338859573428e-11,79.9999999957507,282.9999999847585,8.569646626854079e-23,0,0.0,3.4770570015428975e-14,0.0,89.99999999992468,1.1831479000645644e-11,0.0
0.11,40.242864999999874,140.01045000000053,5.400029398736358,0.0,0.0,0.0,0.0,0.0,0.0,1.5302778510583394e-11,1.5088745521840614e-11,-1.5934993444228488e-11,79.99999999575607,282.9999999847568,1.4335915229859786e-22,0,0.0,4.4972089423767804e-14,0.0,89.99999999990257,1.5302778510583394e-11,0.0
0.12,40.242864999999874,140.01045000000053,5.400029397600889,0.0,0.0,0.0,0.0,0.0,0.0,1.5302778510583594e-11,1.5088744120965172e-11,-1.7381964113302378e-11,79.99999999576157,282.9999999847551,1.433591522986174e-22,0,0.0,4.497208942376784e-14,0.0,89.99999999990257,1.5302778510583594e-11,0.0
0.13,40.242864999999874,140.01045000000053,5.400029397600889,0.0,0.0,0.0,0.0,0.0,0.0,1.5302778510583798e-11,1.5088742720085268e-11,-1.8847250866794952e-11,79.999999995767,282.9999999847534,1.4335915229862116e-22,0,0.0,4.4972089423768416e-14,0.0,89.99999999990257,1.5302778510583798e-11,0.0
0.14,40.242864999999874,140.01045000000056,5.400029390788078,0.0,0.0,0.0,0.0,0.0,0.0,1.5725404654081095e-11,1.5503254273926297e-11,-2.049569846447415e-11,79.9999999957727,282.9999999847514,1.5138697079508748e-22,0,0.0,4.6214110975931864e-14,0.0,89.99999999989988,1.5725404654081095e-11,0.0
0.15,40.242864999999874,140.01045000000056,5.400029391923547,0.0,0.0,0.0,0.0,0.0,0.0,1.562175211749434e-11,1.5405511992193944e-11,-2.1851088711454916e-11,79.99999999577805,282.9999999847498,1.4939784188278e-22,0,0.0,4.590949497818043e-14,0.0,89.99999999990055,1.562175211749434e-11,0.0
0.16,40.242864999999874,140.01045000000056,5.400029390788078,0.0,0.0,0.0,0.0,0.0,0.0,1.5697853845786938e-11,1.5478730992178366e-11,-2.3334691549366248e-11,79.9999999957835,282.99999998474806,1.508569774670228e-22,0,0.0,4.6133144149322903e-14,0.0,89.99999999990007,1.5697853845786938e-11,0.0
0.17,40.242864999999874,140.01045000000056,5.400029391923547,0.0,0.0,0.0,0.0,0.0,6.906797953663002e-14,1.5649283447390705e-11,1.5430020977475337e-11,-2.4726713965184435e-11,79.99999999578895,282.99999998474635,1.4992489488726521e-22,0,0.0,4.599040456131255e-14,0.0,89.99999999990037,1.5649283447390705e-11,0.0
0.18,40.24286499999985,140.01045000000065,5.400029340827466,0.0,0.0,0.0,0.0,0.0,0.0,1.844234921384025e-11,1.8184481310875888e-11,-2.6192000718677008e-11,79.99999999579425,282.9999999847447,2.0821754524819656e-22,0,0.0,5.419871805992811e-14,0.0,89.99999999988259,1.844234921384025e-11,0.0
0.19,40.24286499999985,140.01045000000065,5.400029340827466,0.0,0.0,0.0,0.0,0.0,5.180101240805053e-13,1.8421339931493726e-11,1.8160295927179647e-11,-2.7675603556588566e-11,79.99999999579981,282.99999998474294,2.0774341806843985e-22,0,0.0,5.413697559114945e-14,0.0,89.99999999988273,1.8421339931493726e-11,0.0
0.2,40.24286499999984,140.01045000000073,5.400029303357004,0.0,0.0,0.0,0.0,0.0,0.0,2.0472820545557597e-11,2.0183477248779144e-11,-2.9195838563337224e-11,79.99999999580523,282.9999999847412,2.5659027887926163e-22,0,0.0,6.016590488412399e-14,0.0,89.99999999986966,2.0472820545557597e-11,0.0
0.21,40.24286499999984,140.01045000000073,5.400029303357004,0.0,0.0,0.0,0.0,0.0,1.0360196930494505e-13,2.0479446993395293e-11,2.0183849269536302e-11,-3.060617706357422e-11,79.99999999581073,282.99999998473953,2.567564071624104e-22,0,0.0,6.018537881198043e-14,0.0,89.99999999986962,2.0479446993395293e-11,0.0
0.22,40.24286499999984,140.01045000000073,5.4000292965441945,0.0,0.0,0.0,0.0,0.0,7.252141182015514e-13,2.085358785942183e-11,2.05496887665727e-11,-3.2126412070323096e-11,79.99999999581615,282.99999998473777,2.6622351405899473e-22,0,0.0,6.128491093108574e-14,0.0,89.99999999986724,2.085358785942183e-11,0.0
0.23,40.24286499999981,140.01045000000084,5.400029253396392,0.0,0.0,0.0,0.0,0.0,0.0,2.3203013411719213e-11,2.2865448936358566e-11,-3.3500118401722634e-11,79.99999999582163,282.9999999847362,3.2958969278474223e-22,0,0.0,6.818944633677693e-14,0.0,89.99999999985228,2.3203013411719213e-11,0.0
0.24,40.24286499999981,140.01045000000084,5.400029253396392,0.0,0.0,0.0,0.0,0.0,0.0,2.3313700267252732e-11,2.2963740459533195e-11,-3.5002037324053e-11,79.99999999582708,282.99999998473436,3.327417196790729e-22,0,0.0,6.851473492156814e-14,0.0,89.99999999985158,2.3313700267252732e-11,0.0
0.25,40.2428649999998,140.01045000000087,5.400029234093428,0.0,0.0,0.0,0.0,0.0,1.8663281614261769,2.3230657036451198e-11,2.289000566412343e-11,-3.648564016196482e-11,79.99999999583271,282.9999999847326,3.3037549426568e-22,0,0.0,6.827068593405457e-14,0.0,89.99999999985211,2.3230657036451198e-11,0.0
0.26,40.24286499999981,140.01045000000087,5.40002923295796,0.0,0.0,0.0,0.0,0.0,0.0,2.4325551873287268e-11,2.3963017056115933e-11,-3.7950926915457806e-11,79.99999999583805,282.9999999847309,3.622515423646365e-22,0,0.0,7.148838319585836e-14,0.0,89.99999999984513,2.4325551873287268e-11,0.0
0.27,40.24286499999979,140.01045000000087,5.400029234093428,0.0,0.0,0.0,0.0,0.0,0.0,2.4346398138603605e-11,2.3987126898112527e-11,-3.9196420655927096e-11,79.99999999584348,282.99999998472936,3.6287268572414624e-22,0,0.0,7.154964658716483e-14,0.0,89.999999999845,2.4346398138603605e-11,0.0
0.28,40.24286499999981,140.01045000000084,5.40002923295796,0.0,0.0,0.0,0.0,0.0,0.0,2.424255715699904e-11,2.3889301313715813e-11,-4.0826552169188346e-11,79.99999999584905,282.9999999847274,3.5978387578716945e-22,0,0.0,7.124447678369756e-14,0.0,89.99999999984567,2.424255715699904e-11,0.0
0.29,40.24286499999979,140.0104500000009,5.400029214790464,0.0,0.0,0.0,0.0,0.0,0.0,2.5406821476059564e-11,2.5035112240845617e-11,-4.2218574585006894e-11,79.99999999585454,282.9999999847258,3.951714053400787e-22,0,0.0,7.466603836698442e-14,0.0,89.99999999983825,2.5406821476059564e-11,0.0
0.3,40.24286499999979,140.0104500000009,5.400029214790464,0.0,0.0,0.0,0.0,0.0,0.0,2.5400109572993296e-11,2.5034698596935688e-11,-4.3757125676174857e-11,79.99999999586004,282.99999998472396,3.9496264236481163e-22,0,0.0,7.464631330171668e-14,0.0,89.9999999998383,2.5400109572993296e-11,0.0
0.31,40.24286499999979,140.0104500000009,5.400029214790464,0.0,0.0,0.0,0.0,0.0,0.0,2.5400109572993638e-11,2.503469623969167e-11,-4.5240728514086945e-11,79.99999999586547,282.99999998472225,3.949626423648221e-22,0,0.0,7.464631330171769e-14,0.0,89.9999999998383,2.5400109572993638e-11,0.0
0.32,40.24286499999979,140.01045000000096,5.4000291954875,0.0,0.0,0.0,0.0,0.0,1.8663281614260736,2.5413626102689916e-11,2.5035557100998697e-11,-4.6687699183161665e-11,79.99999999587108,282.9999999847205,3.953831086389837e-22,0,0.0,7.468603592998275e-14,0.0,89.99999999983821,2.5413626102689916e-11,0.0
0.33,40.24286499999979,140.01045000000093,5.400029196622968,0.0,0.0,0.0,0.0,0.0,0.0,2.6370185237102313e-11,2.5985710871377413e-11,-4.8207934189911e-11,79.99999999587652,282.9999999847187,4.257074009606291e-22,0,0.0,7.749718966274e-14,0.0,89.99999999983211,2.6370185237102313e-11,0.0
0.34,40.24286499999979,140.01045000000096,5.4000291954875,0.0,0.0,0.0,0.0,0.0,1.1050883387199524e-12,2.6383841942152793e-11,2.598663319030684e-11,-4.959995660572984e-11,79.99999999588198,282.999999984717,4.261484495000067e-22,0,0.0,7.75373242409359e-14,0.0,89.99999999983204,2.6383841942152793e-11,0.0
0.35,40.24286499999977,140.01045000000107,5.4000291455268865,0.0,0.0,0.0,0.0,0.0,0.0,2.9128272675677525e-11,2.8692351162243247e-11,-5.1046927274804306e-11,79.9999999958873,282.9999999847154,5.194147788698231e-22,0,0.0,8.560270820235379e-14,0.0,89.99999999981456,2.9128272675677525e-11,0.0
0.36,40.24286499999974,140.0104500000012,5.400029083076119,0.0,0.0,0.0,0.0,0.0,0.0,3.2593446087006656e-11,3.2105235251320426e-11,-5.253053011271607e-11,79.99999999589272,282.99999998471367,6.50347388580513e-22,0,0.0,9.578622411836229e-14,0.0,89.99999999979251,3.2593446087006656e-11,0.0
0.37,40.24286499999974,140.0104500000012,5.400029083076119,0.0,0.0,0.0,0.0,0.0,0.0,3.262115643287906e-11,3.2129822443329657e-11,-5.399581686620972e-11,79.99999999589815,282.9999999847119,6.514536853333365e-22,0,0.0,9.586765979696606e-14,0.0,89.99999999979232,3.262115643287906e-11,0.0
0.38,40.242864999999746,140.0104500000012,5.400029083076119,0.0,0.0,0.0,0.0,0.0,0.0,3.2586593120319306e-11,3.210475594616206e-11,-5.544278753528464e-11,79.99999999590356,282.9999999847102,6.500739384861658e-22,0,0.0,9.576608449270753e-14,0.0,89.99999999979255,3.2586593120319306e-11,0.0
0.39,40.24286499999974,140.0104500000012,5.400029083076119,0.0,0.0,0.0,0.0,0.0,0.0,3.2641965138230113e-11,3.2153911972104326e-11,-5.6889758204359726e-11,79.99999999590905,282.9999999847085,6.522850618299984e-22,0,0.0,9.592881280634865e-14,0.0,89.9999999997922,3.2641965138230113e-11,0.0
0.4,40.24286499999971,140.01045000000136,5.400028995645046,0.0,0.0,0.0,0.0,0.0,0.0,3.744468929893728e-11,3.6883262844100504e-11,-5.842830929552737e-11,79.99999999591448,282.99999998470673,8.583517603805857e-22,0,0.0,1.100431476822802e-13,0.0,89.99999999976163,3.744468929893728e-11,0.0
0.41,40.24286499999971,140.01045000000133,5.400028995645046,0.0,0.0,0.0,0.0,0.0,1.0360203591833225e-12,3.736162346995197e-11,3.680951729488752e-11,-5.987527996460239e-11,79.99999999591994,282.99999998470497,8.545477167288996e-22,0,0.0,1.0979903228280641e-13,0.0,89.99999999976214,3.736162346995197e-11,0.0
0.42,40.242864999999675,140.01045000000147,5.40002893319428,0.0,0.0,0.0,0.0,0.0,0.0,4.088216123614152e-11,4.0271554305703904e-11,-6.121235412716504e-11,79.99999999592518,282.9999999847035,1.0231811555855458e-21,0,0.0,1.2014525399210678e-13,0.0,89.99999999973974,4.088216123614152e-11,0.0
0.43,40.242864999999654,140.01045000000155,5.4000288889110095,0.0,0.0,0.0,0.0,0.0,0.0,4.320387962038269e-11,4.256271939899309e-11,-6.269595696507715e-11,79.99999999593082,282.9999999847018,1.1426950186166152e-21,0,0.0,1.2696836305816097e-13,0.0,89.99999999972496,4.320387962038269e-11,0.0
0.44,40.24286499999966,140.01045000000155,5.400028887775541,0.0,0.0,0.0,0.0,0.0,0.0,4.3307781993642926e-11,4.266056524909592e-11,-6.421619197182704e-11,79.99999999593624,282.9999999846999,1.14819783422585e-21,0,0.0,1.2727371328056133e-13,0.0,89.9999999997243,4.3307781993642926e-11,0.0
0.45,40.24286499999966,140.01045000000155,5.400028887775541,0.0,0.0,0.0,0.0,0.0,1.6576325080799286e-12,4.3307781993643527e-11,4.2660561155032354e-11,-6.558989830322771e-11,79.99999999594165,282.9999999846983,1.1481978342258809e-21,0,0.0,1.2727371328056312e-13,0.0,89.9999999997243,4.3307781993643527e-11,0.0
0.46,40.24286499999963,140.01045000000167,5.400028818511963,0.0,0.0,0.0,0.0,0.0,0.0,4.7064090554287175e-11,4.6365565555476974e-11,-6.71467654788144e-11,79.9999999959471,282.99999998469656,1.3560140253215464e-21,0,0.0,1.3831282257519688e-13,0.0,89.99999999970038,4.7064090554287175e-11,0.0
0.47,40.242864999999625,140.01045000000175,5.400028793531656,0.0,0.0,0.0,0.0,0.0,0.0,4.855406114481896e-11,4.7828563755600605e-11,-6.868531656998292e-11,79.99999999595265,282.99999998469474,1.4432313739787677e-21,0,0.0,1.4269157579238442e-13,0.0,89.9999999996909,4.855406114481896e-11,0.0
0.48,40.242864999999625,140.01045000000175,5.400028793531656,0.0,0.0,0.0,0.0,0.0,0.0,4.854040824577392e-11,4.7827636623001085e-11,-7.002239073254623e-11,79.999999995958,282.99999998469315,1.4424198446664261e-21,0,0.0,1.426514523993471e-13,0.0,89.99999999969097,4.854040824577392e-11,0.0
0.49,40.24286499999963,140.01045000000175,5.4000287923961885,0.0,0.0,0.0,0.0,0.0,0.0,4.8547210441727793e-11,4.782808265602176e-11,-7.159757399255236e-11,79.99999999596363,282.9999999846913,1.4428241391610148e-21,0,0.0,1.4267144281902638e-13,0.0,89.99999999969094,4.8547210441727793e-11,0.0
0.5,40.242864999999625,140.01045000000175,5.400028793531656,0.0,0.0,0.0,0.0,0.0,0.0,4.852636797273127e-11,4.780396740967947e-11,-7.295296423953449e-11,79.99999999596902,282.9999999846897,1.4415855278462565e-21,0,0.0,1.4261019058441806e-13,0.0,89.99999999969107,4.852636797273127e-11,0.0
0.51,40.24286499999962,140.01045000000178,5.400028779906035,0.0,0.0,0.0,0.0,0.0,2.072039386098901e-13,4.9143191794242906e-11,4.841327129332032e-11,-7.430835448651639e-11,79.99999999597448,282.9999999846881,1.4784667417885082e-21,0,0.0,1.4442292387595838e-13,0.0,89.99999999968715,4.9143191794242906e-11,0.0
0.52,40.24286499999961,140.0104500000018,5.4000287742286925,0.0,0.0,0.0,0.0,0.0,0.0,4.9572798636595824e-11,4.8828306879191887e-11,-7.584690557768515e-11,79.99999999597989,282.9999999846862,1.5044290640574894e-21,0,0.0,1.4568546043542816e-13,0.0,89.9999999996844,4.9572798636595824e-11,0.0
0.53,40.24286499999961,140.0104500000018,5.4000287742286925,0.0,0.0,0.0,0.0,0.0,0.0,4.952428280241912e-11,4.8779617648940197e-11,-7.744040492211018e-11,79.99999999598546,282.99999998468434,1.5014858001383464e-21,0,0.0,1.4554288120175902e-13,0.0,89.99999999968472,4.952428280241912e-11,0.0
0.54,40.24286499999958,140.01045000000192,5.400028717455268,0.0,0.0,0.0,0.0,0.0,1.8663281614258664,5.157567869043044e-11,5.0802752376764775e-11,-7.885074342234815e-11,79.99999999599089,282.9999999846828,1.6284511782444052e-21,0,0.0,1.5157156150016108e-13,0.0,89.99999999967166,5.157567869043044e-11,0.0
0.55,40.24286499999959,140.01045000000192,5.400028717455268,0.0,0.0,0.0,0.0,0.0,0.0,5.267065716911231e-11,5.1875794370059656e-11,-8.018781758491157e-11,79.9999999959962,282.9999999846811,1.698330908820579e-21,0,0.0,1.547895045701364e-13,0.0,89.9999999996647,5.267065716911231e-11,0.0
0.56,40.24286499999958,140.01045000000192,5.400028717455268,0.0,0.0,0.0,0.0,0.0,0.0,5.2587529963443294e-11,5.180202084446812e-11,-8.174468476049933e-11,79.9999999960018,282.9999999846793,1.6929743743103329e-21,0,0.0,1.5454520879572648e-13,0.0,89.99999999966522,5.2587529963443294e-11,0.0
0.57,40.24286499999956,140.01045000000207,5.400028655004502,0.0,0.0,0.0,0.0,0.0,4.976875430468453,5.332213885800552e-11,5.251019694573151e-11,-8.308175892306286e-11,79.99999999600716,282.9999999846777,1.7406039411565627e-21,0,0.0,1.567040910454002e-13,0.0,89.99999999966055,5.332213885800552e-11,0.0
0.58,40.24286499999953,140.01045000000215,5.400028605043889,0.0,0.0,0.0,0.0,0.0,0.0,5.881094857245345e-11,5.7921598413713366e-11,-8.460199392981202e-11,79.99999999601246,282.99999998467604,2.1173917083362024e-21,0,0.0,1.7283470687654074e-13,0.0,89.9999999996256,5.881094857245345e-11,0.0
0.59,40.24286499999953,140.01045000000215,5.400028605043889,0.0,0.0,0.0,0.0,0.0,0.0,5.881791036036956e-11,5.792211343921713e-11,-8.604896459888775e-11,79.99999999601792,282.9999999846743,2.117893033509315e-21,0,0.0,1.7285516630804158e-13,0.0,89.99999999962556,5.881791036036956e-11,0.0
0.6,40.24286499999951,140.0104500000023,5.400028549405933,0.0,0.0,0.0,0.0,0.0,0.0,6.191580912116152e-11,6.096962559885843e-11,-8.738603876145095e-11,79.99999999602335,282.99999998467274,2.3468641178039424e-21,0,0.0,1.8195932866631977e-13,0.0,89.99999999960583,6.191580912116152e-11,0.0
0.61,40.242864999999505,140.0104500000023,5.400028549405933,0.0,0.0,0.0,0.0,0.0,0.0,6.183955671567189e-11,6.089633360125896e-11,-8.888795768378272e-11,79.99999999602883,282.99999998467104,2.3410871170194497e-21,0,0.0,1.817352366822364e-13,0.0,89.99999999960632,6.183955671567189e-11,0.0
0.62,40.242864999999505,140.0104500000023,5.400028549405933,0.0,0.0,0.0,0.0,0.0,0.0,6.189506465351763e-11,6.094554612451535e-11,-9.03349283528588e-11,79.9999999960344,282.9999999846693,2.3452917797612946e-21,0,0.0,1.8189836443990325e-13,0.0,89.99999999960596,6.189506465351763e-11,0.0
0.63,40.242864999999505,140.0104500000023,5.400028549405933,0.0,0.0,0.0,0.0,0.0,0.0,6.189506465351846e-11,6.094554019868331e-11,-9.187347944402819e-11,79.9999999960399,282.9999999846674,2.345291779761357e-21,0,0.0,1.8189836443990557e-13,0.0,89.99999999960596,6.189506465351846e-11,0.0
0.64,40.24286499999951,140.0104500000023,5.400028549405933,0.0,0.0,0.0,0.0,0.0,0.0,6.188806097745154e-11,6.094499530590798e-11,-9.333876619752332e-11,79.9999999960455,282.9999999846657,2.3447610513524042e-21,0,0.0,1.8187778190672997e-13,0.0,89.999999999606,6.188806097745154e-11,0.0
0.65,40.24286499999949,140.0104500000024,5.400028485819697,0.0,0.0,0.0,0.0,0.0,0.0,6.536023352252183e-11,6.43584036456611e-11,-9.484068511985424e-11,79.99999999605082,282.999999984664,2.6152428890942327e-21,0,0.0,1.920818670067041e-13,0.0,89.9999999995839,6.536023352252183e-11,0.0
0.66,40.24286499999949,140.0104500000024,5.400028485819697,0.0,0.0,0.0,0.0,0.0,0.0,6.524925094426824e-11,6.425997537694671e-11,-9.625102362009295e-11,79.9999999960562,282.99999998466234,2.6063689924825696e-21,0,0.0,1.917557093464989e-13,0.0,89.9999999995846,6.524925094426824e-11,0.0
0.67,40.24286499999947,140.01045000000244,5.400028474465013,0.0,0.0,0.0,0.0,0.0,0.0,6.597701035141435e-11,6.496767805958699e-11,-9.771631037358775e-11,79.99999999606173,282.9999999846606,2.664833651780945e-21,0,0.0,1.9389446219545458e-13,0.0,89.99999999957997,6.597701035141435e-11,0.0
0.68,40.24286499999946,140.01045000000252,5.400028435859085,0.0,0.0,0.0,0.0,0.0,2.210176677439905e-12,6.803536971788749e-11,6.699132975022012e-11,-9.916328104266331e-11,79.99999999606702,282.9999999846589,2.833703051619117e-21,0,0.0,1.9994360689352109e-13,0.0,89.99999999956687,6.803536971788749e-11,0.0
0.69,40.24286499999943,140.01045000000263,5.400028374543786,0.0,0.0,0.0,0.0,0.0,0.0,7.147980378509601e-11,7.038013377227333e-11,-1.0051867128964522e-10,79.99999999607255,282.9999999846574,3.1278905132756906e-21,0,0.0,2.1006617364005905e-13,0.0,89.99999999954495,7.147980378509601e-11,0.0
0.7,40.242864999999426,140.0104500000027,5.400028342750669,0.0,0.0,0.0,0.0,0.0,0.0,7.324015651902507e-11,7.211117918637722e-11,-1.0202059021197695e-10,79.99999999607786,282.9999999846557,3.2838504223680977e-21,0,0.0,2.1523953091702586e-13,0.0,89.99999999953374,7.324015651902507e-11,0.0
0.71,40.242864999999426,140.0104500000027,5.400028342750669,0.0,0.0,0.0,0.0,0.0,0.0,7.315686553684442e-11,7.203733200099907e-11,-1.035041930498906e-10,79.99999999608336,282.9999999846538,3.2763856758395736e-21,0,0.0,2.1499475383316578e-13,0.0,89.99999999953427,7.315686553684442e-11,0.0
0.72,40.242864999999426,140.0104500000027,5.400028342750669,0.0,0.0,0.0,0.0,0.0,0.0,7.32123869860316e-11,7.20865491673922e-11,-1.0491453155012968e-10,79.99999999608893,282.99999998465216,3.281360703363605e-21,0,0.0,2.1515792129821305e-13,0.0,89.99999999953393,7.32123869860316e-11,0.0
0.73,40.242864999999426,140.0104500000027,5.400028342750669,0.0,0.0,0.0,0.0,0.0,0.0,7.318462332307762e-11,7.206192878509083e-11,-1.0648971481013683e-10,79.99999999609445,282.9999999846503,3.2788724545208217e-21,0,0.0,2.1507632893038137e-13,0.0,89.99999999953408,7.318462332307762e-11,0.0
0.74,40.242864999999426,140.0104500000027,5.400028342750669,0.0,0.0,0.0,0.0,0.0,0.0,7.324015651902895e-11,7.211115107282565e-11,-1.0784510505711992e-10,79.99999999609976,282.9999999846487,3.283850422368445e-21,0,0.0,2.1523953091703722e-13,0.0,89.99999999953374,7.324015651902895e-11,0.0
0.75,40.242864999999405,140.01045000000275,5.400028323447705,0.0,0.0,0.0,0.0,0.0,0.0,7.425898731355085e-11,7.311094872865429e-11,-1.0947523657038278e-10,79.99999999610526,282.9999999846468,3.3758480021182873e-21,0,0.0,2.1823368975988833e-13,0.0,89.99999999952726,7.425898731355085e-11,0.0
0.76,40.242864999999405,140.01045000000275,5.400028323447705,0.0,0.0,0.0,0.0,0.0,0.0,7.418271621454642e-11,7.303764746611287e-11,-1.1090389115504071e-10,79.99999999611076,282.99999998464506,3.3689169243223757e-21,0,0.0,2.1800954283895738e-13,0.0,89.99999999952774,7.418271621454642e-11,0.0
0.77,40.242864999999405,140.01045000000275,5.400028323447705,0.0,0.0,0.0,0.0,0.0,0.0,7.423827915805522e-11,7.308688268156392e-11,-1.1236917790853586e-10,79.99999999611617,282.99999998464335,3.3739654599363087e-21,0,0.0,2.1817283224828698e-13,0.0,89.99999999952738,7.423827915805522e-11,0.0
0.78,40.242864999999405,140.01045000000275,5.400028317770362,0.0,0.0,0.0,0.0,0.0,0.0,7.453630492808259e-11,7.337948903956292e-11,-1.1370625207110036e-10,79.9999999961216,282.9999999846417,3.4011090572121064e-21,0,0.0,2.1904867591096645e-13,0.0,89.99999999952549,7.453630492808259e-11,0.0
0.79,40.242864999999405,140.01045000000275,5.400028317770362,0.0,0.0,0.0,0.0,0.0,0.0,7.45640967132636e-11,7.340410755715325e-11,-1.1520817099343307e-10,79.99999999612717,282.99999998464,3.403645821394404e-21,0,0.0,2.191303509249207e-13,0.0,89.99999999952531,7.45640967132636e-11,0.0
0.8,40.24286499999939,140.01045000000275,5.400028305280209,0.0,0.0,0.0,0.0,0.0,0.0,7.520863982993792e-11,7.403800105005337e-11,-1.1661850949367226e-10,79.99999999613263,282.99999998463824,3.46274338534899e-21,0,0.0,2.210245461953857e-13,0.0,89.99999999952121,7.520863982993792e-11,0.0
0.81,40.24286499999939,140.01045000000275,5.400028305280209,0.0,0.0,0.0,0.0,0.0,0.0,7.518084673922836e-11,7.401336755101106e-11,-1.1812042841600515e-10,79.99999999613814,282.9999999846365,3.460184568739908e-21,0,0.0,2.2094286734471993e-13,0.0,89.99999999952139,7.518084673922836e-11,0.0
0.82,40.24286499999936,140.01045000000295,5.400028223526478,0.0,0.0,0.0,0.0,0.0,0.0,7.971333964172889e-11,7.847470847102075e-11,-1.1954908300066188e-10,79.99999999614353,282.9999999846349,3.889975344161708e-21,0,0.0,2.3426304158478073e-13,0.0,89.99999999949252,7.971333964172889e-11,0.0
0.83,40.24286499999934,140.01045000000303,5.400028192868829,0.0,0.0,0.0,0.0,0.0,0.0,8.141812968965244e-11,8.015650868229128e-11,-1.2106931800741268e-10,79.99999999614899,282.9999999846331,4.058140536504312e-21,0,0.0,2.392731102091589e-13,0.0,89.99999999948167,8.141812968965244e-11,0.0
0.84,40.24286499999931,140.01045000000312,5.400028142908216,0.0,0.0,0.0,0.0,0.0,0.0,8.414885768566934e-11,8.283869647138754e-11,-1.2242470825439524e-10,79.99999999615441,282.99999998463153,4.334922017564309e-21,0,0.0,2.4729822431115833e-13,0.0,89.9999999994643,8.414885768566934e-11,0.0
0.85,40.24286499999931,140.01045000000315,5.400028137230874,0.0,0.0,0.0,0.0,0.0,0.0,8.449537290119682e-11,8.317997449193547e-11,-1.2388999500789063e-10,79.99999999615984,282.9999999846298,4.370696934756522e-21,0,0.0,2.483165696559698e-13,0.0,89.99999999946209,8.449537290119682e-11,0.0
0.86,40.24286499999931,140.01045000000312,5.400028136095405,0.0,0.0,0.0,0.0,0.0,0.0,8.441909062300527e-11,8.310666741786858e-11,-1.253552817613866e-10,79.99999999616533,282.999999984628,4.3628087816305555e-21,0,0.0,2.480923898814336e-13,0.0,89.99999999946257,8.441909062300527e-11,0.0
0.87,40.24286499999931,140.01045000000315,5.400028136095405,0.0,0.0,0.0,0.0,0.0,0.0,8.452317168452203e-11,8.320458688964189e-11,-1.2682056851488198e-10,79.99999999617076,282.99999998462636,4.3735733063147875e-21,0,0.0,2.4839826523619673e-13,0.0,89.99999999946192,8.452317168452203e-11,0.0
0.88,40.24286499999931,140.01045000000315,5.400028136095405,0.0,0.0,0.0,0.0,0.0,0.0,8.448828143329219e-11,8.317937287259088e-11,-1.2834080352163387e-10,79.99999999617631,282.99999998462454,4.369963324020197e-21,0,0.0,2.482957291185094e-13,0.0,89.99999999946213,8.448828143329219e-11,0.0
0.89,40.2428649999993,140.01045000000323,5.400028091812134,0.0,0.0,0.0,0.0,0.0,0.0,8.696946804145846e-11,8.561761640801908e-11,-1.2976945810629138e-10,79.99999999618166,282.9999999846229,4.630399546211761e-21,0,0.0,2.5558748635977084e-13,0.0,89.99999999944633,8.696946804145846e-11,0.0
0.9,40.242864999999306,140.01045000000323,5.400028091812134,0.0,0.0,0.0,0.0,0.0,8.288164205734329e-13,8.699016841929777e-11,8.56416564918033e-11,-1.3119811269094988e-10,79.9999999961872,282.9999999846212,4.6326040538278225e-21,0,0.0,2.5564832101425124e-13,0.0,89.9999999994462,8.699016841929777e-11,0.0
0.91,40.24286499999926,140.0104500000034,5.400027996432781,0.0,0.0,0.0,0.0,0.0,0.0,9.213235180331501e-11,9.071170312411748e-11,-1.3273666378211875e-10,79.99999999619254,282.9999999846195,5.196478730809615e-21,0,0.0,2.707602649538196e-13,0.0,89.99999999941346,9.213235180331501e-11,0.0
0.92,40.242864999999256,140.0104500000035,5.400027958962322,0.0,0.0,0.0,0.0,0.0,0.0,9.426700311475952e-11,9.280865043186635e-11,-1.3422026662003232e-10,79.99999999619794,282.9999999846178,5.440066898800601e-21,0,0.0,2.7703361783526805e-13,0.0,89.99999999939988,9.426700311475952e-11,0.0
0.93,40.24286499999923,140.0104500000036,5.4000279021888975,0.0,0.0,0.0,0.0,0.0,0.0,9.730233089669372e-11,9.58063667677214e-11,-1.3563060512027116e-10,79.99999999620329,282.9999999846162,5.796039380203056e-21,0,0.0,2.859538954397676e-13,0.0,89.99999999938055,9.730233089669372e-11,0.0
0.94,40.24286499999923,140.0104500000036,5.4000279021888975,0.0,0.0,0.0,0.0,0.0,0.0,9.738564803852848e-11,9.588020837531612e-11,-1.3709589187376694e-10,79.9999999962087,282.9999999846144,5.805969588067249e-21,0,0.0,2.8619874940210333e-13,0.0,89.99999999938002,9.738564803852848e-11,0.0
0.95,40.242864999999234,140.0104500000036,5.4000279021888975,0.0,0.0,0.0,0.0,0.0,0.0,9.735787124699107e-11,9.585558010629563e-11,-1.3843296603633228e-10,79.99999999621413,282.99999998461277,5.80265804861759e-21,0,0.0,2.861171184517474e-13,0.0,89.9999999993802,9.735787124699107e-11,0.0
0.96,40.24286499999921,140.01045000000363,5.40002787039578,0.0,0.0,0.0,0.0,0.0,0.0,9.906268157255615e-11,9.753738558883467e-11,-1.3995320104308352e-10,79.99999999621961,282.999999984611,6.0076552044951386e-21,0,0.0,2.91127246668395e-13,0.0,89.99999999936935,9.906268157255615e-11,0.0
0.97,40.2428649999992,140.01045000000374,5.4000278386026626,0.0,0.0,0.0,0.0,0.0,0.0,1.0082303507372332e-10,9.926842395522455e-11,-1.41528384303091e-10,79.99999999622504,282.9999999846092,6.223065516388664e-21,0,0.0,2.9630060620007685e-13,0.0,89.99999999935814,1.0082303507372332e-10,0.0
0.98,40.24286499999918,140.01045000000383,5.400027782964707,0.0,0.0,0.0,0.0,0.0,0.0,1.0383063134198023e-10,1.0224153943241968e-10,-1.4295703888774856e-10,79.99999999623054,282.9999999846076,6.599876806203686e-21,0,0.0,3.051393859176154e-13,0.0,89.999999999339,1.0383063134198023e-10,0.0
0.99,40.24286499999918,140.01045000000383,5.400027782964707,0.0,0.0,0.0,0.0,0.0,0.0,1.0392096240588123e-10,1.0231592305586268e-10,-1.4438569347240755e-10,79.999999996236,282.99999998460584,6.6113653855738265e-21,0,0.0,3.0540485252425914e-13,0.0,89.99999999933841,1.0392096240588123e-10,0.0
1.0,40.24286499999916,140.0104500000039,5.4000277511715895,0.0,0.0,0.0,0.0,0.0,0.0,1.0561873295949804e-10,1.0399717313551151e-10,-1.4586929631032163e-10,79.99999999624146,282.9999999846042,6.829151478936503e-21,0,0.0,3.10394292128472e-13,0.0,89.9999999993276,1.0561873295949804e-10,0.0
1.01,40.24286499999916,140.0104500000039,5.4000277511715895,0.0,0.0,0.0,0.0,0.0,0.0,1.0564649726657e-10,1.0402177636349524e-10,-1.4735289914823644e-10,79.99999999624687,282.9999999846023,6.832742349128152e-21,0,0.0,3.104758863892489e-13,0.0,89.99999999932743,1.0564649726657e-10,0.0
1.02,40.24286499999916,140.0104500000039,5.4000277511715895,0.0,0.0,0.0,0.0,0.0,0.0,1.0569499483174908e-10,1.0407044263282419e-10,-1.4879986981731443e-10,79.99999999625244,282.9999999846006,6.839016999681942e-21,0,0.0,3.1061841193364733e-13,0.0,89.99999999932712,1.0569499483174908e-10,0.0
1.03,40.24286499999913,140.01045000000403,5.40002768304348,0.0,0.0,0.0,0.0,0.0,0.0,1.0938191915952711e-10,1.0770261458630803e-10,-1.5010031181104106e-10,79.9999999962578,282.9999999845992,7.324465160490738e-21,0,0.0,3.214536135570625e-13,0.0,89.99999999930365,1.0938191915952711e-10,0.0
1.04,40.24286499999913,140.01045000000403,5.40002768304348,0.0,0.0,0.0,0.0,0.0,0.0,1.0944450612562536e-10,1.077523929939688e-10,-1.5158391464895592e-10,79.99999999626324,282.9999999845974,7.332849493224643e-21,0,0.0,3.2163754529430417e-13,0.0,89.99999999930326,1.0944450612562536e-10,0.0
1.05,40.24286499999913,140.01045000000403,5.4000276819080115,0.0,0.0,0.0,0.0,0.0,0.0,1.0936118612313842e-10,1.0767853064144348e-10,-1.5306751748687104e-10,79.99999999626878,282.99999998459566,7.321688759936497e-21,0,0.0,3.2139268292502725e-13,0.0,89.9999999993038,1.0936118612313842e-10,0.0
1.06,40.242864999999114,140.01045000000414,5.400027637624741,0.0,0.0,0.0,0.0,0.0,0.0,1.1184234323508991e-10,1.1011675453128017e-10,-1.5453280424036648e-10,79.9999999962742,282.99999998459396,7.657682477596322e-21,0,0.0,3.2868435348219173e-13,0.0,89.999999999288,1.1184234323508991e-10,0.0
1.07,40.24286499999911,140.01045000000414,5.400027637624741,0.0,0.0,0.0,0.0,0.0,0.0,1.118423432350914e-10,1.10116743793809e-10,-1.5603472316270032e-10,79.9999999962797,282.99999998459214,7.657682477596525e-21,0,0.0,3.2868435348219597e-13,0.0,89.999999999288,1.118423432350914e-10,0.0
1.08,40.242864999999085,140.01045000000423,5.400027601289749,0.0,0.0,0.0,0.0,0.0,0.0,1.1388663807188544e-10,1.1213928142135856e-10,-1.5748169383177715e-10,79.99999999628508,282.9999999845905,7.940180682829814e-21,0,0.0,3.346921650793734e-13,0.0,89.99999999927498,1.1388663807188544e-10,0.0
1.09,40.2428649999991,140.01045000000423,5.400027600154281,0.0,0.0,0.0,0.0,0.0,0.0,1.1396993676481783e-10,1.1221311283061024e-10,-1.5898361275411114e-10,79.99999999629054,282.9999999845886,7.951800106601074e-21,0,0.0,3.349369648237276e-13,0.0,89.99999999927444,1.1396993676481783e-10,0.0
1.1,40.24286499999907,140.01045000000428,5.40002755587101,0.0,0.0,0.0,0.0,0.0,0.0,1.163122562155252e-10,1.1452826192477619e-10,-1.6026573866341967e-10,79.99999999629581,282.9999999845872,8.282010942833969e-21,0,0.0,3.4182061668594593e-13,0.0,89.99999999925953,1.163122562155252e-10,0.0
1.11,40.24286499999908,140.0104500000043,5.40002755587101,0.0,0.0,0.0,0.0,0.0,0.0,1.1639555210862658e-10,1.1460209180450159e-10,-1.6185923800784716e-10,79.99999999630137,282.9999999845853,8.293877353786487e-21,0,0.0,3.4206540820210893e-13,0.0,89.999999999259,1.1639555210862658e-10,0.0
1.12,40.24286499999908,140.01045000000428,5.40002755587101,0.0,0.0,0.0,0.0,0.0,0.0,1.1638851634218536e-10,1.1460152848767719e-10,-1.6326957650808792e-10,79.99999999630693,282.99999998458367,8.292874703440494e-21,0,0.0,3.42044731361146e-13,0.0,89.99999999925905,1.1638851634218536e-10,0.0
1.13,40.24286499999905,140.01045000000445,5.400027499097585,0.0,0.0,0.0,0.0,0.0,0.0,1.194864330756214e-10,1.1764902684950464e-10,-1.6477149543042052e-10,79.99999999631227,282.9999999845819,8.740213330131344e-21,0,0.0,3.511489465375455e-13,0.0,89.99999999923932,1.194864330756214e-10,0.0
1.14,40.24286499999905,140.01045000000445,5.400027487742901,0.0,0.0,0.0,0.0,0.0,0.0,1.2018651007978448e-10,1.1833214262916182e-10,-1.6621846609949828e-10,79.99999999631768,282.9999999845802,8.842932064804007e-21,0,0.0,3.532063458269363e-13,0.0,89.99999999923487,1.2018651007978448e-10,0.0
1.15,40.24286499999904,140.01045000000445,5.400027487742901,0.0,0.0,0.0,0.0,0.0,0.0,1.2010320398634738e-10,1.1825828571187169e-10,-1.6761048851532024e-10,79.99999999632308,282.99999998457855,8.830677531137196e-21,0,0.0,3.5296152433383785e-13,0.0,89.9999999992354,1.2010320398634738e-10,0.0
1.16,40.24286499999904,140.01045000000445,5.400027487742901,0.0,0.0,0.0,0.0,0.0,0.0,1.201657926418602e-10,1.1830806333389502e-10,-1.691124074376546e-10,79.99999999632871,282.99999998457673,8.839883684316373e-21,0,0.0,3.53145461035962e-13,0.0,89.999999999235,1.201657926418602e-10,0.0
1.17,40.24286499999904,140.01045000000448,5.400027461627126,0.0,0.0,0.0,0.0,0.0,0.0,1.2149630799153508e-10,1.1962395832693054e-10,-1.70577694191151e-10,79.99999999633414,282.999999984575,9.036723647470508e-21,0,0.0,3.5705560423257114e-13,0.0,89.99999999922653,1.2149630799153508e-10,0.0
1.18,40.24286499999904,140.01045000000448,5.400027461627126,0.0,0.0,0.0,0.0,0.0,0.0,1.2155185731679964e-10,1.1967318211354703e-10,-1.7207961311348542e-10,79.99999999633971,282.99999998457326,9.044988897099004e-21,0,0.0,3.5721885362035034e-13,0.0,89.99999999922618,1.2155185731679964e-10,0.0
1.19,40.24286499999904,140.01045000000448,5.400027461627126,0.0,0.0,0.0,0.0,0.0,0.0,1.2162107071100767e-10,1.1974590233452973e-10,-1.7347163552930764e-10,79.99999999634512,282.9999999845716,9.0552925260604e-21,0,0.0,3.574222592274711e-13,0.0,89.99999999922574,1.2162107071100767e-10,0.0
1.2,40.24286499999904,140.01045000000448,5.400027461627126,0.0,0.0,0.0,0.0,0.0,0.0,1.2156553325810922e-10,1.1969666049339012e-10,-1.7501018662047967e-10,79.99999999635068,282.99999998456974,9.047024336108791e-21,0,0.0,3.572590447304217e-13,0.0,89.99999999922609,1.2156553325810922e-10,0.0
1.21,40.24286499999904,140.01045000000448,5.400027461627126,0.0,0.0,0.0,0.0,0.0,0.0,1.2166252951317528e-10,1.1979400205984699e-10,-1.7645715728955787e-10,79.99999999635617,282.9999999845681,9.061467205612406e-21,0,0.0,3.575440991245299e-13,0.0,89.99999999922547,1.2166252951317528e-10,0.0
1.22,40.24286499999902,140.0104500000045,5.400027442324162,0.0,0.0,0.0,0.0,0.0,0.0,1.2259806120565e-10,1.2071994795417109e-10,-1.7799570838072935e-10,79.99999999636154,282.9999999845663,9.201360451516631e-21,0,0.0,3.602934570206483e-13,0.0,89.99999999921951,1.2259806120565e-10,0.0
1.23,40.24286499999902,140.0104500000045,5.400027429834008,0.0,0.0,0.0,0.0,0.0,0.0,1.2334661499458655e-10,1.214517298858443e-10,-1.7935109862771416e-10,79.99999999636704,282.99999998456457,9.314065995285135e-21,0,0.0,3.6249332078458804e-13,0.0,89.99999999921475,1.2334661499458655e-10,0.0
1.24,40.24286499999902,140.0104500000045,5.400027430969477,0.0,0.0,0.0,0.0,0.0,0.0,1.2332588318525075e-10,1.2142765544526784e-10,-1.8077975321237366e-10,79.99999999637245,282.9999999845629,9.310935285735562e-21,0,0.0,3.6243239375864755e-13,0.0,89.9999999992149,1.2332588318525075e-10,0.0
1.25,40.242864999999014,140.0104500000045,5.400027430969477,0.0,0.0,0.0,0.0,0.0,0.0,1.2330515762817368e-10,1.2140358374172267e-10,-1.821717756281962e-10,79.99999999637795,282.9999999845612,9.3078060463488e-21,0,0.0,3.623714851069566e-13,0.0,89.999999999215,1.2330515762817368e-10,0.0
1.26,40.24286499999902,140.0104500000045,5.400027430969477,0.0,0.0,0.0,0.0,0.0,0.0,1.2333293209936534e-10,1.2142818945709292e-10,-1.8374695888820563e-10,79.99999999638352,282.9999999845594,9.311999682877806e-21,0,0.0,3.62453109238237e-13,0.0,89.99999999921484,1.2333293209936534e-10,0.0
1.27,40.24286499999901,140.01045000000457,5.400027424156666,0.0,0.0,0.0,0.0,0.0,0.0,1.2359613582841522e-10,1.2169561499997964e-10,-1.8521224564170283e-10,79.99999999638892,282.99999998455763,9.351787406703961e-21,0,0.0,3.6322661724076235e-13,0.0,89.99999999921316,1.2359613582841522e-10,0.0
1.28,40.24286499999901,140.01045000000457,5.400027424156666,0.0,0.0,0.0,0.0,0.0,0.0,1.2367944837563848e-10,1.2176945095154462e-10,-1.8664090022636303e-10,79.9999999963944,282.999999984556,9.36439918968824e-21,0,0.0,3.634714577003673e-13,0.0,89.99999999921263,1.2367944837563848e-10,0.0
1.29,40.24286499999901,140.01045000000457,5.400027417343855,0.0,0.0,0.0,0.0,0.0,0.0,1.2399819048354263e-10,1.2208610684177976e-10,-1.880878708954416e-10,79.99999999639994,282.9999999845542,9.412728553560771e-21,0,0.0,3.6440818292115795e-13,0.0,89.9999999992106,1.2399819048354263e-10,0.0
1.3,40.242864999998986,140.0104500000047,5.400027360570431,0.0,0.0,0.0,0.0,0.0,0.0,1.2713756613945892e-10,1.251817225452521e-10,-1.8953484156451883e-10,79.9999999964052,282.99999998455263,9.895383406975387e-21,0,0.0,3.736342383481647e-13,0.0,89.9999999991906,1.2713756613945892e-10,0.0
1.31,40.242864999998936,140.01045000000497,5.400027228856087,0.0,0.0,0.0,0.0,0.0,2.488437215151854,1.3300761960171187e-10,1.3095949794896848e-10,-1.9094518006475675e-10,79.99999999641054,282.999999984551,1.083023503676278e-20,0,0.0,3.9088526037863403e-13,0.0,89.99999999915325,1.3300761960171187e-10,0.0
1.32,40.242864999998915,140.01045000000505,5.400027178895474,0.0,0.0,0.0,0.0,0.0,0.0,1.3713103052274928e-10,1.3502974800689414e-10,-1.9250204724034568e-10,79.9999999964159,282.9999999845493,1.1512146799345608e-20,0,0.0,4.0300321690096657e-13,0.0,89.999999999127,1.3713103052274928e-10,0.0
1.33,40.242864999998915,140.01045000000508,5.4000271720826625,0.0,0.0,0.0,0.0,0.0,2.2239889410794884e-11,1.375401044056962e-10,1.3542079464525476e-10,-1.9393070182500555e-10,79.9999999964214,282.9999999845475,1.1580932729559335e-20,0,0.0,4.042054108183103e-13,0.0,89.9999999991244,1.375401044056962e-10,0.0
1.34,40.2428649999989,140.0104500000051,5.40002715959251,0.0,0.0,0.0,0.0,0.0,0.0,1.3812910511228857e-10,1.3600544662522364e-10,-1.9532272424082823e-10,79.99999999642678,282.9999999845459,1.1680333309061583e-20,0,0.0,4.05936377023413e-13,0.0,89.99999999912065,1.3812910511228857e-10,0.0
1.35,40.24286499999889,140.0104500000051,5.400027152779699,0.0,0.0,0.0,0.0,0.0,0.0,1.3853115811177722e-10,1.3639594786392388e-10,-1.9676969490990702e-10,79.99999999643231,282.9999999845442,1.1748428263230484e-20,0,0.0,4.071179378381801e-13,0.0,89.99999999911809,1.3853115811177722e-10,0.0
1.36,40.24286499999889,140.0104500000051,5.400027153915167,0.0,0.0,0.0,0.0,0.0,0.0,1.3850338841787102e-10,1.3637131923413408e-10,-1.9823498166340456e-10,79.99999999643777,282.9999999845425,1.1743718599909564e-20,0,0.0,4.070363277464802e-13,0.0,89.99999999911826,1.3850338841787102e-10,0.0
1.37,40.24286499999889,140.0104500000051,5.400027152779699,0.0,0.0,0.0,0.0,0.0,0.0,1.3850338841787283e-10,1.363713059517264e-10,-1.9970026841690246e-10,79.99999999644322,282.99999998454075,1.1743718599911135e-20,0,0.0,4.070363277464805e-13,0.0,89.99999999911826,1.3850338841787283e-10,0.0
1.38,40.24286499999889,140.0104500000051,5.400027147102357,0.0,0.0,0.0,0.0,0.0,0.0,1.389054472628784e-10,1.3676180955840306e-10,-2.0120218733923736e-10,79.99999999644872,282.99999998453893,1.1811998794465418e-20,0,0.0,4.082179057401659e-13,0.0,89.9999999991157,1.389054472628784e-10,0.0
1.39,40.24286499999889,140.0104500000051,5.400027147102357,0.0,0.0,0.0,0.0,0.0,0.0,1.3887767459658882e-10,1.367371796074466e-10,-2.0270410626157275e-10,79.99999999645429,282.99999998453717,1.1807275899689568e-20,0,0.0,4.0813628691316563e-13,0.0,89.99999999911589,1.3887767459658882e-10,0.0
1.4,40.242864999998886,140.01045000000516,5.400027134612203,0.0,0.0,0.0,0.0,0.0,0.0,1.3959847999321116e-10,1.3744435254625718e-10,-2.0409612867739548e-10,79.99999999645978,282.9999999845355,1.193015863851136e-20,0,0.0,4.1025460318690034e-13,0.0,89.9999999991113,1.3959847999321116e-10,0.0
1.41,40.24286499999889,140.01045000000516,5.400027134612203,0.0,0.0,0.0,0.0,0.0,0.0,1.39563670050856e-10,1.3741917031401394e-10,-2.0556141543089346e-10,79.99999999646528,282.99999998453376,1.1924209628795951e-20,0,0.0,4.1015230308242523e-13,0.0,89.99999999911151,1.39563670050856e-10,0.0
1.42,40.242864999998865,140.01045000000528,5.400027071025968,0.0,0.0,0.0,0.0,0.0,4.354765376463551,1.4058953442982433e-10,1.3841950499486242e-10,-2.0715491477532183e-10,79.9999999964708,282.9999999845319,1.210015197707867e-20,0,0.0,4.131671323536688e-13,0.0,89.99999999910497,1.4058953442982433e-10,0.0
1.43,40.242864999998865,140.01045000000528,5.400027071025968,0.0,0.0,0.0,0.0,0.0,0.0,1.430288378568872e-10,1.4083199272358855e-10,-2.0851030502230622e-10,79.99999999647616,282.99999998453035,1.2523682803637191e-20,0,0.0,4.2033580252501507e-13,0.0,89.99999999908944,1.430288378568872e-10,0.0
1.44,40.24286499999887,140.01045000000528,5.400027071025968,0.0,0.0,0.0,0.0,0.0,0.0,1.4301514896560056e-10,1.4080847088172727e-10,-2.1001222394464158e-10,79.99999999648158,282.99999998452853,1.2521285704825824e-20,0,0.0,4.202955733573111e-13,0.0,89.99999999908954,1.4301514896560056e-10,0.0
1.45,40.242864999998865,140.01045000000528,5.4000270721614365,0.0,0.0,0.0,0.0,0.0,0.0,1.4300810461582394e-10,1.4080790187644858e-10,-2.1144087852930256e-10,79.99999999648716,282.9999999845268,1.2520052239076244e-20,0,0.0,4.202748712914884e-13,0.0,89.99999999908958,1.4300810461582394e-10,0.0
1.46,40.24286499999886,140.0104500000053,5.400027052858472,0.0,0.0,0.0,0.0,0.0,0.0,1.4399915744839023e-10,1.4178306632603515e-10,-2.1297942962047508e-10,79.9999999964926,282.999999984525,1.2694182612945055e-20,0,0.0,4.231873957442501e-13,0.0,89.99999999908327,1.4399915744839023e-10,0.0
1.47,40.24286499999883,140.0104500000054,5.4000270210653545,0.0,0.0,0.0,0.0,0.0,0.0,1.457595089477274e-10,1.4351409072952266e-10,-2.1435313595187847e-10,79.99999999649796,282.99999998452347,1.3006445713969764e-20,0,0.0,4.283607493928217e-13,0.0,89.99999999907206,1.457595089477274e-10,0.0
1.48,40.24286499999883,140.0104500000054,5.4000270210653545,0.0,0.0,0.0,0.0,0.0,0.0,1.4570397532083588e-10,1.4346484887305475e-10,-2.1580010662095827e-10,79.99999999650352,282.9999999845217,1.2996536823451283e-20,0,0.0,4.281975461397134e-13,0.0,89.99999999907243,1.4570397532083588e-10,0.0
1.49,40.24286499999883,140.01045000000542,5.400027008575202,0.0,0.0,0.0,0.0,0.0,0.0,1.4648031303820392e-10,1.4422124776196455e-10,-2.1733865771213064e-10,79.99999999650883,282.9999999845199,1.3135401691182606e-20,0,0.0,4.304790618280249e-13,0.0,89.99999999906747,1.4648031303820392e-10,0.0
1.5,40.24286499999883,140.01045000000545,5.400026996085048,0.0,0.0,0.0,0.0,0.0,0.0,1.4713854084937002e-10,1.4487863636729209e-10,-2.1871236404353543e-10,79.99999999651436,282.99999998451824,1.325371810746296e-20,0,0.0,4.324134739325176e-13,0.0,89.99999999906329,1.4713854084937002e-10,0.0
1.51,40.24286499999882,140.01045000000548,5.400026969969272,0.0,0.0,0.0,0.0,0.0,0.0,1.4852460808805047e-10,1.4624376093158048e-10,-2.2015933471261375e-10,79.99999999651979,282.99999998451653,1.350459827801054e-20,0,0.0,4.364868740512297e-13,0.0,89.99999999905445,1.4852460808805047e-10,0.0
1.52,40.24286499999882,140.01045000000548,5.40002696429193,0.0,0.0,0.0,0.0,0.0,0.0,1.4892665467328096e-10,1.4663425742570389e-10,-2.2166125363494935e-10,79.99999999652525,282.99999998451483,1.357780939523769e-20,0,0.0,4.3766841601565643e-13,0.0,89.99999999905191,1.4892665467328096e-10,0.0
1.53,40.24286499999881,140.01045000000553,5.400026939311624,0.0,0.0,0.0,0.0,0.0,0.0,1.5022943201494988e-10,1.4792554453932164e-10,-2.2308990821960947e-10,79.99999999653075,282.99999998451307,1.3816399748234527e-20,0,0.0,4.414970422396302e-13,0.0,89.99999999904361,1.5022943201494988e-10,0.0
1.54,40.242864999998815,140.01045000000556,5.400026939311624,0.0,0.0,0.0,0.0,0.0,0.0,1.5031976669148488e-10,1.4799992241165238e-10,-2.2464677539520172e-10,79.9999999965362,282.99999998451125,1.3833020662442827e-20,0,0.0,4.4176251946314724e-13,0.0,89.99999999904304,1.5031976669148488e-10,0.0
1.55,40.242864999998766,140.0104500000057,5.400026857557893,0.0,0.0,0.0,0.0,0.0,0.6221090537715038,1.5439465812946347e-10,1.5202147645996736e-10,-2.2603879781102247e-10,79.99999999654155,282.9999999845097,1.4593161204506894e-20,0,0.0,4.537378860283194e-13,0.0,89.99999999901709,1.5439465812946347e-10,0.0
1.56,40.242864999998766,140.01045000000576,5.400026838254929,0.0,0.0,0.0,0.0,0.0,0.0,1.5586402920296938e-10,1.5346044270961358e-10,-2.2750408456452026e-10,79.999999996547,282.999999984508,1.4872248634398188e-20,0,0.0,4.58056101002472e-13,0.0,89.99999999900774,1.5586402920296938e-10,0.0
1.57,40.242864999998666,140.0104500000062,5.4000266043484215,0.0,0.0,0.0,0.0,0.0,1.9339046704755372e-10,1.6863664407240963e-10,1.6603927255010664e-10,-2.2884115872707947e-10,79.99999999655209,282.99999998450664,1.7409597941756722e-20,0,0.0,4.955924985690935e-13,0.0,89.99999999892643,1.6863664407240963e-10,0.0
1.58,40.242864999998275,140.01045000000826,5.400025605136157,0.0,0.0,0.0,0.0,0.0,40.43711049623539,2.0110519608880876e-10,1.9802209062513542e-10,-2.3036139373381308e-10,79.99999999655664,282.9999999845056,2.4758904428323404e-20,0,0.0,5.910116816687923e-13,0.0,89.99999999871973,2.0110519608880876e-10,0.0
1.59,40.242865000047885,140.01044999971683,5.399966963866353,2.62915202033726,8.070829053014993e-07,-3.4114638899302396,3.4338573809721277e-06,1.7021194918626603,133.1314205148501,0.0225650515882384,0.0074806270290716,-2.4558205989049247e-10,79.99999999675757,282.9999999843015,0.0003117148579959,0,0.0,6.631459224621609e-05,2.6291520203373406,89.85649874356216,0.0225651783645247,3.8125184113507644
1.6,40.242865000297165,140.01044999823534,5.399571388220787,2.5628869458735153,1.211736491503133e-06,1.2847907891006525,5.283633597083687e-06,1.7021194250082778,233.29102017769975,0.0513492473484674,0.0201935191768783,-3.4117370514799743e-10,80.00000001673719,282.99999998324347,0.0016141839441908,0,0.0,0.0001509061200925,2.5628869458738395,89.67343228039293,0.0513494376875903,2.1325801060631475
1.61,40.24286500091923,140.01044999464858,5.399235374709964,1.7217415329987855,2.6759396008891264e-06,5.660789432185048,6.647837115633427e-06,1.702092695911884,326.6074502489328,0.045624845120727,0.0432294470787922,-5.274849183543032e-10,80.00000005748934,282.99999998072826,0.001274346935728,0,0.0,0.0001340831401903,1.7217415330009116,89.7096795111534,0.0456252654563365,5.911146804221555
1.62,40.24286500207334,140.01044998812247,5.399370821338892,0.7770677886716587,2.1940239456305013e-06,9.745776921919404,7.734954920210098e-06,1.7020307102941523,413.7027637820728,0.0886016530732566,0.0721523638208027,-8.057428605026252e-10,79.99999988172816,282.9999999762137,0.0048058312428113,0,0.0,0.0002603841800851,0.7770677886747228,89.4360166479612,0.088601997709732,9.893284406639744
1.63,40.24286500395281,140.01044997764467,5.400477822491526,0.3877363574565797,1.31362739012925e-06,14.590045407152868,8.326677330489518e-06,1.7018396443552268,516.9729447144581,0.2093296358220371,0.111595200175075,-1.1689140619325515e-09,79.99999887660712,282.99999996905046,0.0268254030885441,0,0.0,0.0006151818208923,0.3877363574583199,88.66763820590805,0.209329842166145,14.688964672772242
1.64,40.242865006739706,140.0104499622616,5.403027378442884,0.2600955951113028,9.626113230572042e-07,18.471968571739836,8.615931087848272e-06,1.7014986968599013,599.7134918715851,0.3739237729460625,0.1574494148147694,-1.586172186358284e-09,79.99999538331123,282.99999995865176,0.0855954873119723,0,0.0,0.0010988941591004,0.2600955951132811,87.62092109361953,0.3739239241526955,18.55016767392776
1.65,40.24286501055477,140.01044994134105,5.407331953087449,0.2003109484281222,7.853044772843047e-07,21.8286239072424,8.671217400475506e-06,1.7009896239943223,671.2560390601683,0.5687962471816544,0.2082519298097883,-1.988226611624942e-09,79.99998643911371,282.999999944678,0.1980605495057381,0,0.0,0.0016715891026977,0.2003109484296498,86.38376309622521,0.5687963705369933,21.89479818095718
1.66,40.242865015539806,140.0104499141404,5.4137585945606235,0.1623339588866377,6.606794827036912e-07,20.16484509857859,8.387065371196228e-06,1.7002504155004798,635.7958309954466,0.8054730866282189,0.2662348186111933,-2.256864057249823e-09,79.99996761981986,282.9999999267681,0.3971790518428865,0,0.0,0.0023671396188047,0.1623339588879168,84.88584563110659,0.8054731904075094,20.23639862537672
1.67,40.242865021813714,140.010449880037,5.42261523283124,0.1363132520183199,5.666558453206963e-07,30.64120052359437,7.768881414767286e-06,1.6992321559028745,859.1330703109029,1.083069730607218,0.3312736526156174,-2.208557057206439e-09,79.99993267040122,282.99999990470513,0.7181195243493766,0,0.0,0.0031829462311574,0.1363132520187954,83.13798235099243,1.08306981961731,30.6882804902268
1.68,40.242865029577786,140.01044983797686,5.4344229400634765,0.1176877090215943,4.914647352571903e-07,33.410566395179416,6.8437358752505846e-06,1.6978870608728402,918.2334774221108,1.3981537772436068,0.402782304187915,-1.5803651827957018e-09,79.99987313236493,282.9999998780733,1.1967220302425157,0,0.0,0.004108921856864,0.1176877090210651,81.16968080014743,1.3981538544427068,33.453680923303764
1.69,40.24286503896534,140.01044978726188,5.449527220013738,0.103478738053549,4.273815087306446e-07,37.403277057088104,5.587088997964162e-06,1.696141812047928,1003.4624887937862,1.7535983656916068,0.4812714386955365,-1.2711083208751652e-11,79.99977794655074,282.99999984678607,1.8825349144427548,0,0.0,0.0051535102918426,0.1034787380546034,78.97440609276224,1.753598432824537,37.44171512705984
1.7,40.24286505011428,140.01044972716983,5.4682855976432565,0.0923376626083145,3.713215705636477e-07,40.54541031270653,4.007406193787694e-06,1.6939222032199743,1070.650238605564,2.148301321027827,0.5665506102587574,2.957427437559726e-09,79.9996332955878,282.9999998108461,2.825350839677292,0,0.0,0.0063134726441193,0.0923376626067669,76.57472551009585,2.148301379354883,40.58077956195897
1.71,40.242865063139774,140.0104496570979,5.490996872618795,0.0840769270255154,3.23931454420334e-07,43.18698248261352,2.2839724562934593e-06,1.6912313310653837,1127.2623045007392,2.5603610189246537,0.6548036914612795,7.902608880974134e-09,79.99942233779838,282.9999997704446,4.013132133884149,0,0.0,0.0075244441899522,0.0840769270249177,74.11978373643956,2.5603610698076875,43.22008467563142
1.72,40.242865078120914,140.0104495766319,5.517866749817133,0.0775310763602565,2.8145591991219477e-07,43.895109040727974,3.7988091073719035e-07,1.6879738514319227,1142.8150398464368,2.994192596685685,0.7468056816656518,1.5500347869568508e-08,79.99912533162876,282.99999972600153,5.48831955740794,0,0.0,0.0087994004556,0.0775310763588568,71.5983493188365,2.9941926408966775,43.92755232676318
1.73,40.242865095117935,140.01044948545672,5.549052203214169,0.0723417994738982,2.430201127603669e-07,45.32787334061883,-1.64004996057871e-06,1.6840992521665408,1173.9205115353848,3.441838629627146,0.841172652543209,2.6526900197888937e-08,79.99871958665837,282.99999967810015,7.252030711626136,0,0.0,0.0101149562300024,0.072341799475723,69.07183828506268,3.4418386678006563,45.359147830116186
1.74,40.24286511418814,140.01044938327232,5.58470287847221,0.0679750855985496,2.069455131259527e-07,46.75382407703891,-3.8327399308236866e-06,1.6794737117221892,1205.025861228656,3.910187705440184,0.9391052677786071,4.1845481868199155e-08,79.99817953082275,282.99999962742004,9.359924606461208,0,0.0,0.0114913561189908,0.067975085596324,66.51674387006943,3.9101877379471097,46.78397907163396
1.75,40.242865135391405,140.0104492697656,5.624974978584051,0.0643895349651119,1.7312128213306625e-07,48.43649434108362,-6.108097963164644e-06,1.674049130826513,1241.730332403493,4.38821293484624,1.038683968374721,6.239619757458338e-08,79.99747651145701,282.9999995747081,11.788290943343709,0,0.0,0.0128961943176953,0.0643895349637855,64.00711718413957,4.388212962040067,48.46541472582572
1.76,40.24286515877855,140.0104491446704,5.67000157250762,0.0613133401186424,1.4071122697378856e-07,50.19965646897898,-8.506421027990574e-06,1.667677333917596,1280.301135738882,4.880791709326517,1.140757988183699,8.917865652757209e-08,79.9965788316801,282.99999952079844,14.583243605735834,0,0.0,0.0143438049183244,0.0613133401201221,61.528589887145195,4.880791731429385,50.227349694102294
1.77,40.24286518440068,140.0104490077196,5.71991639572084,0.0586572356526276,1.0942731912159405e-07,50.60968816211723,-1.1007291356377692e-05,1.66024056584129,1290.2548726004547,5.385404742139208,1.2448887897116223,1.2323222716772158e-07,79.99545162410925,282.99999946655953,17.754489827361752,0,0.0,0.0158267844895192,0.0586572356548834,59.104631233788645,5.385404759328011,50.63691276730183
1.78,40.24286521229991,140.0104488586927,5.774830103033781,0.0563387347305917,7.902484986632632e-08,50.71864462529776,-1.3601453502539143e-05,1.6516021352075505,1293.9875389238512,5.900901957109553,1.350876473203912,1.6561264268075822e-07,79.99405685381684,282.99999941290014,21.316014579303385,0,0.0,0.0173417534785028,0.056338734729736,56.74893457098375,5.900901969522747,50.74552888915883
1.79,40.242865242498915,140.01044869747133,5.834803017345071,0.0543610763100237,4.9429260597975974e-08,53.54187971579766,-1.621677040475323e-05,1.6416904958167815,1355.5764112461663,6.418465772111577,1.4571874105553575,2.173621927485255e-07,79.99235337033767,282.99999936077256,25.219075920030978,0,0.0,0.0188627988128143,0.05436107631221,54.50496321936721,6.418465779875907,53.56704239721718
1.8,40.24286527501866,140.0104485239458,5.89989112406373,0.052596375741349,2.0391420988614387e-08,52.46381849843122,-1.890869400242493e-05,1.6302890989513064,1334.424676421031,6.944862134570429,1.5650002313159543,2.7947922624647564e-07,79.99029716001658,282.99999931107885,29.52509158141365,0,0.0,0.020409804782032,0.0525963757380835,52.34439676619313,6.944862137773506,52.489142629527215
1.81,40.2428653098789,140.0104483380131,5.970147113469243,0.051028484097008,-8.169459324171762e-09,53.22137390732728,-2.1647600570872575e-05,1.6172636851463469,1352.4658149807265,7.47648417548718,1.6736888515011683,3.528838972526493e-07,79.98784129634362,282.99999926463227,34.21810093668948,0,0.0,0.0219721717224931,0.0510284840950783,50.28291269634752,7.476484174203924,53.24594052518276
1.82,40.24286534709465,140.0104481395948,6.045611441168189,0.0496493610672899,-3.6363100268074915e-08,53.20977693989945,-2.439346696409821e-05,1.6024997640944325,1354.3321481437758,8.008463133348494,1.7824077412965615,4.383828542731998e-07,79.9849359156877,282.9999992221295,39.260541084468166,0,0.0,0.0235355914438363,0.0496493610688404,48.33639646391996,8.008463127636592,53.23390242588244
1.83,40.242865386672115,140.0104479286587,6.126301660367846,0.0484104427649444,-6.426039977589029e-08,54.30315540502966,-2.716229855216835e-05,1.5858015158733163,1379.8386203470227,8.542790463115603,1.891506213151924,5.593857100246668e-07,79.98152841763546,282.9999992112497,44.67392008301538,0,0.0,0.0251059168020267,0.0484104427654221,46.492954465320786,8.542790453021603,54.32630535377209
1.84,40.2428654286248,140.01044770513425,6.212254035660624,0.0472695182821968,-9.189762046521477e-08,53.570862054321566,-2.9978992142232255e-05,1.5669362689012876,1366.7744102182344,9.08256826056066,2.001527795325191,6.708313239203771e-07,79.97756377268293,282.9999991780322,50.497317874856904,0,0.0,0.0266922646846974,0.0472695182830623,44.73839856473017,9.082568246125415,53.59377343045409
1.85,40.24286547295734,140.01044746899723,6.303481848621368,0.0462324456597174,-1.1934696435956413e-07,54.85257769655996,-3.2804318393791095e-05,1.5457773610815924,1396.6356188012887,9.623073354734958,2.1116538693080456,8.189119868140571e-07,79.97298394251074,282.99999917734783,56.6858625049774,0,0.0,0.0282807547413139,0.0462324456598691,43.08378605135436,9.62307333598798,54.87435382406116
1.86,40.24286551967925,140.01044722019824,6.400010575756431,0.045288610254664,-1.4667877741589606e-07,54.77832664375241,-3.562268034376448e-05,1.5221637012191296,1397.8798819068072,10.162488270907234,2.221571868422343,9.79154686123431e-07,79.96772867329034,282.9999991798229,63.218364455522085,0,0.0,0.0298660459819607,0.0452886102570708,41.528438351794385,10.162488247866984,54.799471276867386
1.87,40.242865568783614,140.01044695877337,6.501823238405586,0.0444168888128593,-1.7389297639375602e-07,54.19731922225152,-3.844168104264891e-05,1.4958872538221468,1388.548216100957,10.701861476360085,2.331469908114995,1.1766823801999084e-06,79.96173518118519,282.9999992152961,70.10638056330647,0,0.0,0.0314512199679621,0.0444168888095048,40.063023182089935,10.70186144904504,54.217959105413215
1.88,40.242865620272745,140.0104466847107,6.608926196327806,0.0435976466717419,-2.0097863907647114e-07,53.78345738736163,-4.127436618642478e-05,1.4667118869013476,1382.9492166164334,11.242940743473987,2.441659074538787,1.3658062101270871e-06,79.95493883875572,282.9999992291554,77.37386169215434,0,0.0,0.033041413440696,0.043597646675193,38.6773732904001,11.242940711904335,53.803452791610184
1.89,40.24286567413836,140.01044639805357,6.721298299151659,0.0428397723049272,-2.2802552868821577e-07,53.36224924440853,-4.407853599785265e-05,1.4345465259090444,1377.3502171342634,11.780710889379456,2.5512709847475805,1.5906062023191037e-06,79.94727256644468,282.9999992739083,84.95183019710927,0,0.0,0.0346218877626559,0.0428397723029301,37.378426017257134,11.78071085356129,53.3815283422957
1.9,40.242865730372216,140.0104460988451,6.838918053594232,0.0421345262660594,-2.550569916553e-07,53.491834966770206,-4.684692829839596e-05,1.399228270451062,1383.5712866708986,12.314464671610816,2.66018900896406,1.8263392257142568e-06,79.93866782037118,282.9999993200132,92.82306680672244,0,0.0,0.0361905646789286,0.0421345262623501,36.16114261249526,12.314464631546558,53.51013219818471
1.91,40.24286578896893,140.01044578711347,6.961770895001292,0.0414622750971279,-2.820216274235085e-07,53.496483527628165,-4.960246092940521e-05,1.3604964919994669,1387.303952991958,12.847246862559992,2.768953122485085,2.0967591770314148e-06,79.9290542551311,282.999999395805,101.0275577301621,0,0.0,0.0377563926061892,0.041462275100108,35.01277011280373,12.847246818260135,53.51378047315471
1.92,40.242865849924755,140.010445462878,7.0898460841119295,0.0408108537397962,-3.088818315974335e-07,53.93352188359101,-5.235743294345888e-05,1.3181032082929696,1400.3682851216768,13.3808434207095,2.877885395939679,2.403033625705891e-06,79.91836006749058,282.99999950271575,109.59263082816356,0,0.0,0.0393246205131262,0.0408108537359581,33.924930028887445,13.380843372190457,53.949626308606106
