Time,Latitude,Longitude,Altitude,Angle of Attack,Angle of Sideslip,X-Acceleration,Y-Acceleration,Z-Acceleration,Thrust,True Velocity,Ground Velocity,Pitch,Roll,Yaw,Dynamic Pressure,cp,parachute_deploy_gain,Wind Speed,Mach,omega_x,omega_y,omega_z,Cmq,Angle of Attack(total),Angle of Attack(gust),True Velocity(gust),Acceleration
0.0,31.222216000000007,131.010392,3.000000004412624,0.0,0.0,0.0,0.0,0.0,2.2828121974499247,0.0,0.0,71.99999999612658,-1.0292491154817412e-14,119.99999999354436,0.0,15.288,0.0,0.0,0.0,0.0,0.0,0.0,-0.0,0.0,90.0,0.0,0.0
0.01,31.22221599999862,131.01039200000284,3.0000009727369523,0.0,0.0,0.0,0.0,0.0,34.24218696174923,5.916279387578309e-11,5.734623670548936e-11,71.99999999613168,-5.86671995824671e-13,119.9999999935449,2.1432944861733093e-21,15.288,0.0,0.0,1.7386402909615473e-13,-3.4220131069073734e-19,7.115076756936125e-19,5.488773498207866e-19,-1.1574302492039043e-31,0.0,89.99999999962336,5.916279387578309e-11,0.0
0.02,31.22221599999738,131.01039200000537,3.0000018317022668,0.0,0.0,0.0,0.0,0.0,25.871876237766408,1.2265415415436536e-10,1.1895038237325684e-10,71.9999999961369,-1.1836364828043265e-12,119.99999999354544,9.211895886571454e-21,15.288,0.0,0.0,3.6044858651615574e-13,-6.979551485375437e-19,1.4162390878091906e-18,1.0909784360635388e-18,-4.776231873571785e-31,0.0,89.99999999921916,1.2265415415436536e-10,0.0
0.03,31.22221599921969,131.01039200159065,3.0001883335529382,18.80143492628821,-0.0001350810307892,10.931161642028636,-1.75114298675875e-05,3.026590975169265,180.34219359854663,0.0798232026864394,0.0478175828508887,71.99999999765336,-5.341802909786072e-12,119.99999999436793,0.0039016003969354,15.288,0.0,0.0,0.0002345795854893,3.788270153300133e-17,-7.771883375645477e-10,1.1422790048099072e-11,1.7057759223764537e-13,18.80143492675591,89.51882325913425,0.079801984207741,11.342422482672777
0.04,31.222215995131297,131.01039200995308,3.001692634342189,9.19442604083399,-4.49173898918486e-05,52.29595764159784,6.445392950801871e-06,3.026413589912948,548.6359724538078,0.3504174083926908,0.1601447499964056,72.00000000319055,-3.111420077280171e-11,119.99999999870242,0.0751892535633216,15.288,0.0,0.0,0.0010297854387864,2.0082066977226968e-15,-1.520937588847922e-08,2.5623342884322286e-11,1.4654248781413086e-11,9.19442604094277,87.798916624545,0.3504103527855857,52.383455068075136
0.05,31.222215983575865,131.01039203366796,3.0074067499493786,5.158590039700252,1.707592688632746e-06,76.26884281015512,5.843947534199429e-05,3.0258124765658088,761.6984298824644,0.9592973585397016,0.3772700771701255,72.0000000004862,-1.3608731808076822e-10,120.0000000109612,0.5634958029902841,15.288,0.0,0.0,0.0028191251099456,2.086299069701397e-14,-1.0551247853743037e-07,3.973493515691201e-11,2.783064866637575e-10,5.158590039700515,83.94063169874748,0.959297626767734,76.32884071402438
0.06,31.222215961742712,131.0103920785344,3.019291017943491,4.109521257467909,3.140103977270004e-05,57.06876634333886,0.0001151069734147,3.024834864051463,590.4875390737208,1.6257536642597354,0.6118982818704327,71.99999992547217,-3.5903296759057166e-10,120.00000003412836,1.6184272268450337,15.288,0.0,0.0,0.0047776672697797,1.0694899894620088e-13,-3.741090980393931e-07,5.521401959501359e-11,1.6723176417636091e-09,4.109521257587776,79.78719176344794,1.6257585967235286,57.148873286519276
0.07,31.222215929936205,131.01039214392435,3.0371334573469446,3.649087515174788,5.707077112564807e-05,86.89643797254193,0.0001728541558773,3.0234947746384675,855.2937749779139,2.3057260079826607,0.8506307413593818,71.99999965378231,-6.907496536790437e-10,120.00000006788592,3.255354923652711,15.288,0.0,0.0,0.0067759305364855,3.495199904512709e-13,-9.036515915819006e-07,7.594816279105379e-11,5.728932851326001e-09,3.6490875156204896,75.6601668283889,2.305734972638426,86.94902215090157
0.08,31.222215886364623,131.01039223353447,3.0621840248716574,3.4254446680114707,8.413075603463509e-05,17.831756866644035,0.0002285946601282,3.021841001032126,241.2171988638848,2.961944911520492,1.0819695676346892,71.99999900671328,-1.141745983122182e-09,120.00000011415082,5.371998197385977,15.288,0.0,0.0,0.0087043901031071,8.800530155962314e-13,-1.829098470920821e-06,1.0943386634701918e-10,1.4896287129277132e-08,3.4254446690434226,71.81713637501419,2.9619581267487467,18.085991154451033
0.09,31.22221583454733,131.01039234010327,3.0919888289029,3.389560809024919,0.0001118726864415,54.09031716446879,0.0002748660999733,3.020060228038602,563.0937377043176,3.504225426410036,1.2780161667917422,71.99999774508822,-1.634190085504106e-09,120.00000016921716,7.519080503822694,15.288,0.0,0.0,0.0102980157586766,1.865782139518716e-12,-3.1503298654458527e-06,1.6284478329871028e-10,3.03536411425607e-08,3.389560810868955,68.76526501308032,3.504242999330529,54.17456206384468
0.1,31.22221577423132,131.0103924641528,3.1267248829165366,3.4447939461814814,0.0001419149103147,51.372195336549765,0.0003131602029306,3.0182021883815127,538.7437595981919,3.950569597142709,1.4443465951180965,71.99999562056465,-2.1287748602259068e-09,120.00000023339832,9.55649523509932,15.288,0.0,0.0,0.0116097108366932,3.485956000178229e-12,-4.949356763187612e-06,2.4573266549165286e-10,5.3761299442583966e-08,3.444793949101151,66.34639928474206,3.9505918890846927,51.460781166288626
0.11,31.222215706113143,131.01039260424562,3.165907002780892,3.4691423802630394,0.0001702373452339,40.591037561894986,0.0003534470100582,3.016051659024047,442.8656393052949,4.421478635995476,1.6182620895289603,71.99999235067894,-2.5564479031457968e-09,120.00000030601664,11.970509656144712,15.288,0.0,0.0,0.0129935974697161,5.942887149865172e-12,-7.273722517324353e-06,3.67769289312894e-10,8.842679949465076e-08,3.4691423844348632,63.88798785789768,4.421505376815134,40.70293476011277
0.12,31.222215630588888,131.0103927595646,3.2092596514826863,3.4852659299808075,0.0001974376474727,44.30042894095728,0.000394069215595,3.013641598889868,475.58594813540446,4.896982486381051,1.793579340340896,71.99998761802138,-2.8337988279882726e-09,120.00000038673312,14.683611096353944,15.288,0.0,0.0,0.0143909889875706,9.464337642181618e-12,-1.017558359402848e-05,5.395790443954697e-10,1.3700793350599625e-07,3.4852659355662303,61.5068242157714,4.897013499814194,44.40281567867803
0.13,31.222215548046687,131.0103929293088,3.256512891171917,3.5606043721293616,0.0002276507019012,48.86766833507025,0.0004268800875964,3.0112558910133567,515.9156326236895,5.278566579338586,1.939796541405244,71.99998107389406,-2.8573058577484587e-09,120.00000047523812,17.061052093156064,15.288,0.0,0.0,0.0155123760833565,1.4300406003001044e-11,-1.3705268062305584e-05,7.724776992181392e-10,1.989112774124932e-07,3.560604379397528,59.67313531776262,5.27860233862722,48.960358155653
0.14,31.222215458587108,131.01039311327068,3.30759734332425,3.6000732663755977,0.0002555702913645,45.540290862247225,0.0004629468001456,3.0085404980032777,486.2390860568404,5.70011779273801,2.098362647205908,71.99997235012626,-2.508533681468686e-09,120.00000057154703,19.894788765881632,15.288,0.0,0.0,0.0167512184495524,2.071534240530911e-11,-1.7917736259613292e-05,1.0787346240473087e-09,2.8081526258393346e-07,3.6000732754351943,57.72385750323359,5.700157937625502,45.639559681930805
0.15,31.222215362317904,131.01039331122794,3.3624387479639086,3.651605404442164,0.0002842753491325,44.01308509501,0.0004965057129938,3.005703619811542,472.54218587214,6.091938849578711,2.2476968067377374,71.99996103728932,-1.6446954747148112e-09,120.00000067569304,22.723773683610247,15.288,0.0,0.0,0.0179026934683374,2.9002783512213203e-11,-2.287326399669318e-05,1.47199345427166e-09,3.831202693354572e-07,3.651605415492516,55.98561718911576,6.091983503446133,44.115597174664394
0.16,31.22221525912812,131.01039352340948,3.421115382839859,3.67540086436193,0.0003108411545024,34.83804992586084,0.0005330990866742,3.002517946501868,391.1218908297564,6.521183188362317,2.4085903880902046,71.99994669525161,-1.0153513453738144e-10,120.00000078796704,26.03872642002185,15.288,0.0,0.0,0.019164148528834,3.9478358970291335e-11,-2.864207894220033e-05,1.9677461746207517e-09,5.135466997084602e-07,3.6754008774883777,54.15946979122355,6.521232015176687,34.96719658394182
0.17,31.2222151493826,131.01039374906244,3.4833737923187487,3.7139589864597298,0.0003384978477213,43.96471427482637,0.0005668629535037,2.999235483723449,471.78125980632376,6.916861975403744,2.559060925010733,71.99992884100092,2.3206494032971838e-09,120.0000009081849,29.29426197817256,15.288,0.0,0.0,0.0203269651395979,5.248754693205839e-11,-3.5267097947693114e-05,2.580363454062817e-09,6.706952682968329e-07,3.713959001863866,52.549031795895466,6.916915146521327,44.06689817851128
0.18,31.22221503253009,131.01039398932429,3.549599475912623,3.7380363034619775,0.0003650282082698,36.67395661481795,0.0006021794701355,2.9956556354306425,407.10156721191447,7.332140201215607,2.71556808256092,71.99990696207136,5.837017536380516e-09,120.00000103716444,32.917216366714264,15.288,0.0,0.0,0.0215473823438242,6.839750892601699e-11,-4.285557247677198e-05,3.331016495775474e-09,8.639362741436378e-07,3.738036321259578,50.93050624815799,7.332197539712479,36.796100973258795
0.19,31.22221490871209,131.01039424390297,3.619694897703461,3.747799769666444,0.0003901520189829,41.42208371271829,0.0006393759928961,2.991742733214697,448.9531328318269,7.771071983754382,2.879366399937307,71.99988049019642,1.0709144790974043e-08,120.00000117502664,36.97605053227239,15.288,0.0,0.0,0.0228373144884866,8.761416506509219e-11,-5.146771415177372e-05,4.238406957677133e-09,1.0996552116864756e-06,3.747799789945131,49.29705748437159,7.771133268690212,41.529983675580546
0.2,31.22221477769685,131.01039451327668,3.693822889232993,3.7700519460961166,0.0004166800650969,37.99697972290605,0.0006740224661302,2.987733789228414,418.51563019916136,8.179966026035371,3.0338260708461373,71.99984881140107,1.723179577184912e-08,120.0000013223286,40.969302182777255,15.288,0.0,0.0,0.024038975990988,1.1057590044953188e-10,-6.120032215177249e-05,5.3263847350253015e-09,1.376394225587184e-06,3.7700519690893857,47.8457752505109,8.180031477986942,38.11426270718793
0.21,31.222214639876928,131.01039479663547,3.771710975053407,3.7926098867321474,0.0004432924407074,36.46301043881366,0.0007080907240332,2.983530483977461,404.8187610144644,8.582757448615462,3.1863584283669346,71.99981127559042,2.5745201416596626e-08,120.00000147900325,45.103059028532826,15.288,0.0,0.0,0.0252227064089584,1.3774582723633048e-10,-7.20875523136271e-05,6.61341033873124e-09,1.7010673350603349e-06,3.792609912601061,46.47936953648762,8.582827080829217,36.584868250565684
0.22,31.22221449507626,131.01039509434258,3.8534832466471007,3.782921298925821,0.0004660920499522,44.14577847155813,0.0007479176313898,2.978724032883548,472.5421858721365,9.056569122268344,3.360845972992861,71.99976720416048,3.661811567390422e-08,120.00000164562512,50.21995530074818,15.288,0.0,0.0,0.0266151520780326,1.6960703048385348e-10,-8.421592474264931e-05,8.124635526119773e-09,2.0969540034515424e-06,3.7829213275976334,44.9464484092354,9.056642335836344,44.24615863872642
0.23,31.22221434283448,131.01039540734791,3.9394622486964206,3.813874679301352,0.0004940771488601,36.66675459308932,0.000779455230549,2.974212905336642,406.3406421461021,9.430647902846331,3.5044030163419806,71.99971583979395,5.0272885112871524e-08,120.00000182313076,54.45382429059888,15.288,0.0,0.0,0.0277145095638672,2.0669790509245914e-10,-9.77285871729516e-05,9.894576563683824e-09,2.5339062472561444e-06,3.813874711257219,43.79476959007253,9.430725512303388,36.78718303164376
0.24,31.222214184153326,131.01039573358457,4.028950821673608,3.829256049377765,0.0005200487408944,37.802126339316736,0.0008136255607606,2.9692962675112065,416.2328240017114,9.837806876534357,3.658163422426286,71.9996564062533,6.718950080713476e-08,120.0000020109434,59.25679777340223,15.288,0.0,0.0,0.0289110855155543,2.4956955046738006e-10,-0.0001125744417092,1.1934277804843484e-08,3.0448209172448607e-06,3.829256084638984,42.59361542722471,9.83788856559955,37.91856374864305
0.25,31.22221401888584,131.01039607335582,4.122052964664892,3.851417709838087,0.0005469594058717,38.85163035360012,0.0008459008130282,2.964283881833675,425.36408079150686,10.22297576958679,3.8050691648373967,71.99958811418384,8.786880969336211e-08,120.00000220974424,63.98709205399403,15.288,0.0,0.0,0.0300430411774988,2.987811646313829e-10,-0.0001288461362054,1.4273117985167728e-08,3.621333387698252e-06,3.8514177486178034,41.50703126619192,10.223061685769354,38.96455005232871
0.26,31.222213847358866,131.0103964259872,4.218542267117083,3.8780574625554745,0.0005745172425185,42.3164797140743,0.0008766626387865,2.959162938653076,455.8015834241788,10.590779679138215,3.946551912391076,71.99951013710364,1.1286401474734325e-07,120.00000241975916,68.67355887153568,15.288,0.0,0.0,0.0311239685467471,3.5491769188178554e-10,-0.0001465721578858,1.6932703957058654e-08,4.267712643344226e-06,3.8780575050466,40.51245375834074,10.590869924095635,42.41981967733593
0.27,31.22221366913008,131.0103967923915,4.318728802515264,3.886188503202341,0.0005994342651313,38.70936050721014,0.0009111181036949,2.953518013741325,423.84219965987256,11.004860953238978,4.102320296019413,71.99942161756776,1.4276417094868828e-07,120.0000026420792,74.14786134434608,15.288,0.0,0.0,0.0323408987462391,4.1858405402174807e-10,-0.0001658847815307,1.995072923688136e-08,5.018832267232506e-06,3.886188549362022,39.43841359495857,11.00495511215316,38.8218734782956
0.28,31.22221348431185,131.01039717233687,4.422535913956003,3.90556090261878,0.0006261175699806,44.68030766832924,0.0009425767186621,2.947879457547137,476.3468732012221,11.38358114165448,4.247086834352694,71.999321619057,1.7823531611327881e-07,120.000002877279,79.33831935330025,15.288,0.0,0.0,0.033453914386159,4.904408325040897e-10,-0.0001868529238516,2.3357766479368094e-08,5.847713054408178e-06,3.9055609527288775,38.49894431917428,11.383679491972384,44.77744842575601
0.29,31.222213292835256,131.0103975659655,4.530013412817602,3.9242599519377537,0.0006528240665589,35.802573724660256,0.0009737210635801,2.942037024315898,397.97031042211177,11.759725774384751,4.391004157029451,71.99920917567837,2.1999186079018322e-07,120.00000312617878,84.66717879828003,15.288,0.0,0.0,0.0345593650464213,5.711677680739745e-10,-0.0002095620322847,2.7188189988316943e-08,6.77505090435382e-06,3.9242600061534456,37.60352534239979,11.759828319749328,35.92324968749781
0.3,31.222213095024976,131.0103979726075,4.64093665799555,3.936939025755682,0.0006785438093183,33.570228713727204,0.0010059102294455,2.93586442972183,378.1859457108711,12.149968255527943,4.539237002744259,71.99908328532703,2.6880857935396905e-07,120.00000338923812,90.3787563598417,15.288,0.0,0.0,0.0357062504417728,6.614698865958865e-10,-0.0002340353597042,3.1467140861055e-08,7.817263716758327e-06,3.9369390841381695,36.71173884615234,12.150074840940263,33.698361337808635
0.31,31.22221289105846,131.01039839189684,4.755183729044857,3.9598342215431432,0.0007060286581592,35.396825578217346,0.0010350810412898,2.9297385597941448,394.1656220930212,12.504537499407316,4.6763673222047455,71.99894291513503,3.255120771695107e-07,120.00000366712923,95.72967338626896,15.288,0.0,0.0,0.0367483036680869,7.620720834468404e-10,-0.0002603234137215,3.622454560346964e-08,8.948994505138873e-06,3.9598342843844345,35.934338386209795,12.504648402129598,35.5178635353378
0.32,31.222212681031937,131.01039882363492,4.872689374180126,3.985461429033668,0.0007340760463279,38.52097867048992,0.0010630242168685,2.9235095146848846,421.55939346242695,12.84534566718622,4.809181081594425,71.99878701464397,3.909756427278764e-07,120.0000039606604,101.01782231644016,15.288,0.0,0.0,0.0377499198995686,8.737098716736534e-10,-0.0002884807530145,4.1491545539590986e-08,1.0187112828155184e-05,3.98546149652875,35.21473736963424,12.845460975581933,38.631757748577954
0.33,31.22221246496604,131.01039926777932,4.9934410812554,4.010606629086,0.0007621365968788,38.18822026147908,0.0010905599149574,2.917102431053817,418.5156301991682,13.18247167592885,4.940798912752974,71.99861449732019,4.661299779655886e-07,120.000004270781,106.38859400029033,15.288,0.0,0.0,0.0387407190563976,9.971421990244511e-10,-0.0003185760672934,4.7302669734505256e-08,1.154498667827874e-05,4.010606701382261,34.52805863348922,13.182591392065536,38.299473293007864
0.34,31.222212242662028,131.01039972474007,5.117579377337869,4.019339771238816,0.0007871574969313,29.898022638335373,0.0011220389395318,2.910051232417875,345.46563688075645,13.569536737955724,5.0878303926024735,71.99842423285973,5.519675040347761e-07,120.0000045987411,112.72655675097128,15.288,0.0,0.0,0.0398782837956187,1.1331556132162459e-09,-0.0003507224668667,5.37022358302301e-08,1.308298593306914e-05,4.019339848191799,33.76700548046532,13.5696603843662,30.039310197084795
0.35,31.22221201433324,131.01040019407705,5.2449575244483055,4.033762873683395,0.000813261106463,32.76415525156106,0.0011515840876071,2.902959820469776,370.5765700527033,13.934300103976534,5.227895396154902,71.99821502296155,6.495674834876441e-07,120.000004945438,118.8669740701126,15.288,0.0,0.0,0.040950312688979,1.2825853697215452e-09,-0.0003849609961885,6.072234695821837e-08,1.4746020857580124e-05,4.033762955530055,33.07785186209504,13.934427850732408,32.89250745069162
0.36,31.22221177990305,131.01040067594835,5.375631006350063,4.051723629010647,0.0008401329464575,37.01692984301412,0.0011797030485285,2.8957873473716007,407.8625232777193,14.282998147928636,5.362923567977223,71.9979856440668,7.600645476620651e-07,120.00000531213882,124.88900300695136,15.288,0.0,0.0,0.0419751331662584,1.4462801652534363e-09,-0.0004213876232777,6.84067806399068e-08,1.654507199147348e-05,4.051723715967022,32.44322602189087,14.283130115703262,37.13002398000203
0.37,31.222211539445663,131.01040117020102,5.509550188388412,4.071639898917391,0.0008674922629137,35.12417761390579,0.0012067983861697,2.88849906286036,391.1218908297666,14.620581431527652,5.494447309446232,71.99773482653193,8.846681943540367e-07,120.00000570002652,130.86067091914967,15.288,0.0,0.0,0.0429672939311924,1.6251202388969355e-09,-0.0004600660652957,7.679415042686734e-08,1.849041957573993e-05,4.071639991174516,31.85023865502424,14.620717696893658,35.24274792557624
0.38,31.222211292895075,131.01040167697127,5.646763233102716,4.08264881385344,0.0008930259828975,36.695642158537446,0.0012360471443664,2.880711738179021,404.8187610144602,14.986392916850402,5.634654729559426,71.99746126698146,1.0246533537040716e-06,120.0000061105033,137.4891296153862,15.288,0.0,0.0,0.0440424171304414,1.8200057922063743e-09,-0.0005010869196581,8.592980519823866e-08,2.0642694281337543e-05,4.082648911356968,31.228847973200924,14.986533193043764,36.808540518115166
0.39,31.22221104018777,131.0104021963902,5.787316652586672,4.096641430700089,0.0009192713382325,31.335681548387896,0.0012640110027448,2.872831219844713,357.64062493382744,15.337978856701952,5.770390286512262,71.99716358743511,1.1813915463769678e-06,120.00000654506955,144.01394309468844,15.288,0.0,0.0,0.0450757388736732,2.031886352449547e-09,-0.00054455673306,9.586443829735616e-08,2.295945663566148e-05,4.096641533664766,30.65298398882095,15.338123255506089,31.4670954954126
0.4,31.222210781536543,131.01040272801887,5.931064331106764,4.109028969993624,0.0009451871856381,29.95928076777898,0.0012920492774571,2.8646905607053603,345.465636880754,15.692185018814769,5.906873567965718,71.99684037970908,1.3563276523471372e-06,120.00000700500496,150.74021066990193,15.288,0.0,0.0,0.0461167659598875,2.2617341782092324e-09,-0.0005905037520737,1.0663253249436129e-07,2.5471259834659164e-05,4.1090290785164525,30.09246700352443,15.692333488470696,30.095929256306363
0.41,31.222210517064383,131.01040327160345,6.077922766619747,4.122888296344507,0.0009714525997821,33.78425365340317,0.0013192264430821,2.85640971467756,378.94687077668647,16.03742529732769,6.0405139809190125,71.99649020751959,1.5509747261474075e-06,120.0000074917568,157.44375780268788,15.288,0.0,0.0,0.0471314487675864,2.5105374204052982e-09,-0.0006389770219162,1.1827345344180344e-07,2.816813594418537e-05,4.122888410595805,29.56469007160549,16.037577892745222,33.904791300285986
0.42,31.22221024682894,131.0104038270252,6.227854084363214,4.14444025865494,0.0009995884754813,38.04468161607466,0.0013435485656724,2.8482703202464488,416.2328240017114,16.348862540904037,6.163613566771559,71.99611159893284,1.766920641656551e-06,120.00000800692096,163.6157044470786,15.288,0.0,0.0,0.0480467946810589,2.779304965995011e-09,-0.0006900467934588,1.308321832549104e-07,3.100973487310896e-05,4.144440378988911,29.104646754454564,16.34901955589459,38.15115260238947
0.43,31.222209970843565,131.0104043942566,6.380851271439565,4.1618082623168045,0.0010268052928652,33.45815353250911,0.0013687230309017,2.8397750580998298,375.9031395134336,16.67263197205097,6.290467308135904,71.99570306121484,2.005818691215035e-06,120.00000855220898,170.15779512382937,15.288,0.0,0.0,0.0489983878509763,3.0690566816849196e-09,-0.0007437862329608,1.443552931671376e-07,3.4086145072160934e-05,4.161808388761201,28.640125213458976,16.672793262249197,33.57845085853367
0.44,31.22220968892116,131.01040497368373,6.537047157143216,4.164954087655709,0.0010505545842624,30.86574023822051,0.0013980747538988,2.830419582421933,353.0750125389216,17.050421620730056,6.433992917638883,71.99526304125902,2.269416145406482e-06,120.00000912964636,177.9537948947602,15.288,0.0,0.0,0.050108743779844,3.380847125286677e-09,-0.0008003278134917,1.589055036683518e-07,3.750784460406397e-05,4.164954219916419,28.113519280259386,17.050586641458253,30.99524475496968
0.45,31.22220940081287,131.01040556582012,6.696617751072218,4.165241899529329,0.0010735835484822,35.912216710755274,0.0014280646808282,2.820677244966047,397.2093853562869,17.438293672974723,6.580571293039616,71.99478987454265,2.5595995397253085e-06,120.00000974147088,186.13940823302417,15.288,0.0,0.0,0.0512487363629523,3.7158016249566814e-09,-0.000859850913876,1.745604864109677e-07,4.121350642664912e-05,4.1652420376426775,27.591357195572936,17.43846231108416,36.02281959036367
0.46,31.222209106468902,131.0104061707686,6.859600379555308,4.174585124444534,0.0010989881252456,41.916816790010685,0.0014546917035209,2.811153314474766,449.7140588976434,17.786187321601275,6.714685486378061,71.99428180697711,2.8783880229668832e-06,120.0000103898448,193.6374175079873,15.288,0.0,0.0,0.0522712438446989,4.0751091178509895e-09,-0.0009224765531151,1.9138630415982226e-07,4.50966024037632e-05,4.1745852688465686,27.13985967570823,17.786359950252297,42.01097612387663
0.47,31.22220880579083,131.01040678873238,7.026066274755745,4.1823089530633855,0.0011240727220223,28.37640408484148,0.0014814747534716,2.801325368441072,331.0078106302534,18.138167428286582,6.849989708801916,71.99373704967608,3.2278903746588286e-06,120.00001107707628,201.37401505997488,15.288,0.0,0.0,0.0533057667609836,4.459978104761035e-09,-0.0009883252835099,2.094509673354327e-07,4.927107017839778e-05,4.182309103852639,26.69716826759888,18.13834399721685,28.514342615617974
0.48,31.222208499300592,131.0104074186346,7.195654207463586,4.189479568102716,0.0011490100608361,27.95074823096412,0.0015080719422187,2.7912412472910484,327.2031223011574,18.48995085190441,6.98515976370584,71.99315377257649,3.6103201777021456e-06,120.00001180491516,209.25751230436188,15.288,0.0,0.0,0.0543397174489847,4.8716620260348906e-09,-0.0010573190976925,2.2877013380347535e-07,5.373205427420879e-05,4.189479725385959,26.268461765425428,18.4901313379827,28.089773168283216
0.49,31.222208187201936,131.01040806005494,7.368224738812109,4.202723284133339,0.001175611380853,35.08821363242469,0.0015321405723077,2.781292092003844,389.60000969812296,18.812014261754847,7.111044804193205,71.99253015042137,4.027946338669921e-06,120.0000125755114,216.60722913930897,15.288,0.0,0.0,0.0552863302793499,5.311396446020465e-09,-0.0011294854492155,2.4938633613154685e-07,5.8398320167141767e-05,4.202723448262914,25.88860807032205,18.81219892635871,35.1982716047702
0.5,31.22220786953184,131.01040871291724,7.5437546994244835,4.220815778795054,0.0012036252596423,36.05491615971072,0.0015540388599792,2.7714444106710974,397.97031042210494,19.10875420627192,7.229005658018125,71.99186435180009,4.483102820610566e-06,120.00001339126192,223.4908652241728,15.288,0.0,0.0,0.0561585257949344,5.7804122391526605e-09,-0.0012048912160576,2.713531252030471e-07,6.327866493526626e-05,4.220815950099865,25.54902500917784,19.108943271285572,36.161276053538906
0.51,31.222207546379583,131.0104093770373,7.722184419225251,4.232567510615346,0.0012298790840397,27.54004661432325,0.0015777580800203,2.761017323676155,323.3984349720841,19.430597746636646,7.354673636736509,71.99115452520388,4.978202222778502e-06,120.00001425458936,231.07869697977367,15.288,0.0,0.0,0.0571045034845869,6.2799518101633574e-09,-0.0012835871653678,2.947201005874635e-07,6.854585242460463e-05,4.232567688976395,25.189423168613605,19.430790935591396,27.678103017910345
0.52,31.22220721782669,131.01041005249124,7.903526666804083,4.24113102420692,7.243220253815298,33.16896951745164,-0.4299901890229786,2.7500424079968977,372.0984511843415,19.920172062801385,7.482788487324483,71.9903963246206,5.677670951709425e-05,120.00006906996089,242.8657071498623,15.288,0.0,2.5142906945236567,0.0585434311827903,6.828599678064024e-09,-0.0013727471373681,9.923168398039096e-05,7.515289666921059e-05,8.387816995571395,31.65671059120325,21.05490633144356,33.28555487982848
0.53,31.222206883949507,131.0104107397664,8.08789233741732,4.25042802650591,7.1414114227537215,34.832916684430565,-0.4410558104479179,2.7390261434997782,386.5562464348624,20.245444389813585,7.6099591889771485,71.98958856464996,0.000347493195342,120.00037511876867,250.85742810721743,15.288,0.0,2.52396322787558,0.059499498384736,7.484485117075916e-09,-0.0014583856078998,0.0002459756447718,8.114356569622771e-05,8.304950888327163,31.22059843269125,21.364312400525197,34.943223651906905
0.54,31.222206544658512,131.0104114390919,8.275355835392643,4.259517228349654,7.04311284184715,30.576488516702977,-0.452247822959145,2.727776506607708,349.2703242098436,20.568828388549544,7.736447331130279,71.98873080337988,0.0008997947067825,120.00095623842668,258.9307500486692,15.288,0.0,2.5336134585486167,0.0604500220417349,8.254558814464636e-09,-0.001547707649263,0.0003965419485774,8.748731142955066e-05,8.225412629324053,30.7987197785367,21.672373838838716,30.70125311409033
0.55,31.222206200258903,131.0104121498553,8.465711551507495,4.269604102751849,6.950027809521044,32.41463416935343,-0.4634340388175846,2.7163807786719785,365.2500005919907,20.884586178771816,7.860463902409461,71.98782093243047,0.0017202611520993,120.0018193503723,266.93672647441514,15.288,0.0,2.54322949944913,0.0613781389019121,9.142058167674765e-09,-0.0016406835849342,0.0005507735599409,9.416496640701264e-05,8.15124995232315,30.398006436625938,21.973618749733507,32.53155397419693
0.56,31.22220585076065,131.0104128720524,8.65895949207414,4.281552309249401,6.863250205279424,30.24554357526649,-0.4745087788500377,2.7049138137076985,346.2265619465787,21.18830392769848,7.98063099935873,71.98685682701569,0.0028153579027323,120.00297125628204,274.75203051334734,15.288,0.0,2.55281074219348,0.0622708769797724,1.015016053674018e-08,-0.0017374100653645,0.0007087258838676,0.0001011647276819,8.083817043228098,30.022978496221324,22.26380442022653,30.36996252029522
0.57,31.222205496249604,131.01041360552225,8.855046704444854,4.291288149607679,6.776092540842786,29.90548494673081,-0.4859235505717692,2.6930661279770365,343.1828296833023,21.499726779488963,8.103117058559974,71.98583632503536,0.0041915418883733,120.0044187492594,282.8825951202379,15.288,0.0,2.562352584884544,0.0631862657578693,1.1282056426717756e-08,-0.0018379418053975,0.0008703847626021,0.000108589319032,8.015273952201179,29.647188696152483,22.56163344383881,30.030430512495162
0.58,31.22220513671135,131.01041435031055,9.05399005285532,4.296151135308466,6.684443097909017,39.41774556762352,-0.4980090258546149,2.6805985886859367,426.1250058573153,21.83254968777029,8.232197198645446,71.98475721451344,0.005855323566734,120.00616867921576,291.7030457901499,15.288,0.0,2.571854684984644,0.0641645541340698,1.2540961622366056e-08,-0.0019423800926004,0.0010358105845122,0.0001165340370221,7.940708319441683,29.25417363946958,22.880159299217965,39.51192588848842
0.59,31.22220477172845,131.0104151072952,9.25608755165544,4.306088471516359,6.603590425905046,31.9285313554712,-0.5096162301423518,2.668316863811612,360.68438819711065,22.137251132755125,8.35240183302813,71.98361715754788,0.0078136308739357,120.00822833594252,299.89622923884144,15.288,0.0,2.581331382945044,0.065060201737242,1.3930242345699764e-08,-0.0020510388592327,0.0012053923219511,0.0001247680158697,7.878299160839207,28.904991210141954,23.172245730295742,32.043887687124254
0.6,31.22220440153423,131.0104158760114,9.461183732092854,4.307823487784908,6.513165518810336,28.360951743095782,-0.5223280382500407,2.6550934780443307,329.4859594986058,22.48099198136237,8.484703587314817,71.98241375532045,0.0100734776799465,120.01060509937804,309.27585044895466,15.288,0.0,2.59077337174004,0.0660705906488778,1.5453381825760858e-08,-0.0021639069021389,0.0013790041280374,0.0001336753032736,7.803757742459959,28.518155564466493,23.501875619590788,28.4897513455436
0.61,31.22220402608632,131.01041665656305,9.669315290459275,4.308012580243294,6.423357362013117,33.2564957276714,-0.5353845077388003,2.6414575624550745,372.0984511843297,22.830836140468417,8.618816363768653,71.98114453196321,0.0126420389744605,120.01330651970464,318.97013549642986,15.288,0.0,2.6001819631041148,0.0670989239215222,1.7113914934502317e-08,-0.0022811163825831,0.0015567437657925,0.0001431059582778,7.729207314810981,28.134389488078853,23.837702547415887,33.3655277601
0.62,31.222203645514448,131.0104174486993,9.880399120940254,4.319947835912494,6.353464043145952,41.38425560060183,-0.5470915542373967,2.6286508717546058,442.86563930529206,23.116796698164464,8.732895182733445,71.97980693332941,0.0155266457175835,120.01634031149224,327.0038704969539,15.288,0.0,2.609556856617216,0.0679395124690772,1.8915473679169284e-08,-0.0024027352884781,0.0017386105195638,0.0001526206269122,7.6780122238455295,27.83163050500865,24.11275246249225,41.47126386053647
0.63,31.22220325963331,131.01041825281757,10.094571091903187,4.327779003828103,6.279882160933337,23.406792219269875,-0.5594223710300443,2.6152374270577448,286.11251274707894,23.421270317738607,8.852659673088645,71.97839842182793,0.0187343510262376,120.019713898071,335.6676958139,15.288,0.0,2.618891498753446,0.0688345168338947,2.086153843311348e-08,-0.0025289502379769,0.0019247744118261,0.0001627501702251,7.6217781077259,27.51494986352632,24.405738037973386,23.559081946993718
0.64,31.22220286906624,131.0104190676479,10.311404056515563,4.329239084674168,6.199522196754302,22.976170892100203,-0.5727154771600445,2.6009497639990022,282.30782441796754,23.757363748662783,8.982206273991594,71.9769163614486,0.0222722758437963,120.0234347764035,345.3632368879163,15.288,0.0,2.628188905925135,0.0698224576647561,2.295576421252192e-08,-0.0026595237482948,0.0021147870633753,0.0001736056272887,7.556663187302212,27.17159275605267,24.72928333581349,23.130010193590874
0.65,31.222202473800863,131.01041989323042,10.530913323964276,4.339375267632145,6.133632781471555,40.71998791184749,-0.5849699299359598,2.5872852662297072,436.7781447787475,24.04394105488344,9.09621198026044,71.97535823293518,0.0261473372514194,120.02751022278244,353.73804112624794,15.288,0.0,2.637425994994977,0.0706648781218938,2.520160860866019e-08,-0.0027945866846031,0.0023087454897631,0.0001846187321533,7.508635969091455,26.88790094167887,25.00557064401451,40.80629424989219
0.66,31.222202073312744,131.0104207306605,10.75347043327247,4.346959190919751,6.066194235066879,34.61275582246842,-0.5976796105349199,2.573127061807181,383.51251517160017,24.34138290182505,9.21351459988896,71.9737213391327,0.0303665391595713,120.03194761370897,362.53644519674185,15.288,0.0,2.6466323509279746,0.0715392360563256,2.7602485865235653e-08,-0.0029345383157087,0.0025071181953389,0.0001962584095877,7.458155371556197,26.598823576140862,25.292479247182516,34.71341339336821
0.67,31.222201667804267,131.01042157953592,10.978941386710872,4.348886932645641,5.993006986035854,23.78052837875904,-0.611307489678816,2.5581073655492297,289.1562440103425,24.66752162225221,9.339680798166931,71.97200286567565,0.0349373582709007,120.03675482030668,372.3083769365572,15.288,0.0,2.655808719601948,0.072497940983949,3.0162179664156274e-08,-0.0030793742568425,0.0027097961211451,0.0002086997034814,7.399993273733801,26.28713616646745,25.607185342071187,23.92553322527167
0.68,31.22220125745992,131.01042243949115,11.207204627612247,4.351961090911339,5.92336104787385,29.733900992611304,-0.6249149139573528,2.5429371115396453,340.8999924858462,24.984963011372173,9.463043394466473,71.97019995759841,0.0398672396432022,120.04193968125227,381.9439850084867,15.288,0.0,2.664922352049947,0.0734310915473357,3.2884467052731e-08,-0.0032291109429538,0.0029167038102378,0.0002216593203937,7.345626104421862,25.990874727781904,25.91374587202757,29.84898517607162
0.69,31.22220084237029,131.01042331035353,11.438203750414036,4.359773099072633,5.861953188034005,36.65290528718735,-0.6379569785115478,2.528053259452431,401.0140726853634,25.272871505228657,9.57710093809867,71.9683097001283,0.0451635153429517,120.04750991992448,390.78852094856086,15.288,0.0,2.6739987798649225,0.0742774514700416,3.5773073964705926e-08,-0.0033838022302868,0.0031278189046487,0.0002349493501267,7.30093997693678,25.729150217842893,26.19205941150682,36.74552365092361
0.7,31.222200422398327,131.01042419241864,11.672040406166373,4.3668756030871965,5.801307431794274,30.711556395753743,-0.6512165040951318,2.5128458380550605,349.27032420985284,25.561852714727326,9.691402044703135,71.9663292747825,0.0508333981267414,120.05347312767016,399.767536481096,15.288,0.0,2.683041239418074,0.0751269709495698,3.883161320687145e-08,-0.0035436453038503,0.0033433110837954,0.0002488556514255,7.256688900179648,25.4714455926846,26.471563708689565,30.82106703848196
0.71,31.22219999760659,131.01042508557092,11.908677491674249,4.370188442452186,5.737313410219113,25.20455846541092,-0.6651731333483026,2.496920631776153,301.33126406340574,25.870012190668813,9.811598032844309,71.96425565159706,0.0568842967392317,120.05983711039464,409.4550816804551,15.288,0.0,2.692023384370928,0.0760328629023785,4.2063863991620497e-08,-0.0037087102134141,0.0035631758068207,0.0002635813021607,7.207732716717551,25.20103645811652,26.769721944988152,25.33666977672944
0.72,31.222199568003266,131.01042598980675,12.148115757131066,4.369044773817314,5.669258400502454,30.902797673383724,-0.6799755959371002,2.480146758509836,350.79220534145287,26.20202279102124,9.939146199184256,71.9620857549929,0.0633237584899915,120.06660981823136,420.02259430291696,15.288,0.0,2.7009663245681863,0.0770088615952222,4.547365992616201e-08,-0.0038791189805562,0.0037874774187246,0.0002792241646377,7.1530890111751,24.91473499490536,27.09109540717901,31.009617843451526
0.73,31.222199133591232,131.01042690513384,12.390359809987906,4.377017250003113,5.614540537687225,39.14411402484824,-0.6934774122767979,2.4642685194156093,422.320318528234,26.477468432375915,10.048951810930651,71.95981635096888,0.0701596050206097,120.07379949347693,428.88990874280654,15.288,0.0,2.70987504152818,0.0778186207508279,4.9064964741125504e-08,-0.0040550112439394,0.0040163024470248,0.0002949466709123,7.114770553955022,24.68420775757069,27.357987623496307,39.22773499767023
0.74,31.222198694309025,131.01042783169083,12.635458445692189,4.381464924416976,5.556772670312516,24.43424480514189,-0.7076610617971985,2.4476730901126813,294.48281347105944,26.771015072039187,10.164314007777572,71.9574443482927,0.0773993386575125,120.08141403611296,438.44221717210496,15.288,0.0,2.718737976366911,0.0786815867633435,5.2841600534524247e-08,-0.0042365252564119,0.0042497296472281,0.0003115583487054,7.072107687338018,24.442064140225945,27.64250319408015,24.566729675153123
0.75,31.2221982505434,131.0104287686943,12.883149342887856,4.383508107222153,5.4974082797460095,28.55935144909768,-0.7223762396163514,2.4304702758869268,330.24688556441487,27.07651132472401,10.283319264025897,71.95496642848823,0.0850505439200908,120.08946144354988,448.4951715576031,15.288,0.0,2.727542513610973,0.0795796805885738,5.680762521159144e-08,-0.0044235014210125,0.0044874592838015,0.000329013185373,7.02692088205633,24.19427255598482,27.938717864295565,28.67168583091357
0.76,31.222197802181903,131.01042971638736,13.133516560735732,4.388512132557658,5.443125637324598,30.757940233029768,-0.7367282265214949,2.4134060857295254,349.27032420986166,27.361250480924184,10.395758086575253,71.95237940080595,0.0931206986454517,120.097949592511,457.9665941353164,15.288,0.0,2.7363066295793,0.0804167751944729,6.096683374554336e-08,-0.0046161545868922,0.0047296706942258,0.0003469447092629,6.987750692724042,23.968383459073547,28.214969155545518,30.861273220543268
0.77,31.22219734916825,131.01043067489695,13.3866050651998,4.393940349849155,5.390662389537624,28.748298725618927,-0.75113074893723,2.396138710217259,331.7687666960708,27.64044092597826,10.506375237444928,71.94967983894425,0.1016173845203109,120.10688648056772,467.3489747733767,15.288,0.0,2.745031276997768,0.0812375688983646,6.532312008398e-08,-0.0048146495714569,0.0049764745034512,0.0003655468765797,6.950462537376881,23.750931013840816,28.48595549566345,28.85776078870333
0.78,31.22219689157557,131.01043164408372,13.642369926120557,4.396029736870161,5.335394153244222,23.57958960572949,-0.7662444346619037,2.378101018900462,286.8734378128899,27.93763183092798,10.622522166027236,71.94686442242569,0.1105481671058251,120.11628007905216,477.441178531974,15.288,0.0,2.753705507928624,0.0821112747787335,6.988045303427699e-08,-0.0050190392935393,0.0052278403556446,0.0003851526995843,6.909095143292475,23.52274387353597,28.77450289016531,23.711590856886254
0.79,31.22219642950202,131.0104326237569,13.900748946017783,4.39606783766348,5.278921426909162,33.58831387505784,-0.781873256196101,2.359447376025796,373.6203323159534,28.245264658352028,10.741842080996756,71.94392958574694,0.1199207258880849,120.12613849119457,488.00156482829664,15.288,0.0,2.762324221954181,0.0830156780116855,7.46428876576867e-08,-0.0052293727686721,0.0054837347988982,0.0004057020797372,6.865689216389964,23.29043683868697,29.073303030255435,33.68015954057215
0.8,31.22219596271669,131.0104336144016,14.161907917556094,4.4014520166571085,5.230032708928062,34.03518033734847,-0.7966714088883065,2.341341419186965,377.42502064505743,28.5161552693754,10.849601886142212,71.94087177672056,0.1297429262616404,120.136470009505,497.3944867827223,15.288,0.0,2.7709064334421902,0.0838120997570971,7.961436154423979e-08,-0.0054459901399286,0.0057444745731905,0.0004265489860342,6.8317028986502,23.090603320934623,29.336546490309477,34.12491854306428
0.81,31.22219549133276,131.01043461579533,14.42577401163618,4.402819933424072,5.177546784731955,22.10266152095353,-0.8123414156900307,2.3223094424554493,273.9374926939919,28.809940115119755,10.964419217879442,71.93768735464124,0.1400225712457486,120.14728286522528,507.68312921780193,15.288,0.0,2.779447733116588,0.0846758176413768,8.479905345900744e-08,-0.0056689005438668,0.006009972241852,0.000448571090376,6.792569461275526,22.87659496105712,29.62212084703981,22.23916963449856
0.82,31.22219501555512,131.01043562752776,14.692211002506584,4.402331181928547,5.124050144043169,28.43084859073132,-0.8285186925174662,2.302655816717167,328.72500443277005,29.113259521603503,11.082128090862442,71.93437266912625,0.1507674415364883,120.15858526470976,518.4162088081183,15.288,0.0,2.787944269954345,0.0855675664349746,9.020119409600133e-08,-0.0058980593387744,0.0062800808661554,0.000471605590129,6.751643751892372,22.65916070736917,29.917070954586684,28.5359741137954
0.83,31.222194535369823,131.01043664963714,14.961234073230656,4.408423392128694,5.079204247592034,36.168022480457566,-0.8435621801820454,2.2838284081785902,395.68750322465047,29.370676230210943,11.18541873922198,71.93092386932067,0.1619853846558336,120.17038549474177,527.6106817920626,15.288,0.0,2.796390568986189,0.0863244088462805,9.582490116504312e-08,-0.0061336295623558,0.0065548998222011,0.0004947653123364,6.721722784824872,22.47890151121698,30.16747119244604,36.2498733721474
0.84,31.22219405066684,131.01043768235755,15.23292437136802,4.412796128687996,5.033342644286614,22.292310831066487,-0.8590500118891694,2.2644373675917686,275.4593748256452,29.63625099877829,11.291167610899668,71.9273372269212,0.1736840158396236,120.18269159168922,537.1812987061624,15.288,0.0,2.8047870691465304,0.0871052361938235,1.0167416419277465e-07,-0.0063758142137789,0.0068345686518309,0.0005189378413357,6.690079939268216,22.29531196277745,30.42587007063019,22.423486921162752
0.85,31.22219356176528,131.0104387250434,15.507066432975964,4.411178759598829,4.981700409912666,24.318685096289727,-0.8758759494051761,2.243669058206132,292.96093233939376,29.938983191944224,11.408438341565867,71.92360892307285,0.185870909469705,120.1955115530718,548.1974552484687,15.288,0.0,2.8131356738203444,0.0879952821535309,1.0775331440582693e-07,-0.0066244349226015,0.0071187887186622,0.0005446667621019,6.650320207050745,22.08820443484349,30.720521282138083,24.437668758169266
0.86,31.222193068482,131.01043977807842,15.783791954956763,4.413461621321026,4.9354317819560105,30.47858242754811,-0.89205789847288,2.2232997623977053,346.2265619465587,30.212836758551767,11.51660451317304,71.91973499796363,0.1985539066961776,120.20885365959762,558.2572718366185,15.288,0.0,2.821442150720031,0.0888004572152299,1.1406636923807027e-07,-0.0068798250277315,0.0074078490845651,0.0005708241578804,6.61731895582237,21.904548579866372,30.9871341900755,30.572582748609086
0.87,31.222192570845955,131.01044084141105,16.063085842481456,4.417425432374781,4.891931626223256,28.37451540182815,-0.9080153296660044,2.2029587239822783,327.964078366998,30.472240526288445,11.6201709777938,71.91571140561686,0.2117407634776714,120.22272610727453,567.8694520937793,15.288,0.0,2.8297060875671938,0.0895631694518006,1.2061754197256424e-07,-0.007142085831919,0.0077017689724126,0.0005976559550803,6.587653892118541,21.73342848374095,31.239730081605742,28.47438573994285
0.88,31.222192068898245,131.01044191496425,16.344924431196038,4.418246328747657,4.845853998183932,24.509858121414663,-0.9247644564461048,2.181714170868436,294.4828134710418,30.75012901852322,11.729427661162823,71.9115341856094,0.2254391411174873,120.23713698628612,578.2582811704738,15.288,0.0,2.8379255096940503,0.0903802190551979,1.2741106514626104e-07,-0.0074112793700056,0.0080005230760243,0.0006258210543343,6.554129678569302,21.552226351576127,31.51040683477953,24.62413879012118
0.89,31.22219156272927,131.01044299856022,16.629250112742035,4.415988534123144,4.79733196676114,26.890927145636084,-0.942327295321407,2.1595307776038744,315.028134248087,31.046609747721423,11.844412426420249,71.90719917326523,0.2396567615056628,120.2520944607881,589.4466214099635,15.288,0.0,2.846099744873751,0.0912519225545974,1.344512377891952e-07,-0.0076874627160171,0.0083040816905233,0.000655383328012,6.516881029382701,21.361423991932316,31.799292713035296,26.99395333519775
0.9,31.22219105226099,131.0104440923656,16.916121396686393,4.420476528195425,4.75692500663916,29.71332723026368,-0.9585493027486308,2.1384049479201925,339.37814235421445,31.293174101965647,11.943714590351828,71.90270205691964,0.2544015598101887,120.26760692275484,598.8297732312653,15.288,0.0,2.854226394910511,0.0919769200483948,1.4174229069735094e-07,-0.0079708694752614,0.0086126079482047,0.0006849226572014,6.490301386556047,21.20593920007425,32.03953200565939,29.80559356194435
0.91,31.222190537571425,131.01044519622658,17.20548875504195,4.421862626200531,4.713968541941033,22.58786288824576,-0.9755772906915668,2.11634366135278,277.7421810230789,31.55832018627596,12.048741052971884,71.8980386688705,0.2696810813300218,120.28368234972687,609.0035708068046,15.288,0.0,2.8623045302292662,0.0927565404601588,1.492885219443238e-07,-0.008261531498544,0.0089260405901281,0.0007158937827463,6.459892639798531,21.040453554823955,32.2979535372895,22.707756635151153
0.92,31.22219001887965,131.01044630970182,17.497205838510705,4.42023361588246,4.668618616800529,26.907801733352088,-0.993428327296183,2.093316050618572,315.02813424806214,31.84198291997352,12.15947924541718,71.89320474280625,0.2855028971286528,120.30032875005024,619.9834912563076,15.288,0.0,2.870335183095511,0.0935905929498694,1.5709444106608744e-07,-0.0085593303246363,0.0092441612100754,0.0007483450223672,6.425821909566091,20.86552077552261,32.574516586717486,27.007381695577923
0.93,31.222189496090586,131.0104474329909,17.791342250304172,4.424775178661075,4.630493216502793,32.022863047734816,-1.009978890046392,2.0713308274534863,359.1625070654728,32.078517696857524,12.255402126383904,71.8881958211558,0.3018746055042316,120.3175541711786,629.2108901917462,15.288,0.0,2.8783225001804005,0.0942861336159981,1.6516413784002076e-07,-0.0088645405954275,0.0095671719672173,0.0007807648240636,6.401362488670455,20.72226231195349,32.80508234788614,32.10567280916378
0.94,31.222188969087536,131.0104485663354,18.08798172312579,4.423234122965703,4.586763295546434,23.217760317307544,-1.0280800059508275,2.047678706312221,283.0687504837787,32.355626399774145,12.363931635724098,71.88300755960346,0.3188035786848861,120.33536641755576,640.1104216684964,15.288,0.0,2.8862663926271126,0.0951009380722337,1.735017210182027e-07,-0.0091773740697155,0.0098952009183007,0.0008152777436459,6.368796433631976,20.55579345881398,33.075344180226736,23.330545015812664
0.95,31.222188438183764,131.01044970910235,18.38691342100246,4.422269357142747,4.544367883669886,30.097483989553407,-1.0461857957646443,2.0238218485158805,342.4218736174873,32.62574112174077,12.47020033276084,71.87763540150753,0.3362974595877385,120.35377358427388,650.8240255445064,15.288,0.0,2.894163670465476,0.0958951934097726,1.8211192813223493e-07,-0.0094976415392731,0.010227959286635,0.000850748186803,6.337720728572629,20.39578538063069,33.33882057775556,30.183586634050197
0.96,31.22218790306502,131.01045086193508,18.688356407787776,4.424284150762364,4.50570868520317,29.486605706270616,-1.0636946190534151,2.000345970054656,337.09533515678345,32.870883316367774,12.568575209736592,71.87207475660436,0.3543637692605628,120.37278364147863,660.6219218823169,15.288,0.0,2.9020205433590904,0.0966160561080049,1.9099860640380242e-07,-0.009825850036252,0.0105658790829753,0.0008867349062208,6.311522647082124,20.252624349730723,33.57790912830387,29.573514270704926
0.97,31.22218736375377,131.01045202479108,18.99229871702421,4.424485761369232,4.465871192908063,18.821544382449616,-1.0817724076011015,1.976122448131196,245.02188719299323,33.12609342174359,12.670019494075614,71.86632089140113,0.3730101559913721,120.39240469745124,670.9003190840399,15.288,0.0,2.9098362481176467,0.0973665187600348,2.001662209329645e-07,-0.0101621056093457,0.0109089713977444,0.0009241735758295,6.283343416941812,20.10516985416586,33.82688074384719,18.95589154886617
0.98,31.22218682056135,131.01045319704093,19.29853082630341,4.418901201511066,4.420920404974232,27.469905428137803,-1.101461669322552,1.950114350882885,319.5937466429581,33.421508691785405,12.783977866821276,71.86036911281279,0.392244133211817,120.4126447160986,682.8996366366392,15.288,0.0,2.91760549803503,0.0982351633217207,2.09619708597312e-07,-0.0105061431258023,0.0112568734124554,0.0009639537801069,6.247594969531019,19.93632330797026,34.11525638320023,27.561057091870424
0.99,31.22218627332929,131.01045437900987,19.607164663818324,4.422540001381544,4.385791304243938,30.03427280250752,-1.1189077509885423,1.9261068543755324,341.6609485517054,33.64466323535514,12.87523812476956,71.85421444182028,0.4120733830340295,120.43351185268402,692.0289738772516,15.288,0.0,2.9253342116883347,0.0988914213445835,2.193631886654069e-07,-0.0108583603419414,0.0116098947762839,0.0010028925588678,6.2254152062326895,19.81074957702201,34.3329091485303,30.116762524300942
1.0,31.22218572205619,131.0104555707017,19.918203861231447,4.420545921146958,4.345700713112017,26.862959894283893,-1.137939922867714,1.90032858550279,314.2672081822764,33.9069713050676,12.978682510241647,71.84785216792048,0.4325050346982995,120.45501367230936,702.8407443389674,15.288,0.0,2.933020058664649,0.0996627706122339,2.294010538778897e-07,-0.011218828610107,0.0119680093993627,0.001044233234982,6.195872808260428,19.664417200438947,34.58893807536959,26.954123437478728
1.01,31.22218516693672,131.01045677172405,20.23151872668848,4.4192793453333445,4.3069321412553645,28.104254424365102,-1.1569012587456629,1.874409336507474,324.9203161036979,34.16063574134979,13.079349922661647,71.84127718262934,0.4535465519504076,120.4771581091106,713.3747811654985,15.288,0.0,2.940661960457216,0.1004087215504899,2.397380828107701e-07,-0.0115874673067939,0.0123310446824735,0.0010865817251575,6.167891115448504,19.52455528570544,34.83653011094411,28.1904407137015
1.02,31.22218460788866,131.01045798224445,20.54716803269661,4.41924750884372,4.2699371958297085,23.42940039358124,-1.1756397673684011,1.848503494664965,284.59063161540416,34.40152035221399,13.175941045578112,71.83448461331277,0.4752050823353964,120.49995275351723,723.4490813501776,15.288,0.0,2.9482618014215407,0.1011171164179602,2.503784798274307e-07,-0.0119645132213348,0.0126991396982998,0.0011298152538157,6.142143687649159,19.393170606586025,35.07161983925676,23.53159358894232
1.03,31.222184044985088,131.0104592021152,20.8651044407058,4.41531019405009,4.229767145270126,19.10533287693213,-1.1955785174030984,1.8211723803552704,247.30469339049705,34.66940152428838,13.28092501953129,71.82746937785237,0.497487643147785,120.52340507379238,734.7373613436495,15.288,0.0,2.9558182132172326,0.1019048708090061,2.613267788283549e-07,-0.012349984874904,0.0130722177672248,0.0011752608573749,6.111501631746797,19.248617613896723,35.33320846451514,19.22913989674599
1.04,31.22218347829202,131.0104604312038,21.18528576883195,4.4147503467870495,4.193378474822088,30.50666235579168,-1.21469893806959,1.7944510390048458,345.46563688072297,34.90776837991324,13.376590131921986,71.82022622466324,0.5204014732390789,120.54752277538417,744.852449330553,15.288,0.0,2.9633322858100755,0.1026058807758413,2.725875436065645e-07,-0.0127439648285883,0.0134502665798006,0.0012210537889052,6.086018229096449,19.12134069296197,35.56587483615015,30.58352491345316
1.05,31.22218290750316,131.01046167012757,21.5079219949681,4.411003026046855,4.154528822079361,18.316279324419103,-1.2348472984160184,1.766462379142448,240.45625879819983,35.16778055585374,13.478970544158972,71.81275003410353,0.5439535476528687,120.57231328130824,755.9664853234564,15.288,0.0,2.9708081698777344,0.1033705219088717,2.8416456461125244e-07,-0.0131470007072529,0.013833711990801,0.0012690137694496,6.056643642297911,18.983972263914456,35.819800708852874,18.442649632779823
1.06,31.22218233287191,131.01046291837477,21.83284339871509,4.404525466590421,4.11369470833481,26.18719828338021,-1.2559432929712635,1.7372691300648868,308.17968365593924,35.44643072224878,13.587136182722796,71.80503532869754,0.5681511870289525,120.59778439152504,767.9697039815732,15.288,0.0,2.9782426975709666,0.1041899551306173,2.9606305566472936e-07,-0.0135588758383554,0.0142222509105523,0.0013190988079181,6.024032661315183,18.838507843061866,36.09205335731189,26.27479498528023
1.07,31.222181754273446,131.01046417619662,22.160136881112937,4.403773431724055,4.078717465095118,30.87890394290908,-1.275476375773464,1.7094575001937875,348.5093681440308,35.67605996810276,13.679852172714384,71.79707649740674,0.5930018116573331,120.6239440154694,777.9276079833953,15.288,0.0,2.985640153641973,0.1048653063223489,3.082873321160006e-07,-0.0139799737470736,0.0146161479222697,0.0013688338044242,5.999697794658642,18.71960286301153,36.316202425614,30.95247637339428
1.08,31.222181171598027,131.01046544381148,22.489878144038105,4.401595401556797,4.042914981373196,20.713273437325693,-1.295544455591617,1.6808671386973577,261.00157857466235,35.91349381268052,13.77494575763542,71.78886804326032,0.6185124723280216,120.65079967229204,788.2917351887293,15.288,0.0,2.993001014621818,0.1055636061443525,3.208418122484493e-07,-0.0144105598284496,0.0150155477128583,0.0014203397312037,5.973861876052365,18.59778835735941,36.54802654824875,20.82170613239436
1.09,31.222180585139352,131.01046672062637,22.821870205347043,4.392905928899489,4.001688235065313,19.03548995226508,-1.3177434486630664,1.6498138169174472,246.54375332474407,36.2005884035223,13.88557663416409,71.78040429615943,0.6446902025935037,120.67835887237688,800.9198717959465,15.288,0.0,3.0003209425543944,0.1064078864922516,3.3373197525945924e-07,-0.0148503098908148,0.015420050818384,0.0014753362818652,5.939674303870999,18.45252291658757,36.82866120830776,19.152237758282215
1.1,31.22217999497782,131.01046800647808,23.15606062976119,4.387313899189116,3.9638045169866887,38.42013085245407,-1.3391353354805808,1.619356248482762,413.1890617385841,36.45940028766143,13.987271098805705,71.77167950671745,0.6715419921986437,120.70662908416304,812.3868981991141,15.288,0.0,3.007601375293328,0.1071690414229101,3.4696257795367133e-07,-0.0152992992748041,0.0158296319545478,0.0015307596179227,5.910121777651064,18.322748331783643,37.081536703056045,38.47755258362889
1.11,31.222179400679767,131.01046930223345,23.492742979445968,4.388109787813916,3.9321225967304887,28.0708179459736,-1.3585981795129212,1.590698418349109,324.1593910376397,36.66171501424909,14.071139629409572,71.76268779417433,0.6990748732633477,120.73561782658166,821.4012862507168,15.288,0.0,3.014849263209338,0.1077641363210752,3.605371227729353e-07,-0.0157583781302749,0.0162449627429984,0.0015853902596563,5.889553803616429,18.221422001708767,37.278886654784266,28.14865770560841
1.12,31.222178802309063,131.01047060775855,23.83187441391276,4.376472497172068,3.8898393374323135,10.455273446056644,-1.3822096782922173,1.5573946655495043,172.73281794065943,36.96387205021484,14.186334267333336,71.7534232909964,0.7272955258048295,120.76533225284234,834.9694652992271,15.288,0.0,3.022061452171416,0.1086527182273017,3.744606694943521e-07,-0.0162275248061339,0.0166659136249753,0.0016459911049506,5.852769784764962,18.07326140092785,37.57441731940886,10.660615581234692
1.13,31.22217820050028,131.01047192178177,24.173030401841803,4.371327059683177,3.8538015764440825,33.12998015863219,-1.4038412801942572,1.5259373162496523,367.5328077900705,37.20870010289776,14.283458676464972,71.7438797440189,0.7562113251488892,120.79578025338893,846.0391136892896,15.288,0.0,3.02923316901152,0.1093727942510976,3.88739933293907e-07,-0.0167059315472983,0.0170916669148669,0.0017056845194991,5.825070870125943,17.953733440193187,37.81359749407648,33.1948014054078
1.14,31.22217759453716,131.01047324572923,24.51669196832749,4.370695129769523,3.822147829663421,18.25314141231273,-1.4240521646185536,1.4957590233894127,239.69531773195544,37.41137810074582,14.367251348943048,71.73405118051207,0.7858285780266459,120.82696860080534,855.2528336874504,15.288,0.0,3.0363739163442687,0.1099689808363998,4.0337729441045547e-07,-0.0171949262390209,0.0175232979406992,0.0017651157878078,5.80374308841616,17.854719858880937,38.01131448401245,18.36960508670482
1.15,31.222176984939736,131.01047457855557,24.86251034973345,4.357452778557501,3.779974729345044,17.989512993692088,-1.4486834513101985,1.460555146884131,237.41251153546767,37.71810153658211,14.483750122022256,71.72393155638332,0.816153452212593,120.85890392603932,869.3053116677414,15.288,0.0,3.0434750490817994,0.1108710125883906,4.183792883989589e-07,-0.0176936859059022,0.0179599752505726,0.0018311456445077,5.766111159851008,17.70874244838552,38.31142795727475,18.106752409789177
1.16,31.22217637185481,131.0104759199654,25.210388880448768,4.357607147620721,3.749802813996761,47.42056669414851,-1.468789557693668,1.4299866036291302,490.0437743845894,37.90632387337629,14.562887916470515,71.7135144455403,0.8471927619069504,120.89159354739805,877.9737028201386,15.288,0.0,3.0505368104445427,0.1114247228646735,4.337509443783568e-07,-0.0182022393186711,0.0184016312113107,0.0018931138205083,5.746532166518342,17.61786181130259,38.49492112885664,47.46485383992598
1.17,31.222175754337133,131.01047727183166,25.56095788176526,4.351027781452108,3.714245062269329,8.242512282851516,-1.491337557678738,1.3965049830586636,153.70937929486794,38.14847611778968,14.658942473370498,71.70279368145745,0.8789523178969814,120.9250437340162,889.1968876955603,15.288,0.0,3.057563686534672,0.1121369671774157,4.494938601368829e-07,-0.0187223260427397,0.0188496594375314,0.0019595782504993,5.718437062817533,17.5032811766911,38.73149981921007,8.491956347721588
1.18,31.22217513362465,131.0104786316852,25.913391434248634,4.335528381793419,3.6715727101524975,22.96354090295084,-1.5172480110071456,1.359052493897482,280.02501822196746,38.46563853727048,14.778621947864972,71.69176279539957,0.9114383523091812,120.9592612030822,904.0131233771812,15.288,0.0,3.064547335934664,0.1130697118481365,4.6561740055220534e-07,-0.0192518103948695,0.0193021195778859,0.0020316805898921,5.6790410030903775,17.356690248364718,39.04197319948783,23.053704171121186
1.19,31.222174509155145,131.01048000063852,26.26806493093076,4.339030034711584,3.64531728807024,40.26550777719733,-1.5363133975868384,1.328860998028668,428.4078130529292,38.61170861138024,14.844294013806016,71.68041511981126,0.944657236058745,120.9942528266904,910.860956102652,15.288,0.0,3.0715001507506443,0.1134995390050865,4.821238587724949e-07,-0.0197920636788219,0.0197600866144553,0.0020965547725837,5.6648124367770505,17.286038293448414,39.18392748602368,40.31671175782104
1.2,31.222173880439943,131.01048137964793,26.62530071534789,4.326849690773779,3.6063128448819968,3.983202928123816,-1.561265151586478,1.2918930262866932,117.1843741360236,38.89235554257976,14.952364625794408,71.66874430684138,0.978614104180786,121.03002418461249,924.1184428896704,15.288,0.0,3.078422981422388,0.1143249646347257,4.990165107683654e-07,-0.0203439554683295,0.0202241757111627,0.0021706052731054,5.630486790384863,17.15749808009805,39.458459877532384,4.4690538183759525
1.21,31.22217324872486,131.01048276623987,26.984272202143657,4.315266428915463,3.5682421439993868,32.294310999891046,-1.5861428834001328,1.2547036558182036,359.92343213200894,39.16481463807189,15.057842534173476,71.65674354290161,1.0133151425124292,121.06658196127168,937.079243136814,15.288,0.0,3.0853042363273606,0.1151263307504335,5.163050619842795e-07,-0.0209053082188111,0.0206924602624882,0.0022460472304751,5.597301717562252,17.033734039986356,39.72495055861621,32.35757490091259
1.22,31.22217261305348,131.01048416229773,27.34561243961365,4.316755781883081,3.54128775873552,23.33422281255791,-1.6060465782211553,1.222798326927332,283.0687504825761,39.31512028699307,15.12467982017798,71.64440611021276,1.0487656712537203,121.10393194636238,944.2528623455888,15.288,0.0,3.0921579313333294,0.115568630703743,5.339899261237121e-07,-0.021478238852709,0.0211666011272827,0.0023163780226436,5.581339974891656,16.96223162185026,39.87103036886712,23.421370062954264
1.23,31.22217197379988,131.01048556706917,27.709071227255663,4.303515289537992,3.502646330995507,8.952603113567394,-1.631761181425321,1.1840833797766543,159.79687382222795,39.594837403445375,15.232377373498815,71.63172554236276,1.0849701318099831,121.14207900731682,957.7034611089624,15.288,0.0,3.098976133922032,0.116391349648261,5.520776651505297e-07,-0.0220619680837514,0.0216458385941325,0.0023961765401187,5.546682738781482,16.837056185979325,40.14468916803786,9.176807751747143
