Time,Latitude,Longitude,Altitude,Angle of Attack,Angle of Sideslip,X-Acceleration,Y-Acceleration,Z-Acceleration,Thrust,True Velocity,Ground Velocity,Pitch,Roll,Yaw,Dynamic Pressure,cp,parachute_deploy_gain,Wind Speed,Mach,omega_x,omega_y,omega_z,Cmq,Angle of Attack(total),Angle of Attack(gust),True Velocity(gust),Acceleration
0.0,31.222186000000004,131.010384,3.000000003643237,0.0,0.0,0.0,0.0,0.0,2.2828121974499247,0.0,0.0,69.99999999623421,0.0,113.69999999388332,0.0,15.288,0.0,0.0,0.0,0.0,0.0,0.0,-0.0,0.0,90.0,0.0,0.0
0.01,31.22218600000153,131.01038399999584,2.99999882256592,0.0,0.0,0.0,0.0,0.0,34.24218696174923,7.502283530665459e-11,7.190531319924593e-11,69.99999999623329,-4.83564628150269e-13,113.69999999388072,3.446445726795683e-21,15.288,0.0,0.0,2.204725565824978e-13,-3.659182332138578e-19,7.589415207398531e-19,4.811147140404426e-19,-1.5108918610345807e-31,0.0,89.9999999995224,7.502283530665459e-11,0.0
0.02,31.22218600000288,131.01038399999217,2.999997775701936,0.0,0.0,0.0,0.0,0.0,25.871876237766408,1.5320717031631675e-10,1.4674636035870463e-10,69.99999999623222,-9.67129256300373e-13,113.69999999387804,1.4372842949972735e-20,15.288,0.0,0.0,4.5023593667086093e-13,-7.284483346386986e-19,1.5178830414797062e-18,9.757819552369542e-19,-6.170906918166791e-31,0.0,89.99999999902465,1.5320717031631675e-10,0.0
0.03,31.22218599928065,131.01038400193067,3.000201659671132,18.81500467334555,-0.00012974450181,11.96616230539064,-1.8916256735984712e-05,3.349833086198469,180.34219359854663,0.0882870268161719,0.0553390044312322,69.99999999799445,-4.212591857125379e-12,113.69999999488518,0.0047728553458352,15.288,0.0,0.0,0.0002594525584132,3.2187251995663407e-17,-7.20264389268894e-10,1.2365134327422308e-11,1.6874092354518158e-13,18.815004673776716,89.46786891739345,0.0882666465974854,12.426199017587786
0.04,31.22218599548236,131.0103840121632,3.001799604587872,9.46752327608497,-4.6177622759613696e-05,55.21900012092241,3.931876292165237e-06,3.349616504302861,548.6359724538078,0.3767519978512604,0.1853356633749705,70.00000000507204,-2.4624598767003407e-11,113.70000000019972,0.086915163246288,15.288,0.0,0.0,0.0011071759353184,1.6174128009138757e-15,-1.3693172015529268e-08,2.7753303060112748e-11,1.3689612277852356e-11,9.467523276196548,87.63554493451223,0.3767447442872393,55.32050167054111
0.05,31.222185984749512,131.01038404118162,3.00777936418888,5.376730308971262,-2.257790939128127e-06,80.28807156553681,5.266841443842784e-05,3.348887800834877,761.6984298824644,1.018787885905993,0.4366201147110198,70.00000000894464,-1.1355399380652658e-10,113.70000001523856,0.635552918586145,15.288,0.0,0.0,0.0029939522895272,1.6418815498809788e-14,-9.32122351075408e-08,4.303264669380585e-11,2.5199270302492604e-10,5.3767303089717045,83.57022052969386,1.0187875312530217,80.35788377762394
0.06,31.22218596447235,131.01038409608267,3.0201664202003013,4.296730121134882,2.4863835723705905e-05,60.21296515808257,0.0001057204249726,3.347700952379021,590.4875390737208,1.721098934225416,0.7081674028809783,69.99999995523842,-3.0560354507026086e-10,113.70000004366592,1.8138247671743823,15.288,0.0,0.0,0.0050578622752421,8.328976953118383e-14,-3.2824985336199985e-07,5.923438275930214e-11,1.4991363363716091e-09,4.296730121206683,79.20467073327266,1.7211028398275985,60.305955550063224
0.07,31.22218593493329,131.01038417609837,3.038741944736831,3.8204913578752526,4.8016684030909405e-05,91.4060317508128,0.0001597686613101,3.346072557365335,855.2937749779139,2.4375792548422868,0.9844712334613328,69.99999973536046,-5.939103491363046e-10,113.7000000850886,3.6383156301599167,15.288,0.0,0.0,0.007163413150771,2.709313825263564e-13,-7.906546256197275e-07,7.920022733617308e-11,5.114174483651565e-09,3.820491358176508,74.87999294483174,2.437586797285377,91.46725557277466
0.08,31.222185894468456,131.01038428575305,3.0647976109320942,3.588632851766762,7.220043782492885e-05,19.18449428359557,0.0002119618497595,3.3440615022685813,241.2171988638848,3.1292508166901074,1.2522236515868983,69.99999919480445,-9.914748373602156e-10,113.7000001418522,5.996012698481753,15.288,0.0,0.0,0.0091960591623389,6.80386533246681e-13,-1.5973238302190878e-06,1.0839624626357699e-10,1.3263625118823921e-08,3.58863285249208,70.86684630658345,3.1292621579083604,19.473766155861934
0.09,31.22218584634549,131.01038441616095,3.0957981580345013,3.551302481506045,9.685468678862004e-05,57.102946699906326,0.0002554087225869,3.341892818148368,563.0937377043176,3.701810007254615,1.479132491047967,69.99999812344194,-1.4359264356978275e-09,113.7000002093888,8.390904013834115,15.288,0.0,0.0,0.010878666406854,1.440096519545733e-12,-2.748643691533636e-06,1.5214952332699618e-10,2.6999776649034504e-08,3.5513024828250237,67.68737872952666,3.701825221153239,57.20065357568538
0.1,31.222185790329306,131.01038456796124,3.1319266121977414,3.608446747536112,0.0001234669721807,54.26147302645416,0.0002914860332524,3.3396271157106168,538.7437595981919,4.174070299823608,1.6716491241860567,69.9999963052332,-1.902380107712657e-09,113.70000028805804,10.668380938744466,15.288,0.0,0.0,0.0122665227999911,2.687800116751415e-12,-4.315796035622946e-06,2.1749089204950437e-10,4.7802076800548326e-08,3.608446749645647,65.17160335282355,4.174089693970246,54.36414778470795
0.11,31.222185727066616,131.0103847393952,3.172681775073216,3.633547373470009,0.0001485939126744,42.987553988990406,0.0003293995000288,3.337005588796181,442.8656393052949,4.672024955140527,1.8729475711242067,69.99999349387662,-2.3433348587116544e-09,113.70000037699285,13.365573690709628,15.288,0.0,0.0,0.0137298902182575,4.5789425819531184e-12,-6.340230783164189e-06,3.1157625832417107e-10,7.860218435507205e-08,3.6335473765043056,62.62546922225161,4.672048296217748,43.116880735560244
0.12,31.22218565692512,131.0103849294629,3.2177790417108385,3.650108937861461,0.0001727442530266,46.86777100765684,0.000367618259785,3.334068179146888,475.58594813540446,5.17479364099247,2.0758708919414386,69.99998941286465,-2.702771525550512e-09,113.70000047573096,16.396890189902592,15.288,0.0,0.0,0.0152074069417046,7.288473386564583e-12,-8.86736416607888e-06,4.42271554299792e-10,1.217615295152289e-07,3.6501089419435786,60.16906436414164,5.174820775596283,46.986210423745625
0.13,31.222185580265183,131.0103851371844,3.2669395832841857,3.7280113734654137,0.0001995014041665,51.64515456841877,0.0003986198234033,3.3311573548369657,515.9156326236895,5.579364582999854,2.2451120211463422,69.99998375846928,-2.9114380666036422e-09,113.70000058383452,19.060875702782603,15.288,0.0,0.0,0.0163963474924215,1.100846422415094e-11,-1.1941028436408576e-05,6.179653149059831e-10,1.7678562106638216e-07,3.728011378795934,58.279338776943774,5.579395920607139,51.75247433579817
0.14,31.22218549718016,131.01038536230575,3.320091807147376,3.768719651034081,0.0002242721760019,48.1660778383537,0.0004326225136175,3.32784677779744,486.2390860568404,6.025734265159953,2.428648685938864,69.99997621008868,-2.890941335368725e-09,113.70000070125378,22.232643351545065,15.288,0.0,0.0,0.0177081261985351,1.5941871344608664e-11,-1.560901486259027e-05,8.477542742712431e-10,2.495765160917323e-07,3.7687196576976176,56.27980129251342,6.025769493750979,48.280903250602165
0.15,31.22218540777004,131.01038560455507,3.377159065217065,3.821894709649632,0.000249725644238,46.56959330999435,0.0004643042952466,3.324387732286376,472.54218587214,6.441023336496372,2.6014999612196745,69.99996641132823,-2.546763407193136e-09,113.70000082794672,25.402620271850456,15.288,0.0,0.0,0.0189285691155931,2.2314099732464315e-11,-1.992367942778425e-05,1.1417519574710292e-09,3.4051816697623295e-07,3.821894717796148,54.501255563441134,6.441062563308839,46.68809885900716
0.16,31.22218531193176,131.01038586421257,3.4382223512025254,3.8463320955387794,0.0002733212404609,36.974247749122085,0.0004987816203583,3.3205066466509234,391.1218908297564,6.895451966878468,2.7877331692857847,69.99995397923414,-1.77088415515292e-09,113.70000096417354,29.113317717489338,15.288,0.0,0.0,0.0202640360420561,3.0367358387834494e-11,-2.4945905791363795e-05,1.5114297685186711e-09,4.5643121540033697e-07,3.846332105235269,52.641145594326446,6.895494900078523,37.12304892183151
0.17,31.222185210004127,131.010386140357,3.503019838429153,3.8860314262554336,0.000297865039677,46.520531453299206,0.0005306403365217,3.31650761597812,471.78125980632376,7.314788342774694,2.9619016331667103,69.99993849340957,-4.3039914767238207e-10,113.70000110959404,32.761746921137856,15.288,0.0,0.0,0.0214963781445172,4.0366633128431416e-11,-3.0713078585132897e-05,1.96747427715988e-09,5.961228045584824e-07,3.886031437653654,51.00464968745696,7.314835131305714,46.63860064094784
0.18,31.22218510147516,131.01038643438045,3.571950002194137,3.9107265153396016,0.0003214293682635,38.895647526122765,0.0005639254295027,3.312149448254175,407.10156721191447,7.754626295791602,3.1430587898572058,69.9999195084231,1.6149322372810674e-09,113.70000126508234,36.81988229018681,15.288,0.0,0.0,0.0227889722876034,5.2593391349219385e-11,-3.731786027786564e-05,2.525509173087448e-09,7.6786585232224e-07,3.9107265285284982,49.36615848311875,7.754676785798701,39.036415444581515
0.19,31.222184986476247,131.0103867459258,3.644912152926752,3.920599115663931,0.0003437679584038,43.86258669386953,0.0005989384366483,3.307389681300437,448.9531328318269,8.219206165926856,3.332657190859447,69.99989653019398,4.538529095696477e-09,113.70000143063515,41.36350714675367,15.288,0.0,0.0,0.02415428010977,6.735860419174937e-11,-4.481243905342629e-05,3.199401151670645e-09,9.773118416308382e-07,3.92059913071168,47.71893898797248,8.21926016487149,43.987104227715655
0.2,31.222184864792144,131.01038707557822,3.722074668489528,3.943376465171875,0.000367328732016,40.28070981710589,0.0006315894240138,3.30251450988504,418.51563019916136,8.65238089736321,3.511445117640573,69.99986902534273,8.534090245934178e-09,113.7000016067622,45.83799876721736,15.288,0.0,0.0,0.025427299120469,8.499785987217288e-11,-5.328041996372527e-05,4.006766070954748e-09,1.2232205148646746e-06,3.9433764822533854,46.2587826635041,8.652438597225508,40.41586552155969
0.21,31.22218473678744,131.01038742234647,3.803156063113743,3.9664546506877016,0.000390962054969,38.67679184347145,0.0006636984664108,3.297405915846789,404.8187610144644,9.079179692250786,3.688002035198235,69.99983642883521,1.3827831253856693e-08,113.70000179318536,50.47126980736161,15.288,0.0,0.0,0.0266815841422463,1.0586558589671407e-10,-6.275155280099118e-05,4.961340042512481e-09,1.5117124669161171e-06,3.9664546699249135,44.88773728276958,9.079241104426773,38.817098210937615
0.22,31.2221846022986,131.01038778667507,3.8882846911135607,3.956175711337521,0.0004112685792646,46.713636108302936,0.0007011135033803,3.291572407481395,472.5421858721365,9.580256326712124,3.889976788904857,69.99979815126248,2.0662823443484168e-08,113.70000199039316,56.195522894218605,15.288,0.0,0.0,0.0281541581291438,1.3033127211465288e-10,-7.330053770532661e-05,6.0817207473359025e-09,1.8632831045819008e-06,3.956175732680424,43.35679625546934,9.580320928629488,46.8294591882524
0.23,31.222184460898035,131.01038816972698,3.977794004014759,3.9879066397329104,0.0004360962274406,38.89105719050748,0.0007308686121188,3.286096544282012,406.3406421461021,9.977039034039262,4.056142701351626,69.99975353557706,2.9316661139418326e-08,113.70000219928508,60.9462612310605,15.288,0.0,0.0,0.0293202403623685,1.5880617816859538e-10,-8.505067486192354e-05,7.393319440773217e-09,2.2514912291167663e-06,3.987906663538912,42.20670487756048,9.97710753587448,39.0296395118868
0.24,31.222184313516166,131.01038856897196,4.070963590490852,4.003523997322975,0.000459165577055,40.0792299321398,0.0007630441688766,3.280134925833028,416.2328240017114,10.408422364424831,4.234121060914368,69.99970190737699,4.010976417051318e-08,113.70000241888,66.32994780718496,15.288,0.0,0.0,0.030588009649109,1.91711512587616e-10,-9.795845222523724e-05,8.904557280909524e-09,2.7052895870113487e-06,4.003524023611085,41.011349410369874,10.408494489985014,40.21323112692186
0.25,31.22218416001652,131.01038898478134,4.167901030441617,4.0261356185860135,0.0004830526730531,41.17760020658354,0.0007934613160587,3.2740610008587527,425.36408079150686,10.816813039390448,4.4041629376391525,69.99964258149416,5.3372865854010094e-08,113.70000264972064,71.63651430352668,15.288,0.0,0.0,0.0317882126436337,2.2947426169209347e-10,-0.0001121037688082,1.0637152702866709e-08,3.217380562698304e-06,4.026135647516394,39.93186687113378,10.816888917126896,41.30755663120434
0.26,31.222184000702686,131.0103894163294,4.26837241014618,4.053359329950934,0.000507503069958,44.80261175215926,0.0008224724146494,3.2678597736729302,455.8015834241788,11.207047269494833,4.567925492611352,69.99957484039399,6.947299261165984e-08,113.70000289176392,76.89781807056055,15.288,0.0,0.0,0.0329350617559806,2.7254099134167665e-10,-0.0001275114371842,1.260720913253598e-08,3.7915697709142366e-06,4.053359361668992,38.945390435244384,11.207126987890645,44.921630958721536
0.27,31.22218383516388,131.01038986473338,4.372698316214008,4.0614460923241,0.0005296455772492,41.029837477288126,0.0008548809954683,3.2610328932384265,423.84219965987256,11.645685385842508,4.748226940060522,69.99949794024376,8.879821051920497e-08,113.70000314600205,83.0342688744587,15.288,0.0,0.0,0.0342241635563461,3.2137296827284217e-10,-0.0001442952656441,1.4842505534226832e-08,4.458527942364847e-06,4.061446126801262,37.8838346421185,11.645768582375233,41.15922617924542
0.28,31.222183663504484,131.01039032970942,4.48079961904222,4.081133040992532,0.0005533279247169,47.27661484082626,0.0008845140695959,3.254218495915602,476.3468732012221,12.047344998676092,4.915789434712848,69.99941106884992,1.1178948978424788e-07,113.70000341275257,88.85982357848233,15.288,0.0,0.0,0.0354045979054623,3.764736350660473e-10,-0.0001625146963723,1.7365685655384934e-08,5.194620655212288e-06,4.081133078439725,36.956255322213885,12.047431915223257,47.38848224631549
0.29,31.22218348566054,131.0103908114315,4.592727908358551,4.1001100265020245,0.0005770279952742,37.989969791857405,0.0009138463939581,3.247164755122801,397.97031042211177,12.446314684600782,5.082367374004485,69.99931338876085,1.3891902435864665e-07,113.70000369260468,94.8417675268915,15.288,0.0,0.0,0.0365771315767517,4.3836067907166327e-10,-0.0001822432988888,2.0202163500922312e-08,6.018074062137429e-06,4.100110067036654,36.07377590258778,12.446405323946324,38.12849176886316
0.3,31.222183301933686,131.01039130907952,4.708251093558373,4.112858061667493,0.0005998635114143,35.655053282557844,0.000944131403186,3.2397207148238625,378.1859457108711,12.860033399289696,5.253940723820665,69.99920403105713,1.707002607527005e-07,113.7000039856728,101.2505662360602,15.288,0.0,0.0,0.03779301412572,5.075709863465428e-10,-0.0002035013069687,2.3370674033523645e-08,6.94335970778e-06,4.112858105337573,35.19685285507256,12.860127625629724,35.80193592228613
0.31,31.222183112488807,131.0103918222051,4.827243246502713,4.136140889545823,0.0006242383343011,37.56633644061071,0.0009716215464757,3.232339252743767,394.1656220930212,13.2364445751808,5.4126574282679245,69.99908210036875,2.0768081583188525e-07,113.7000042923011,107.26326115439352,15.288,0.0,0.0,0.0388992619788015,5.846561731689753e-10,-0.0002263323252403,2.6893437641668458e-08,7.948283231812338e-06,4.1361409365698805,34.43286455705216,13.236542630309057,37.70514091683033
0.32,31.22218291741533,131.01039235056504,4.949637017503345,4.1622282001352975,0.0006491019906456,40.83513712643371,0.0009979686925508,3.224840963348891,421.55939346242695,13.59846554462374,5.566374262777002,69.99894668612772,2.504388718903276e-07,113.70000461297312,113.2095365840355,15.288,0.0,0.0,0.0399632243410653,6.701756367872645e-10,-0.00025078340164,3.0793566854276295e-08,9.047716714467492e-06,4.16222825066026,33.72644865222576,13.598567505326,40.96227562489027
0.33,31.222182716732533,131.01039289410716,5.075419569102976,4.187801887681037,0.0006739743721461,40.48743503284469,0.0010239291638211,3.217136801802925,418.5156301991682,13.956637761217308,5.718704299733134,69.99879684673242,2.995902922462564e-07,113.70000494831164,119.25032483364384,15.288,0.0,0.0,0.0410158804634189,7.647061680070125e-10,-0.0002769136723495,3.509664608790402e-08,1.0253455741189656e-05,4.187801941818244,33.053267359159875,13.956743628864118,40.61505097607
0.34,31.222182510255863,131.01039345333336,5.204736257784645,4.19642921746386,0.0006961879027693,31.814592723444047,0.0010535137542081,3.208669900766693,345.46563688075645,14.367047160772364,5.88887983533068,69.99863160305904,3.557915789971256e-07,113.70000529927128,126.36523219087664,15.288,0.0,0.0,0.042222056531773,8.688448410811866e-10,-0.0003048202762282,3.9835373705550826e-08,1.1618525957862828e-05,4.196429275109305,32.30947868183619,14.367156517712404,31.97598901989736
0.35,31.222182298183583,131.0103940277045,5.337435501771672,4.210915783240843,0.0007193441544952,34.813487415034444,0.0010813034848195,3.200164272309822,370.5765700527033,14.754132934586384,6.050986755458457,69.99844991734221,4.1975736284587617e-07,113.70000566632532,133.26448209504355,15.288,0.0,0.0,0.0433596939127697,9.832256819293898e-10,-0.0003345386312107,4.503361101379695e-08,1.309465610343774e-05,4.210915844572415,31.63649055965014,14.75424592890194,34.96026256388454
0.36,31.222182080444604,131.0103946174141,5.4735747500461605,4.22903876037745,0.0007431682866607,39.2632255716727,0.0011077666085529,3.1915717453569297,407.8625232777193,15.124417129017054,6.2072589919251575,69.99825073022951,4.922382611919288e-07,113.70000605036684,140.03566173682628,15.288,0.0,0.0,0.0444479595865755,1.1084921261805627e-09,-0.0003661511460057,5.0723697896912267e-08,1.4691545926915382e-05,4.229038825557203,31.017264542603208,15.124533865618538,39.39272792946638
0.37,31.22218185710795,131.01039522227452,5.613102797925907,4.249164960780052,0.0007674149135003,37.28328237034959,0.001133274451316,3.1828514669894137,391.1218908297666,15.483077353331511,6.359470679857624,69.99803294268581,5.740349991123437e-07,113.70000645214331,146.75405277514704,15.288,0.0,0.0,0.0455020695186381,1.245311285088233e-09,-0.0003997125883071,5.6934243389647934e-08,1.641828325195534e-05,4.2491650299519,30.439178816713017,15.483197898584232,37.418894813348615
0.38,31.2221816281124,131.0103958424523,5.756069531572451,4.260095806433531,0.0007900626414612,38.9278000801764,0.0011607546399008,3.1735466295306622,404.8187610144602,15.87126705947922,6.521735074464384,69.99779542676283,6.659911329739736e-07,113.70000687263192,154.20298254405043,15.288,0.0,0.0,0.0466429667223463,1.3943646956867835e-09,-0.0004353006984059,6.369875435270817e-08,1.8328108041903096e-05,4.260095879559656,29.83470194713067,15.87139116222873,39.05694584372078
0.39,31.22218139339905,131.0103964781077,5.9025231349944285,4.274091258047817,0.0008133283308351,33.320076729592266,0.0011870382950339,3.164143363712209,357.64062493382744,16.24457853509073,6.678818328235205,69.9975369905506,7.690136753559805e-07,113.70000731287368,161.54010621938565,15.288,0.0,0.0,0.0477401448128051,1.5563705124515804e-09,-0.0004730068442167,7.105463478762673e-08,2.0383860516746246e-05,4.274091335289374,29.274934656826048,16.244706292406182,33.46997636540994
0.4,31.22218115316572,131.01039712870306,6.0523126585892895,4.286421841403391,0.0008363022448449,31.88018820767003,0.0012133780841982,3.1544430614236454,345.465636880754,16.62063299903514,6.836764518435374,69.99725641601981,8.840594270905819e-07,113.70000777359816,169.10340080049767,15.288,0.0,0.0,0.0488453895716005,1.7320643186450851e-09,-0.0005128553637434,7.9027539265021e-08,2.2612406375611563e-05,4.286421922834417,28.730746964325096,16.620764365084565,32.03586915718869
0.41,31.22218090752676,131.01039779392735,6.205351877049411,4.30025870409831,0.0008595777771371,35.882550741685804,0.0012389121673015,3.1445895889870297,378.94687077668647,16.987310563534386,6.99141560549392,69.9969524610574,1.0121301778427253e-06,113.70000825570062,176.64448930727934,15.288,0.0,0.0,0.0499230826371405,1.922193031274436e-09,-0.0005548883906878,8.764667734700782e-08,2.5005077415911235e-05,4.300258789847355,28.21875643368965,16.987445585695873,36.020076248499606
0.42,31.222180656535848,131.0103984736348,6.36160173428776,4.322008670726048,0.0008844838439129,40.34064925656127,0.001261804338223,3.134918999355981,416.2328240017114,17.318628721060172,7.133856886815013,69.99662385300175,1.154276942054023e-06,113.70000876021427,183.59942989625057,15.288,0.0,0.0,0.0508968652507098,2.1275184665783874e-09,-0.0005991661829955,9.694534598491077e-08,2.752657757470936e-05,4.322008761057615,27.772396468009568,17.318767655457478,40.462275036947325
0.43,31.222180400205527,131.0103991677914,6.521055075967404,4.339436441324956,0.0009085827200945,35.541853595187746,0.0012854696362701,3.124839917627212,375.9031395134336,17.662848429084132,7.280642039343927,69.99626930133451,1.3115939750280808e-06,113.70000928827632,190.96736675963504,15.288,0.0,0.0,0.0519085689713619,2.3488101247838237e-09,-0.0006457514522491,1.0695800287133593e-07,3.0255957891170616e-05,4.339436536261635,27.322335771349252,17.662991148924057,35.67895714766603
0.44,31.22218013836212,131.0103998768696,6.683849332059896,4.342209064313268,0.0009296474314902,32.82948243168077,0.0013129688908547,3.113754688841357,353.0750125389216,18.063580761318697,7.446730341918701,69.99588746395321,1.4852372182848018e-06,113.7000098413532,199.7278270846888,15.288,0.0,0.0,0.0530863610987301,2.586862292117705e-09,-0.0006947575786514,1.1773083546077225e-07,3.329010177793299e-05,4.342209163639375,26.81344244367223,18.06372678999575,32.9768158972058
0.45,31.22217987077456,131.0104006014978,6.850166573233225,4.3420317510315165,0.0009500780330031,38.11022602597878,0.001341042003417,3.1022288449712887,397.2093853562869,18.47486275310604,7.616350301328129,69.99547690348253,1.6764536248320808e-06,113.70001042108892,208.92306716049887,15.288,0.0,0.0,0.0542951637545535,2.842521175226318e-09,-0.0007463379956615,1.2932090054593452e-07,3.657529369088674e-05,4.342031854775571,26.30944884471334,18.47501199101448,38.23628058998621
0.46,31.22217959739673,131.01040134180155,7.020045503401754,4.351169003849846,0.0009725797783515,44.3937050866137,0.0013660055515545,3.09098240974522,449.7140588976434,18.844323061800488,7.771531995684422,69.99503610583268,1.8865779683531e-06,113.70001102895836,217.3591612614144,15.288,0.0,0.0,0.0553810645782081,3.1166808800591503e-09,-0.000800596194505,1.417768495237597e-07,4.001824400409673e-05,4.351169112337076,25.873596578896564,18.844475834274814,44.50118229261506
0.47,31.22217931813738,131.01040209802923,7.193559875579052,4.358630093683735,0.0009947969928181,30.22514089990685,0.0013910994973101,3.079396422776949,331.0078106302534,19.2180591098146,7.9280875671397615,69.99456352718363,2.1170044481277104e-06,113.70001166656292,226.0625808853568,15.288,0.0,0.0,0.0564795377574197,3.4102493884459798e-09,-0.0008576351980594,1.551487523304888e-07,4.3718862242359527e-05,4.35863020698899,25.44665981168229,19.218215372160817,30.381603425148434
0.48,31.22217903348153,131.01040286886197,7.370336324605091,4.365514409145237,0.001016880998596,29.779838936311712,0.001416009414045,3.067527859335786,327.2031223011574,19.5915905767454,8.084483592791102,69.99405758812365,2.369198154608765e-06,113.70001233476164,234.93171707892955,15.288,0.0,0.0,0.057577416115756,3.7241711041759195e-09,-0.0009173883913609,1.6944871263079066e-07,4.767297940601472e-05,4.365514527349481,25.03354780044292,19.59175030803913,29.937410312943754
0.49,31.22217874361868,131.01040365378466,7.5502307795521535,4.3786401372577615,0.0010404145545081,37.2489281064929,0.0014385799934191,3.0558405437943126,389.60000969812296,19.93403005898306,8.23012235628909,69.99351671352461,2.644660619562788e-06,113.700013034871,243.21198709852868,15.288,0.0,0.0,0.0585839249886784,4.059374595909599e-09,-0.0009798792959512,1.8470833984680338e-07,5.180951737438081e-05,4.378640260624215,24.667474291142685,19.934193486919103,37.37406598941686
0.5,31.22217844858332,131.0104044527036,7.733219389747018,-5.349585648076226,10.526181353632044,38.39236745259358,-0.6121917432165616,3.6325479747741936,397.97031042210494,19.387925166682088,8.366189013561664,69.99293932307316,2.9449363413826395e-06,113.70001376847225,230.06459903136303,15.288,0.0,5.010313955797237,0.056979100308534,4.416703151082342e-09,-0.0010538516203957,2.098572043595796e-05,5.419322895203255e-05,11.793883058021423,35.44461821668878,21.03208841699644,38.56869277191626
0.51,31.222178148707748,131.01040526586527,7.91924021515925,-5.187222735018225,10.371880938160052,29.48107373938969,-0.6273964458655406,3.6350882758355976,323.3984349720841,19.71754289940169,8.518034187575529,69.9923548844543,0.0001391377279141,113.70015912975605,237.94958907758976,15.288,0.0,5.030196378297235,0.0579479342249557,4.8271613454591e-09,-0.0009815106177133,0.0001673846931533,5.133035463588577e-05,11.583975026060582,34.92093212929413,21.337870642965186,29.710960972353863
0.52,31.22217784401952,131.0104060936787,8.108296265374394,-5.029270242296753,10.217139240021732,35.31716145149701,-0.6430632713958779,3.6377518034551977,372.0984511843415,20.056122022416865,8.672478256715133,69.99181209635555,0.0005083179337811,113.7005524512338,246.1871682560304,15.288,0.0,5.0500074031658055,0.0589431109327618,5.2941613442130885e-09,-0.0009084201906476,0.0003175503411705,4.832282615430688e-05,11.376057451022572,34.397697965199946,21.65253429048606,35.50983894001303
0.53,31.22217753439203,131.01040693653874,8.300499050682395,-4.877410146265362,10.068720706451712,37.05745981367233,-0.6588051324176115,3.6402650098576905,386.5562464348624,20.391307395186203,8.825666213074177,69.99131140594216,0.0011165703624371,113.70120021033804,254.47997564882047,15.288,0.0,5.069750270320424,0.0599283200697744,5.8194298131449335e-09,-0.0008345439902329,0.0004716591093493,4.513410915986997e-05,11.176885028631018,33.894336451169785,21.964770496263,37.241655191283236
0.54,31.22217721973597,131.0104077947211,8.495925242743446,-4.730896165429731,9.925467233734151,32.60196485734794,-0.6746810713317948,3.6426560020896175,349.2703242098436,20.72472774631867,8.978172291741881,69.99085325788685,0.0019701482740179,113.70210906357116,262.8651364779731,15.288,0.0,5.089439384966179,0.0609083484343459,6.404743249918345e-09,-0.0007598719328716,0.0006298456250803,4.1766843714133504e-05,10.985073706297133,33.407432902015934,22.27603031115949,32.81176998970526
0.55,31.222176900335423,131.01040866748548,8.694361844507087,-4.590734923901176,9.789865090406009,34.52449638269201,-0.6904871032617159,3.6448347147300537,365.2500005919907,21.05041695294764,9.127917303075396,69.99043807067284,0.0030753478735616,113.70328571245508,271.18674073460613,15.288,0.0,5.109051772824513,0.0618656619443018,7.051919738506082e-09,-0.0006845391783868,0.0007919407994618,3.821669763738935e-05,10.803273798630622,32.94471265598199,22.58073366405681,34.72322627602432
0.56,31.222176576200127,131.01040955483663,8.895808484196046,-4.457455806124523,9.663505623510025,32.25325341772407,-0.7060596063755776,3.646735429078475,346.2265619465787,21.363771751797767,9.273305168510486,69.99006621288903,0.0044383641896923,113.7047367510567,279.3151578476811,15.288,0.0,5.128587164747754,0.0627867318538475,7.762741800802312e-09,-0.0006085710065047,0.0009580046118001,3.448060926339111e-05,10.63312846727512,32.511186206558335,22.874525292603074,32.46643736977281
0.57,31.222176247410367,131.01041045658678,9.100210028686185,-4.326282332915436,9.536639238924687,31.89611317984589,-0.7220963657064914,3.6486571651380046,343.1828296833023,21.68529327987484,9.421476773128113,69.98973802074195,0.0060653941463143,113.7064687751782,287.78007539247824,15.288,0.0,5.148037067367547,0.0637318096136727,8.539005830034622e-09,-0.000532028258509,0.0011280218510585,3.059688542667354e-05,10.46379364748448,32.0772172010316,23.17639777653045,32.11224312083505
0.58,31.22217591395332,131.01041137280117,9.307583548677451,-4.194478168328304,9.40328645062261,41.850194545884285,-0.7391034795328292,3.650800848711514,426.1250058573153,22.029223670284168,9.577382086031188,69.98945380823723,0.0079626967932444,113.70848844667648,296.9749780323994,15.288,0.0,5.167401520448303,0.0647427523916274,9.382522842190657e-09,-0.000454935091843,0.0013020577325796,2.657768820427777e-05,10.288690007070407,31.624437221040967,23.499666630584137,42.01563285634019
0.59,31.22217557544168,131.0104123045646,9.518236824646058,-4.072143355630695,9.2857031787782,34.01081552929823,-0.7553050122423802,3.652431568143096,360.68438819711065,22.344069562960087,9.723116640590591,69.98921392385716,0.0101369443307343,113.71080286742789,305.5183069139115,15.288,0.0,5.186704647070689,0.0656682242906989,1.0295173552380563e-08,-0.0003771602932738,0.0014805321909917,2.2348481856252324e-05,10.132183906296664,31.22105402857345,23.79628768684412,34.21470904434875
0.6,31.22217523209288,131.0104132513175,9.732008708947903,-3.9458419601169687,9.154245490252052,30.275618184773,-0.77313508311115,3.6545356212687454,329.4859594986058,22.699674871842173,9.882959564194245,69.98901869533583,0.012594904439871,113.7134192398466,315.31385040036406,15.288,0.0,5.205929327501742,0.0667134933276675,1.1278930412892792e-08,-0.0002988230082966,0.0016633092068154,1.798806890806024e-05,9.961783436087789,30.776098222288297,24.13151045439828,30.505186852960218
0.61,31.22217488386815,131.01041421319687,9.948936763422964,-3.8222852604393296,9.023759968089871,35.39801039343866,-0.7914203673029353,3.656623715509312,372.0984511843297,23.06179484646133,10.044999404087008,69.98886844161228,0.0153435129748711,113.71634494545512,325.4474975735428,15.288,0.0,5.225081627106448,0.0677779162244473,1.2335787174869296e-08,-0.0002199352460544,0.0018504945489524,1.3450231631071755e-05,9.7937263620713,30.33506783048377,24.47339116805822,35.595173591494095
0.62,31.22217453088872,131.0104151899054,10.168934666856057,-3.713313299465189,8.922299715508558,43.90344577487823,-0.8075701277545289,3.657694226008352,442.86563930529206,23.35756128497645,10.183940733594032,69.98876347006578,0.0183898701272798,113.719587540198,333.84167222325607,15.288,0.0,5.244169350273792,0.0686473351996969,1.3467799625687713e-08,-0.0001405551177185,0.0020420878986323,8.705762423872681e-06,9.658387983374626,29.98468411722537,24.753415312688936,44.06294869240924
0.63,31.222174172983088,131.01041618193875,10.392142557084998,-3.6039109466164594,8.815509553876616,25.08587550058396,-0.8246016651631203,3.6589286840800734,286.11251274707894,23.67272434309386,10.32956694827792,69.98870401336637,0.0217408230874198,113.72315431091393,342.90413842564624,15.288,0.0,5.26315745012228,0.0695737673707063,1.4676934568709374e-08,-6.0667088127793786e-05,0.0022382726713916,3.8082437139732505e-06,9.518335199503314,29.61913990933381,25.05200437577245,25.364717160894426
0.64,31.222173810731064,131.01041718775105,10.618118333102764,-3.4923810773664035,8.698941745222598,24.633513467245027,-0.8430313579536705,3.6605044360364034,282.30782441796754,24.02095053164307,10.48660261558716,69.98869027811632,0.025403294171595,113.72705262305368,353.0589280286544,15.288,0.0,5.282064625134461,0.0705973786813684,1.596529326328296e-08,1.9472915171611324e-05,0.0024385655804503,-1.2403238059925357e-06,9.368800911862518,29.22436554190048,25.382133596028453,24.91826599781127
0.65,31.222173444121847,131.01041820740022,10.846877470784117,-3.391266892940508,8.603466048636387,43.204024122979305,-0.8598130246286997,3.661283692442445,436.7781447787475,24.317721543337296,10.625732632303732,69.98872241235216,0.0293840481783006,113.73128967497638,361.8287257449754,15.288,0.0,5.300861929627232,0.0714697707230616,1.733484844961019e-08,9.985353611764406e-05,0.002643072083899,-6.438589080690042e-06,9.243036889915384,28.89623496817331,25.66407795597509,43.36740685276033
0.66,31.222173072668948,131.01041924223543,11.078803884801198,-3.290932988639097,8.505771797844089,36.810100497328165,-0.8772118057996668,3.6621136150697686,383.51251517160017,24.625920381336737,10.768776863924902,69.98880054056994,0.0336899285514436,113.73587274911075,371.05009762556006,15.288,0.0,5.3195767875123785,0.0723757563163985,1.8787518566463843e-08,0.0001806145579979,0.0028522974414326,-1.1793424464886867e-05,9.11584875187468,28.562452950359628,25.95710174806865,37.00221716742542
0.67,31.22217269656114,131.01042029177313,11.313758631232256,-3.1890965183266275,8.399810169559046,25.47023441527139,-0.8959284096411861,3.663232068849924,289.1562440103425,24.96414233649768,10.92217078494036,69.98892481772407,0.0383282617517808,113.74080964066484,381.30377926732166,15.288,0.0,5.338228103231881,0.0733699875451372,2.0325470328463183e-08,0.0002616486209841,0.0030661241608158,-1.731888816389986e-05,8.980766379449841,28.20401176710805,26.278860094939127,25.7479086155425
0.68,31.22217231597063,131.01042135557466,11.55161564067636,-3.0909674119192854,8.299062280523737,31.699994940237488,-0.9145399798287968,3.664119473645176,340.8999924858462,25.29342049420981,11.072404456167696,69.98909535868259,0.0433063641557536,113.74610813380572,391.4200048796917,15.288,0.0,5.356756744224687,0.0743379404551415,2.1950868720044104e-08,0.0003428654699783,0.0032844716910682,-2.299356449265942e-05,8.852208297055354,27.86303558523937,26.592480549229663,31.924157531608152
0.69,31.22217193098236,131.01042243343713,11.79231621971786,-2.998952072384503,8.210295005419054,38.94064400776038,-0.932223092329218,3.6645037892358143,401.0140726853634,25.592005896067533,11.211952319698728,69.98931219032404,0.0486314649285881,113.7517759224618,400.7066093019784,15.288,0.0,5.375198059540627,0.0752156940211248,2.366585333475249e-08,0.0004241972318343,0.0035073166621083,-2.878306952867099e-05,8.737333871642665,27.560606995852023,26.87726688113468,39.123795619217724
0.7,31.22217154146984,131.01042352573006,12.035965192316784,-2.908853545429676,8.122691614695041,32.71975680494706,-0.9501607598568852,3.6647992145474246,349.27032420985284,25.891802956093663,11.351867918254724,69.98957540209858,0.0543107005696599,113.75782059348931,410.1401412844049,15.288,0.0,5.393567861693903,0.076097015996452,2.547248273467649e-08,0.0005056503229924,0.0037348424755203,-3.471101956758105e-05,8.624544975928632,27.262955724346124,27.163442774909345,32.93806375802013
0.71,31.22217114749204,131.0104246323199,12.282523846407782,-2.818465224484485,8.030306483079958,26.95332809919937,-0.9690722071472556,3.665232096318632,301.33126406340574,26.21171158314792,11.498686127669554,69.9898849600425,0.0603514211114335,113.764249968758,420.32785221428463,15.288,0.0,5.411812479518554,0.0770374541867167,2.7372932162485067e-08,0.0005871612552254,0.0039670447814896,-4.080348676210234e-05,8.507495371119289,26.95159711713503,27.46898351841199,27.218650276706224
0.72,31.22217074905747,131.01042575321037,12.531992641530543,-2.7275598918822483,7.932117708355952,32.916200358546845,-0.989173588968764,3.665859340484907,350.79220534145287,26.55661227302708,11.654088810768414,69.99024084880169,0.0667611356727847,113.77107203633425,431.4518634666678,15.288,0.0,5.42997339688116,0.0780513532255583,2.9369403046826687e-08,0.0006686928342058,0.0042039936303383,-4.707967361684568e-05,8.385134293533769,26.623093172004427,27.798610150464064,33.13447200631592
0.73,31.222170346169705,131.01042688841892,12.784375993890407,-2.644842963223541,7.853273499505137,41.5412788516744,-1.0072482280394943,3.665652023891519,422.320318528234,26.842566894419107,11.78904767554066,69.99064304807888,0.0735476375571319,113.77829508633424,440.7827251600861,15.288,0.0,5.448062353416216,0.0788920143212341,3.1464166611956174e-08,0.0007502159582414,0.0044457837953302,-5.338680337606917e-05,8.284034746461005,26.356399941242284,28.07229727513242,41.71485829276805
0.74,31.222169938772595,131.01042803812257,13.039724081386854,-2.561933259576149,7.7700724143475535,26.14086563501328,-1.0262641796977725,3.6655593564053617,294.48281347105944,27.147503538188943,11.930514497108488,69.99109142752759,0.0807184709164724,113.78592714624456,450.8433049343358,15.288,0.0,5.466048546090844,0.0797884724058113,3.3659434951473185e-08,0.0008316942597919,0.0046925006192109,-5.985583978526451e-05,8.179073063332575,26.07720958184335,28.36428600405612,26.41655540962296
0.75,31.22216952722628,131.01042920137044,13.297765235522109,-2.4795954071948656,7.684640172981291,30.457019604298115,-1.0459982426846763,3.6654970325312606,330.24688556441487,27.465010172112382,12.076262383015951,69.99158593697824,0.0882812356389457,113.79397629328862,461.4393155017632,15.288,0.0,5.483919499863879,0.0807218823236585,3.595756139082847e-08,0.0009129580238121,0.0049438219590369,-6.647108046612855e-05,8.072494764353296,25.792132991128646,28.6684948365666,30.694625327503097
0.76,31.22216911142731,131.01043037846685,13.558586106778648,-2.400971576629679,7.606608284988521,32.7564765320902,-1.0651139042079576,3.665061268326249,349.27032420986166,27.76092401626997,12.214488377316115,69.99212636876004,0.0962435133401457,113.80245059403444,471.4243631257036,15.288,0.0,5.501706073139268,0.0815918370986712,3.836074036341506e-08,0.0009940091274259,0.0051999426872162,-7.315020977186389e-05,7.974411720799281,25.53144820506031,28.952260429137205,32.978082062589664
0.77,31.22216869132441,131.010431569574,13.822232915331492,-2.324419371080311,7.531263593370915,30.65052496155539,-1.0842277419017603,3.6644436542068735,331.7687666960708,28.051119056413484,12.35068051588469,69.99271248533609,0.1046129883646931,113.81135822388488,481.3196312355598,15.288,0.0,5.5194102036673165,0.0824449914973281,4.087121945945925e-08,0.0010748215689466,0.0054609832303822,-7.992209413866894e-05,7.879828703074352,25.28032695813878,29.23072347182844,30.887835429341703
0.78,31.22216826698651,131.01043277452823,14.088658903448504,-2.247791768152976,7.451913992055869,25.237328369802167,-1.1043151399214484,3.6639182818630496,286.8734378128899,28.36020110950993,12.49333214029462,69.99334412583674,0.1133973715977005,113.82070737721835,491.9723476979885,15.288,0.0,5.536993911532655,0.0833536645353897,4.34913013317432e-08,0.0011553203727563,0.0057269120315149,-8.685221854679165e-05,7.781713539802969,25.01770578078047,29.52744771399493,25.525801698470733
0.79,31.22216783850581,131.010433993103,14.357799430721172,-2.171884231681225,7.370916543938103,35.712995417868065,-1.1250871292957407,3.663391151450019,373.6203323159534,28.68027715051197,12.639712393827097,69.99402098641215,0.122604512519663,113.83050640405632,503.1269062441645,15.288,0.0,5.5544768685594965,0.0842946582222218,4.622334583169992e-08,0.0012354308488915,0.0059976945060139,-9.392035790379256e-05,7.68254111760868,24.7509082458258,29.834907001591432,35.91802190396479
0.8,31.22216740566904,131.01043522589777,14.629825748144103,-2.100421440694466,7.300911889294951,36.17857346223287,-1.144551225828229,3.662311448614364,377.42502064505743,28.962030933296976,12.772803906246414,69.99474274645317,0.1322425022182868,113.84076391147067,513.0474533353689,15.288,0.0,5.571883454019505,0.0851230264961814,4.9069621282584495e-08,0.001315189091824,0.0062736742294184,-0.0001009633656014,7.595470918814561,24.519969781146493,30.10575448876594,36.381474687227524
0.81,31.22216696858242,131.01043647264703,14.904662231758552,-2.028577130698656,7.225789923561629,23.68395155401899,-1.1652194920573304,3.661372227663175,273.9374926939919,29.26778288685618,12.914113025209216,69.99550914949,0.1423193792695204,113.8514884411428,523.9232805245074,15.288,0.0,5.589204794665481,0.0860219364210844,5.2032560084151074e-08,0.0013944990771107,0.006554758203844,-0.00010817905945,7.5036873337726036,24.273823200307845,30.399801002338226,23.99360215280924
0.82,31.22216652743725,131.01043773285542,15.182167657009348,-1.9574671220881523,7.149271674263576,30.30660797057869,-1.1865516007952837,3.660411247126589,328.72500443277005,29.58357745573039,13.058816590335407,69.9963197469896,0.1528432427741766,113.86268861003236,535.2761026691699,15.288,0.0,5.606427024527213,0.086950371223828,5.5114660115591984e-08,0.0014732499994152,0.0068407900340593,-0.0001155182793845,7.411063004448217,24.024238415469267,30.703670563064343,30.549910014299297
0.83,31.222166082221747,131.0104390065758,15.46235747201302,-1.890841149077812,7.085248542877821,38.40452355293144,-1.2061392095914518,3.658800577620868,395.68750322465047,29.851456242312743,13.18692682839327,69.99717420556144,0.1638222443626918,113.87437307917696,544.9991580160558,15.288,0.0,5.62353214613412,0.0877379827108582,5.8318298455547047e-08,0.0015514063752843,0.0071318792977312,-0.0001227447650498,7.331969913890473,23.8154952393112,30.961570110744105,38.59726703780176
0.84,31.22216563283504,131.0104402940995,15.745315406654724,-1.8248111542906884,7.019849682306886,23.87485817337137,-1.2263023588623885,3.6571543468602896,275.4593748256452,30.12792641963037,13.317935698661524,69.99807197880374,0.1752644116781958,113.88655038894612,555.1258732364303,15.288,0.0,5.640551672823093,0.0885508534317065,6.164581226989109e-08,0.0016289396038001,0.0074281782088395,-0.0001300691516277,7.252002866286884,23.603397790967097,31.22784518424259,24.184446410672876
0.85,31.22216517957441,131.01044159464325,16.030818253461916,-1.7576280572871763,6.946202972848549,25.99375920036536,-1.24834188306047,3.655779770053895,292.96093233939376,30.44332061833235,13.462289637000236,69.99901258854966,0.1871777487681872,113.89922904480416,566.7938385124885,15.288,0.0,5.657471987680146,0.0894781362788868,6.509976887504647e-08,0.0017056976217351,0.0077293670601389,-0.0001376202178021,7.16406597763419,23.36595873111976,31.531756797596028,26.279242769735912
0.86,31.222164722271245,131.01044290868103,16.31900205720822,-1.693455065144004,6.880347520835806,32.44040426404385,-1.2693605767144227,3.6539563634762153,346.2265619465587,30.728578433265184,13.596185749861318,69.99999550305175,0.1995705749266282,113.91241789060888,577.4494823119346,15.288,0.0,5.674304749174167,0.0903168515515115,6.86824934190795e-08,0.0017816943598798,0.0080357605064622,-0.0001450947939679,7.08471404918485,23.15434749432848,31.80674527314161,32.670208174948925
0.87,31.22216426095364,131.01044423615497,16.60985096417095,-1.63121287917535,6.818533495311256,30.234823027198388,-1.289973985402452,3.651845411527399,327.964078366998,30.99878170955912,13.724825227098668,70.00102017406923,0.2124511625817987,113.92612571688797,587.6330021149441,15.288,0.0,5.691049149527436,0.0911113268624848,7.239645113482507e-08,0.0018568650407082,0.0083473819508187,-0.0001525418433486,7.010041409952993,22.956636363834576,32.06730812409611,30.481872174765034
0.88,31.222163795661054,131.01044557697563,16.90334027573576,-1.569001423011888,6.753078488111536,26.1857781784587,-1.311657255731703,3.64978953534936,294.4828134710418,31.288381098036464,13.860073868235602,70.00208589330585,0.2258277942084773,113.9403613328333,598.6470831684246,15.288,0.0,5.707699843043172,0.0919628191856919,7.624415568193987e-08,0.0019311327229763,0.0086642067338161,-0.0001601205226559,6.932129827566105,22.748230365130365,32.34669788954072,26.47142586299996
0.89,31.222163326478704,131.0104469309308,17.199410142439593,-1.5069064766539484,6.6841498739322205,28.67599357097828,-1.334432446461277,3.6477735016709847,315.028134248087,31.59749776287164,14.001965600904011,70.00319202522019,0.2397088198897396,113.95513361033068,610.5169414610917,15.288,0.0,5.724234183970031,0.0928716852279838,8.022813665562307e-08,0.0020044202906362,0.0089862058434079,-0.0001678343753294,6.851154310195799,22.52965482164868,32.64506162789019,28.937857017347525
0.9,31.22216285333556,131.01044829822828,17.498120914549173,-1.4483753809252886,6.626953383383533,31.62833255444376,-1.3551922901894509,3.6451107885901344,339.37814235421445,31.85444398054111,14.125820374862352,70.00433786948217,0.2541028605322992,113.9704517119988,620.4687810932288,15.288,0.0,5.740682865778197,0.0936272197149824,8.43508642409318e-08,0.0020766979479699,0.009313558970541,-0.0001752953265293,6.782694086714166,22.34967619966277,32.893083989355354,31.866515325321846
0.91,31.22216237630544,131.01044967868424,17.79942113512269,-1.389879216303568,6.566173766108864,24.164776360790533,-1.3770387427959976,3.6424899236641535,277.7421810230789,32.130888272419,14.256312494655496,70.00552264791331,0.2690182390427002,113.98632448291376,631.2665449493609,15.288,0.0,5.757041054965968,0.0944400713786938,8.86148945343409e-08,0.0021478778191388,0.0096462030764264,-0.0001828717887266,6.711031030732221,22.159114016728928,33.160044247721494,24.47652722732898
0.92,31.22216189559281,131.01045107176455,18.10315912906752,-1.3315231650934247,6.502025589215774,28.685037297565568,-1.3999913112223803,3.639896743369128,315.02813424806214,32.426768722339226,14.39341242366811,70.00674550577988,0.2844633693699359,114.00276086687144,642.9274801104698,15.288,0.0,5.773301068374019,0.095310058725406,9.302293394064944e-08,0.0022178393045721,0.0099839063694358,-0.0001905616429811,6.636390067046069,21.95858727566301,33.44591377912429,28.948923792372923
0.93,31.22216141111096,131.01045247771617,18.409406753845733,-1.276132345521199,6.448304378202857,34.03793682949418,-1.420999606686147,3.636702806657093,359.1625070654728,32.67337659291875,14.513480802825814,70.00800566082414,0.3004467104452018,114.01976984643288,652.7244843766424,15.288,0.0,5.78947130049945,0.0960352303189213,9.757736332037738e-08,0.0022865579701516,0.0103268914244555,-0.0001979544183649,6.572842717763368,21.79258737535473,33.68413697259064,34.26114403803215
0.94,31.222160922753314,131.0104538968366,18.718250539175283,-1.219937122970317,6.386610541480768,24.81524419526764,-1.4441506351712774,3.633738465715199,283.0687504837787,32.96250495873878,14.648097264879556,70.00930214727224,0.3169766174314386,114.03736030270332,664.3078752893267,15.288,0.0,5.8055515997527145,0.0968853885716005,1.0228062237363225e-07,0.0023539866768705,0.0106752997250348,-0.0002055891975012,6.501605315996063,21.6017408425219,33.963635217377664,25.12142453693755
0.95,31.222160430811623,131.01045532835795,19.029472036875696,-1.1649396141342494,6.326896078883713,32.015901102482445,-1.46723062343084,3.630547959079319,342.4218736174873,33.24436679430148,14.780129301024278,70.01063397895355,0.3340617678822861,114.05554145807072,675.6972228455749,15.288,0.0,5.821535555262272,0.097714197072698,1.0713556824458888e-07,0.0024199932130896,0.0110288245844936,-0.0002131548970167,6.432820352616113,21.4181381693544,34.23617479742995,32.254481356695926
0.96,31.22215993499633,131.01045677306686,19.34329788743792,-1.1117183394852843,6.272601886401497,31.373172859261736,-1.4893798929167212,3.6269756822967776,337.09533515678345,33.50013298462795,14.903107902328466,70.01200022034791,0.3517107718191781,114.07432245526752,686.1135166478573,15.288,0.0,5.8374357273585735,0.0984663118519069,1.1214442639676057e-07,0.0024845908357948,0.0113879368659935,-0.0002205217453505,6.369969418218618,21.25296955182504,34.48346397622456,31.617229168959668
0.97,31.222159435329928,131.01045823091405,19.659715578243546,-1.0589427320574398,6.216684248113399,20.20235284779171,-1.512261112218751,3.623335186322191,245.02188719299323,33.766486760564995,15.029644809410968,70.0133997532672,0.3699324644786742,114.0937126865466,697.0460462410771,15.288,0.0,5.853250604047761,0.0992495548634317,1.1730986733148301e-07,0.0025477030423763,0.0117526531640172,-0.0002279142580997,6.305879697043334,21.08341232030176,34.74108634734393,20.580343829262116
0.98,31.222158932102328,131.01045970113583,19.97850800452432,-1.0057027701988603,6.153508185865006,29.25509644398977,-1.5373510025356367,3.619871261821977,319.5937466429581,34.07499116489058,15.17057851054386,70.01483154105534,0.3887356150719158,114.11372146242132,709.8194916653201,15.288,0.0,5.868969542209905,0.1001566995882903,1.226348856157935e-07,0.0026091862797036,0.0121225867994332,-0.0002355398277555,6.234838342544629,20.891068557583605,35.03972484498606,29.51825848528847
0.99,31.222158425168463,131.0104611841308,20.299790927319915,-0.9555299833055606,6.104466268834454,31.93724072361168,-1.5591746120440049,3.615624424068391,341.6609485517054,34.307873598378734,15.285441430641113,70.01629435592335,0.4081292389529408,114.13435836680117,719.5328366827304,15.288,0.0,5.884604516544624,0.1008415770430707,1.2812190243359842e-07,0.0026690217741079,0.012498076432719,-0.0002425805808977,6.178518312514511,20.745564913768074,35.26494782509527,32.17904769387501
1.0,31.222157914528783,131.0104626799051,20.623568016669896,-0.9049261939123058,6.048384599251837,28.61318541100128,-1.5831652534264595,3.611536861226861,314.2672081822764,34.58180457023007,15.414320335298104,70.01778702319515,0.428121896893223,114.1556324890456,731.0461836547613,15.288,0.0,5.90015085275327,0.1016471172634759,1.337735604317955e-07,0.0027271242178916,0.0128790969123065,-0.0002498326416977,6.115456116148234,20.577962002094164,35.530119003494455,28.883628409256232
1.01,31.22215740036515,131.0104641879832,20.94970485044473,-0.8553251780860811,5.994262345838335,29.909744603117087,-1.6069859693730335,3.6072029615394863,324.9203161036979,34.84673011845618,15.540015425739767,70.01930826495186,0.4487225365689279,114.17755333462824,742.266686347584,15.288,0.0,5.915606402188747,0.1024261961470512,1.3959274073519393e-07,0.002783388340554,0.0132654689314875,-0.0002569323796438,6.054757726412735,20.41756082361059,35.78658995178509,30.169307902820588
1.02,31.222156882603247,131.01046570857042,21.27826220187364,-0.8067722148148335,5.9427455113777405,25.01089772366461,-1.630422525237603,3.602592926670331,284.59063161540416,35.098313470333885,15.661039347774972,70.02085675091999,0.4699399282082561,114.20013021908332,752.9995165130479,15.288,0.0,5.930974998320737,0.1031660662617482,1.4558196300068425e-07,0.0028377583252339,0.0136573516930099,-0.0002638341163233,5.99706343688699,20.2665021228213,36.03012492489989,25.321571008721175
1.03,31.22215636131248,131.0104672414882,21.60919096850824,-0.7582857927870673,5.886750820500583,20.479212800885858,-1.655471220249788,3.598009360819908,247.30469339049705,35.37821935852672,15.791693961478854,70.02243109036182,0.4917827755368563,114.2233723865648,765.033295928828,15.288,0.0,5.94625390775453,0.10398919467224,1.517439706440989e-07,0.0028901426654228,0.014054669167139,-0.0002708387157752,5.935217591826816,20.10155493846616,36.30128201301781,20.85867716959995
1.04,31.22215583655572,131.01046878657658,21.94244734871413,-0.7111789233766971,5.836235009154883,32.415327984271165,-1.6792990903242853,3.593020064020612,345.46563688072297,35.62725075657259,15.91165711269508,70.02402982888657,0.5142600992342699,114.247289419575,775.8166854990862,15.288,0.0,5.961445359436692,0.104721580513996,1.5808151635719942e-07,0.0029404615189422,0.0144574155564863,-0.0002774849310272,5.87925709969318,19.955375920692404,36.542419892999845,32.657056311662444
1.05,31.22215530805168,131.01047034458577,22.27824881142364,-0.6643052518013137,5.78226546296918,19.645679900809554,-1.7044873995178345,3.5880034680611894,240.45625879819983,35.89899807520318,16.03932330978303,70.02565152513553,0.5373807690553101,114.2718907341646,787.6715194453518,15.288,0.0,5.976557764643155,0.1055207455844045,1.6459683493516276e-07,0.0029886881981238,0.0148660577006596,-0.0002841780444609,5.820171486910734,19.79862602508106,36.80573323274949,20.043247864231155
1.06,31.222154776036625,131.0104719148949,22.616419460580733,-0.6178012080640328,5.725525147152115,27.884753547987327,-1.730923121134723,3.582922100451252,308.17968365593924,36.190315536014005,16.173604947325522,70.02729455448112,0.561154098367389,114.2971862279207,800.4811687341067,15.288,0.0,5.991584754677478,0.1063774438314638,1.71293132727451e-07,0.0030346995219912,0.0152802759598442,-0.0002908851457199,5.758649600823376,19.633466073195844,37.08818285101331,28.167231068409485
1.07,31.222154240397128,131.01047349780978,22.957049260592875,-0.5728680482476953,5.677232542103774,32.794559194317664,-1.7551030543198676,3.5773072978065854,348.5093681440308,36.430310536675606,16.290185910573754,70.02895740176595,0.5855895714820054,114.32318596784742,811.1065666754558,15.288,0.0,6.006535010927211,0.1070832942993672,1.7817296533944286e-07,0.0030784436501212,0.0157003650039902,-0.0002970252366451,5.705968138530779,19.496964498981026,37.320629592751246,33.03574771340628
1.08,31.22215370103389,131.01047509359452,23.300216619809728,-0.5284193946903277,5.627828110813232,22.144788202042868,-1.7799535310308852,3.571555040512223,261.00157857466235,36.67851881323529,16.4094897401146,70.03063830534411,0.6106964698900327,114.34989981813013,822.1696370957966,15.288,0.0,6.02140952561756,0.1078132954874514,1.8523901569628245e-07,0.0031198462513091,0.0161264893470035,-0.0003030609184143,5.652501899691114,19.35758221181144,37.56111517460392,22.50146405222057
1.09,31.22215315822036,131.0104767015298,23.645717406256985,-0.4838912438763956,5.570733679036056,20.38384329516076,-1.8076876422601629,3.5659165367135603,246.54375332474407,36.978805425356974,16.54654758948587,70.0323356123781,0.6364841202983232,114.37733767720005,835.659198034762,15.288,0.0,6.036199565756271,0.108696385494949,1.9249466639535706e-07,0.003158776817306,0.0165582257305547,-0.0003093444725269,5.591644316656766,19.193402258707263,37.85247620619423,20.77220649908087
1.1,31.2221526120328,131.01047832141768,23.993497239851305,-0.4404529281740809,5.518490176446462,40.68145485656808,-1.8342283882604524,3.559884014680249,413.1890617385841,37.24949430518078,16.673354350911524,70.03404745005189,0.6629619562421564,114.40550956913914,847.9098829283206,15.288,0.0,6.050908063281486,0.1094924845845611,1.9994282832699322e-07,0.0031951488127309,0.0169955569084614,-0.0003151864248854,5.535985218896248,19.04601463883725,38.11499709159867,40.87808627156197
1.11,31.222152062073032,131.0104799543074,24.343860326931264,-0.3983084799599601,5.4751870143864485,29.838883116602176,-1.858026353005008,3.5533086280675894,324.1593910376397,37.46100708915928,16.779783916554862,70.03577203673247,0.6901395398417812,114.43442564352918,857.5376886177114,15.288,0.0,6.065549087633077,0.1101146481373138,2.075855256696671e-07,0.0032289311503584,0.0174392193871249,-0.0003203167507657,5.489611942308016,18.929195301134467,38.31973911025085,30.107095671635403
1.12,31.222151508402447,131.01048160003447,24.6967623205538,-0.3556687862265855,5.416792085022821,11.385852913067378,-1.8874740645514136,3.547102048126389,172.73281794065943,37.77719331860695,16.921977702689393,70.0375073998572,0.7180262295845294,114.46409584147531,872.0451566588963,15.288,0.0,6.0801162967632765,0.1110445030641,2.1542589134355454e-07,0.0032600127223792,0.0178890820477285,-0.0003261186821576,5.428421470991977,18.76271182397126,38.6267940904264,12.074027407712041
1.13,31.22215095160864,131.01048325706,25.05176315758223,-0.3142643881648768,5.367398753682983,35.12977080916957,-1.914124386331001,3.540341173516237,367.5328077900705,38.03333274583177,17.043490390901702,70.03925150482148,0.7466322051085961,114.49453097752884,883.8805018960862,15.288,0.0,6.09460007298969,0.1117978622433066,2.2346815352618666e-07,0.0032882458347702,0.0183442723826285,-0.0003311620384985,5.376564183035747,18.626974814672707,38.875209164211725,35.359562849334324
1.14,31.222150391033257,131.01048492710683,25.409361484644243,-0.2737770046313857,5.324347050813462,19.544730098424324,-1.938748750463504,3.5331426113094286,239.69531773195544,38.24532209025342,17.149782687431365,70.04100236749778,0.7759666807718617,114.52574083027147,893.7303682145872,15.288,0.0,6.109019646329824,0.1124214523670858,2.317136070128823e-07,0.0033136075474108,0.0188059655428848,-0.0003355647714755,5.331360941307466,18.513292152011644,39.08046537732449,19.9559093516063
1.15,31.222149827158344,131.0104866089081,25.7691958314688,-0.233101207899399,5.266320089555951,19.26446072765481,-1.969369682811136,3.526248932340041,237.41251153546767,38.5664061130524,17.29332291347354,70.0427577966857,0.8060388919356943,114.55773520950976,908.768360911914,15.288,0.0,6.123357576470761,0.1133657335710886,2.401664235977161e-07,0.0033359484025546,0.0192732717527069,-0.000340651614092,5.271461880379901,18.349917412054303,39.39247344696065,19.68329991662372
1.16,31.22214926012132,131.01048830210618,26.13116596335375,-0.1937646746952045,5.22553458438871,50.08566354117341,-1.993731215894481,3.5185367088929778,490.0437743845894,38.76330639461977,17.394238903580945,70.0445155290612,0.836858858299014,114.59052476072432,918.0395375469956,15.288,0.0,6.137619999185049,0.1139449863022361,2.488297057041069e-07,0.0033551784982344,0.0197461320101097,-0.000344352546897,5.229115822539323,18.24532569908285,39.58299399087402,50.24866920718087
1.17,31.22214868905378,131.01049000895873,26.495925504122297,-0.1546581074784456,5.177135529897097,9.047361024925914,-2.0213570524368167,3.510858763872561,153.70937929486794,39.016766146362734,17.514414579003777,70.04627336069471,0.8684357038793726,114.62411916713098,930.0516801731034,15.288,0.0,6.151825756056192,0.1146905049805747,2.577042439300188e-07,0.0033712517330077,0.0202260674241483,-0.00034825237888,5.179438800979877,18.11580612585917,39.828882542080855,9.91295894819732
1.18,31.22214811509867,131.01049172648243,26.8626181522594,-0.1158606451954468,5.118628951872456,24.461707068140576,-2.0535075613137392,3.503254320668567,280.02501822196746,39.348898279957766,17.66139350338619,70.04802889479846,0.9007791447140308,114.65852874851949,945.91997560523,15.288,0.0,6.165944282562672,0.1156672921941733,2.667961368319093e-07,0.003383997075226,0.0207109884170966,-0.0003525322855799,5.119936552844273,17.952582690981078,40.15186155358476,24.79646742637294
1.19,31.222147537740465,131.0104934560177,27.231633185529013,-0.0781283110001076,5.083678712190798,42.57984989225336,-2.0762730431557723,3.494687258458966,428.4078130529292,39.50169100838352,17.74690542475505,70.04977969302001,0.9338991761379168,114.69376412162286,953.2465072044888,15.288,0.0,6.179996159039511,0.1161169146793983,2.761066323136344e-07,0.0033933556605569,0.021202076539769,-0.0003548673259115,5.084277456572436,17.8700995670533,40.29918605554845,42.77344229344885
1.2,31.22214695653227,131.0104951987115,27.60330507560988,-0.0405861458016636,5.030540966776872,4.572908508717935,-2.1069628458255143,3.486416401123584,117.1843741360236,39.79560338631239,17.880583776045523,70.05152323845515,0.9678046904021244,114.72983472984356,967.4500013489592,15.288,0.0,6.1939670619476175,0.1169813734082527,2.856377171130219e-07,0.0033992233236905,0.0217000112854537,-0.0003581131194138,5.030704266677209,17.72648497003159,40.58478406780336,6.124204763462564
1.21,31.222146372622976,131.01049695158068,27.97677659477461,-0.003645255788579,4.978807828181116,34.222419832724405,-2.1374957904701075,3.477838066700957,359.92343213200894,40.08096625471208,18.011215576143194,70.05325693360666,1.0025058178202857,114.76675133189528,981.3391523256806,15.288,0.0,6.207852498507753,0.1178207099235633,2.953957205323512e-07,0.0034014781086522,0.0222027188199747,-0.0003609073457852,4.9788091592653,17.588180777780835,40.86205169460799,34.46502959638538
1.22,31.22214578513523,131.01049871688943,28.352704449591613,0.0328014854240245,4.943060707080086,24.833085338903256,-2.161230193188574,3.468590596906261,283.0687504825761,40.238276438806345,18.097956038638955,70.05497810271868,1.0380119482981447,114.8045239019764,989.0216915404612,15.288,0.0,6.2216808342317,0.1182836356866433,3.053806638343752e-07,0.0034000292455169,0.0227120188408215,-0.0003621564275798,4.943169268860522,17.50539390680181,41.01376776908191,25.16712466942039
