Time,Latitude,Longitude,Altitude,Angle of Attack,Angle of Sideslip,X-Acceleration,Y-Acceleration,Z-Acceleration,Thrust,True Velocity,Ground Velocity,Pitch,Roll,Yaw,Dynamic Pressure,cp,parachute_deploy_gain,Wind Speed,Mach,omega_x,omega_y,omega_z,Cmq,Angle of Attack(total),Angle of Attack(gust),True Velocity(gust),Acceleration
0.0,31.222216000000007,131.010392,3.000000004412624,0.0,0.0,0.0,0.0,0.0,2.2828121974499247,0.0,0.0,71.99999999612658,-1.0292491154817412e-14,119.99999999354436,0.0,15.288,0,0.0,0.0,0.0,0.0,0.0,-0.0,0.0,90.0,0.0,0.0
0.01,31.22221599999862,131.01039200000284,3.0000009727369523,0.0,0.0,0.0,0.0,0.0,34.24218696174923,5.916279387578309e-11,5.734623670548936e-11,71.99999999613168,-5.86671995824671e-13,119.9999999935449,2.1432944861733093e-21,15.288,0,0.0,1.7386402909615473e-13,-3.4220131069073734e-19,7.115076756936125e-19,5.488773498207866e-19,-1.1574302492039043e-31,0.0,89.99999999962336,5.916279387578309e-11,0.0
0.02,31.22221599999738,131.01039200000537,3.0000018317022668,0.0,0.0,0.0,0.0,0.0,25.871876237766408,1.2265415415436536e-10,1.1895038237325684e-10,71.9999999961369,-1.1836364828043265e-12,119.99999999354544,9.211895886571454e-21,15.288,0,0.0,3.6044858651615574e-13,-6.979551485375437e-19,1.4162390878091906e-18,1.0909784360635388e-18,-4.776231873571785e-31,0.0,89.99999999921916,1.2265415415436536e-10,0.0
0.03,31.22221599921969,131.01039200159065,3.0001883335529382,18.80143492628821,-0.0001350810307892,10.931161642028636,-1.75114298675875e-05,3.026590975169265,180.34219359854663,0.0798232026864394,0.0478175828508887,71.99999999765336,-5.341802909786072e-12,119.99999999436793,0.0039016003969354,15.288,0,0.0,0.0002345795854893,3.788270153300133e-17,-7.771883375645477e-10,1.1422790048099072e-11,1.7057759223764537e-13,18.80143492675591,89.51882325913425,0.079801984207741,11.342422482672777
0.04,31.222215995131297,131.01039200995308,3.001692634342189,9.19442604083399,-4.49173898918486e-05,52.29595764159784,6.445392950801871e-06,3.026413589912948,548.6359724538078,0.3504174083926908,0.1601447499964056,72.00000000319055,-3.111420077280171e-11,119.99999999870242,0.0751892535633216,15.288,0,0.0,0.0010297854387864,2.0082066977226968e-15,-1.520937588847922e-08,2.5623342884322286e-11,1.4654248781413086e-11,9.19442604094277,87.798916624545,0.3504103527855857,52.383455068075136
0.05,31.222215983575865,131.01039203366796,3.0074067499493786,5.158590039700252,1.707592688632746e-06,76.26884281015512,5.843947534199429e-05,3.0258124765658088,761.6984298824644,0.9592973585397016,0.3772700771701255,72.0000000004862,-1.3608731808076822e-10,120.0000000109612,0.5634958029902841,15.288,0,0.0,0.0028191251099456,2.086299069701397e-14,-1.0551247853743037e-07,3.973493515691201e-11,2.783064866637575e-10,5.158590039700515,83.94063169874748,0.959297626767734,76.32884071402438
0.06,31.222215961742712,131.0103920785344,3.019291017943491,4.109521257467909,3.140103977270004e-05,57.06876634333886,0.0001151069734147,3.024834864051463,590.4875390737208,1.6257536642597354,0.6118982818704327,71.99999992547217,-3.5903296759057166e-10,120.00000003412836,1.6184272268450337,15.288,0,0.0,0.0047776672697797,1.0694899894620088e-13,-3.741090980393931e-07,5.521401959501359e-11,1.6723176417636091e-09,4.109521257587776,79.78719176344794,1.6257585967235286,57.148873286519276
0.07,31.222215929936205,131.01039214392435,3.0371334573469446,3.649087515174788,5.707077112564807e-05,86.89643797254193,0.0001728541558773,3.0234947746384675,855.2937749779139,2.3057260079826607,0.8506307413593818,71.99999965378231,-6.907496536790437e-10,120.00000006788592,3.255354923652711,15.288,0,0.0,0.0067759305364855,3.495199904512709e-13,-9.036515915819006e-07,7.594816279105379e-11,5.728932851326001e-09,3.6490875156204896,75.6601668283889,2.305734972638426,86.94902215090157
0.08,31.222215886364623,131.01039223353447,3.0621840248716574,3.4254446680114707,8.413075603463509e-05,17.831756866644035,0.0002285946601282,3.021841001032126,241.2171988638848,2.961944911520492,1.0819695676346892,71.99999900671328,-1.141745983122182e-09,120.00000011415082,5.371998197385977,15.288,0,0.0,0.0087043901031071,8.800530155962314e-13,-1.829098470920821e-06,1.0943386634701918e-10,1.4896287129277132e-08,3.4254446690434226,71.81713637501419,2.9619581267487467,18.085991154451033
0.09,31.22221583454733,131.01039234010327,3.0919888289029,3.389560809024919,0.0001118726864415,54.09031716446879,0.0002748660999733,3.020060228038602,563.0937377043176,3.504225426410036,1.2780161667917422,71.99999774508822,-1.634190085504106e-09,120.00000016921716,7.519080503822694,15.288,0,0.0,0.0102980157586766,1.865782139518716e-12,-3.1503298654458527e-06,1.6284478329871028e-10,3.03536411425607e-08,3.389560810868955,68.76526501308032,3.504242999330529,54.17456206384468
0.1,31.22221577423132,131.0103924641528,3.1267248829165366,3.4447939461814814,0.0001419149103147,51.372195336549765,0.0003131602029306,3.0182021883815127,538.7437595981919,3.950569597142709,1.4443465951180965,71.99999562056465,-2.1287748602259068e-09,120.00000023339832,9.55649523509932,15.288,0,0.0,0.0116097108366932,3.485956000178229e-12,-4.949356763187612e-06,2.4573266549165286e-10,5.3761299442583966e-08,3.444793949101151,66.34639928474206,3.9505918890846927,51.460781166288626
0.11,31.222215706113143,131.01039260424562,3.165907002780892,3.4691423802630394,0.0001702373452339,40.591037561894986,0.0003534470100582,3.016051659024047,442.8656393052949,4.421478635995476,1.6182620895289603,71.99999235067894,-2.5564479031457968e-09,120.00000030601664,11.970509656144712,15.288,0,0.0,0.0129935974697161,5.942887149865172e-12,-7.273722517324353e-06,3.67769289312894e-10,8.842679949465076e-08,3.4691423844348632,63.88798785789768,4.421505376815134,40.70293476011277
0.12,31.222215630588888,131.0103927595646,3.2092596514826863,3.4852659299808075,0.0001974376474727,44.30042894095728,0.000394069215595,3.013641598889868,475.58594813540446,4.896982486381051,1.793579340340896,71.99998761802138,-2.8337988279882726e-09,120.00000038673312,14.683611096353944,15.288,0,0.0,0.0143909889875706,9.464337642181618e-12,-1.017558359402848e-05,5.395790443954697e-10,1.3700793350599625e-07,3.4852659355662303,61.5068242157714,4.897013499814194,44.40281567867803
0.13,31.222215548046687,131.0103929293088,3.256512891171917,3.5606043721293616,0.0002276507019012,48.86766833507025,0.0004268800875964,3.0112558910133567,515.9156326236895,5.278566579338586,1.939796541405244,71.99998107389406,-2.8573058577484587e-09,120.00000047523812,17.061052093156064,15.288,0,0.0,0.0155123760833565,1.4300406003001044e-11,-1.3705268062305584e-05,7.724776992181392e-10,1.989112774124932e-07,3.560604379397528,59.67313531776262,5.27860233862722,48.960358155653
0.14,31.222215458587108,131.01039311327068,3.30759734332425,3.6000732663755977,0.0002555702913645,45.540290862247225,0.0004629468001456,3.0085404980032777,486.2390860568404,5.70011779273801,2.098362647205908,71.99997235012626,-2.508533681468686e-09,120.00000057154703,19.894788765881632,15.288,0,0.0,0.0167512184495524,2.071534240530911e-11,-1.7917736259613292e-05,1.0787346240473087e-09,2.8081526258393346e-07,3.6000732754351943,57.72385750323359,5.700157937625502,45.639559681930805
0.15,31.222215362317904,131.01039331122794,3.3624387479639086,3.651605404442164,0.0002842753491325,44.01308509501,0.0004965057129938,3.005703619811542,472.54218587214,6.091938849578711,2.2476968067377374,71.99996103728932,-1.6446954747148112e-09,120.00000067569304,22.723773683610247,15.288,0,0.0,0.0179026934683374,2.9002783512213203e-11,-2.287326399669318e-05,1.47199345427166e-09,3.831202693354572e-07,3.651605415492516,55.98561718911576,6.091983503446133,44.115597174664394
0.16,31.22221525912812,131.01039352340948,3.421115382839859,3.67540086436193,0.0003108411545024,34.83804992586084,0.0005330990866742,3.002517946501868,391.1218908297564,6.521183188362317,2.4085903880902046,71.99994669525161,-1.0153513453738144e-10,120.00000078796704,26.03872642002185,15.288,0,0.0,0.019164148528834,3.9478358970291335e-11,-2.864207894220033e-05,1.9677461746207517e-09,5.135466997084602e-07,3.6754008774883777,54.15946979122355,6.521232015176687,34.96719658394182
0.17,31.2222151493826,131.01039374906244,3.4833737923187487,3.7139589864597298,0.0003384978477213,43.96471427482637,0.0005668629535037,2.999235483723449,471.78125980632376,6.916861975403744,2.559060925010733,71.99992884100092,2.3206494032971838e-09,120.0000009081849,29.29426197817256,15.288,0,0.0,0.0203269651395979,5.248754693205839e-11,-3.5267097947693114e-05,2.580363454062817e-09,6.706952682968329e-07,3.713959001863866,52.549031795895466,6.916915146521327,44.06689817851128
0.18,31.22221503253009,131.01039398932429,3.549599475912623,3.7380363034619775,0.0003650282082698,36.67395661481795,0.0006021794701355,2.9956556354306425,407.10156721191447,7.332140201215607,2.71556808256092,71.99990696207136,5.837017536380516e-09,120.00000103716444,32.917216366714264,15.288,0,0.0,0.0215473823438242,6.839750892601699e-11,-4.285557247677198e-05,3.331016495775474e-09,8.639362741436378e-07,3.738036321259578,50.93050624815799,7.332197539712479,36.796100973258795
0.19,31.22221490871209,131.01039424390297,3.619694897703461,3.747799769666444,0.0003901520189829,41.42208371271829,0.0006393759928961,2.991742733214697,448.9531328318269,7.771071983754382,2.879366399937307,71.99988049019642,1.0709144790974043e-08,120.00000117502664,36.97605053227239,15.288,0,0.0,0.0228373144884866,8.761416506509219e-11,-5.146771415177372e-05,4.238406957677133e-09,1.0996552116864756e-06,3.747799789945131,49.29705748437159,7.771133268690212,41.529983675580546
0.2,31.22221477769685,131.01039451327668,3.693822889232993,3.7700519460961166,0.0004166800650969,37.99697972290605,0.0006740224661302,2.987733789228414,418.51563019916136,8.179966026035371,3.0338260708461373,71.99984881140107,1.723179577184912e-08,120.0000013223286,40.969302182777255,15.288,0,0.0,0.024038975990988,1.1057590044953188e-10,-6.120032215177249e-05,5.3263847350253015e-09,1.376394225587184e-06,3.7700519690893857,47.8457752505109,8.180031477986942,38.11426270718793
0.21,31.222214639876928,131.01039479663547,3.771710975053407,3.7926098867321474,0.0004432924407074,36.46301043881366,0.0007080907240332,2.983530483977461,404.8187610144644,8.582757448615462,3.1863584283669346,71.99981127559042,2.5745201416596626e-08,120.00000147900325,45.103059028532826,15.288,0,0.0,0.0252227064089584,1.3774582723633048e-10,-7.20875523136271e-05,6.61341033873124e-09,1.7010673350603349e-06,3.792609912601061,46.47936953648762,8.582827080829217,36.584868250565684
0.22,31.22221449507626,131.01039509434258,3.8534832466471007,3.782921298925821,0.0004660920499522,44.14577847155813,0.0007479176313898,2.978724032883548,472.5421858721365,9.056569122268344,3.360845972992861,71.99976720416048,3.661811567390422e-08,120.00000164562512,50.21995530074818,15.288,0,0.0,0.0266151520780326,1.6960703048385348e-10,-8.421592474264931e-05,8.124635526119773e-09,2.0969540034515424e-06,3.7829213275976334,44.9464484092354,9.056642335836344,44.24615863872642
0.23,31.22221434283448,131.01039540734791,3.9394622486964206,3.813874679301352,0.0004940771488601,36.66675459308932,0.000779455230549,2.974212905336642,406.3406421461021,9.430647902846331,3.5044030163419806,71.99971583979395,5.0272885112871524e-08,120.00000182313076,54.45382429059888,15.288,0,0.0,0.0277145095638672,2.0669790509245914e-10,-9.77285871729516e-05,9.894576563683824e-09,2.5339062472561444e-06,3.813874711257219,43.79476959007253,9.430725512303388,36.78718303164376
0.24,31.222214184153326,131.01039573358457,4.028950821673608,3.829256049377765,0.0005200487408944,37.802126339316736,0.0008136255607606,2.9692962675112065,416.2328240017114,9.837806876534357,3.658163422426286,71.9996564062533,6.718950080713476e-08,120.0000020109434,59.25679777340223,15.288,0,0.0,0.0289110855155543,2.4956955046738006e-10,-0.0001125744417092,1.1934277804843484e-08,3.0448209172448607e-06,3.829256084638984,42.59361542722471,9.83788856559955,37.91856374864305
0.25,31.22221401888584,131.01039607335582,4.122052964664892,3.851417709838087,0.0005469594058717,38.85163035360012,0.0008459008130282,2.964283881833675,425.36408079150686,10.22297576958679,3.8050691648373967,71.99958811418384,8.786880969336211e-08,120.00000220974424,63.98709205399403,15.288,0,0.0,0.0300430411774988,2.987811646313829e-10,-0.0001288461362054,1.4273117985167728e-08,3.621333387698252e-06,3.8514177486178034,41.50703126619192,10.223061685769354,38.96455005232871
0.26,31.222213847358866,131.0103964259872,4.218542267117083,3.8780574625554745,0.0005745172425185,42.3164797140743,0.0008766626387865,2.959162938653076,455.8015834241788,10.590779679138215,3.946551912391076,71.99951013710364,1.1286401474734325e-07,120.00000241975916,68.67355887153568,15.288,0,0.0,0.0311239685467471,3.5491769188178554e-10,-0.0001465721578858,1.6932703957058654e-08,4.267712643344226e-06,3.8780575050466,40.51245375834074,10.590869924095635,42.41981967733593
0.27,31.22221366913008,131.0103967923915,4.318728802515264,3.886188503202341,0.0005994342651313,38.70936050721014,0.0009111181036949,2.953518013741325,423.84219965987256,11.004860953238978,4.102320296019413,71.99942161756776,1.4276417094868828e-07,120.0000026420792,74.14786134434608,15.288,0,0.0,0.0323408987462391,4.1858405402174807e-10,-0.0001658847815307,1.995072923688136e-08,5.018832267232506e-06,3.886188549362022,39.43841359495857,11.00495511215316,38.8218734782956
0.28,31.22221348431185,131.01039717233687,4.422535913956003,3.90556090261878,0.0006261175699806,44.68030766832924,0.0009425767186621,2.947879457547137,476.3468732012221,11.38358114165448,4.247086834352694,71.999321619057,1.7823531611327881e-07,120.000002877279,79.33831935330025,15.288,0,0.0,0.033453914386159,4.904408325040897e-10,-0.0001868529238516,2.3357766479368094e-08,5.847713054408178e-06,3.9055609527288775,38.49894431917428,11.383679491972384,44.77744842575601
0.29,31.222213292835256,131.0103975659655,4.530013412817602,3.9242599519377537,0.0006528240665589,35.802573724660256,0.0009737210635801,2.942037024315898,397.97031042211177,11.759725774384751,4.391004157029451,71.99920917567837,2.1999186079018322e-07,120.00000312617878,84.66717879828003,15.288,0,0.0,0.0345593650464213,5.711677680739745e-10,-0.0002095620322847,2.7188189988316943e-08,6.77505090435382e-06,3.9242600061534456,37.60352534239979,11.759828319749328,35.92324968749781
0.3,31.222213095024976,131.0103979726075,4.64093665799555,3.936939025755682,0.0006785438093183,33.570228713727204,0.0010059102294455,2.93586442972183,378.1859457108711,12.149968255527943,4.539237002744259,71.99908328532703,2.6880857935396905e-07,120.00000338923812,90.3787563598417,15.288,0,0.0,0.0357062504417728,6.614698865958865e-10,-0.0002340353597042,3.1467140861055e-08,7.817263716758327e-06,3.9369390841381695,36.71173884615234,12.150074840940263,33.698361337808635
0.31,31.22221289105846,131.01039839189684,4.755183729044857,3.9598342215431432,0.0007060286581592,35.396825578217346,0.0010350810412898,2.9297385597941448,394.1656220930212,12.504537499407316,4.6763673222047455,71.99894291513503,3.255120771695107e-07,120.00000366712923,95.72967338626896,15.288,0,0.0,0.0367483036680869,7.620720834468404e-10,-0.0002603234137215,3.622454560346964e-08,8.948994505138873e-06,3.9598342843844345,35.934338386209795,12.504648402129598,35.5178635353378
0.32,31.222212681031937,131.01039882363492,4.872689374180126,3.985461429033668,0.0007340760463279,38.52097867048992,0.0010630242168685,2.9235095146848846,421.55939346242695,12.84534566718622,4.809181081594425,71.99878701464397,3.909756427278764e-07,120.0000039606604,101.01782231644016,15.288,0,0.0,0.0377499198995686,8.737098716736534e-10,-0.0002884807530145,4.1491545539590986e-08,1.0187112828155184e-05,3.98546149652875,35.21473736963424,12.845460975581933,38.631757748577954
0.33,31.22221246496604,131.01039926777932,4.9934410812554,4.010606629086,0.0007621365968788,38.18822026147908,0.0010905599149574,2.917102431053817,418.5156301991682,13.18247167592885,4.940798912752974,71.99861449732019,4.661299779655886e-07,120.000004270781,106.38859400029033,15.288,0,0.0,0.0387407190563976,9.971421990244511e-10,-0.0003185760672934,4.7302669734505256e-08,1.154498667827874e-05,4.010606701382261,34.52805863348922,13.182591392065536,38.299473293007864
0.34,31.222212242662028,131.01039972474007,5.117579377337869,4.019339771238816,0.0007871574969313,29.898022638335373,0.0011220389395318,2.910051232417875,345.46563688075645,13.569536737955724,5.0878303926024735,71.99842423285973,5.519675040347761e-07,120.0000045987411,112.72655675097128,15.288,0,0.0,0.0398782837956187,1.1331556132162459e-09,-0.0003507224668667,5.37022358302301e-08,1.308298593306914e-05,4.019339848191799,33.76700548046532,13.5696603843662,30.039310197084795
0.35,31.22221201433324,131.01040019407705,5.2449575244483055,4.033762873683395,0.000813261106463,32.76415525156106,0.0011515840876071,2.902959820469776,370.5765700527033,13.934300103976534,5.227895396154902,71.99821502296155,6.495674834876441e-07,120.000004945438,118.8669740701126,15.288,0,0.0,0.040950312688979,1.2825853697215452e-09,-0.0003849609961885,6.072234695821837e-08,1.4746020857580124e-05,4.033762955530055,33.07785186209504,13.934427850732408,32.89250745069162
0.36,31.22221177990305,131.01040067594835,5.375631006350063,4.051723629010647,0.0008401329464575,37.01692984301412,0.0011797030485285,2.8957873473716007,407.8625232777193,14.282998147928636,5.362923567977223,71.9979856440668,7.600645476620651e-07,120.00000531213882,124.88900300695136,15.288,0,0.0,0.0419751331662584,1.4462801652534363e-09,-0.0004213876232777,6.84067806399068e-08,1.654507199147348e-05,4.051723715967022,32.44322602189087,14.283130115703262,37.13002398000203
0.37,31.222211539445663,131.01040117020102,5.509550188388412,4.071639898917391,0.0008674922629137,35.12417761390579,0.0012067983861697,2.88849906286036,391.1218908297666,14.620581431527652,5.494447309446232,71.99773482653193,8.846681943540367e-07,120.00000570002652,130.86067091914967,15.288,0,0.0,0.0429672939311924,1.6251202388969355e-09,-0.0004600660652957,7.679415042686734e-08,1.849041957573993e-05,4.071639991174516,31.85023865502424,14.620717696893658,35.24274792557624
0.38,31.222211292895075,131.01040167697127,5.646763233102716,4.08264881385344,0.0008930259828975,36.695642158537446,0.0012360471443664,2.880711738179021,404.8187610144602,14.986392916850402,5.634654729559426,71.99746126698146,1.0246533537040716e-06,120.0000061105033,137.4891296153862,15.288,0,0.0,0.0440424171304414,1.8200057922063743e-09,-0.0005010869196581,8.592980519823866e-08,2.0642694281337543e-05,4.082648911356968,31.228847973200924,14.986533193043764,36.808540518115166
0.39,31.22221104018777,131.0104021963902,5.787316652586672,4.096641430700089,0.0009192713382325,31.335681548387896,0.0012640110027448,2.872831219844713,357.64062493382744,15.337978856701952,5.770390286512262,71.99716358743511,1.1813915463769678e-06,120.00000654506955,144.01394309468844,15.288,0,0.0,0.0450757388736732,2.031886352449547e-09,-0.00054455673306,9.586443829735616e-08,2.295945663566148e-05,4.096641533664766,30.65298398882095,15.338123255506089,31.4670954954126
0.4,31.222210781536543,131.01040272801887,5.931064331106764,4.109028969993624,0.0009451871856381,29.95928076777898,0.0012920492774571,2.8646905607053603,345.465636880754,15.692185018814769,5.906873567965718,71.99684037970908,1.3563276523471372e-06,120.00000700500496,150.74021066990193,15.288,0,0.0,0.0461167659598875,2.2617341782092324e-09,-0.0005905037520737,1.0663253249436129e-07,2.5471259834659164e-05,4.1090290785164525,30.09246700352443,15.692333488470696,30.095929256306363
0.41,31.222210517064383,131.01040327160345,6.077922766619747,4.122888296344507,0.0009714525997821,33.78425365340317,0.0013192264430821,2.85640971467756,378.94687077668647,16.03742529732769,6.0405139809190125,71.99649020751959,1.5509747261474075e-06,120.0000074917568,157.44375780268788,15.288,0,0.0,0.0471314487675864,2.5105374204052982e-09,-0.0006389770219162,1.1827345344180344e-07,2.816813594418537e-05,4.122888410595805,29.56469007160549,16.037577892745222,33.904791300285986
0.42,31.22221024682894,131.0104038270252,6.227854084363214,4.14444025865494,0.0009995884754813,38.04468161607466,0.0013435485656724,2.8482703202464488,416.2328240017114,16.348862540904037,6.163613566771559,71.99611159893284,1.766920641656551e-06,120.00000800692096,163.6157044470786,15.288,0,0.0,0.0480467946810589,2.779304965995011e-09,-0.0006900467934588,1.308321832549104e-07,3.100973487310896e-05,4.144440378988911,29.104646754454564,16.34901955589459,38.15115260238947
0.43,31.222209970843565,131.0104043942566,6.380851271439565,4.1618082623168045,0.0010268052928652,33.45815353250911,0.0013687230309017,2.8397750580998298,375.9031395134336,16.67263197205097,6.290467308135904,71.99570306121484,2.005818691215035e-06,120.00000855220898,170.15779512382937,15.288,0,0.0,0.0489983878509763,3.0690566816849196e-09,-0.0007437862329608,1.443552931671376e-07,3.4086145072160934e-05,4.161808388761201,28.640125213458976,16.672793262249197,33.57845085853367
0.44,31.22220968892116,131.01040497368373,6.537047157143216,4.164954087655709,0.0010505545842624,30.86574023822051,0.0013980747538988,2.830419582421933,353.0750125389216,17.050421620730056,6.433992917638883,71.99526304125902,2.269416145406482e-06,120.00000912964636,177.9537948947602,15.288,0,0.0,0.050108743779844,3.380847125286677e-09,-0.0008003278134917,1.589055036683518e-07,3.750784460406397e-05,4.164954219916419,28.113519280259386,17.050586641458253,30.99524475496968
0.45,31.22220940081287,131.01040556582012,6.696617751072218,4.165241899529329,0.0010735835484822,35.912216710755274,0.0014280646808282,2.820677244966047,397.2093853562869,17.438293672974723,6.580571293039616,71.99478987454265,2.5595995397253085e-06,120.00000974147088,186.13940823302417,15.288,0,0.0,0.0512487363629523,3.7158016249566814e-09,-0.000859850913876,1.745604864109677e-07,4.121350642664912e-05,4.1652420376426775,27.591357195572936,17.43846231108416,36.02281959036367
0.46,31.222209106468902,131.0104061707686,6.859600379555308,4.174585124444534,0.0010989881252456,41.916816790010685,0.0014546917035209,2.811153314474766,449.7140588976434,17.786187321601275,6.714685486378061,71.99428180697711,2.8783880229668832e-06,120.0000103898448,193.6374175079873,15.288,0,0.0,0.0522712438446989,4.0751091178509895e-09,-0.0009224765531151,1.9138630415982226e-07,4.50966024037632e-05,4.1745852688465686,27.13985967570823,17.786359950252297,42.01097612387663
0.47,31.22220880579083,131.01040678873238,7.026066274755745,4.1823089530633855,0.0011240727220223,28.37640408484148,0.0014814747534716,2.801325368441072,331.0078106302534,18.138167428286582,6.849989708801916,71.99373704967608,3.2278903746588286e-06,120.00001107707628,201.37401505997488,15.288,0,0.0,0.0533057667609836,4.459978104761035e-09,-0.0009883252835099,2.094509673354327e-07,4.927107017839778e-05,4.182309103852639,26.69716826759888,18.13834399721685,28.514342615617974
0.48,31.222208499300592,131.0104074186346,7.195654207463586,4.189479568102716,0.0011490100608361,27.95074823096412,0.0015080719422187,2.7912412472910484,327.2031223011574,18.48995085190441,6.98515976370584,71.99315377257649,3.6103201777021456e-06,120.00001180491516,209.25751230436188,15.288,0,0.0,0.0543397174489847,4.8716620260348906e-09,-0.0010573190976925,2.2877013380347535e-07,5.373205427420879e-05,4.189479725385959,26.268461765425428,18.4901313379827,28.089773168283216
0.49,31.222208187201936,131.01040806005494,7.368224738812109,4.202723284133339,0.001175611380853,35.08821363242469,0.0015321405723077,2.781292092003844,389.60000969812296,18.812014261754847,7.111044804193205,71.99253015042137,4.027946338669921e-06,120.0000125755114,216.60722913930897,15.288,0,0.0,0.0552863302793499,5.311396446020465e-09,-0.0011294854492155,2.4938633613154685e-07,5.8398320167141767e-05,4.202723448262914,25.88860807032205,18.81219892635871,35.1982716047702
0.5,31.22220786953184,131.01040871291724,7.5437546994244835,4.220815778795054,0.0012036252596423,36.05491615971072,0.0015540388599792,2.7714444106710974,397.97031042210494,19.10875420627192,7.229005658018125,71.99186435180009,4.483102820610566e-06,120.00001339126192,223.4908652241728,15.288,0,0.0,0.0561585257949344,5.7804122391526605e-09,-0.0012048912160576,2.713531252030471e-07,6.327866493526626e-05,4.220815950099865,25.54902500917784,19.108943271285572,36.161276053538906
0.51,31.222207546379583,131.0104093770373,7.722184419225251,4.232567510615346,0.0012298790840397,27.54004661432325,0.0015777580800203,2.761017323676155,323.3984349720841,19.430597746636646,7.354673636736509,71.99115452520388,4.978202222778502e-06,120.00001425458936,231.07869697977367,15.288,0,0.0,0.0571045034845869,6.2799518101633574e-09,-0.0012835871653678,2.947201005874635e-07,6.854585242460463e-05,4.232567688976395,25.189423168613605,19.430790935591396,27.678103017910345
0.52,31.22220721810416,131.01041005270747,7.903549526567239,4.237867145638857,26.9366097404564,33.968487709835934,-1.7914624943380737,2.750861545803467,372.0984511843415,22.172759515365208,7.484024793679634,71.99038844505836,0.0002229097217074,120.00024376189944,300.89815031649846,15.288,0,10.057166464118891,0.0651635647053004,6.883793379784864e-09,-0.0013955110750104,0.0004154674386645,8.50384088747167e-05,27.24329127447724,47.00989130395846,26.249799478234497,34.126745148139676
0.53,31.222206885433085,131.0104107410949,8.088012827825704,4.245531380748914,26.596333230979088,35.634979215944234,-1.8363899926693643,2.739677200280433,386.5562464348624,22.48134102427242,7.613731420156336,71.98956774568137,0.001436187272204,120.00151990425722,309.3262377957244,15.288,0,10.095875326130288,0.0660705929701205,7.828960586980461e-09,-0.0014807387459977,0.0010248425519116,9.14860871548148e-05,26.90864955406549,46.4750022318409,26.51065779632336,35.78728689196333
0.54,31.222206548312432,131.01041144248475,8.275650202570615,4.253011335290946,26.2661523450418,31.381017362577182,-1.8818625346193527,2.728254284907067,349.2703242098436,22.788785172300347,7.7428017199316255,71.98869724139692,0.0037354126950914,120.00393796182362,317.8387589715137,15.288,0,10.134509818249755,0.0669742848023097,9.139147670358248e-09,-0.0015697022086134,0.0016496899267304,9.830713015849416e-05,26.584077514430465,45.95378025611938,26.77165877555333,31.55555464181684
0.55,31.222206207065835,131.01041215627762,8.466256283062819,4.261506677122416,25.951791353083006,33.22155829106715,-1.9273633886341603,2.7166813499879248,365.2500005919907,23.089847313705928,7.869446833579544,71.987774753156,0.0071472298870566,120.0075259629293,326.28618127195045,15.288,0,10.173021566092842,0.0678592265234371,1.0823076752799076e-08,-0.0016623718685361,0.0022893971018598,0.0001054843103457,26.27539203956549,45.45509651446014,27.028380034358516,33.38812696866945
0.56,31.222205861721086,131.01041288248223,8.659831314112012,4.271873188811237,25.65705562922003,31.05479067670176,-1.9724775421684155,2.7050339487537984,346.2265619465787,23.380448262883995,7.992288947736282,71.98679806353748,0.0116978437520495,120.01231147610052,334.5446995844598,15.288,0,10.211407379643315,0.0687134296731427,1.2889280312669916e-08,-0.001758846417411,0.0029441902823241,0.000113008550714,25.986468772943983,44.9850326310405,27.27730054580753,31.234722670323677
0.57,31.222205512381425,131.01041362095015,8.856322585541438,4.280050785378386,25.36014227989721,30.71693355345945,-2.0189702867128108,2.6929969797615634,343.1828296833023,23.67845859754827,8.11749618943939,71.98576489386157,0.0174134369718881,120.01832204801228,343.12088049630927,15.288,0,10.249648157346748,0.0695894145335578,1.5346269606611652e-08,-0.00185918207916,0.003614021321417,0.0001209755795792,25.695194427155407,44.51103220743945,27.533218230401808,30.900784467053214
0.58,31.222205159049707,131.0104143717394,9.055747195106807,4.2833965581568725,25.047433298769487,40.23124804931444,-2.0681400073208103,2.6803278824350447,426.1250058573153,23.996401001841587,8.24934290329421,71.98467288978549,0.0243204153059973,120.02558546174002,352.3905046776326,15.288,0,10.287741890199689,0.0705239847679934,1.820260183346485e-08,-0.0019634823293575,0.004299136565792,0.0001294753670269,25.38773374045199,44.012357370259366,27.80671677604812,40.37344028260047
0.59,31.22220480132635,131.01041513574063,9.25840337675494,4.291804215827217,24.769541571775203,32.74403221535199,-2.115486863138026,2.667844420988269,360.68438819711065,24.289130879819204,8.372361144184403,71.98351950152635,0.0324468574115783,120.03413126438744,361.0334778143025,15.288,0,10.325745350195785,0.0713844635393691,2.1467323615608164e-08,-0.0020720657974735,0.00500108155381,0.0001382996588441,25.115479538688067,43.56589199252881,28.059855919221054,32.92057600107746
0.6,31.22220443946249,131.0104159125018,9.464135880334254,4.292076397267406,24.45897003250021,29.17825993799078,-2.167216613271822,2.654402668660118,329.4859594986058,24.61798249853137,8.507520543785128,71.98230221134182,0.041821167217882,120.04398933860988,370.8684271635011,15.288,0,10.363620763331475,0.0723511088736621,2.5149648130635857e-08,-0.0021849220072542,0.0057193681083945,0.0001478037353129,24.8098742060804,43.068896303196254,28.344356050857247,29.378793957294928
0.61,31.222204073433605,131.0104167021394,9.672981609797157,4.290834064466201,24.14945474160186,34.07548703304965,-2.2203546527654536,2.6405397786107714,372.0984511843297,24.95293581498443,8.644535766621118,71.98101822867723,0.0524724312178777,120.0551902977152,381.0215459651584,15.288,0,10.401372873092388,0.0733356939193206,2.9258969824157566e-08,-0.0023021857075008,0.006454390078238,0.0001578520787675,24.505175560425176,42.57264843605661,28.634999788101943,34.24968965765993
0.62,31.222203703387454,131.01041750441533,9.884857666987406,4.301261507643505,23.90580463294277,42.204922766495066,-2.268244605542732,2.627512362051758,442.86563930529206,25.229616281766976,8.761567414993811,71.9796648150679,0.0644303324747598,120.06776537404164,389.5100706724265,15.288,0,10.439000008329756,0.0741490241300336,3.380487846383663e-08,-0.0024239268931584,0.0072061497997265,0.0001680388223759,24.26729718336253,42.17737815259523,28.8767241513299,42.34742330448361
0.63,31.222203329155057,131.01041831973868,10.09990011897762,4.30762429996,23.649188397074056,24.228955299371805,-2.318631970625984,2.613865656057436,286.11251274707894,25.523602000628674,8.88432970586567,71.97823904771542,0.07772349619678,120.08174470092683,398.63218472812446,15.288,0,10.476473450656904,0.0750132206051517,3.879652890485444e-08,-0.0025503351984918,0.0079753308623613,0.0001788585590536,24.016107707736627,41.76200047707594,29.133822237338865,24.479596050222778
0.64,31.22220295137712,131.0104191468517,10.317682013667104,4.307683915635115,23.36908210449915,23.79965040118465,-2.3728571909783525,2.599329737034193,282.30782441796754,25.847103411028847,9.016915687223351,71.97673803464366,0.092380766102183,120.09715863518916,408.7926800362071,15.288,0,10.51381244996458,0.0759641697026515,4.4243349260039065e-08,-0.0026811723849744,0.0087601624377989,0.0001904136310102,23.740876022980316,41.309791881651854,29.416976765441987,24.058477207612633
0.65,31.22220257005712,131.0104199858058,10.538218843037852,4.316345589536147,23.13718061211492,41.544720374189886,-2.423040925829433,2.58541815109302,436.7781447787475,26.12517514079265,9.134011830921375,71.97515879694716,0.1084302896714088,120.11403680783953,417.62700517849,15.288,0,10.550903991102423,0.0767816085215353,5.01543361852888e-08,-0.0028165722788764,0.009561032317762,0.0002021772712498,23.5145847868162,40.93259169780341,29.661580495414185,41.69555498268219
0.66,31.22220218468475,131.0104208377064,10.761882331880644,4.322484115238713,22.89957561491683,35.438574386960084,-2.4750682128140653,2.5710013894364163,383.51251517160017,26.413555134917832,9.254449627652464,71.97349825534157,0.1259004743699257,120.13240912687884,426.8885862061353,15.288,0,10.587894879252676,0.07762935010011,5.65383671763304e-08,-0.0029569392310432,0.0103798080706212,0.000214591319509,23.28236379918024,40.54646058059828,29.91560927778908,35.61781247329305
0.67,31.222201795478988,131.01042170216283,10.988538650342637,4.323034739006609,22.641878904595966,24.607236668641736,-2.5307613821103967,2.555708285349718,289.1562440103425,26.728827672732308,9.383791271704942,71.97175313009483,0.1448216388432349,120.15230751237225,437.1305854926289,15.288,0,10.624758423545668,0.0785561359050232,6.340521586740756e-08,-0.0031022704657991,0.0112160644909667,0.0002278206091364,23.029542834464326,40.12868416257527,30.193557827193843,24.868705122694525
0.68,31.222201402640632,131.0104225788211,11.218066405654096,4.324727557211364,22.395679983643216,30.561352422627493,-2.586427114171348,2.5402566496315115,340.8999924858462,27.036324388660663,9.510374917941688,71.96992001176127,0.1652239907438495,120.17376377384944,447.2363531503684,15.288,0,10.661388724093188,0.0794600757928701,7.076460414591853e-08,-0.0032525844044821,0.0120695065037638,0.0002416017585396,22.78830888747399,39.72895502440773,30.4653303815318,30.77561974945358
0.69,31.22220100627568,131.01042346751927,11.450409348192968,4.331105315958792,22.177127671736606,37.4809855357701,-2.639912386290651,2.525086719588816,401.0140726853634,27.316634972620868,9.627704201885036,71.9679955041855,0.187137247015122,120.1968092033952,456.54806792937165,15.288,0,10.697881595754431,0.0802841223436046,7.862604470937104e-08,-0.0034079372740013,0.0129400503202385,0.0002557602038144,22.57513760709513,39.37286763555037,30.71387533665064,37.65859101295934
0.7,31.2222006062608,131.0104243685626,11.685669282954285,4.336783041311255,21.960761874352336,31.54009383643487,-2.6943008441282648,2.509582597654344,349.27032420985284,27.598156711030875,9.745321967950472,71.96597609032855,0.2105907576572677,120.22147471421331,465.9962823546385,15.288,0,10.734232135931716,0.0811117355000935,8.699878144620582e-08,-0.003568529740488,0.0138283771190254,0.0002705663375498,22.364083941579068,39.02039972838276,30.96390055431977,31.754287601271056
0.71,31.222200202673108,131.0104252818456,11.923809240804898,4.338723629102794,21.732505199961505,26.03334452341082,-2.751490936105309,2.493346751607937,301.33126406340574,27.89776038750988,9.868873670691906,71.96385808032561,0.2356145647166353,120.24779195296956,476.15795822976327,15.288,0,10.77034651374077,0.0819924991648458,9.589240256120885e-08,-0.0037344344149453,0.0147344746248314,0.0002862125090823,22.14078635637548,38.64928326118514,31.230224729719875,26.296815538574773
0.72,31.222199795535094,131.01042620737465,12.164830111960852,4.336275641225468,21.489854335299903,31.731633815376604,-2.812080717969552,2.476247539034229,350.79220534145287,28.21992287324517,9.9998130136185,71.9616377371568,0.2622392756059243,120.27579315922851,487.20749512084507,15.288,0,10.806323377633811,0.0829395715706641,1.0531662981489965e-07,-0.0039057763400911,0.0156586049594541,0.0003027942163074,21.902663984387623,38.25517306948579,31.51695107671504,31.95209201964875
0.73,31.22219938486428,131.01042714516757,12.408736621026824,4.342814358425454,21.292726068916068,39.972895115887965,-2.867575428270245,2.4600419319459363,422.320318528234,28.48943502284396,10.113071514772296,71.95931100888393,0.2904965851824059,120.30551172953652,496.54637676150566,15.288,0,10.842169455835233,0.0837319098220068,1.1528152819274097e-07,-0.0040826983681729,0.0166011150929509,0.0003195253671106,21.710908738027204,37.93392357041764,31.75763153301086,40.151054022149054
0.74,31.222198970611863,131.01042809537182,12.655577684575231,4.345879406295573,21.08468513676827,25.262740814431133,-2.925805945807867,2.4431046560407803,294.48281347105944,28.776049127432817,10.231924318162427,71.95687386222191,0.320416999661094,120.33697981178416,506.57549977199056,15.288,0,10.87780138283172,0.0845745188953311,1.2579673670637102e-07,-0.0042653419316064,0.0175623257814257,0.0003371700064885,21.507904193720023,37.59555126392937,32.01377592224291,25.548682436674056
0.75,31.2221985531804,131.0104290572148,12.905091089462044,4.346578411376174,20.870835854127577,29.38736340406475,-2.98619896268196,2.4255463768325383,330.24688556441487,29.07407121949264,10.354457062687304,71.95432221866453,0.3520312058656229,120.37022974310592,517.1102458445315,15.288,0,10.91323916361818,0.0854506640854176,1.3687234334439394e-07,-0.0044535486935714,0.0185410483495108,0.0003556850117555,21.29885244514697,37.24805251152504,32.28043311975116,29.638113761058623
0.76,31.222198132469263,131.01043003094756,13.15736099608392,4.350189729141324,20.67425827437905,31.58529631542004,-3.045201416642111,2.408117771602889,349.27032420986166,29.352805801340963,10.470474089530168,71.95165177786049,0.3853696125684876,120.40529358203916,527.060129434863,15.288,0,10.948520359220648,0.0862701294337425,1.4851785717220965e-07,-0.004647537380227,0.0195380005410326,0.0003747274445095,21.107350959899904,36.92861824590744,32.530296605718775,31.82299838485864
0.77,31.222197708433807,131.01043101670527,13.412432455732027,4.354214763638904,20.483709923829007,29.57480233836836,-3.1044514071839133,2.390474329098416,331.7687666960708,29.626487405502505,10.584714532057896,71.9488580941312,0.4204629098312402,120.44220368888104,536.9212722498967,15.288,0,10.983648485154184,0.0870747510715437,1.607429405426317e-07,-0.0048474763613625,0.0205536280442416,0.0003944829287896,20.921915540706497,36.61924449888772,32.77595691598115,29.833218388420708
0.78,31.22219728115956,131.01043201435692,13.670260627552352,4.354956707300046,20.283038061553185,24.40499945376961,-3.1665572445141894,2.3720452191772705,286.8734378128899,29.91725008749749,10.704516779387804,71.94593668858467,0.4573418239854108,120.4809924618053,547.4984252269276,15.288,0,11.018531542256978,0.08792958295215,1.735574318755506e-07,-0.005053421428802,0.0215878146531032,0.0004152683066455,20.726022896538943,36.2938729811553,33.03717192698062,24.723625980893296
0.79,31.22219685075733,131.0104330237203,13.93078338149756,4.3536841726608015,20.07794143930844,34.41241421456978,-3.2307683785515326,2.352985718898851,373.6203323159534,30.21804951417109,10.827525287893597,71.94288284720037,0.496037411050027,120.5216926573962,558.549313120599,15.288,0,11.053241646090328,0.088813921519529,1.8697131689201105e-07,-0.0052654245131628,0.0226404306053464,0.000437029296755,20.525489414462108,35.96153059637405,33.30773262110078,34.643739090697395
0.8,31.222196417005264,131.0104340452866,14.194166581623996,4.357655544292257,19.899023393997247,34.85778793030918,-3.2917285866699606,2.3344656922956104,377.42502064505743,30.484359921106005,10.939036011965957,71.93969167672128,0.5365815539594727,120.56433790820452,568.4232604634356,15.288,0,11.087809648572668,0.0895969011424899,2.0099435311831908e-07,-0.0054838305349474,0.0237127413669527,0.0004591566230056,20.35166593710624,35.67215600615872,33.5476316277609,35.09060538878196
0.81,31.22219598002856,131.0104350788415,14.460337446376164,4.357683106853901,19.707290971859024,22.923522718730165,-3.356199145660363,2.3150028727778342,273.9374926939919,30.77243608894324,11.057629681046636,71.93635815931451,0.5790058342161062,120.60896153691368,579.2023773236259,15.288,0,11.122217647605332,0.0904438604299549,2.1563679320610445e-07,-0.005708651386274,0.0248044043400448,0.0004824852561741,20.1646127436302,35.36219508378682,33.807371621735975,23.283281659646672
0.82,31.222195540045327,131.0104361239834,14.729159798544115,4.355888873358222,19.51170581374059,29.24972992881118,-3.4227287508704287,2.294903219740886,328.72500443277005,31.069694892867247,11.179145286292703,71.93287713190834,0.6233417645923919,120.6555968017774,590.4312616109453,15.288,0,11.156425046854231,0.0913178164809128,2.309089963567582e-07,-0.0059398448950247,0.0259148366113734,0.0005068617596344,19.9735064385031,35.046233837470496,34.075689840514954,29.538590924389144
0.83,31.222195097051923,131.01043718075746,15.000648858783972,4.360536923668155,19.34618053490778,36.98472631102249,-3.4847914695516247,2.275621659558936,395.68750322465047,31.32363768880631,11.286314459907622,71.92924326560461,0.6696210081479819,120.70427712776912,600.1066341395792,15.288,0,11.190421723744388,0.0920644689173472,2.468209826367697e-07,-0.0061775778664173,0.0270444348291638,0.0005314428041541,19.8131407930907,34.78009255405808,34.30511260862215,37.21817037180835
0.84,31.222194650945625,131.01043824940254,15.274885808262288,4.363492560662523,19.17695711072871,23.1065781589514,-3.5486741718425985,2.255760849901971,275.4593748256452,31.585409266063625,11.395975232650468,71.92545109482103,0.7178743853812655,120.7550350651662,610.1626552833804,15.288,0,11.224256716479216,0.0928341387399298,2.6338242252968604e-07,-0.0064220574186068,0.0281937608982859,0.0005570771765031,19.648896373018896,34.50833583399572,34.54179061239799,23.48607033127473
0.85,31.222194202059484,131.01043932928215,15.551655195790412,4.360581624589518,18.987198777862687,25.130245033434235,-3.617930231228081,2.234503148457013,292.96093233939376,31.8825553581984,11.517161693524404,71.92149512681723,0.7681324720901426,120.80790290803884,621.6805890271248,15.288,0,11.257902741965236,0.0937077872000175,2.806037522243125e-07,-0.0066731070139687,0.0293616269996012,0.0005842844675929,19.463476581063944,34.20304910499138,34.810767415786934,25.487480042541364
0.86,31.222193750216448,131.01044042078397,15.831088725025989,4.361480522928884,18.81612128185285,31.28720849104165,-3.6846682605782974,2.213633096166932,346.2265619465587,32.15243636054305,11.629304055308136,71.91736950491031,0.8204269059423167,120.86291408522436,632.2330319459817,15.288,0,11.291382641211818,0.0945013073697552,2.98494663835402e-07,-0.0069310648999237,0.0305491871339417,0.0006119914114617,19.297146284217146,33.92902941538725,35.05522472639352,31.581107751896027
0.87,31.222193295454147,131.01044152386203,16.113171306911628,4.3640139789880505,18.654609579411908,29.179958180369937,-3.750555495024508,2.192777750312808,327.964078366998,32.40869274967887,11.736896593603182,71.91306826629108,0.8747889089083897,120.92010159602044,642.3336433897161,15.288,0,11.324694540370244,0.0952547902821003,3.17065253219058e-07,-0.0071960359583151,0.0317565207124992,0.0006404342471472,19.140560981156888,33.67133870180097,35.28745523558753,29.501608433976337
0.88,31.22219283782199,131.01044263844463,16.397879260992166,4.363469061752988,18.4837978368918,25.311834340991645,-3.8196381008121327,2.171000863856247,294.4828134710418,32.68262893225883,11.850195365948736,71.90858529268404,0.9312493927591992,120.97949812429437,653.2203920722974,15.288,0,11.357816317395688,0.0960602449934998,3.36325661262102e-07,-0.0074680856441245,0.0329835298700473,0.0006702458096252,18.974331484936865,33.39865672396279,35.53595721376625,25.690306297859593
0.89,31.222192377419663,131.01044376435988,16.68515496380428,4.3599131729074365,18.304091629087207,27.68914713235216,-3.8920009765963153,2.148266868559108,315.028134248087,32.97438935077898,11.969233285476216,71.90391427199683,0.9898393759563812,121.04113647756564,664.9168043311228,15.288,0,11.390725027127711,0.0969180965578053,3.562861245236895e-07,-0.0077472744253998,0.0342300973530137,0.000701490112485,18.798863028022115,33.11156291952864,35.80093165404155,28.043744241049936
0.9,31.222191914174903,131.0104449017778,16.975056895875813,4.3629310404052815,18.15293890777025,30.507556353261258,-3.959065440648864,2.126580433480675,339.37814235421445,33.21870149318233,12.072677700529372,71.89904863541008,1.0505906773829663,121.10505031770568,674.7874520113404,15.288,0,11.423470225557612,0.0976364964812781,3.7695669264168333e-07,-0.0080338402728403,0.0354968732509293,0.0007328069942588,18.652691347700387,32.872628013718014,36.02269229683395,30.836788713334183
0.91,31.22219144817336,131.01044605054943,17.267535487267125,4.3629132687424415,17.992634689595985,23.37779952139624,-4.029392652465257,2.1039397477577,277.7421810230789,33.48081538906981,12.181857131916612,71.89398174074924,1.1135335910866724,121.17127171495376,685.4591013521853,15.288,0,11.45604207828812,0.0984072270992776,3.983475318407945e-07,-0.0083278184237048,0.0367836166907538,0.000765594553685,18.49702167424645,32.61887080959986,36.26086799990192,23.8156267621184
0.92,31.222190979645752,131.0104472102408,17.562444343758024,4.359949230211898,17.823673183755524,27.69314792804093,-4.103048504994037,2.080313733242548,315.02813424806214,33.760713897754854,12.296752741746326,71.88870674106039,1.1786984468469508,121.23983279028052,696.9480981013311,15.288,0,11.488425109471889,0.0992302384529804,4.204693124005594e-07,-0.0086290928212178,0.0380894554411164,0.0007999006011299,18.33235047717061,32.35100207171032,36.515511972048415,28.07264067428301
0.93,31.222190508500187,131.01044838105307,17.859853007700625,4.362984806620422,17.680178811551585,32.80336161239757,-4.17155148166394,2.0577190035056527,359.1625070654728,33.99568449483889,12.396925731774374,71.88321658435989,1.2461155397110473,121.31076564241658,706.6630266873203,15.288,0,11.520635716892428,0.0999212045505618,4.433315582710954e-07,-0.0089379427707739,0.0394151952093627,0.0008342730519489,18.193846994552626,32.12648696118934,36.72901576320433,33.131504377786406
0.94,31.222190034620656,131.01044956322778,18.15984514198505,4.360088370437964,17.516634915290965,23.993162443136576,-4.24626044916766,2.033441925319263,283.0687504837787,34.26952401814303,12.509677693581592,71.87750407953129,1.3158142940047584,121.38410146862608,718.0727087311035,15.288,0,11.552673361605647,0.1007264233990005,4.669438181957664e-07,-0.0092545833299982,0.0407613462159849,0.0008707616342739,18.034595734176463,31.868650839979537,36.97836816806246,24.450714874795608
0.95,31.22218955833488,131.01045075614118,18.46220984484536,4.357744108489977,17.357668326123665,30.867505381392466,-4.3210263511064575,2.008944387793989,342.4218736174873,34.53678234823506,12.620203291048924,71.87156173229683,1.3878250921693551,121.45987248918432,729.2952950372202,15.288,0,11.584525106218123,0.1015123066326121,4.91317226670858e-07,-0.0095788253940022,0.0421267438362854,0.0009082718655883,17.879983951603503,31.61898139763588,37.22180357713482,31.23315569631891
0.96,31.222189079322447,131.01045196043185,18.767166090412328,4.358285376350306,17.21184504671759,30.25094206409747,-4.393446680931655,1.9848127910255,337.09533515678345,34.78021185429573,12.72290165737638,71.8653818697546,1.462177759350115,121.538110354812,739.5906132037902,15.288,0,11.61621561585202,0.1022281590615258,5.164605688584418e-07,-0.0099111817769614,0.0435131129730009,0.000946382444955,17.73886142031933,31.392094912403927,37.443361653617714,30.63268436358442
0.97,31.22218859760964,131.0104531760592,19.07470182552084,4.357052144392804,17.06168803949747,19.579868879147885,-4.468178251114655,1.9599148603445464,245.02188719299323,35.03336023400259,12.82868022802132,71.8589565476778,1.538902531509775,121.61884716512508,750.3738766620315,15.288,0,11.64774167026882,0.1029725858306849,5.423841836915762e-07,-0.0102517623418688,0.0449204987100404,0.0009859990760573,17.59319228097454,31.15837400233517,37.673970580123886,20.178630985975172
0.98,31.222188113521945,131.01045440240276,19.38460743413121,4.350191294734144,16.893152634054164,28.221890040590363,-4.5493912594538495,1.9332105177183527,319.5937466429581,35.32517534675374,12.94692285974915,71.8522776296203,1.6180290849655532,121.70211444835012,762.903913112849,15.288,0,11.679081960495544,0.1038306729964725,5.690996237371713e-07,-0.0106003037498673,0.0463474497598708,0.0010279829063448,17.42845348873109,30.893763906573813,37.94046593924904,28.651515513155417
0.99,31.22218762689844,131.0104556397854,19.696994730863448,4.352270483919944,16.759505908594157,30.7796039737126,-4.621670857620727,1.9084958808728207,341.6609485517054,35.54772510273636,13.04262037506888,71.84533668728118,1.6995875623755827,121.78794424262487,772.5236534699497,15.288,0,11.71026000164274,0.1044851779213072,5.966162297771017e-07,-0.0109572086876795,0.047795197513728,0.0010692566813801,17.29970358558752,30.689220535256204,38.14292131107701,31.183107908322317
1.0,31.222187137738374,131.01045688821068,20.01186722288791,4.348871986022036,16.60802235547671,27.60128752450684,-4.700329709458914,1.881988290951068,314.2672081822764,35.8079403638095,13.150451116724987,71.83812523733077,1.7836059380190414,121.87636632349692,783.8513465367982,15.288,0,11.741266318640832,0.1052504007570619,6.249440423342817e-07,-0.011322552380912,0.0492636398092584,0.00111296311756,17.152440407970836,30.4546957243065,38.380343274146576,28.061825534262663
1.01,31.222186646246367,131.01045814729207,20.329095094878447,4.346166924486405,16.46112504989408,28.83518586764532,-4.778755936728799,1.85531815099088,324.9203161036979,36.0599325227467,13.255539810881611,71.83063443561875,1.8701132542433567,121.9674116106522,794.8983814020853,15.288,0,11.772096448903635,0.1059914615709308,6.5409401915948e-07,-0.0116962571569309,0.0507520829751193,0.0011577523681255,17.009850409660267,30.22852360668337,38.61021504004113,29.287312231849977
1.02,31.22218615233739,131.01045941719437,20.648736973959885,4.344644423536645,16.320436541602135,24.1525437781192,-4.856334368835965,1.8286409741718763,284.59063161540416,36.29970052072166,13.356597389186264,71.82285528124648,1.9591373685158275,122.06110979834628,805.4795970672313,15.288,0,11.802754883656863,0.1066965998228627,6.840756438267252e-07,-0.0120785668873944,0.0522610901947286,0.0012035079891362,16.873621335431405,30.01356141207865,38.82878187308469,24.70370988876614
1.03,31.222185656087607,131.01046069777124,20.970745363296565,4.3393281468065314,16.168261401789113,19.82031291131706,-4.938755085864396,1.800515940837048,247.30469339049705,36.56553029521872,13.466003975749956,71.81477857268672,2.050705373298285,122.15748979764984,817.2948841912747,15.288,0,11.833239868080076,0.1074783503280307,7.148991612042947e-07,-0.0124695038896556,0.0537903540946706,0.0012515210139561,16.725422967023622,29.779284838391064,39.07166233255411,20.505559327993996
1.04,31.222185157566777,131.0104619888915,21.29507790681092,4.337266984805175,16.029500512017048,31.213137522065782,-5.017928468899882,1.7729854405216303,345.46563688072297,36.80301236306902,13.566171897564985,71.80639475168581,2.144845119613319,122.25658134122776,827.9197335596701,15.288,0,11.863557831170167,0.1081767856380339,7.465748640745618e-07,-0.0128691541067411,0.0553398187314243,0.0012999807907339,16.591057989243538,29.56868740464835,39.28820265541849,31.663591670287317
1.05,31.222184656451685,131.01046329116036,21.62194439422132,4.332109664259442,15.881803516830749,19.01384911695548,-5.101253504913438,1.744165324353858,240.45625879819983,37.061425722132185,13.673018620274917,71.79769407583771,2.241583378747181,122.35841304987528,839.5607149746531,15.288,0,11.893724476632803,0.1089367537081202,7.79110997915192e-07,-0.013278071941301,0.0569111876415389,0.001350663210405,16.447356716731075,29.3431220922464,39.52430962386909,19.7633842810997
1.06,31.222184153007912,131.01046460407306,21.951174917042668,4.324302989623384,15.72685375541034,26.875477922585453,-5.188408919064496,1.7141184047285711,308.17968365593924,37.3379118025986,13.785611143847955,71.78866638964273,2.340948041249741,122.46301474737844,852.1070954942217,15.288,0,11.923720985655825,0.1097498526861629,8.125194837943652e-07,-0.0136960423328579,0.0585032416045951,0.0014035287484039,16.296053222541413,29.105391746661848,39.77737635392391,27.42533687275756
1.07,31.222183647103016,131.0104659278748,22.28285617225836,4.322012844428228,15.592790773722683,31.557525926852435,-5.269321976261683,1.6854403784586012,348.5093681440308,37.56716436027224,13.882890019446554,71.77930119931885,2.442967245408488,122.57041654545516,862.575512134014,15.288,0,11.953567992520442,0.1104241235531078,8.468098207308206e-07,-0.0141234539584319,0.0601170317820774,0.0014561687111115,16.166362969951585,28.904543486260398,39.98635201958066,32.03878752360671
1.08,31.22218313861768,131.0104672627763,22.61706363979197,4.318329621983335,15.455653535840367,21.381826595821973,-5.35240654222235,1.6559628094627064,261.00157857466235,37.80400415455112,13.982538686885915,71.76958785246275,2.547667554985054,122.68064692612056,873.4578612541595,15.288,0,11.983267283152392,0.1111207044820217,8.819917554934103e-07,-0.0145605771117489,0.061753134266367,0.0015106533258703,16.03341837197169,28.69890387913433,40.2024362407902,22.103686959268767
1.09,31.222182627859848,131.0104686081931,22.953600123573715,4.308352986070684,15.298911505457529,19.693543407891298,-5.444069753555321,1.6239952770368535,246.54375332474407,38.08892282790208,14.097587585126348,71.75951540137487,2.655075225348292,122.7937340752536,886.644851161352,15.288,0,12.012801391521128,0.1119586167092341,9.18077784214078e-07,-0.0150070885192574,0.0634099435398159,0.0015686625076775,15.880024647187104,28.459387164165257,40.46361535682301,20.496607233879285
1.1,31.22218211491264,131.01046996396263,23.29241296541481,4.301351596918436,15.154056004273995,39.06729682211044,-5.532517564008302,1.592607801377669,413.1890617385841,38.346596294248286,14.20377941587702,71.74907259866963,2.7652161613830977,122.90970584015484,898.6525764927414,15.288,0,12.042175956104035,0.1127164533057552,9.550784440921103e-07,-0.0154630663740437,0.0650873468120591,0.0016272065710367,15.73891459487253,28.241148924903264,40.699333749414,39.48922424145542
1.11,31.22218159931043,131.01047133092897,23.633795442827527,4.300487064447606,15.031392560642464,28.706686042553617,-5.613237687265652,1.5630088812281433,324.1593910376397,38.54964965691732,14.292325756045283,71.73824785371141,2.878116237432873,123.02859006804772,908.1651059528542,15.288,0,12.071418666616594,0.1133137473713717,9.93000867887846e-07,-0.0159293690848631,0.0667880266589076,0.0016850974349659,15.620836725390982,28.06257404444397,40.88378382061486,29.292068169425665
1.12,31.222181081114275,131.01047270895506,23.97770445859997,4.287636790640771,14.870474518981384,11.079353700511817,-5.71064268165992,1.5287284271978447,172.73281794065943,38.8494432630338,14.411885488754628,71.7270293984751,2.993799702088127,123.15041292657044,922.3148318580296,15.288,0,12.100516802940652,0.1141954109402593,1.0318562877793245e-06,-0.0164059783881948,0.0685114626830356,0.0017489548377973,15.462860130396328,27.81697061119541,41.15915618540051,12.557887117774378
1.13,31.222180561000727,131.01047409679632,24.323715275515543,4.281022341273033,14.731916087498815,33.74188389208761,-5.800112187904376,1.4962837140448164,367.5328077900705,39.093803545951936,14.513550002220336,71.71540481400216,3.112293352651176,123.27520330109849,933.9228727556304,15.288,0,12.129451174746087,0.1149141408004702,1.071660309193083e-06,-0.0168920825830104,0.070254359582406,0.0018120423703905,15.328101289377996,27.61133744700604,41.38247396115879,34.26944550080018
1.14,31.222180038194946,131.01047549583805,24.672308558389364,4.278729246344902,14.609042445379584,18.852423740019187,-5.8838854279127535,1.465105177794639,239.69531773195544,39.2973438897692,14.602031492098456,71.7033618103919,3.233619482194965,123.40298537065252,943.641456050542,15.288,0,12.158259688971391,0.1155128911494454,1.1124169009558204e-06,-0.0173890211396777,0.0720210185119984,0.001874998898573,15.20963604432678,27.43416577649044,41.56734260432007,19.803548211975645
1.15,31.222179513247752,131.0104769050543,25.023135309830646,4.264302941214792,14.44815646501606,18.575674523177977,-5.985441499223582,1.4288641160172808,237.41251153546767,39.60188696046881,14.722842635856004,71.69088781427826,3.357799568404353,123.53378249079296,958.2917327687024,15.288,0,12.186907676708248,0.1164085435847653,1.1541411034032192e-06,-0.017895968594875,0.0738081019171759,0.0019445501024342,15.051454491220984,27.189787609183146,41.84742190383547,19.568414514050776
1.16,31.22217898631388,131.01047832415367,25.376098577706845,4.262728103441404,14.33043804533165,47.99322275143136,-6.068818652387677,1.3972591421904297,490.0437743845894,39.791496396041374,14.806713257443509,71.67796959217927,3.4848574075115306,123.66762049785189,967.4572873045684,15.288,0,12.215407140319291,0.1169663606678506,1.1968438555213143e-06,-0.0184129545884889,0.0756153153786073,0.0020102361454659,14.93826211152332,27.02296383586197,42.01912025173028,48.395581647651596
1.17,31.22217845636049,131.0104797549484,25.731828237459023,4.25466910335703,14.193238386978276,8.801119512186574,-6.162031801483368,1.3627122688041806,153.70937929486794,40.0335059113708,14.90730209005604,71.6645940124991,3.614812512359868,123.80452075723144,979.227647434295,15.288,0,12.243795215772108,0.117678215540107,1.2405268476873553e-06,-0.0189417342236541,0.0774482428839707,0.0020804718666552,14.804671177990809,26.82192386214489,42.24024270966999,10.82992729974828
1.18,31.22217792472117,131.01048119503264,26.08949820865463,4.238043445741408,14.030261491115036,23.50761758051055,-6.268780177181816,1.3241618802822932,280.02501822196746,40.34851724003986,15.031192814286232,71.65074737321437,3.7476857706562665,123.94450612150456,994.6645844717112,15.288,0,12.272011291315737,0.1186046679170498,1.2852125543959646e-06,-0.0194801586012165,0.0792990897215163,0.002156371735266,14.64406623031416,26.574927449221693,42.53042626225323,24.365120436939137
1.19,31.2221773907796,131.01048264548072,26.449483478331047,4.239613690497541,13.9264357386207,40.794652364014695,-6.347993995871208,1.2928848620190811,428.4078130529292,40.4972473719758,15.1017590977462,71.63641551681508,3.8834983240487895,124.0875997556868,1001.976388898556,15.288,0,12.300104215446074,0.1190423445044594,1.33090438826722e-06,-0.020029608755241,0.0811721399868297,0.0022252894849775,14.545254798531422,26.435033847267714,42.66333043982792,41.30583785058554
1.2,31.22217685398828,131.01048410720765,26.812105935321416,4.226139971936596,13.776473424989431,4.496813040016558,-6.45088914521098,1.2547873786190746,117.1843741360236,40.7769125523397,15.214156089664618,71.62158450831284,4.022266024888865,124.23381929619914,1015.8276492636808,15.288,0,12.328065872164997,0.1198649155734887,1.3776083644360816e-06,-0.0205909644428221,0.0830698608574887,0.0023033739194559,14.398119056307474,26.212464000080907,42.920124618495024,7.963026412502067
1.21,31.2221763157018,131.0104855778119,27.17653884821237,4.213226678437758,13.62972597643128,32.79192433149044,-6.553474241282485,1.216451777403026,359.92343213200894,41.048716833018176,15.323957504806378,71.6062394880258,4.164008655678097,124.3831865645598,1029.3790321264623,15.288,0,12.355823097979682,0.1206643884056827,1.425347731741836e-06,-0.0211620324653498,0.0849845017173776,0.0023829513449044,14.254279346879663,25.996092091938223,43.169533987602506,33.46248766783628
1.22,31.222175774861867,131.01048705910628,27.543414723981424,4.212798096318625,13.523040546673016,23.815365542066942,-6.636029678692837,1.1834064768534251,283.0687504825761,41.20160258964454,15.395657805932256,71.59036563419276,4.308742114770343,124.53571933927526,1037.024598099518,15.288,0,12.383467406066863,0.121114303833949,1.4741206641286791e-06,-0.021744945439954,0.0869227007154725,0.0024576234271237,14.15236354235159,25.853194308240436,43.30612989618171,24.7509389051854
1.23,31.222175231864338,131.01048855035157,27.9124830259597,4.198266439669905,13.37403089373696,9.416689979771764,-6.741970153561796,1.1435080268801725,159.79687382222795,41.48061703865444,15.507598645206812,71.57394817436672,4.456478446089196,124.69143138382104,1051.0802096912512,15.288,0,12.410967005975651,0.1219349895469037,1.5239418842246592e-06,-0.022338921377405,0.0888814050730087,0.0025417622037924,14.006025561430786,25.6337206453806,43.562379791445366,11.637689733542109
