Time,Latitude,Longitude,Altitude,Angle of Attack,Angle of Sideslip,X-Acceleration,Y-Acceleration,Z-Acceleration,Thrust,True Velocity,Ground Velocity,Pitch,Roll,Yaw,Dynamic Pressure,cp,parachute_deploy_gain,Wind Speed,Mach,omega_x,omega_y,omega_z,Cmq
0,31.2221860000000042,131.010383999999988,3.00000000364323682,0,0,0,0,0,2.2828121974499247,0,0,69.9999999962342088,0,113.699999993883324,0,15.2880000000000003,0,0,0,0,0,0,-0
0.01,31.2221859999997946,131.010384000000556,3.00000016469923247,0,0,0,0,0,34.2421869617492334,9.11367326775851009e-12,8.66229497295429822e-12,69.9999999962370651,-4.92863947922479589e-13,113.699999993882884,5.08594204168408172e-23,15.2880000000000003,0,0,2.67827100510624443e-14,-3.65918233213857746e-19,7.58941520739853104e-19,4.81114714040442593e-19,-1.83541113936281872e-32
0.02,31.2221859999996028,131.010384000001039,3.00000030885429547,0,0,0,0,0,25.8718762377664078,1.96992978605390895e-11,1.88456988716431921e-11,69.9999999962400494,-1.04152381447771591e-12,113.699999993882386,2.37621641206600858e-22,15.2880000000000003,0,0,5.78911013494094702e-14,-7.28448334638698292e-19,1.51788304147970621e-18,9.75781955236953991e-19,-7.93451985123442364e-32
0.03,31.222185999409362,131.010384001586402,3.00018176030779937,18.6493779029494604,-0.000129237623237530007,10.7928899806483045,-1.97644583900689674e-05,3.34983967390763571,180.342193598546658,0.0785672533977095078,0.0490694047558625918,69.9999999976775626,-4.2497891361524094e-12,113.699999994705607,0.00377978965327356543,15.2880000000000003,0,0,0.000230888677896110966,2.88330015245363835e-17,-7.25223402354589416e-10,1.08188208080271277e-11,1.51197624781400831e-13
0.04,31.2221859959356287,131.010384010943454,3.00162780953569674,9.74253989061216075,-4.88763086122285772e-05,51.6475445943311158,1.54548216767323456e-06,3.34965665682309899,548.635972453807767,0.346420694310776434,0.171860503977579737,70.0000000036447574,-2.28205307288861013e-11,113.699999999565534,0.0734838809649275282,15.2880000000000003,0,0,0.00101804013696402693,1.80009747884589399e-15,-1.58734069119923437e-08,2.61929145365345784e-11,1.45916869803439425e-11
0.05,31.222185985910329,131.010384038045004,3.00715844163023283,5.5769968489095687,-4.21135943534799539e-06,75.3242160169835273,4.73080294831520123e-05,3.34902689347595528,761.698429882464552,0.947854334293939504,0.409211128642743283,70.0000000010935537,-1.04766136577077691e-10,113.700000013612069,0.55013262299765131,15.2880000000000003,0,0,0.00278549703395658196,1.95473045844392346e-14,-1.13584749331540247e-07,4.14067569904437612e-11,2.85688606727574374e-10
0.06,31.222185966868647,131.010384089593572,3.01868664272593046,4.48500474963244322,2.31139019787050305e-05,56.3605563030587007,9.71465785775115924e-05,3.34799244711343214,590.487539073720654,1.60618980149218604,0.665693519146445256,69.9999999197690244,-2.82941102348924619e-10,113.700000040305838,1.57971028663545732,15.2880000000000003,0,0,0.00472017413217633904,1.01936766184118274e-13,-4.07864410983111553e-07,5.76522069423461223e-11,1.73837509686130208e-09
0.07,31.2221859390775336,131.010384164863126,3.03600551209402658,4.00448286551149391,4.63712119495135773e-05,85.8192455386477917,0.000147926970097503541,3.34656708333141317,855.293774977913927,2.27788210706903049,0.926660947343454056,69.9999996219982279,-5.49831570978999292e-10,113.700000079276109,3.1772067926123353,15.2880000000000003,0,0,0.00669410445039518576,3.35900025920073467e-13,-9.92070622953462368e-07,7.83315922772719921e-11,5.99658406989250883e-09
0.08,31.2221859009658012,131.01038426812616,3.06033476575187802,3.77263127792190334,7.06371256062416025e-05,17.6076228145981588,0.000196957592070898702,3.34480227118667583,241.217198863884818,2.92612482887636283,1.17954495655796454,69.9999989088305909,-9.15694670892462832e-10,113.700000132739973,5.24285298735243899,15.2880000000000003,0,0,0.00859912396431777512,8.49635706706491564e-13,-2.01744800413265681e-06,1.10032289818440005e-10,1.56647792516492608e-08
0.09,31.2221858556197738,131.010384390989856,3.0892797608365723,3.74258231141200604,9.5325675231994802e-05,53.4176180048964397,0.000237730218002333866,3.34289666486112669,563.093737704317618,3.46187703891102627,1.39384941462988121,69.9999975134546446,-1.31671842773002699e-09,113.70000019638816,7.33844512707370811,15.2880000000000003,0,0,0.0101735644468633635,1.80613395740032365e-12,-3.4856561047658452e-06,1.59232278560273843e-10,3.20202005890100843e-08
0.1,31.2221858028175774,131.010384534057465,3.12301320909491364,3.81071421019783685,0.000121971080758598364,50.732831688561788,0.000271545837515448313,3.34090447591365036,538.7437595981919,3.9029133825176725,1.57567038389986336,69.999995157830341,-1.72222432289554893e-09,113.700000270567642,9.32732681847184431,15.2880000000000003,0,0,0.0114696609641860067,3.37914451533694905e-12,-5.48904943388414521e-06,2.34452541412924053e-10,5.68476506314615152e-08
0.11,31.2221857431700727,131.010384695667796,3.16106164078641116,3.84323765504598036,0.000147145408783231387,40.0848474374385688,0.000307099758177995722,3.33859717034531034,442.865639305294906,4.36819921201157246,1.76578242121538631,69.9999915253729768,-2.07703942468805025e-09,113.700000354470319,11.6837607126815346,15.2880000000000003,0,0,0.0128370221364947634,5.76365694334259916e-12,-8.08162139954488366e-06,3.4437809457680147e-10,9.36754562129998513e-08
0.12,31.2221856770245907,131.01038487487628,3.20315617196047642,3.86558564807459826,0.000171348089099210797,43.7480799143332604,0.000342946594964391399,3.33600966231316054,475.585948135404465,4.83801864946757032,1.95742650583495204,69.9999862600106582,-2.3147200577597177e-09,113.700000447673773,14.3321420062794882,15.2880000000000003,0,0,0.0142177082532951912,9.17772063248746377e-12,-1.13223702306849879e-05,4.98555567062495836e-10,1.45354343598177095e-07
0.13,31.2221856047215205,131.010385070757366,3.24903338361815308,3.95285669440916232,0.000198169826234992146,48.2585391180499741,0.000371981107240517913,3.33344523512332414,515.915632623689476,5.21512035057569623,2.1172615234944101,69.9999789703044399,-2.35265113573284059e-09,113.700000549782459,16.6533950244453948,15.2880000000000003,0,0,0.0153259223232261182,1.38588880633063252e-11,-1.52681962163171846e-05,7.07166414280215559e-10,2.11287244421402401e-07
0.14,31.2221855263490333,131.010385283071088,3.29862557546706325,3.99981420118284792,0.000223008237377726162,44.9721767850953427,0.000403855591455553264,3.33052592490198407,486.239086056840392,5.63167615200940475,2.29059513099545553,69.9999692426645623,-2.0964169591742506e-09,113.700000660771011,19.4199179783547713,15.2880000000000003,0,0,0.0165500839355928395,2.00553635588333716e-11,-1.99811439493909854e-05,9.81252131659242702e-10,2.9859131057555361e-07
0.15,31.2221854420015994,131.010385511560628,3.35186028506811029,4.05975476911301225,0.000248539990764711958,43.4637160193537753,0.000433543226731567866,3.32747422849243879,472.54218587214001,6.01888316560526437,2.45383766868271946,69.99995661705006,-1.43188768134039915e-09,113.700000780625842,22.182048585914238,15.2880000000000003,0,0,0.0176879988684610287,2.80404916713566325e-11,-2.55291719775422389e-05,1.33309260321839681e-09,4.07727088477750495e-07
0.16,31.2221853515819241,131.010385756490507,3.40881389436676407,4.08854462484130732,0.000272210944932510383,34.4023069357135967,0.000465877824565354701,3.32404684464906053,391.12189082975641,6.44303061809316624,2.62971580822363071,69.9999405987561403,-2.27841984783363582e-10,113.700000909623355,25.4183784408083007,15.2880000000000003,0,0,0.0189344747787753703,3.81042963600432359e-11,-3.19913711614788564e-05,1.77662362644707755e-09,5.46937370926295155e-07
0.17,31.2221852554099399,131.010386016990765,3.46923909377793649,4.13347468842419552,0.00029684158695823977,43.4155809381403728,0.000495744973995866601,3.3205135250562221,471.78125980632376,6.83404379119085981,2.79420112365087148,69.9999206448319882,1.67575894446247236e-09,113.700001047478835,28.5969980778046526,15.2880000000000003,0,0,0.0200835795555658371,5.05622819343119236e-11,-3.94162603380559734e-05,2.32482468580976756e-09,7.14768170397066036e-07
0.18,31.2221851530022434,131.010386294375877,3.53351204963262022,4.16207877285686756,0.000320492787063832857,36.2151660219171347,0.000526966735016640565,3.31665933612355879,407.101567211914528,7.2444022294323478,2.96528531587496236,69.9998961790314524,4.45070668055043651e-09,113.700001195059045,32.1341903991183955,15.2880000000000003,0,0,0.0212895378539265934,6.5741708189353534e-11,-4.79243856484647045e-05,2.99669991322666987e-09,9.21230820748327094e-07
0.19,31.2221850444828668,131.010386588308563,3.60153760019172342,4.17456309251139679,0.000342914278589344943,40.9041800427263027,0.00055982867240863632,3.31244583927210501,448.953132831826849,7.67810673790947895,3.14433961722118216,69.9998665624008964,8.30674092292676784e-09,113.700001352409558,36.0967170721845179,15.2880000000000003,0,0,0.0225641073333706747,8.40032927522686365e-11,-5.75836346763551867e-05,3.80911503044151526e-09,1.17316671380156179e-06
0.2,31.2221849296486234,131.01038689934137,3.67347464118590317,4.20078915399145636,0.000366573034254704516,37.5214898208491761,0.000590466919182690893,3.30812712915434881,418.515630199161365,8.08216006412957277,3.31318683933006453,69.9998311045104487,1.34800080829191884e-08,113.700001520067786,39.9955165273270055,15.2880000000000003,0,0,0.0237515420632470921,1.05728805481567758e-10,-6.85028882131185225e-05,4.78351733027568889e-09,1.4690610466811608e-06
0.21,31.2221848088436893,131.01038722653837,3.74905730552401684,4.22722562033261262,0.000390310433246848657,36.0064697775761644,0.000620601272787201603,3.30359776763142721,404.818761014464428,8.48018829437500621,3.47992805775657654,69.9997890742529592,2.02433263776548733e-08,113.700001697833756,44.0315784885794201,15.2880000000000003,0,0,0.0249212734096428447,1.31320595517854955e-10,-8.07208291683553139e-05,5.93661589182972911e-09,1.81631626331753899e-06
0.22,31.2221846819136672,131.010387570319409,3.82840670130281646,4.2176244726165093,0.000410696285369717819,43.5935627685881499,0.000655758920494764063,3.29841875767922987,472.542185872136486,8.94831461811120121,3.67066782999472752,69.9997397083127737,2.88926538075102191e-08,113.700001886238866,49.0266756129506618,15.2880000000000003,0,0,0.0262970098082033268,1.61186003536399267e-10,-9.43348117723774896e-05,7.29106197993283208e-09,2.23980539128825791e-06
0.23,31.2221845484548304,131.01038793178239,3.91183756115468473,4.25320537954326383,0.0004356497720089569,36.207459360748949,0.000683686922722525747,3.29355466128287455,406.340642146102141,9.31799902525197865,3.82760028360492655,69.9996821549030983,3.9766623706965518e-08,113.70000208621326,53.1608354775167555,15.2880000000000003,0,0,0.0273834518362109196,1.95767624418301473e-10,-0.000109505708778552874,8.87784718088286285e-09,2.70740355927931971e-06
0.24,31.2221844093456014,131.010388308538637,3.99866964940866776,4.27135264557773553,0.00045883378920767232,37.3286080087975947,0.000713911697673520317,3.2882529474867046,416.232824001711379,9.7203332459195213,3.9956861712714935,69.9996155408946805,5.32509871046438109e-08,113.700002296918697,57.8502398901668755,15.2880000000000003,0,0,0.0285658473732890855,2.35534745143307651e-10,-0.00012617657385590063,1.07071802425012536e-08,3.25424194465518317e-06
0.25,31.2221842644570167,131.010388700938847,4.08900446593793809,4.29698686981540234,0.000482848983334858658,38.3649566400252979,0.000742483922667206905,3.28284626589867479,425.364080791506922,10.1009615935159527,4.1562806652626314,69.9995389781877293,6.97479781374676735e-08,113.700002518962805,62.4689963611702623,15.2880000000000003,0,0,0.0296844577155840929,2.80933085873043406e-10,-0.000144451636124542286,1.28055329635332884e-08,3.87142965072796435e-06
0.26,31.2221841140756986,131.010389108203611,4.18262110402873155,4.32755423691547136,0.000507438991606541483,41.7865661614553829,0.000769736419800412888,3.27732087646770287,455.80158342417883,10.4644497354123782,4.31094871887776954,69.9994515368878751,8.97024502886333285e-08,113.700002752408935,67.0452443356678742,15.2880000000000003,0,0,0.0307527002093570291,3.32431765373287754e-10,-0.00016436315770221847,1.51925047864838523e-08,4.56355359993810651e-06
0.27,31.2221839578137299,131.010389531387915,4.27982215321117465,4.33742811840656994,0.000529702335486379188,38.2242911032538473,0.000800211178185602123,3.27123004841987974,423.842199659872563,10.8736118498261902,4.48123226393084195,69.9993522521519935,1.13587393208351198e-07,113.700002998306658,72.3900346549699947,15.2880000000000003,0,0,0.0319551720828357214,3.90484337603431509e-10,-0.000186059811616844751,1.79019946498730075e-08,5.36790267753501075e-06
0.28,31.2221837957695953,131.010389970223883,4.38053283172365671,4.35979025650862262,0.000553527510562852902,44.1207307275094038,0.000828072271385077072,3.26514386100193477,476.346873201222195,11.2478718916014184,4.63949182586423614,69.9992400702920463,1.41938296327408329e-07,113.700003257081931,77.4582454645660761,15.2880000000000003,0,0,0.0330550782151640757,4.55595825375374429e-10,-0.000209619220926101062,2.09616181379585756e-08,6.25569396794615011e-06
0.29,31.2221836278828384,131.010390424876022,4.48480177698289584,4.38135974025744623,0.00057737648726709299,35.3536197607625553,0.000855659611391794222,3.2588361863853601,397.970310422111766,11.6195889013503368,4.79682445966682813,69.9991139044831527,1.7532937395312496e-07,113.700003529427192,82.6616578528940948,15.2880000000000003,0,0,0.0341475147840558241,5.28268525040872464e-10,-0.000235137545717689308,2.44023887909330158e-08,7.24907222782668121e-06
0.3,31.2221834544381096,131.010390894570321,4.59240982688131272,4.39617507281761988,0.000600356665334356751,33.1490797613948018,0.000884158719714270942,3.25217107922164672,378.185945710871067,12.0052186882677852,4.95887519756831807,69.998972627127344,2.14383684192303281e-07,113.700003815596887,88.2385269149682756,15.2880000000000003,0,0,0.0352808420099011907,6.09029939588318471e-10,-0.000262641159892275291,2.82471356422800846e-08,8.36561857411674722e-06
0.31,31.2221832755909574,131.01039137888381,4.7032380575360353,4.42235615181669761,0.000624899913490765827,34.9528590290802086,0.000910025197609511073,3.24555398289468222,394.16562209302117,12.3556398803864607,5.10879227158949156,69.9988150759387651,2.59766173767152649e-07,113.700004116072961,93.4639131761651498,15.2880000000000003,0,0,0.0363107024397255479,6.98403788157463991e-10,-0.000292187019282257228,3.25229566712151178e-08,9.57826248689966157e-06
0.32,31.2221830914257232,131.010391877587324,4.81722282885169673,4.45155794779377789,0.000649944303128982049,38.0379859115142835,0.000934821026682707218,3.23882361682650144,421.559393462426954,12.6924793110791878,5.25399282922068878,69.9986400687318024,3.12179641788393281e-07,113.700004431478234,98.6283237403037703,15.2880000000000003,0,0,0.0373006526995305274,7.96905013945712519e-10,-0.000323836613651358495,3.72580440687311147e-08,1.09050644159405278e-05
0.33,31.22218290196043,131.01039239063175,4.9343519698327194,4.48019701204722054,0.000675004219851668761,37.7093551175013246,0.000959261610436717115,3.23189933669563656,418.515630199168186,13.0256844327599097,5.39788776638052958,69.9984463826819052,3.72372687880250348e-07,113.700004762578004,103.87354288045799,15.2880000000000003,0,0,0.0382799263433428877,9.05047894999210997e-10,-0.000357667290238851605,4.24836225249657193e-08,1.23603484615852587e-05
0.34,31.222182707020778,131.010392918491164,5.05476263450916541,4.49049305198152204,0.000697378143373914754,29.5227085089536203,0.000987142430045659337,3.22427911658814059,345.465636880756449,13.4081741031825317,5.55863100914667463,69.9982327456812641,4.41143957445642244e-07,113.700005110463266,110.062177258613033,15.2880000000000003,0,0,0.0394040418267209702,1.02333461745717641e-09,-0.000393806243978271305,4.82396483202145133e-08,1.40087103268591529e-05
0.35,31.2221825067937928,131.010393460657156,5.17831168393457641,4.50711781535187139,0.000720712543856854714,32.3530371383660977,0.00101333646443235357,3.21661305844837253,370.576570052703289,13.7686530554979374,5.71176159517965232,69.9979978091806316,5.19362042776584697e-07,113.700005475786654,116.058400304168075,15.2880000000000003,0,0,0.0404634764462946869,1.15232390415689195e-09,-0.000432299813734132244,5.45552399130644805e-08,1.57912776608867467e-05
0.36,31.2221823012122108,131.010394017312592,5.30505329869157727,4.52767240178778962,0.000744729708600240731,36.5526511043957356,0.00103828652712813154,3.20885713174522058,407.862523277719447,14.1132764952183631,5.85938873702120233,69.9977401961163537,6.07939829707116331e-07,113.700005859608282,121.939407863977465,15.2880000000000003,0,0,0.0414763190843316643,1.29254043868676357e-09,-0.000473255972436325862,6.14699225552327593e-08,1.77198251922661022e-05
0.37,31.222182090341061,131.010394588280832,5.43493909097431604,4.55039311415752579,0.00076918150115683735,34.6835787828593496,0.00106234372950533948,3.20097384516078431,391.121890829766642,14.446930470491731,6.00318739776240751,69.9974584775585669,7.0785096329375243e-07,113.700006262864989,127.771540530283914,15.2880000000000003,0,0,0.042456928843506235,1.4445318520011827e-09,-0.000516746496826029863,6.90186481791334769e-08,1.98053803654614999e-05
0.38,31.2221818741223878,131.010395173719473,5.56801609611825477,4.56315131642791805,0.000792019287104061913,36.2353933787001239,0.00108827974821363053,3.19255015153205646,404.818761014460279,14.8084413239345949,6.1564787166299757,69.9971511865591651,8.20121521966083772e-07,113.700006686723384,134.244380272309172,15.2880000000000003,0,0,0.0435194095147296359,1.60882660749176723e-09,-0.000562873331420229127,7.72423853301427293e-08,2.21128406351508731e-05
0.39,31.2221816525004634,131.010395773780147,5.704329739781131,4.57922628245169783,0.000815489716137310881,30.9425419640016202,0.00111309493143926189,3.18402316666385765,357.640624933827439,15.1559126959619999,6.30488433186772657,69.9968167722787769,9.45855271408966431e-07,113.700007132429306,140.616382889747683,15.2880000000000003,0,0,0.0445406353688629561,1.78596578656278109e-09,-0.000611756345505213715,8.61868943159197994e-08,2.45968452142520012e-05
0.4,31.2221814256617982,131.010396387955836,5.84373750626454935,4.59349479979191955,0.000838670682925170751,29.5834243852937959,0.00113797512888990423,3.17521289611434332,345.465636880754005,15.505969085398343,6.45410901523083158,69.9964536498379317,1.08621525395706341e-06,113.700007600947828,147.185065961143067,15.2880000000000003,0,0,0.045569462889951777,1.97653506559195414e-09,-0.000663427505461186432,9.58835144134294998e-08,2.72901174189528038e-05
0.41,31.2221811937141673,131.010397015953487,5.98615797249314241,4.60939449845229365,0.000862163931524819621,33.360545626359837,0.00116210409424792778,3.16624854525325983,378.946870776686467,15.8471768437686258,6.60022848408685459,69.9960602026584695,1.24241947051318175e-06,113.700008093413757,153.73182724817184,15.2880000000000003,0,0,0.0465722905345462151,2.18109996727848554e-09,-0.000717942131686907965,1.06367950505874699e-07,3.01820283711074823e-05
0.42,31.2221809567080335,131.010397657635991,6.13155423418529733,4.63387609959193458,0.000887317919769279608,37.5676427387571721,0.001183742077125155,3.15743374731593907,416.232824001711379,16.155026338188506,6.73482947265292431,69.9956347739890248,1.41574639558456e-06,113.700008611107208,159.760443802515937,15.2880000000000003,0,0,0.0474770882933877245,2.400206535531791e-09,-0.00077537935552726017,1.17680930846389008e-07,3.32294321368729263e-05
0.43,31.222180714655078,131.010398312971745,6.27991949833728835,4.65367427313455995,0.000911660169575580258,33.0386483003103493,0.00120612360190941372,3.14823214930187856,375.903139513433644,16.4750454055619109,6.87353555569934649,69.9951756835756242,1.60752723178871754e-06,113.700009155418982,166.15023929888028,15.2880000000000003,0,0,0.0484176551665520677,2.63438237315801404e-09,-0.000835821567166909188,1.29864614855892046e-07,3.65287677570896608e-05
0.44,31.2221804673911407,131.010398982407111,6.43138341412837455,4.65757387742934892,0.000932929976641759203,30.4788052564327749,0.00123214974254881528,3.13809943757763454,353.075012538921555,16.8483715860516412,7.03046484016701978,69.9946811832270441,1.81916859536649675e-06,113.700009728069276,173.762989227436179,15.2880000000000003,0,0,0.0495148886868988364,2.88411342836306464e-09,-0.000899417740154189794,1.42975581697416844e-07,4.01983191819108926e-05
0.45,31.2221802146980103,131.010399666535704,6.58611776122768511,4.65827001030579346,0.000953562143933252499,35.4620561517945134,0.00125873275223327787,3.12754579585638304,397.209385356286873,17.2316459864824161,7.19073264961644831,69.9941493995125938,2.05218870761162579e-06,113.700010330973456,181.755888424112015,15.2880000000000003,0,0,0.0506413642318551335,3.14987863732273609e-09,-0.000966369542842942814,1.57083782729145849e-07,4.41725079750487196e-05
0.46,31.2221799565319174,131.010400365476642,6.74415901717088939,4.66907507286434065,0.00097630283571516251,41.3913707355688842,0.0012823814722795761,3.11722412848720953,449.71405889764344,17.5754687869478978,7.33738035579407555,69.9935783582983362,2.30821229426708146e-06,113.700010965912341,189.078525726536213,15.2880000000000003,0,0,0.0516519027755614896,3.43223060675433133e-09,-0.00103681314204437207,1.7224885851047691e-07,4.83373548649469587e-05
0.47,31.2221796928065203,131.010401079464799,6.90557672428163105,4.67806301106434042,0.000998761260684927557,28.0209900204918974,0.00130616618884544979,3.10657060381263461,331.007810630253402,17.9233234115620377,7.48533101007974988,69.9929660462147325,2.5889364060732201e-06,113.700011634803886,196.634049649816575,15.2880000000000003,0,0,0.0526742959306323727,3.73170463860384924e-09,-0.0011108841623615434,1.88532207060213475e-07,5.28148505664365441e-05
0.48,31.2221794239793269,131.010401807256216,7.07001851744381948,4.68642527483421745,0.00102109091231145262,27.6007969606275125,0.00132978852885184593,3.09563681785184297,327.203122301157407,18.2709832353803314,7.63313726727991071,69.9923104035261474,2.89614261094227829e-06,113.700012338884164,204.33305198470137,15.2880000000000003,0,0,0.0536961221459722679,4.04904859899578719e-09,-0.00118849531779471017,2.05948560519311644e-07,5.75998398329450787e-05
0.49,31.2221791502289392,131.010402548365278,7.23734841566291642,4.70156796398202914,0.00104489945272251677,34.6487244505178253,0.00135120419031512233,3.08484494341801163,389.60000969812296,18.589315545984995,7.7707981814672209,69.9916093757078812,3.23165731652504743e-06,113.700013079832303,211.511801733856089,15.2880000000000003,0,0,0.0546317638991248022,4.38486615800834454e-09,-0.00126967773493266863,2.2453662401782158e-07,6.26054017926546362e-05
0.5,31.2221788715876762,131.010403302704333,7.40754387012007864,4.72212438923579736,0.00106996435823571525,35.6033845714535389,0.00137072557486675028,3.0741588573465477,397.970310422105001,18.8826594549893159,7.8998011517407587,69.9908609011483378,3.5973597360057951e-06,113.700013859590555,218.236320199079358,15.2880000000000003,0,0,0.0554939729313439212,4.73968531279909998e-09,-0.00135450679800636423,2.44344941868023912e-07,6.78409867869358833e-05
0.51,31.2221785881337617,131.010404070060673,7.5805467220577798,4.73558879650721298,0.00109346949398930206,27.1956639286467201,0.00139183542187690463,3.06284319292573448,323.39843497208409,19.200774511812984,8.03722958125224807,69.9900628955037689,3.99519228958782199e-06,113.700014680103109,225.647740475438098,15.2880000000000003,0,0,0.0564289867670437692,5.11403675587933804e-09,-0.00144303978709531136,2.65418546512062939e-07,7.34915902759761199e-05
0.52,31.2221782998674264,131.010404850463857,7.75636795277497626,-2.27483403647665217,-3.49693968821930545e-05,32.6984583252045269,0.00121157585717808036,3.43686649912892372,372.098451184341457,18.6172299069304614,8.17782463753566624,69.9892128712149599,6.58698639781494765e-06,113.700017842098987,212.136933254734458,15.2880000000000003,0,2.50644307058047655,0.0547141211978460495,5.50966319177778456e-09,-0.00152763659872415616,1.40123273642245419e-05,7.54342152652894362e-05
0.53,31.2221780065825811,131.010405644503919,7.93510422138068972,-2.1597716217254308,2.93165877216542064e-06,34.3403183433754506,0.00123174333705147981,3.43522551396969567,386.55624643486243,18.9341107995433369,8.32036389082559147,69.9883489638613128,2.86301812876751847e-05,113.700041712183392,219.41612313372471,15.2880000000000003,0,2.51597398695384733,0.0556455137017589502,5.91443695218581687e-09,-0.00148652697203403286,1.40126636451751781e-05,7.46523553376035284e-05
0.54,31.2221777081229313,131.010406452547159,8.11682274766253364,-2.04869410841924093,4.02519689812567418e-05,30.1362843254019026,0.0012516775650150253,3.4334498306493324,349.270324209843579,19.2491380396551683,8.46222606025683,69.9875085059026532,5.06726686731864611e-05,113.700065588709961,226.774231977401058,15.2880000000000003,0,2.52548384031845208,0.0565714641493063677,6.29077100503468742e-09,-0.00144588217338001554,1.40136857029484891e-05,7.38180245899905971e-05
0.55,31.2221774047440093,131.010407273889427,8.30132245098302235,-1.94190766793127767,7.69677141173546428e-05,31.9501302229357904,0.00127104426889924189,3.43151192306997155,365.250000591990727,19.5565964739067475,8.60145124351683776,69.9866912018885188,7.27156142920372655e-05,113.700089472566759,234.072280548580267,15.2880000000000003,0,2.53495695085091777,0.0574751761197394018,6.63946255569794279e-09,-0.00140581715632944826,1.40154390867294531e-05,7.29176474918921002e-05
0.56,31.2221770964468739,131.010408108527855,8.48860305357109191,-1.83950206525193427,0.000113170567818718018,29.8071737065961671,0.00128958510051347297,3.42939593317983382,346.226561946578727,19.8520882620716428,8.73653341648545556,69.9858967065711681,9.47602596906301728e-05,113.700113365086679,241.19484521962309,15.2880000000000003,0,2.54439366799166322,0.058343724652873942,6.96117559541712988e-09,-0.00136638656157937743,1.40179696699204981e-05,7.1941999575463343e-05
0.57,31.2221767832992789,131.010408956278155,8.67861262003558309,-1.73940344803954483,0.000148789973083258016,29.4702278027561242,0.00130845482773912043,3.42718238684131071,343.182829683302316,20.1552967656491369,8.8742120943872429,69.9851246346085247,0.000116807917897475687,113.700137267583727,248.614295628929682,15.2880000000000003,0,2.55379355833025423,0.0592349575469051301,7.25668720734945634e-09,-0.00132766418309285912,1.40213236190501606e-05,7.09695804277448258e-05
0.58,31.2221764652811764,131.010409817194784,8.87136733188297555,-1.64052964571594861,0.000183688582721187513,38.8614617782698772,0.00132844497774131914,3.42491603934204925,426.12500585731533,20.4798664556644496,9.01915872976240784,69.9843745658951235,0.000138859972931242102,113.700161181571644,256.681108326005983,15.2880000000000003,0,2.56315590561676876,0.0601889752404308545,7.52673954928481702e-09,-0.00128970515270919179,1.40255490628035227e-05,7.00493836584214992e-05
0.59,31.2221761420188244,131.010410692294073,9.0671576462446648,-1.54683060639107084,0.000218354607080118709,31.4654270275543162,0.00134666284880644894,3.42241341968528934,360.68438819711065,20.7764391785785989,9.15447431976479287,69.9836460730909522,0.000160917886948014143,113.700185109148663,264.164062073816694,15.2880000000000003,0,2.57249462754051583,0.0610607177576732649,7.771742789785738e-09,-0.00125249058753765436,1.40307052228684068e-05,6.90119320441919687e-05
0.6,31.2221758137090823,131.010411581040643,9.26583161490250617,-1.45307212228206883,0.000252107278406417661,27.9416609140314343,0.00136701194815387161,3.41990799843379323,329.48595949860578,21.1119408659536738,9.3030729805623853,69.9829386925410546,0.000182983210345836133,113.700209051697257,272.759280762226354,15.2880000000000003,0,2.58180017448250743,0.0620468763060835551,7.99268852597306671e-09,-0.00121612659804350783,1.40368419543428022e-05,6.8089047816698441e-05
0.61,31.2221754803071008,131.010412483556451,9.46742476133495536,-1.36185349753066753,0.000285243134525034578,32.7742940041763759,0.00138756723148661322,3.41727430176758817,372.09845118432969,21.4535451377064845,9.45371401112215537,69.9822519296766785,0.000205057576616876099,113.700233011030889,281.652068350555339,15.2880000000000003,0,2.5910735893640382,0.0630509765642770226,8.19035363834290787e-09,-0.00118066727210891747,1.40440158928385416e-05,6.71720340279174602e-05
0.62,31.2221751419188287,131.010413399553357,9.67185574361115208,-1.2772193027005998,0.000318765919716957366,40.7982718506871436,0.00140428471427985033,3.41430076738963617,442.86563930529212,21.7315389955288332,9.58252631384812936,69.9815852565104422,0.00022714271093725785,113.700256988846277,288.99295102799789,15.2880000000000003,0,2.60031434395332894,0.0638681349459840619,8.36564243763342446e-09,-0.00114618823674043652,1.40522816912999046e-05,6.6054104818614632e-05
0.63,31.2221747983746951,131.010414329492448,9.87925684551393068,-1.19372332365523648,0.000351653294410843255,23.0464796369614646,0.00142192964831957484,3.41124671910422617,286.112512747078938,22.0280066531677043,9.71761604460936645,69.9809380841527258,0.00024924040938894697,113.700280987305689,296.925865812476843,15.2880000000000003,0,2.60952387342210157,0.0647395931597699453,8.51933293488576029e-09,-0.00111273604308845231,1.40617036672043724e-05,6.49998098553497523e-05
0.64,31.2221744502137568,131.010415271907902,10.0892111044473864,-1.11082260352224571,0.000383557863018598724,22.6201424271736045,0.00144124798242384051,3.40812798053272648,282.307824417967538,22.3559997074202315,9.86344718538968657,69.9803097838971553,0.000271352564119418428,113.700305007668447,305.827875864252576,15.2880000000000003,0,2.61867608643491678,0.0657037096737194681,8.65290110565100482e-09,-0.00108046928007856854,1.40723151625114619e-05,6.40534453117250674e-05
0.65,31.2221740974183177,131.010416226847866,10.3017332125047112,-1.03256894816727995,0.00041586642969636728,40.1386472591914156,0.00145757503000180466,3.40473668482418912,436.778144778747503,22.6347121437133474,9.99235319513512898,69.9796996744739914,0.000293481136733067202,113.700329052056603,313.494529247029448,15.2880000000000003,0,2.62779456200649664,0.0665229978672248617,8.76723245914814162e-09,-0.00104944161991313875,1.40841745168984361e-05,6.29883703879637491e-05
0.66,31.2221737395224075,131.010417195579407,10.5171853998981781,-0.955756026106862389,0.000447646247077945563,34.1073182527818517,0.00147437417667876675,3.40122879699666258,383.512515171600171,22.9242771154075626,10.1249234195846309,69.9791070370487773,0.000315628171173283753,113.700353123315267,321.560228960898939,15.2880000000000003,0,2.63687195996296619,0.0673741876929130901,8.8628479114240136e-09,-0.00101965372038306627,1.40973681201413278e-05,6.19821284440639825e-05
0.67,31.2221733766962792,131.010418177639508,10.7354366903760177,-0.87976876034430862,0.000478484766707588255,23.4107829936621279,0.00149265442135449139,3.39763073577028774,289.156244010342505,23.2424430948994782,10.2672338959357887,69.978531133573938,0.0003377958357816056,113.700377223519212,330.541109573757353,15.2880000000000003,0,2.64590779954790367,0.0683094420523754908,8.94091393917033502e-09,-0.000991203500824495336,1.41119502091097813e-05,6.10876796885790398e-05
0.68,31.2221730090946714,131.010419172607527,10.9563682644172449,-0.806145353734661896,0.000509090426912405729,29.2877026771668127,0.00151027511986313737,3.39385816360081138,340.899992485846269,23.5519770360019933,10.4065355252247702,69.977971179328577,0.000359986390638937395,113.700401354862549,339.396572887455193,15.2880000000000003,0,2.65491021902928859,0.0692193335240963575,9.00256330269179729e-09,-0.000964179736650376345,1.41279759461272632e-05,6.02122951029592323e-05
0.69,31.2221726367903152,131.010420180285621,11.1799248609974402,-0.735316910297474369,0.000539962211709634041,36.1179682915695537,0.00152605675144101621,3.38987572605071552,401.014072685363431,23.8321457069536642,10.5357259257705884,69.9774263395412532,0.000382202180564596204,113.700425519745096,347.511900778032725,15.2880000000000003,0,2.66386160521856086,0.070042926771186273,9.04888628788355002e-09,-0.000938662366958507898,1.41455041153004283e-05,5.93147959637714241e-05
0.7,31.2221722596570928,131.010421201016783,11.4062054373655926,-0.666099286476026897,0.00057049211979731142,30.2505274014339953,0.00154173761348411079,3.3857420187282421,349.270324209852845,24.1134154411925579,10.6652370658783777,69.9768957316443334,0.000404445634602565343,113.700449720938011,355.755326441654688,15.2880000000000003,0,2.67276738351895338,0.0708697623957442874,9.08079089577252629e-09,-0.000914710314259751362,1.4164611306954928e-05,5.84821535635014807e-05
0.71,31.2221718777435484,131.010422234668994,11.6351735755870092,-0.598029908569407964,0.00060023576662117514,24.8120004074412819,0.00155833371128305618,3.38147766456058996,301.331264063405797,24.413802547351775,10.8012383488248229,69.976378435225854,0.000426719292410757491,113.700473961081812,364.665989399039915,15.2880000000000003,0,2.68163735735645181,0.0717527908618310895,9.09938180687747101e-09,-0.000892405153943021394,1.4185361541734485e-05,5.77655617022328018e-05
0.72,31.2221714910506485,131.010423281239696,11.8668297955239126,-0.531120859956593527,0.000629031972728536447,30.4369156356044179,0.00157609351583706879,3.37707240804181197,350.79220534145287,24.7379496222420983,10.9453184725997055,69.9758734896225718,0.00044902580383976258,113.700498243001533,374.405435865045263,15.2880000000000003,0,2.69046790895506405,0.0727056574322691024,9.10569596362158728e-09,-0.00087182086108324923,1.42078264050755305e-05,5.71811386698896107e-05
0.73,31.2221710995745561,131.010424340739291,12.1011783788646028,-0.466977904194015025,0.000658933016062735236,38.5726119892388226,0.00159049701631679445,3.37244056505420042,422.320318528233997,25.0058436426260542,11.0700759319814068,69.9753798957678299,0.000471367945485667611,113.700522569663434,382.549812130361431,15.2880000000000003,0,2.69924395339748413,0.0734932011843548449,9.10073362644318179e-09,-0.000853030462444966282,1.42320818511654315e-05,5.6553321905545438e-05
0.74,31.2221707032558413,131.0104254133295,12.3382667295963664,-0.403939291479848583,0.00068807824146583979,24.0478173384185894,0.00160573779501238067,3.36766191273510707,294.482813471059444,25.2917771868215944,11.2009520550734951,69.9748965992692575,0.000493748569847926133,113.700546944192808,391.339582142262657,15.2880000000000003,0,2.70798521767962663,0.0743337704403439492,9.0855456574000812e-09,-0.00083611309371419318,1.42582060766989739e-05,5.60643191498842993e-05
0.75,31.2221703024267789,131.010426498106739,12.5778387369832814,-0.342167872580547816,0.000716565761585168581,28.1194469899107844,0.00162146274182041125,3.36271807187382832,330.246885564414924,25.589628544798888,11.3358485938419129,69.9744225000379032,0.000516170643116137533,113.700571369279999,400.601946120855018,15.2880000000000003,0,2.71668245604369307,0.0752093734324653512,9.0615496052488852e-09,-0.000821173057513310866,1.42862337054999818e-05,5.570970552001952e-05
0.76,31.222169896983651,131.010427595353121,12.8199762177491134,-0.282060347428445268,0.000745321544672615023,30.2889300350574011,0.00163584585765913439,3.35759158849820682,349.270324209861712,25.8668600264729598,11.4636222420203175,69.9739564500078899,0.000538637223967231927,113.700595848331602,409.319484669173107,15.2880000000000003,0,2.72533439603813754,0.0760243802060622115,9.02966711462682985e-09,-0.000808279200996613631,1.43162543622527808e-05,5.54277445997478023e-05
0.77,31.2221694868720014,131.010428705216782,13.064722859734017,-0.223276350322533262,0.000773958371942271408,28.3035218312942334,0.00164973411755979277,3.35228983298621142,331.76876669607077,26.1386063579871255,11.5894536626358633,69.9734972555495744,0.000561151486830122298,113.70062038480701,417.955112704571604,15.2880000000000003,0,2.73393162426815062,0.0768232724382690163,8.99090587375660222e-09,-0.000797509945045165886,1.43483534651573836e-05,5.52624861672564098e-05
0.78,31.2221690721505389,131.010429827538076,13.312034661612703,-0.165623073537653348,0.000801776798860299122,23.199146893247903,0.00166442480570212986,3.34681013598331534,286.873437812889904,26.4282851628519246,11.7213630968666624,69.9730436757831455,0.000583716718064262096,113.700644982123947,427.260199945188901,15.2880000000000003,0,2.74248776859041365,0.0776748763248901047,8.94641094688927545e-09,-0.000788952261150240421,1.43826000655111038e-05,5.52740488913295764e-05
0.79,31.2221686528998212,131.010430962098013,13.561850762325971,-0.109210690538938643,0.000828969452958080153,33.0796821202574733,0.00167948844412806248,3.34114046591853775,373.620332315953419,26.7283754773209985,11.856774111356188,69.9725944226504595,0.000606336326021105041,113.70066964379852,437.007790551604273,15.2880000000000003,0,2.75100107402394078,0.0785570875416553016,8.89731666720196138e-09,-0.000782691259462975049,1.44190627104149947e-05,5.54567222987781876e-05
0.8,31.2221682289133824,131.010432109458151,13.8143327547139432,-0.0541741265571580588,0.000857028134233825899,33.5196134184863723,0.00169232965709829549,3.33530311024406112,377.42502064505743,26.9919531998840512,11.9796163631467021,69.9721481610321661,0.000629013858186718076,113.700694373901669,445.658450920897735,15.2880000000000003,0,2.75947816858455397,0.0793319920404667589,8.84442051481520151e-09,-0.000778805579409521482,1.44578636218431037e-05,5.57242184751825494e-05
0.81,31.2221678002852059,131.010433269362892,14.0694094234721412,-0.00022938716231917094,0.000884101217779106581,21.73734768170916,0.00170621892289937955,3.32926265490483342,273.937492693991885,27.2783268660814961,12.1101989026679675,69.9717035050757232,0.000651752974709191198,113.700719176197524,455.153976759210536,15.2880000000000003,0,2.76790594846557658,0.0801739030018614185,8.78891842279104995e-09,-0.000777387218845895333,1.44990690911997461e-05,5.62114911961045097e-05
0.82,31.2221673671891971,131.01043444133947,14.3269476995051512,0.0525508304359805986,0.000910570975468309404,27.9839785292867944,0.00172041283140045406,3.32301420539731174,328.725004432770049,27.5742087139627863,12.2439701782419856,69.9712590184036003,0.000674557454582852697,113.700744054463172,465.069929004790026,15.2880000000000003,0,2.77628166618852346,0.081043766697938821,8.73202609492310794e-09,-0.000778524530286237287,1.45427341558132779e-05,5.690292615488683e-05
0.83,31.2221669296085906,131.010435625433473,14.586962257221888,0.104331439034599807,0.000938281522536736981,35.6216109379086348,0.0017319003208777536,3.31662349456916061,395.68750322465047,27.8244818521253165,12.3620533446202554,69.9708132137775607,0.000697431203302907913,113.70076901288023,473.538690784690857,15.2880000000000003,0,2.78461599511162117,0.0817795881084271009,8.67471726107683179e-09,-0.000782304384009747445,1.45889537244687707e-05,5.76967360488426484e-05
0.84,31.2221664874436513,131.010436821916215,14.8495321360067472,0.15508926160422562,0.000965487901146738292,21.9209639759939598,0.0017436195389419853,3.31003359812320808,275.459374825645227,28.0828954565250122,12.4828559244178727,69.9703645539350561,0.00072037821721119351,113.700794055844256,482.363139498311511,15.2880000000000003,0,2.7929095334240932,0.082539342122234155,8.61795042419273224e-09,-0.00078882009499603163,1.46378337409522156e-05,5.87161124443294873e-05
0.85,31.2221660409681476,131.010438030043332,15.1144469790142129,0.204610017272909422,0.000991144771495581622,23.9204026850739417,0.00175712032634890735,3.30318136339796453,292.960932339393764,28.3782729618236189,12.6162492414890792,69.9699114509277962,0.000743402612494747407,113.700819187348429,492.551018168592236,15.2880000000000003,0,2.80115552652315447,0.0834077449580095942,8.56303490531703246e-09,-0.00079815412934212081,1.46894026975168403e-05,6.00342545386000514e-05
0.86,31.2221655900187294,131.010439250259083,15.3818351542048131,0.253304608229944883,0.00101753762414853234,30.0007669333816978,0.00176883908632579929,3.29617167821523438,346.226561946558718,28.6449706366295871,12.7397493649854034,69.9694522625313056,0.000766508671377678658,113.700844412182093,501.839576761903743,15.2880000000000003,0,2.80935976249316655,0.0841918610182085941,8.51075689733447947e-09,-0.000810403817161551112,1.47437958977634943e-05,6.15269097556397118e-05
0.87,31.2221651346169367,131.010440482504919,15.6516818166195666,0.301190942935951,0.00104419939660867515,27.922226620572804,0.00177955874126837859,3.28898755458266967,327.964078366998024,28.8973350229973356,12.8582686944966067,69.9689852945903823,0.000789700793200488857,113.700869734996814,510.707783258925588,15.2880000000000003,0,2.81752033277716807,0.0849338563566907623,8.46213465806674872e-09,-0.000825662964665014112,1.48011032375634288e-05,6.32360284591072249e-05
0.88,31.2221646747951169,131.010441726692989,15.9239637684916868,0.347984485637694518,0.00106995298533580979,24.1055341115656852,0.00179103128001000043,3.28155027338958716,294.482813471041823,29.1681012016071151,12.9830180445193655,69.9685088009132414,0.000812983497775317688,113.700895160556783,520.309613777928917,15.2880000000000003,0,2.82562711213456419,0.0857299445239392971,8.41821261015953943e-09,-0.000844023761780613693,1.48614069279114337e-05,6.524623616638665e-05
0.89,31.2221642106284349,131.010442982618997,16.1986246921635448,0.393604585080821356,0.00109476158831878613,26.4551308509455119,0.00180324548440547166,3.27384409195717696,315.028134248086985,29.4573678288773415,13.1140322422510458,69.968020980680933,0.000836361446651673096,113.700920693715972,530.666844081588238,15.2880000000000003,0,2.83368992019239085,0.0865804159978134924,8.3800157392478205e-09,-0.000865577056380860453,1.49247885356535328e-05,6.75741902667166078e-05
0.9,31.2221637420458116,131.010444250476269,16.4757215855212955,0.438994404213390088,0.00112117131373165807,29.2403829224588847,0.00181257804188493868,3.26605580858159339,339.378142354214447,29.6970597035410755,13.2279913249394312,69.9675199730309316,0.000859839478736310514,113.700946339724354,539.323600440470045,15.2880000000000003,0,2.84171189178508854,0.0872851857219393706,8.3483946407638971e-09,-0.000890428047838595464,1.49913725494325158e-05,7.00780328854275512e-05
0.91,31.2221632691122792,131.010445530088106,16.7552060253852702,0.483285046564654763,0.00114665409214225519,22.2044585978365241,0.00182264718059927571,3.25799613655849196,277.742181023078899,29.9552428682499254,13.3482104301258104,69.9670038709310234,0.000883422503941112391,113.700972103714136,548.727282932587968,15.2880000000000003,0,2.84969062764281311,0.0880443117386370683,8.32438181545621541e-09,-0.000918669169002384566,1.50612380229175958e-05,7.29272686837941685e-05
0.92,31.2221627920148848,131.010446820945987,17.03693512626295,0.526428209295851324,0.00117117028125642377,26.4682193074001511,0.00183343341078980667,3.24964601937757802,315.028134248062145,30.2318487099712172,13.4746659479210216,69.9664707111254387,0.000907115579171040342,113.700997990800786,558.892812118304164,15.2880000000000003,0,2.85762231413732382,0.0888575928125197728,8.30909068764266209e-09,-0.000950373854159624015,1.51344261425656059e-05,7.61386893338149458e-05
0.93,31.2221623106686472,131.010448123281094,17.3209767331514932,0.569581901196799856,0.00119726142305859339,31.5169031194235671,0.00184151017983480653,3.24123284151886892,359.162507065472823,30.4616606723702859,13.5850151802622285,69.9659184737497384,0.000930923903765247269,113.701024006636899,567.406645231249627,15.2880000000000003,0,2.86551111444042172,0.0895333441651838674,8.30328980591199355e-09,-0.000985656206214183435,1.52110758642228193e-05,7.95634122572826162e-05
0.94,31.2221618249707653,131.010449437372984,17.6074124905140046,0.611201096853754677,0.00122154204065007981,22.8228600221014091,0.00185143418996342834,3.23243762330255757,283.068750483778672,30.731805488219134,13.7091057948811965,69.965345089574285,0.000954852779693089889,113.701050157009405,577.499310438106704,15.2880000000000003,0,2.87335695048827633,0.090327649563924084,8.30782483572081645e-09,-0.00102463030375537448,1.52913145526338109e-05,8.34406518816651715e-05
0.95,31.2221613351896643,131.010450762491956,17.8960365908848757,0.652159266864441034,0.00124583660544623324,29.6137347285820773,0.00186072856794000782,3.22342582592751192,342.421873617487279,30.9950271513657256,13.8307481428988286,69.9647484208717003,0.000978907719890720817,113.701076447403381,587.418097241177179,15.2880000000000003,0,2.88115663882531781,0.0911016135874407468,8.32379928692057996e-09,-0.00106735729894035327,1.53751661989260825e-05,8.76621712695852131e-05
0.96,31.2221608410520837,131.010452099381041,18.1870627611774474,0.692879498415361006,0.00127090249735825785,29.0094748906755946,0.00186846823984070163,3.21427982210962293,337.095335156783449,31.2334694784357119,13.9438230950679873,69.9641262759348308,0.00100309435852665623,113.701102884200836,596.474112347581809,15.2880000000000003,0,2.88891640737347277,0.0918027526561199514,8.35179202277611457e-09,-0.00111399312473195087,1.54628400186976965e-05,9.21936435233829951e-05
0.97,31.2221603425758936,131.010453447991779,18.4804792828433904,0.732649450096943711,0.00129534191836418004,18.4793210921416922,0.00187644963336794737,3.20484664835892996,245.021887192993233,31.4819369732138306,14.0602545952576019,69.9634763968927444,0.0010274185191628594,113.701129473572578,605.984886270282459,15.2880000000000003,0,2.89663550169370687,0.0925333653258590405,8.39268909562731775e-09,-0.00116464459370667849,1.55544435204555072e-05,9.71495650473672953e-05
0.98,31.2221598400279419,131.010454807598705,18.7760816361213543,0.770733460809501225,0.00131787986882946225,27.0162646738359555,0.00188618778875335592,3.19495939798350514,319.593746642958081,31.7703560819731372,14.1902974207109374,69.9627964696668556,0.00105188616189020798,113.701156221481526,617.121585566329941,15.2880000000000003,0,2.90430863758716917,0.0933814134118888667,8.44761200738286424e-09,-0.00121935828235998503,1.56499805517424078e-05,0.000102642467877588395
0.99,31.2221593332700564,131.010456178577584,19.0739790197969725,0.809837342026123341,0.00134316140783665491,29.5467545008558723,0.00189198217763656687,3.18518202045794441,341.660948551705417,31.9870395075548757,14.2956803938136812,69.9620841099728921,0.00107650344238521042,113.701183134673315,625.550305134529935,15.2880000000000003,0,2.91194175061527227,0.0940186188905866443,8.5171687932408726e-09,-0.00127828400830256326,1.57496403797541659e-05,0.000108333468297577251
1,31.2221588223004609,131.010457560933389,19.3741749655087041,0.847284068641164567,0.001366589981540178,26.4148324640063628,0.00189946154818399805,3.17494196574010124,314.26720818227642,32.2426278830786401,14.4143150075696393,69.9613368988768514,0.00110127655353192276,113.701210219739565,635.568679418939269,15.2880000000000003,0,2.91953251605177355,0.0947701837378391448,8.60222062096685871e-09,-0.00134152509693845606,1.5853523644428368e-05,0.000114598242139669849
1.01,31.2221583072855111,131.010458954213874,19.6765428753793898,0.88426692221687786,0.00139013662509806612,27.639139598314749,0.00190621187360276315,3.16448389293187837,324.920316103697928,32.4896569559354234,14.5299367516980844,69.9605523363003243,0.00112621193546522873,113.701237483296794,645.326150645298071,15.2880000000000003,0,2.92707986228319017,0.0954965977266202803,8.7036877341039199e-09,-0.00140915411652084302,1.5961686742368032e-05,0.000121294115044055643
1.02,31.2221577881540284,131.010460358612733,19.9811400987581216,0.92093272210172139,0.00141399421722956725,23.022835949798278,0.00191202802156559552,3.15383559265278457,284.590631615404163,32.7240205674875355,14.6411373537531038,69.9597278368881064,0.00115132377930897466,113.701264943340135,654.650676828266342,15.2880000000000003,0,2.9345856842553224,0.0961857914733540709,8.82226406359449514e-09,-0.00148130327304406848,1.60742810370778111e-05,0.000128420407800854981
1.03,31.2221572649685548,131.010461773959975,20.2879204376889355,0.956182445506516987,0.00143645272337299405,18.7529023605457184,0.00191887211395750344,3.14274419997023635,247.30469339049705,32.9852082852023827,14.7614505413914294,69.9588608695646883,0.00117660345209094457,113.701292585006669,665.123009604712138,15.2880000000000003,0,2.94204861942659379,0.0969538367772077858,8.9587671397200661e-09,-0.00155806503008153164,1.61913939530309176e-05,0.00013614930215691452
1.04,31.222156737785248,131.010463200103089,20.5968426948043586,0.991630427986833762,0.00145994365459652998,30.0073760754327452,0.00192394979184724391,3.13156297283978002,345.465636880722968,33.2171175453880352,14.8716479855155885,69.9579487112442564,0.00120206551878983205,113.701320426509213,674.488441022156735,15.2880000000000003,0,2.9494697661966236,0.0976358309238603977,9.11396310607857766e-09,-0.00163954240531568132,1.63131328864990335e-05,0.000144272088863314795
1.05,31.2221562063422446,131.010464637754097,20.9081118690359204,1.02579272724827364,0.00148226700303216697,17.9717431581093017,0.00192976361152739874,3.11995132087153371,240.456258798199826,33.4705342754298272,14.9891351408775009,69.9569886237293019,0.0012277170044292969,113.701348475694743,684.798705103373436,15.2880000000000003,0,2.95685328873309539,0.0983810500486999306,9.28831440992987757e-09,-0.00172594261353628325,1.64397549285614834e-05,0.000153028998205769574
1.06,31.2221556708565338,131.01046608632322,21.2215622902592251,1.05872909494847511,0.0015035203511407063,25.7409404367295132,0.00193614236235498897,3.10790353756533166,308.179683655939243,33.7424691699795005,15.1128889066757655,69.9559777738740962,0.00125356522338358626,113.701376740039464,695.950394164781642,15.2880000000000003,0,2.96419602061631782,0.0991807080964729609,9.4827820095935841e-09,-0.00181730997063210878,1.65712794009982866e-05,0.000162434222019011828
1.07,31.2221551312215126,131.01046754610033,21.5372788111144082,1.09255838378385239,0.00152670851456171712,30.3715306759136467,0.00193981459090061511,3.0959189457362366,348.509368144030759,33.9657683101604491,15.2198881688787822,69.954913246592298,0.00127961771714320684,113.701405227720599,705.170736782748577,15.2880000000000003,0,2.9715022594542706,0.0998374166602216812,9.69790927355101019e-09,-0.00191382141122816004,1.67079190174004268e-05,0.000172187391070139593
1.08,31.2221545873446793,131.010469017337158,21.8553353684077294,1.12554120768912869,0.00154933299984605214,20.3349791127256765,0.00194352672241504261,3.08358212715790803,261.001578574662346,34.1968348585113873,15.3294663912274327,69.9537920805968128,0.00130588212002146473,113.701433946994484,714.775981860601519,15.2880000000000003,0,2.97877248852229481,0.100516963802243689,9.93432156511241831e-09,-0.0020156350912306888,1.68498535258928508e-05,0.000182575731038179216
1.09,31.2221540394774166,131.010470499350248,22.1755397042396964,1.15628194313168331,0.00156947597017919791,18.6777909524504011,0.00194925122111224303,3.07053131761528508,246.543753324744074,34.4772033925750065,15.45586556759344,69.9526112416170491,0.00133236626374967312,113.70146290584033,726.522106205218734,15.2880000000000003,0,2.98600236833273902,0.101341435308323957,1.01930210701270364e-08,-0.00212276597481332336,1.6997066509254396e-05,0.00019385009500735647
1.1,31.2221534876888818,131.010471991951704,22.497840675023447,1.18733658700824263,0.0015906367291280935,37.813325305103568,0.001953265934879698,3.05738521835775545,413.189061738584087,34.7295223029810458,15.5725663751522543,69.9513676211532385,0.00135907817468543875,113.701492112703377,737.172195557182135,15.2880000000000003,0,2.99319334434417783,0.102083466524148112,1.04746975100003959e-08,-0.00223532145796204,1.71496736999773438e-05,0.000205616149334627934
1.11,31.2221529316117312,131.010473496140378,22.8225249574109377,1.21972984813468854,0.00161415302284380422,27.5955962179447098,0.0019542674868842369,3.04441899179816167,324.159391037639693,34.9258017244283252,15.6699667886719443,69.9500580271355545,0.00138602610539826873,113.701521576889249,745.504983566311807,15.2880000000000003,0,3.00035238401279658,0.102660783619781024,1.07795378987753934e-08,-0.00235361378370524139,1.73080631073108175e-05,0.000217714053408090487
1.12,31.2221523713029256,131.010475011761685,23.149550823709113,1.2480726818888328,0.00163286608398509206,10.2049327192186059,0.00195954771508950309,3.03022302158892165,172.73281794065943,35.2211630440696126,15.8012598145726599,69.9486792203211678,0.00141321841147807486,113.701551307211915,758.143692732915497,15.2880000000000003,0,3.00747633289187322,0.103529349746929872,1.11083404794714289e-08,-0.00247774051971026222,1.74723292095454528e-05,0.000231127038504339147
1.13,31.2221518073011985,131.010476537350769,23.47850380692865,1.27783383321656796,0.00165394335849292453,32.5882575673547663,0.00196178182900097475,3.01621101735613806,367.532807790070478,35.4596610127881178,15.9129719394199149,69.947227807156807,0.0014406639280154438,113.701581312313579,768.421623223914025,15.2880000000000003,0,3.01456041292762755,0.104230779377596991,1.14623812786006037e-08,-0.0026075741161755866,1.76422833179719288e-05,0.000244877429162482468
1.14,31.2221512390024927,131.010478074550264,23.8098537066065816,1.30854669994735007,0.00167675791021041905,17.9012574429144706,0.00196169968964921742,3.00228067873782534,239.695317731955441,35.6563633662813473,16.0102632408140693,69.9457004179596709,0.00146837132971608776,113.701611602286548,776.945739601726245,15.2880000000000003,0,3.02161414887422275,0.104809361796595432,1.18414496511679544e-08,-0.00274357775270993092,1.78185002351118827e-05,0.000259070529780329657
1.15,31.2221506668498598,131.010479622155657,24.1432600758584996,1.3349094813611182,0.00169446813452228131,17.6403305536984973,0.0019659683666846668,2.98695767906996901,237.412511535467729,35.9562959704935068,16.1428802387286296,69.9440936133741076,0.00149634947833808584,113.701642185938212,790.046367480350455,15.2880000000000003,0,3.02862888317736401,0.10569139016248473,1.22468511257652079e-08,-0.00288561944842542686,1.80007839666678662e-05,0.000274766504193141791
1.16,31.2221500909684373,131.010481179826769,24.478628591475232,1.36508686601513762,0.0017174637602848633,46.6931058375170807,0.00196447349190967879,2.97250709552228098,490.043774384589426,36.1386991100713999,16.2350997187708437,69.9424037935124261,0.00152460771781349255,113.70167307304105,798.056661885739459,15.2880000000000003,0,3.03560764827672003,0.106227955359133,1.2679224625764988e-08,-0.00303379543003930944,1.81892426776463446e-05,0.00029033179750055665
1.17,31.2221495105653197,131.010482749719642,24.8165749635226938,1.39271080068213515,0.00173771766752090634,8.01692895448743492,0.00196499958437862648,2.95713815486563325,153.709379294867944,36.3746161950268672,16.3455883505371844,69.9406273460330539,0.00155316288672120587,113.701704285439973,808.4840159239792,15.2880000000000003,0,3.0425549409166357,0.10692182997459615,1.31380620171322288e-08,-0.00318872668772415086,1.83846343641131584e-05,0.00030714073067728432
1.18,31.222148926686252,131.010484328991112,25.1562927028203269,1.41693626161661212,0.00175413037645239423,22.5485053227223737,0.00196843288157568614,2.94054667941759762,280.025018221967457,36.6849435270868653,16.4815281470062374,69.9387606268260669,0.00158200932124909622,113.701735810044326,822.311069773678923,15.2880000000000003,0,3.04945350215427569,0.107834439024815362,1.36255860584956977e-08,-0.00334986663482022932,1.8586258603766088e-05,0.000325404007379511285
1.19,31.2221483388603041,131.010485918921603,25.4981485505491143,1.44719403845455563,0.00177842800143201518,39.6276361249006612,0.00196389195361819499,2.92554450568405011,428.407813052929214,36.8256072583207867,16.5591677855055934,69.9367997682941649,0.00161116459648765701,113.701767669028612,828.602043307234453,15.2880000000000003,0,3.05632188215905298,0.108248334024490911,1.41414190053752763e-08,-0.00351772804913360639,1.87947423026650887e-05,0.000343008942405003108
1.2,31.222147746683067,131.010487520610923,25.8424575354688777,1.47169364297272676,0.00179607553349411374,3.81062213486734258,0.00196481898407910608,2.90859434087763491,117.184374136023607,37.0997482911415659,16.6825238205404496,69.9347409991468822,0.0016406383908114414,113.701799873275988,840.95688020186401,15.2880000000000003,0,3.06316093646738752,0.109054591328280659,1.4685643841561702e-08,-0.0036926978062787278,1.90105392781778616e-05,0.000362738482111112461
1.21,31.2221471512017139,131.010489131212012,26.188412406917255,1.49597482352876088,0.00181381556021588809,31.7576431722961274,0.00196493778390288264,2.89133460867670866,359.923432132008998,37.3657803500869434,16.8030214179434942,69.9325803115823561,0.00167044111257466047,113.701832432389978,853.032312560116111,15.2880000000000003,0,3.06995904958092725,0.109837020544190839,1.52605546764222378e-08,-0.00387417041017876695,1.92329020199513518e-05,0.000383280958240955392
1.22,31.2221465516194101,131.010490752891513,26.5366316915515412,1.52459965998362978,0.0018372098570939631,22.9120449662379144,0.00195937508736067009,2.87523750047181714,283.068750482576149,37.5107077928779233,16.8818646017337493,69.9303137113060416,0.00170058305218840646,113.701865358464275,859.633556441278984,15.2880000000000003,0,3.07673027028785118,0.110263469277959075,1.58651096359045739e-08,-0.00406293586958832598,1.94627809430956464e-05,0.000403501512081520753
1.23,31.222145948254969,131.010492384782708,26.8868711873849193,1.54751913904673777,0.00185407576577576892,8.7148333069571926,0.00195888783756119345,2.85708639436767964,159.796873822227951,37.7839641898848058,17.0046773972721859,69.9279371862668455,0.00173108217078163677,113.701898673019997,872.17427446740021,15.2880000000000003,0,3.08346665028171829,0.111067150885152136,1.65005982457797594e-08,-0.0042588430924114162,1.96999784928478594e-05,0.000426024415630499689
1.24,31.2221453415507426,131.010494025683016,27.238791446528019,1.5718644240483981,0.00187297311416491927,38.5252336139985445,0.00195592298754008369,2.83915905802068202,418.515630199805003,38.0098365341073929,17.1111463384024525,69.9254466293580066,0.00176193370758156325,113.701932364689611,882.603311775783936,15.2880000000000003,0,3.09016579909680233,0.111731553503094272,1.71682682080051443e-08,-0.00446169079477146211,1.9944251069571821e-05,0.000448968754939123261
1.25,31.2221447307683668,131.010495677600119,27.5929654912372904,1.59873766550777541,0.00189520804845000486,18.4496030913968028,0.00194946446439870432,2.82185061921610014,244.260946125734876,38.1632924852164521,17.1926603908440363,69.9228378287401,0.00179315614550886729,113.701966457051839,889.714041526702772,15.2880000000000003,0,3.09682283641830614,0.112183092298164977,1.78670256043236982e-08,-0.00467228612538230989,2.01965544076502318e-05,0.00047204253879324585
1.26,31.2221441163989262,131.010497339198935,27.9490160841355824,1.61935877518749627,0.00191034473272435994,10.7319133207778954,0.0019482747453081655,2.80216875821082079,177.298446336408631,38.4543798290296621,17.3213598427547488,69.9201065813706037,0.00182476023851032166,113.702000960873718,903.307346175091993,15.2880000000000003,0,3.10344383881684172,0.113039213746644274,1.85985744089164147e-08,-0.00489029441832822265,2.0456482182731743e-05,0.000497819420470829634
1.27,31.2221434986049715,131.01049901003762,28.3068201480725783,1.64441133317083299,0.00193101093994164463,37.0548378202258988,0.00194178198633465399,2.78378006706837677,405.579686079964688,38.6285031772392955,17.4098097375368894,69.9172483729115584,0.00185676534865439899,113.702035899409282,911.474978509999005,15.2880000000000003,0,3.11003216897558143,0.113551519478322469,1.93635338082514782e-08,-0.00511577983991748364,2.07241134928607089e-05,0.000523113364170241344
