Time,Latitude,Longitude,Altitude,Angle of Attack,Angle of Sideslip,X-Acceleration,Y-Acceleration,Z-Acceleration,Thrust,True Velocity,Ground Velocity,Pitch,Roll,Yaw,Dynamic Pressure,cp,cg,parachute_deploy_gain,Wind Speed,Wind Direction,Mach,omega_x,omega_y,omega_z,Cmq,Angle of Attack(total),Angle of Attack(gust),True Velocity(gust),Acceleration
0.0,31.222216000000007,131.010392,3.000000004412624,0.0,0.0,0.0,0.0,0.0,2.2828121974499247,0.0,0.0,69.99999999623412,0.0,119.9999999935444,0.0,1.274,1.0271675151847728,0,0.0,0.0,0.0,0.0,0.0,0.0,-0.0,0.0,90.0,0.0,0.0
0.01,31.22221599999084,131.01039200000497,3.000002745347096,0.0,0.0,0.0,0.0,0.0,34.242186961749226,3.465174813755316e-14,2.8705476994166025e-14,69.9999999962611,-2.1713911667908447e-11,119.99999999352175,7.352495975525499e-28,1.274,1.0271659134330349,0,0.0,0.0,1.0183245502395064e-16,-3.3305335486039093e-18,7.169286865560398e-18,5.624298769768554e-18,-7.715917190115602e-34,0.0,89.99999999999979,3.465174813755316e-14,0.0
0.02,31.222215999994315,131.0103920000094,3.0000030495639742,0.0,0.0,0.0,0.0,0.0,25.871876237766216,3.8197434737535036e-11,2.4171837235633357e-11,69.99999999628672,-1.1921727947863515e-11,119.99999999353136,8.93414285188691e-22,1.274,1.027164492361118,0,0.0,0.0,1.1225230367947217e-13,-6.657678965418802e-18,1.4338573731120796e-17,1.1241821275959074e-17,-1.7010872994127372e-30,0.0,89.99999999975682,3.8197434737535036e-11,0.0
0.03,31.222215999994315,131.0103920000094,3.0000030495639742,0.0,0.0,9.81877837424427,-2.5122800045972096e-05,3.3498614629347925,180.34219359854663,1.2659015405517447e-10,1.1364406173918436e-10,69.99999999631459,-1.6431898037347223e-11,119.99999999352724,9.812605835254651e-21,1.274,1.0271551940870716,0,0.0,0.0,3.720154642239108e-13,-9.991600645811728e-18,2.150108433310316e-17,1.6859343782149594e-17,-8.453698244545225e-30,0.0,89.99999999919412,1.2659015405517447e-10,10.374487003414373
0.04,31.222215999994315,131.0103920000094,3.0000030495639742,18.83801224594347,-0.0001111777826462,48.68248476615645,-1.016330065874988e-05,3.3497854396877287,548.635972453808,0.1556173050466994,0.0975908358443652,69.99999999633813,-2.0932768807056278e-11,119.99999999352085,0.0148286043323172,1.274,1.027133720825283,0,0.0,0.0,0.0004573186944143,-1.3322134194415637e-17,-1.04744143520903e-11,1.336824254131964e-11,5.0626055458604615e-15,18.83801224625964,89.06236267790787,0.1555998412814392,48.79759610369246
0.05,31.22221599164764,131.01039201704114,3.002326315126219,5.772385609593056,-4.395076213712875e-06,71.20344550265034,4.905512691849684e-05,3.349217396035405,761.6984298824663,0.8326471944351852,0.3620326097059287,70.00000001316391,-1.0866255162484559e-10,120.00000000231074,0.4245281043148827,1.274,1.027093426565204,0,0.0,0.0,0.0024469331205246,-5.0245994431125096e-18,-7.32924164976824e-07,2.217344936947165e-11,1.895424184525467e-09,5.772385609594774,84.74112356985832,0.8326465040582279,71.28217104309611
0.06,31.22221596664444,131.01039206837547,3.015081730143309,4.056581213689704,3.169093567502233e-05,53.16249142470188,0.0001203825427859,3.3481235983850643,590.4875390737236,1.657216205300742,0.6755452977614796,69.99999964391398,-3.9285905645317736e-10,120.0000000287861,1.6816755551786196,1.274,1.027050317124926,0,0.0,0.0,0.0048701272653724,3.095757869075056e-13,-7.483541766772344e-06,3.074135420506017e-11,3.8518749565858254e-08,4.056581213813337,79.59316473687034,1.657221183301277,53.26781792157489
0.07,31.22221592883117,131.0103921460222,3.034593611434361,4.115662018628709,6.450869598349036e-05,81.18203554989698,0.0001593212642178,3.347059402768047,855.2937749779172,2.099899704220947,0.8579771146174259,69.99999543281565,-8.233801910783518e-10,120.00000006883089,2.700101932075157,1.274,1.027003201295312,0,0.0,0.0,0.006171060252819,3.4704292086287e-12,-2.6327204536316785e-05,1.9541142932033486e-10,1.7170712165327165e-07,4.115662019133419,76.90111966094352,2.099909837223217,81.2510043180746
0.08,31.22221588914193,131.01039222747755,3.0542761843835606,3.459696193892355,8.037433511260004e-05,16.298214211652088,0.0002413456836072,3.344878926597744,241.2171988638792,3.051964775152957,1.2149999716613011,69.99998042886442,-1.0128995578004475e-09,120.00000011111383,5.703497661025892,1.274,1.0269597189470347,0,0.0,0.0,0.0089689344021769,1.458982438104473e-11,-5.702803872814215e-05,7.043261397829576e-10,5.405702492731987e-07,3.459696194824858,71.30331929508368,3.051977400323993,16.63790856991177
0.09,31.2222158241468,131.01039236098703,3.0886872184095737,4.313676956300389,0.0001337561018991,50.35975918308536,0.0002293282821279,3.344215841840564,563.0937377043203,2.893161298572128,1.191209213966114,69.99994788602814,-7.098432023887522e-10,120.00000018106356,5.125380275808925,1.274,1.026918932011013,0,0.0,0.0,0.0085022553945842,3.8672912027154325e-11,-0.0001115933708951,2.016054215232918e-09,1.0027525988343615e-06,4.313676958370176,72.2316578138625,2.893182308931483,50.47067588835877
0.1,31.2222157788302,131.01039245392113,3.109877853389092,4.035124630954496,0.0001457499816535,47.804664812504015,0.0002878217657545,3.341734392237128,538.7437595981891,3.5677148583138303,1.4531247507621967,69.99988403958329,1.9248461973355822e-09,120.0000002323013,7.7939962029572305,1.274,1.0268846934974103,0,0.0,0.0,0.0104845969583028,8.579678749070606e-11,-0.0001726817043215,3.984565639703107e-09,1.913455350430327e-06,4.0351246335824245,68.43243098813296,3.567737752667411,47.92132267234452
0.11,31.222215703308,131.01039260899836,3.148841432727305,4.043401107254707,0.0001752764476999,37.67622367577205,0.0003286462930162,3.3392563999062723,442.86563930529127,4.034183355956686,1.6436552022667772,69.99978525353545,7.302513231814865e-09,120.00000031883242,9.96528118825134,1.274,1.026848594915519,0,0.0,0.0,0.0118554331868328,1.5870341853361987e-10,-0.0002596204409236,7.232030302688121e-09,3.252930323390323e-06,4.04340111104746,65.92012987243639,4.034210888316708,37.82391391539392
0.12,31.222215627491828,131.01039276462643,3.186995101203875,4.17874459224363,0.0002066711490009,41.15991989399172,0.0003576945202315,3.336766085769504,475.58594813540793,4.361857560629481,1.7865750500940407,69.99963665601238,1.781774420198147e-08,120.00000041104812,11.649831899889556,1.274,1.0268114448194128,0,0.0,0.0,0.0128183893919737,2.682972478760441e-10,-0.0003710216542429,1.2215991071490164e-08,5.026311388647148e-06,4.178744597345269,64.21681651392016,4.361890024457652,41.29495143136631
0.13,31.22221554594398,131.01039293200228,3.2277173449026786,4.202734874672792,0.0002327160860324,45.44886120763352,0.0003953741266062,3.333578629398489,515.9156326236897,4.792165672014363,1.9646716520715424,69.99942424225341,3.613383418913551e-08,120.00000051758742,14.061726603124043,1.274,1.026779572895131,0,0.0,0.0,0.0140829618979635,4.248908088871395e-10,-0.0005056103199642,1.908859219307828e-08,7.5253154423526356e-06,4.202734881104192,62.048594618540655,4.792202226971676,45.570952718869485
0.14,31.222215454191247,131.01039312033683,3.2737880595608355,4.184830647080848,0.000257138757548,42.32232525579263,0.0004369426767266,3.329727443445437,486.2390860568421,5.269261304374574,2.158791628597544,69.99913473613935,6.515851355725497e-08,120.00000064630268,17.000925061330125,1.274,1.0267449573927567,0,0.0,0.0,0.0154850332441425,6.382432869666793e-10,-0.0006690086306358,2.8426433029675884e-08,1.0948547100483978e-05,4.184830654966803,59.74181173116622,5.269301695636157,42.45310707234106
0.15,31.222215353826755,131.0103933263496,3.3242182719560263,4.21963947489699,0.0002846467688673,40.886944113003565,0.0004726792395108,3.325585650885676,472.5421858721398,5.6781946837482895,2.329510773545807,69.99875162806286,1.0876776246115984e-07,120.00000079954532,19.742017654108928,1.274,1.0267115958081523,0,0.0,0.0,0.0166867950518804,9.204756288136623e-10,-0.000865746478554,4.08948221429571e-08,1.526771148078443e-05,4.219639484480408,57.84996018384879,5.678239395958187,41.02196629910223
0.16,31.222215247130432,131.01039354534575,3.3775922280208457,4.253495568077899,0.0003118339050386,32.26872905470846,0.0005078415214353,3.32090791922544,391.1218908297597,6.081244877834229,2.4981889727471702,69.99825581174558,1.7187028096464329e-07,120.0000009800088,22.644030778355887,1.274,1.026675762255412,0,0.0,0.0,0.0178712695992133,1.2856146928958252e-09,-0.0010961187242953,5.6923362293832417e-08,2.0702404729358337e-05,4.253495579487569,56.06022383757386,6.081293860589489,32.43916312841722
0.17,31.22221513260033,131.01039378041813,3.4348437275053194,4.364838523348639,0.0003448792023946,40.840448242802736,0.0005326487904353,3.3162727284953744,471.78125980632416,6.362544479165355,2.6250789114832647,69.99762801982864,2.5997588617291615e-07,120.00000119506798,24.78723182122683,1.274,1.0266409836796937,0,0.0,0.0,0.0186979513961862,1.747791994374917e-09,-0.0013624931601664,7.706724512977917e-08,2.6923621797558364e-05,4.364838536947241,54.85936171416122,6.362598652663785,40.97486885600156
0.18,31.222215014088988,131.01039402363364,3.4935801365785646,4.353948305387995,0.0003681615230806,33.992183768165326,0.0005718025428208,3.310131992647221,407.1015672119096,6.81502088160835,2.810667639293692,69.99684761766231,3.794979223522764e-07,120.00000144728236,28.437950785509614,1.274,1.0266048342046536,0,0.0,0.0,0.020027681385988,2.3221419748804155e-09,-0.0016616990447559,1.0147209890543081e-07,3.517105786247627e-05,4.353948320923495,52.99157233768714,6.815078712285162,34.152972512863755
0.19,31.22221488419521,131.01039429023237,3.558399965607869,4.432620772533925,0.0003996774584738,38.45149959021069,0.0005986099513107,3.304145139297767,448.95313283182486,7.1223367465208405,2.946425726785696,69.99589577323147,5.440084577183829e-07,120.00000176148238,31.060341085698347,1.274,1.026566130444714,0,0.0,0.0,0.0209308229359413,3.022391489754689e-09,-0.0020041563310821,1.3135864879722746e-07,4.433199397898183e-05,4.432620790516937,51.77883352025967,7.122399527709208,38.59320142454953
0.2,31.222214751373183,131.01039456280608,3.624052454705669,4.443889400961181,0.0004246617145652,35.23432408779927,0.0006337972852267,3.2968110145188256,418.5156301991588,7.530482904611057,3.1167566004785483,69.99474776398331,7.478025600151903e-07,120.00000211715036,34.72195181863731,1.274,1.026529240027363,0,0.0,0.0,0.0221302820454282,3.866698391504749e-09,-0.0023849544920781,1.668144671071589e-07,5.57780533277244e-05,4.443889421210987,50.22448880200342,7.530549610317194,35.38822625098952
0.21,31.222214608673173,131.01039485566503,3.6948551453492566,4.493351735844891,0.0004538195602194,33.79371564104691,0.0006629296043866,3.2891790438445727,404.8187610144608,7.868284042829251,3.2629204975089228,69.99338155599101,1.0150082652278477e-06,120.00000255293388,37.906665490338085,1.274,1.0264923657015164,0,0.0,0.0,0.0231230169900677,4.871073773182836e-09,-0.0028117605859743,2.089322918608601e-07,6.870935089180403e-05,4.493351758715364,48.992529909481824,7.868355328639073,33.95340801819282
0.22,31.22221446109996,131.01039515850383,3.767700382407304,4.5412639153933885,0.000482649303782,41.008966751568416,0.0006914639179131,3.2808061382386606,472.5421858721387,8.20057841132235,3.4071691679735228,69.9917708347139,1.3454961520984431e-06,120.00000305929996,41.175744234065135,1.274,1.0264494137127138,0,0.0,0.0,0.0240995709751246,6.054779813287368e-09,-0.0032829112061357,2.580881224843564e-07,8.3609968899004e-05,4.54126394098788,47.82515604752711,8.2006542256977,41.13999323561041
0.23,31.22221430675399,131.0103954752338,3.843768625625224,4.52371495179584,0.0005047555656171,33.98493478127787,0.0007294889663961,3.2705214710765107,406.340642146096,8.647938096586296,3.5908865300848416,69.98989017772566,1.7539876018835507e-06,120.00000365514876,45.79040229326471,1.274,1.0264133390858623,0,0.0,0.0,0.0254142776666487,7.436335125872812e-09,-0.0038001790077148,3.1489825108822685e-07,0.0001020628978177,4.523714979897577,46.31461705147579,8.648017383405135,34.14194053232237
0.24,31.222214142622448,131.0103958120587,3.92493179063287,4.57837522350066,0.0005351929930195,35.051650311058864,0.0007555049947555,3.26053011385611,416.2328240017099,8.954297884844461,3.72617527247482,69.98771316795013,2.25257161141768e-06,120.0000043564586,49.09180568115741,1.274,1.0263750048312463,0,0.0,0.0,0.0263146218848643,9.034877387788232e-09,-0.0043732521010013,3.809642748985157e-07,0.00012161410144,4.578375254714954,45.32798984252032,8.954381952763216,35.20297212911011
0.25,31.22221397517227,131.0103961556623,4.0071748888306855,4.6034117733065,0.0005618935542827,36.03738579534623,0.000785606492708,3.249069743648399,425.3640807915084,9.311611941121669,3.8789349536029696,69.98520781816889,2.8559738498748624e-06,120.00000517181904,53.08749562138344,1.274,1.0263373768840591,0,0.0,0.0,0.0273647110956883,1.0873791100894836e-08,-0.0049950711786164,4.5609738277273444e-07,0.0001444478241125,4.603411807525074,44.2165428352526,9.311700203154778,36.183554686886296
0.26,31.22221379934012,131.01039651647062,4.09364247475714,4.621386912291471,0.0005881033207375,39.29107511182762,0.0008162761165496,3.236407051295005,455.80158342417656,9.67833954512075,4.034902068846398,69.98234620927953,3.5784678110229355e-06,120.00000612171208,57.350948423913096,1.274,1.0263006300381676,0,0.0,0.0,0.0284424679130479,1.2973286442992724e-08,-0.0056712051373577,5.414206381221602e-07,0.0001704578711045,4.621386949630312,43.12063533194282,9.678431924174348,39.42414126789902
0.27,31.222213616776543,131.01039689108487,4.183310605341074,4.617158109135719,0.0006115457810536,35.90419462403674,0.0008503454714941,3.221982799915672,423.8421996598744,10.088790784535757,4.205862468567124,69.97909721779352,4.436165972465058e-06,120.000007221354,62.31798301949865,1.274,1.026260090595354,0,0.0,0.0,0.0296487219805601,1.5355910600537293e-08,-0.0064045199323113,6.379142666348734e-07,0.0002006609239367,4.617158149547818,41.94410287616451,10.08888684592241,36.048472443180565
0.28,31.22221342607797,131.0103972823952,4.277051150896916,4.642105655370123,0.0006389739579882,41.51133203546672,0.0008785747638736,3.2071101123224945,476.3468732012228,10.432377224420517,4.35383399240675,69.97542808435722,5.446665372087172e-06,120.00000849080963,66.63429581008447,1.274,1.0262212716723291,0,0.0,0.0,0.0306584788590473,1.8045308789081613e-08,-0.0072006835403936,7.469524967369969e-07,0.0002332868227611,4.642105699250441,41.0023231023774,10.432477594215127,41.63503624837164
0.29,31.22221323001776,131.01039768469093,4.373143569786686,4.62134615173668,0.0006600657405645,33.17552944492765,0.0009148746278066,3.1894209319791806,397.9703104221098,10.876662296046485,4.536381530986506,69.9713027936179,6.629751536885327e-06,120.00000994797426,72.43000748232016,1.274,1.026183007522519,0,0.0,0.0,0.0319641703260467,2.1067646517035105e-08,-0.0080566154554079,8.688043379161898e-07,0.000272130659453,4.621346198772975,39.83162628795024,10.876765978930557,33.32848872465723
0.3,31.22221302403368,131.01039810736614,4.4744193758467325,4.664362353358112,0.0006905183788532,31.08096762732793,0.0009381960428197,3.172549142946348,378.1859457108735,11.168362145070317,4.66647911311536,69.96668711012893,8.005507138509574e-06,120.00001161892672,76.36634300732833,1.274,1.0261430389738484,0,0.0,0.0,0.0328214509167604,2.4447409007156216e-08,-0.0089829108229115,1.0056222251461646e-06,0.0003115527202986,4.664362404357781,39.09908960432563,11.168470611443622,31.242464973103964
0.31,31.22221281503337,131.01039853619727,4.576593712520673,4.700143580504286,0.0007196683316923,32.79732593144512,0.0009620705970519,3.154230688182399,394.1656220930229,11.470279728974068,4.800072153432283,69.96154070456518,9.597499105113692e-06,120.00001352112182,80.55022837857167,1.274,1.0261054058068628,0,0.0,0.0,0.0337087616009043,2.8214060606649844e-08,-0.0099686353219717,1.1565909895184251e-06,0.0003550834484269,4.700143635477137,38.36463422765983,11.47039277421126,32.94865339301887
0.32,31.222212598991007,131.01039897947376,4.68216432480395,4.718667719113184,0.0007464384342556,35.7316568886908,0.0009885845337584,3.133859770838664,421.5593934624264,11.808280530415894,4.946054328851105,69.95582953472353,1.14278227255889e-05,120.00001568218067,85.36654007972253,1.274,1.026068246703101,0,0.0,0.0,0.0347021168382987,3.2392058795580455e-08,-0.0110163301561155,1.3226102501723267e-06,0.0004039614423012,4.718667778018562,37.5686120062341,11.808397780690962,35.8688218659563
0.33,31.222212376029034,131.0103994369436,4.791055524254013,4.72141404831576,0.0007708346814671,35.42013590291081,0.0010176135371143,3.1111955852784385,418.5156301991632,12.181577273013426,5.104163223586657,69.94951809396906,1.351997394754887e-05,120.00001812674968,90.84831229869296,1.274,1.0260310883392356,0,0.0,0.0,0.0357992034445943,3.700677535501642e-08,-0.0121310534481307,1.5051409581878843e-06,0.0004588955105349,4.721414111097893,36.7208578211118,12.181698355442045,35.55651229220977
0.34,31.222212145785647,131.0103999093516,4.903491659547144,4.73024573449122,0.0007962944975467,27.63851074646407,0.0010446307681611,3.0871492806781062,345.4656368807584,12.53557620048282,5.2556261014174765,69.94256797855994,1.5899658158227497e-05,120.000020882338,96.20413272674828,1.274,1.0259901535019136,0,0.0,0.0,0.0368395817555172,4.208561016221623e-08,-0.0133180771902383,1.7057647550599631e-06,0.0005184333231541,4.730245801363397,35.94841996438923,12.535701282129995,27.810389570354005
0.35,31.222211909310875,131.01040039453565,5.018822212845608,4.780248518778662,0.0008286678570753,30.332092807652543,0.0010618579815451,3.063967690608957,370.5765700527057,12.774786382148209,5.367579971644358,69.93493776125636,1.8594985713558667e-05,120.00002397748868,99.9096898192772,1.274,1.025950003202184,0,0.0,0.0,0.0375426220587071,4.7658312175989686e-08,-0.0145774693288123,1.9252724355785177e-06,0.0005782798420984,4.780248590437683,35.44790728185619,12.774916548990808,30.486451961956565
0.36,31.22221166933814,131.0104008868675,5.135354490370708,4.798132156899578,0.0008554457330409,34.32674769697476,0.0010851169437774,3.0374319611165923,407.8625232777224,13.09301701329486,5.506730645516068,69.92658597246795,2.163521613217148e-05,120.0000274401514,104.94818266210537,1.274,1.0259105142325406,0,0.0,0.0,0.0384778908056978,5.3755109608570216e-08,-0.0158991451700967,2.162609490834569e-06,0.0006464142451675,4.798132232978766,34.796094028187134,13.09315138639638,34.46087058603792
0.37,31.222211421355144,131.01040139563804,5.255882891363927,4.797392186816851,0.0008791822061288,32.551601855236584,0.00111162791192,3.0078619428913056,391.1218908297639,13.457513730739372,5.661815946371007,69.91747693543164,2.5047738471809164e-05,120.0000313040604,110.87154396328836,1.274,1.025872170958032,0,0.0,0.0,0.0395491312153729,6.040098808671168e-08,-0.0172926678053148,2.420031948898497e-06,0.0007226353721561,4.797392267189059,34.07332166419882,13.457651832357364,32.69027405888565
0.38,31.22221116634284,131.01040191882743,5.379799334000849,4.811698494594017,0.0009057112478668,34.02947987649063,0.0011338447913587,2.9774881690446744,404.81876101445977,13.77554886562956,5.800899861213392,69.90756948297444,2.886339581486796e-05,120.00003560072224,116.17243393848278,1.274,1.02583050512925,0,0.0,0.0,0.0404838339452728,6.762496638941508e-08,-0.0187646375218858,2.69955777313946e-06,0.0008026686661094,4.8116985796350695,33.46655348088405,13.775691134419684,34.15949264475229
0.39,31.222210906095896,131.01040245274032,5.505993307722699,4.813508003664984,0.000929862892873,29.00025983045028,0.0011579891265804,2.9442136901860865,357.6406249338268,14.124492165837273,5.950648592462506,69.8968186645841,3.311602501056718e-05,120.00004036395212,122.13093644173792,1.274,1.02579027384009,0,0.0,0.0,0.0415093739609825,7.545934774906889e-08,-0.020311592409804,3.0013532510753577e-06,0.0008908380763632,4.813508093268025,32.821616487639595,14.124638228358922,29.149330452482886
0.4,31.222210638473225,131.0104030017851,5.635788650457906,4.841647069358873,0.0009592124397379,27.71178845184976,0.0011749448424961,2.91135549588368,345.4656368807565,14.390874239274588,6.07193451174791,69.8851815212744,3.783947407715338e-05,120.00004563180136,126.77947425345651,1.274,1.0257493418632293,0,0.0,0.0,0.0422922854866381,8.39343718693383e-08,-0.021938519432511,3.3271332720311508e-06,0.0009803271643914,4.841647164150728,32.348088166612904,14.391024912012275,27.864299944624147
0.41,31.22221036681104,131.01040355909262,5.767123077463226,4.86553909860892,0.0009876699832274,31.306062598221665,0.0011918093836199,2.876450850006428,378.9468707766882,14.663028799871563,6.195223154320929,69.87261222561014,4.307011032901644e-05,120.0000514391194,131.6183642808765,1.274,1.025708445186429,0,0.0,0.0,0.0430921644173401,9.308325447883581e-08,-0.0236371933433427,3.6760977501392174e-06,0.0010761942383903,4.865539198612839,31.87689439156756,14.663183942709727,31.437931330109585
0.42,31.22221008906472,131.01040412887247,5.901259531771367,4.867510642114694,0.0010118258958528,35.308283402190774,0.0012128114559048,2.8374461227958245,416.23282400171047,14.9952917972178,6.33928625560071,69.85906967380902,4.884273094936628e-05,120.00005782486392,137.64909586091787,1.274,1.0256701057426505,0,0.0,0.0,0.0440686959134695,1.0293499639582845e-07,-0.0254093547296826,4.049238334851429e-06,0.0011830797791891,4.867510747027452,31.315270489291198,14.995450734457847,35.422111438762386
0.43,31.222209804115888,131.01040471342728,6.038886819939341,4.854590670645608,0.0010330089741511,31.00586934514032,0.0012363751872706,2.794478603999558,375.90313951343126,15.369430568701889,6.497852263156962,69.8445117629242,5.519340856908871e-05,120.00006482835984,144.60167924299955,1.274,1.0256308158337524,0,0.0,0.0,0.0451682983415116,1.135186446762958e-07,-0.0272634397889413,4.449073329427772e-06,0.0013010625065656,4.854590780289497,30.70250814963406,15.369592833372094,31.13154422839874
0.44,31.22220951192321,131.01040531284193,6.180028459770617,4.866912332640401,0.0010595850174406,28.57707721036899,0.0012525768202179,2.752165534925872,353.07501253892326,15.659290812546615,6.627318538707029,69.82889155423543,6.216182865383864e-05,120.00007249162944,150.1053167542629,1.274,1.025586171750536,0,0.0,0.0,0.0460202245100907,1.2486676023179565e-07,-0.0292060158163984,4.8779154055816594e-06,0.001420032405556,4.866912447705031,30.24619499837236,15.659457251771938,28.709297424144207
0.45,31.222209215425703,131.01040592106523,6.322872201489905,4.881836476567178,0.0010866574689855,33.31904824532484,0.0012669045761511,2.7082028218433374,397.2093853562887,15.934249290371609,6.751662050993672,69.81215834018458,6.97909417564726e-05,120.00008085697964,155.42080512416243,1.274,1.0255397023523487,0,0.0,0.0,0.0468283602442113,1.3701614206272197e-07,-0.0312276295846745,5.334643585560923e-06,0.0015449645531859,4.8818365972149325,29.82567893138932,15.934419982127675,33.428929688274074
0.46,31.22220891307435,131.0104065412864,6.468371919199588,4.869610441729251,0.0011078049156487,38.95909776354321,0.0012868374716666,2.6582856015412624,449.7140588976424,16.292139278621757,6.904766425053949,69.79426683863348,7.812149592850748e-05,120.00008996920153,162.4785746623087,1.274,1.02549635315424,0,0.0,0.0,0.0478802236363867,1.499987870203256e-07,-0.0333272350234362,5.819761874615242e-06,0.0016858511402973,4.869610567434908,29.29014635640275,16.292313292210977,39.04968351401366
0.47,31.22220860266524,131.01040717804253,6.6178810515614845,4.838450928223533,0.0011247917292402,26.253747818137555,0.0013104398935566,2.6026193242279367,331.0078106302504,16.710658191447514,7.078951441335346,69.77517236812905,8.719457259907165e-05,120.0000998741591,170.9309671061642,1.274,1.025453319323251,0,0.0,0.0,0.0491102725711187,1.6384464803343264e-07,-0.0355167087264168,6.3368207228363735e-06,0.0018427306558807,4.838451058652396,28.68386015667837,16.710834873319172,26.382435512333956
0.48,31.222208284201663,131.0104078313267,6.771393590864176,4.869339340099417,0.0011561785713505,25.860860976019296,0.0013165328518772,2.5543454292827983,327.20312230115803,16.911139899671,7.177575416403102,69.75482343794755,9.70562828082882e-05,120.00011062072316,175.0543877818846,1.274,1.0254092882449153,0,0.0,0.0,0.0496995461609974,1.7858865391586845e-07,-0.0378054080201581,6.88909442277235e-06,0.0019849793891693,4.869339477030596,28.40887970825325,16.911321511776286,25.986704537635287
0.49,31.22220796480208,131.01040848648364,6.924537656029012,4.881367714530694,0.0011829003785372,32.565703383222065,0.0013261973190012,2.5011623511055703,389.6000096981238,17.169005224738054,7.296160258358563,69.73316318155707,0.0001077573203115,120.000122255028,180.4309832312717,1.274,1.025367445590036,0,0.0,0.0,0.05045746454003,1.942747077649401e-07,-0.0401641298712614,7.47069711110948e-06,0.002140948887153,4.881367857509675,28.058569663954906,17.169191034294997,32.66161128464712
0.5,31.222207637929923,131.01040915697027,7.081324512896956,4.862566137860805,0.001202418260511,33.47759680712428,0.0013425340759632,2.4399894027711366,397.970310422106,17.52898693231981,7.450304424940405,69.71015149227495,0.0001193385310595,120.0001348274002,188.0736471953394,1.274,1.0253278572281015,0,0.0,0.0,0.0515154948878309,2.109295159784217e-07,-0.0426011733481599,8.084173008518589e-06,0.0023184335011768,4.862566286171007,27.57768313050809,17.529175807738486,33.56639745442473
0.51,31.22220730314019,131.01040984370235,7.24202048914867,4.8479762258125,0.001223054804074,25.49162310288008,0.0013562860883156,2.3767006597692686,323.39843497208153,17.86914397471067,7.597652147346554,69.68574349602717,0.0001318441288964,120.00014838524436,195.4407439266201,1.274,1.025286455263166,0,0.0,0.0,0.0525152689856776,2.2858192086249162e-07,-0.0451315948093539,8.734206149830708e-06,0.002503767471626,4.847976379721193,27.13799345359824,17.86933609171003,25.602178740977283
0.52,31.222206962738102,131.01041054193402,7.405210501673173,4.865306299521403,0.0012516517170965,30.733671928447727,0.0013599291289974,2.317711624364424,372.098451184342,18.08534843773428,7.701914987606457,69.65988568649581,0.0001453248538387,120.00016298000436,200.19561780583155,1.274,1.0252426840672306,0,0.0,0.0,0.0531507657929359,2.4726951523704535e-07,-0.0477531686556663,9.421346966092632e-06,0.0026812161964639,4.865306460134566,26.8699055233151,18.085545046726228,30.820940596104087
0.53,31.222206619320115,131.01041124632013,7.569307468221277,4.848802699234936,0.0012715119568563,32.301199055744725,0.0013711327835325,2.2490252325653923,386.55624643486095,18.41963113311156,7.8474319110539055,69.6325258319474,0.0001598315062727,120.0001786629144,207.6614205945027,1.274,1.0251993415311351,0,0.0,0.0,0.0541332845214831,2.67031759303889e-07,-0.0504479325599339,1.0141887756417996e-05,0.0028848299490111,4.848802865552398,26.45837260670532,18.419830861742675,32.37940050117613
0.54,31.22220626697288,131.01041196903336,7.737918664599091,4.831496690588052,0.0012913635058467,28.31291960103712,0.0013809098107221,2.177242866245296,349.2703242098436,18.75116898748492,7.992112829440902,69.60362200959217,0.0001754082864028,120.00019548734956,215.20067397992847,1.274,1.0251561018460285,0,0.0,0.0,0.0551077428911958,2.878941684235108e-07,-0.0532336286085667,1.090122304443916e-05,0.003098869611663,4.831496862756785,26.061835558272342,18.751371834390056,28.396510432451375
0.55,31.222205908994248,131.01041270328463,7.909026079894722,15.583667740966511,19.664999119857367,30.720439458472708,-1.3368252415728843,1.3946302070072405,365.2500005919912,22.576858604022103,8.113323699629928,69.57312211246325,0.0001921068626005,120.00021350480982,311.9656824561849,1.274,1.025112921033824,0,8.77241248081048,0.0,0.0663511763773331,3.0989272306468813e-07,-0.0561100530405476,1.1700476995263424e-05,0.0039326558448982,24.8978919174017,43.03553878934265,25.605539229253623,30.78112239120741
0.56,31.222205546564343,131.01041344664463,8.081909946161325,4.780579141865763,-24.53176776725701,28.642570722818714,1.120577225551642,1.865936526802212,346.22656194657776,21.252621926904247,8.244196224145494,69.54097415464405,0.0002099796112633,120.00023276987916,276.43792197606126,1.274,1.0250709539098009,0,8.804417249057845,210.00008998959544,0.0624594962859334,3.329453068617489e-07,-0.0676788746658307,0.0162031517425457,0.0044651924887967,24.964916073927476,5.603615411035518,17.515842547186224,28.72515047919073
0.57,31.22220518050852,131.0104142056356,8.258482545612129,4.778136302855181,-24.243468057274644,28.33276472509176,1.4768507242621816,1.7873805456599805,343.1828296833045,21.5062493702056,8.373362621586965,69.50219571939748,0.0250463022753114,120.02674470608842,283.0704778186161,1.274,1.0250279191823897,0,8.836171976839463,210.00008998959544,0.0632050098549269,3.696367337657797e-07,-0.0706899826580507,-0.0011173357975541,0.0047194319605051,24.681909657488205,5.543782762095549,17.810715220621482,28.427475692438144
0.58,31.22220480265459,131.01041497163988,8.43685315482789,4.76151308269026,-23.97897291436994,37.269209997835695,1.8483528584094453,1.7058192928291736,426.12500585731766,21.77087729417968,8.501407617569622,69.46169437622912,0.0232902580859851,120.02486988179116,290.07456203262007,1.274,1.024981594484354,0,8.868005395768742,210.00008998959544,0.0639828572191644,3.98185652246894e-07,-0.0737863670624272,-0.018679630729075,0.0049866834055297,24.41972884071356,5.494469125097089,18.11326512679674,37.35398561882995
0.59,31.222204420514128,131.01041575019636,8.617991160734384,4.710765285058472,-23.5692519302422,30.24810083329737,2.247446875131958,1.6089464761994925,360.68438819710633,22.159502995110422,8.677211526549671,69.4194203552724,-0.005262464059032,119.99437504199304,300.5178427005382,1.274,1.0249386802161349,0,8.899603208085244,210.00008998959544,0.0651251299731423,4.185163734657066e-07,-0.0769618787470756,-0.0365118764142098,0.0052940478374241,24.00904675223792,5.384916423832326,18.5607881569626,30.37412270734976
0.6,31.22220402699844,131.01041654769253,8.804049772717379,4.693318100402937,-23.312927999910787,26.908820341341663,2.6484004436968727,1.521750442189409,329.4859594986072,22.411666914369373,8.80058578843831,69.37531316993882,-0.0608429147932415,119.93499713220976,307.39074744727674,1.274,1.024891335813742,0,8.931134117088126,210.00008998959544,0.0658663592129162,4.3053354714064657e-07,-0.0802381073374871,-0.054721559039797,0.0055821211915675,23.75479107130073,5.32994561639855,18.8498923694729,27.081624055456505
0.61,31.22220362981844,131.01041734942123,8.990670137136322,4.67689696646686,-23.066981402985803,31.50984428581244,3.059858381374495,1.4330375222002787,372.0984511843332,22.65054164193846,8.918872352906275,69.32928497563738,-0.1438279415854135,119.84631593790677,313.9726896702769,1.274,1.0248423929069768,0,8.96295462317249,210.00008998959544,0.0665685358772242,4.3410827931942964e-07,-0.0835901677426677,-0.0731756131042208,0.0058771994847919,23.51092840424562,5.274850763297126,19.12427887792514,31.69048148530168
0.62,31.222203225449896,131.01041816268082,9.179984209080713,4.639030865104257,-22.7312394111028,39.13942517789627,3.496789929726681,1.3328272714246163,442.86563930529206,22.96827566056024,9.0676115220994,69.28124671586559,-0.2543727077225593,119.7281466443313,322.83720504837083,1.274,1.0247996097896497,0,8.994315889750766,210.00008998959544,0.0675024805989091,4.291712900788976e-07,-0.0870148805055693,-0.091855042963105,0.0062036982938448,23.17516431552369,5.182524406421776,19.490594832309707,39.31791667426227
0.63,31.222202811986048,131.0104189914188,9.3731295962482,4.579712073146812,-22.307506029704097,22.2708374940264,3.9666577724579457,1.2192700850251696,286.11251274707456,23.370842265441308,9.248988376695808,69.23109530943118,-0.3925843416390737,119.5803543206162,334.24696231782053,1.274,1.024756158874558,0,9.02556572294326,210.00008998959544,0.0686857510489321,4.156616024505406e-07,-0.0905255425988266,-0.1108227918511249,0.0065669875780343,22.74923103259405,5.055921452124575,19.954645995661974,22.654165094069796
0.64,31.222202388574583,131.0104198374566,9.570616232434944,4.5805435307976285,-22.15063633571175,21.86967554331341,4.399901661915762,1.132429086575592,282.3078244179702,23.505538848324687,9.327518329362777,69.17870347936426,-0.5586442539459026,119.4027230225326,338.10448192928226,1.274,1.024708534665538,0,9.05690276682016,210.00008998959544,0.069081771560094,3.9349382089920906e-07,-0.0941365545121723,-0.1301470941716238,0.0068681689274656,22.5959238192344,5.020863587677375,20.11215225298433,22.336612067197034
0.65,31.222201965201783,131.01042067996477,9.766418056870416,4.562078859653227,-21.913761993102977,38.516291959715055,4.85541001277855,1.0351550868506552,436.7781447787504,23.71284460644831,9.43401133060554,69.12391809985198,-0.7528128756068587,119.19495044562568,344.08809741208813,1.274,1.0246641738210605,0,9.088395824228444,210.00008998959544,0.0696911882420218,3.625719948454884e-07,-0.0977978492713289,-0.1495730474908762,0.0071980896622797,22.36068526894812,4.954390538244344,20.353948929746835,38.83492369983536
0.66,31.222201532965624,131.0104215376432,9.965925510608487,4.489641035346195,-21.44678663975856,32.77686460595338,5.3802557320505935,0.9061966851969576,383.5125151715984,24.153406520122413,9.630405545616645,69.06659908867375,-0.9749434498038184,118.95716813818188,356.9856847187209,1.274,1.0246195561629028,0,9.11909009374475,210.00008998959544,0.0709861434597886,3.229045414750586e-07,-0.1015212835079518,-0.1691576905588595,0.0076108202209442,21.8899710164703,4.807138042667087,20.86267401505454,33.22786778551288
0.67,31.222201087942256,131.0104224189935,10.171534474718944,4.449963425982445,-21.125999047363727,22.60435316656177,5.885028846323942,0.792122872921163,289.15624401033847,24.437903772764752,9.766852938662398,69.00658259320019,-1.2249510562282135,118.68943970799847,365.4376971085092,1.274,1.024572383541697,0,9.149844251986051,210.00008998959544,0.0718224390210316,2.744731013129281e-07,-0.105348298495967,-0.1891004694894881,0.0079905904905605,21.5685889501547,4.708295460190106,21.194122725024712,23.371303028426137
0.68,31.22220063979193,131.01042330354724,10.377381061736882,4.4321360465921735,-20.903547653938915,28.178979670045823,6.369161842109157,0.6898996531677,340.89999248584934,24.60787978901065,9.859290380042466,68.94366119673386,-1.503019877975702,118.39153845662727,370.5316013043317,1.274,1.0245245285832842,0,9.180997518838703,210.00008998959544,0.0723221625868059,2.1718936451712057e-07,-0.1092483655239012,-0.2092469896341517,0.0083438782480559,21.34765555398411,4.640027803730288,21.39671720260085,28.898046289451404
0.69,31.22220018708424,131.0104241943319,10.584337819418929,4.385768062687365,-20.561366840878524,34.652368606592326,6.8996636441641215,0.5684952904364953,401.0140726853658,24.903455363291584,10.0002327628194,68.87762853794267,-1.80907315117932,118.06351479290772,379.47873913076506,1.274,1.024479631064582,0,9.211658651639697,210.00008998959544,0.0731910253271359,1.5103632176077689e-07,-0.113198427961798,-0.229482638212645,0.0087492371473605,21.004084454214407,4.532868496273551,21.74256170791631,35.33716450629555
0.7,31.22219972450624,131.0104251030884,10.79569419701612,4.324522921737359,-20.15912917802465,29.054377365675663,7.466137069625914,0.4343833964195012,349.270324209851,25.264452984314207,10.16651643884408,68.80827621352049,-2.1428341266103423,117.70563113664844,390.5523128042095,1.274,1.0244351749185203,0,9.24200442835848,210.00008998959544,0.0742521710507077,7.604674140397438e-08,-0.1172196382521868,-0.2499060452247526,0.0091911879003136,20.598872493667084,4.408599382181621,22.16279508400048,30.00147889329147
0.71,31.22219925361606,131.01042602670455,11.010531949760248,4.282714833228505,-19.84367990184985,23.861470351581303,8.01106529912661,0.3116534691636458,301.3312640634036,25.517573249296515,10.29134686485818,68.73536513270017,-2.504138862974484,117.31802651619968,398.4090505387401,1.274,1.0243880468141104,0,9.272504529060225,210.00008998959544,0.0749962727155818,-7.782667144776639e-09,-0.1213217343406967,-0.2705596721143807,0.0096079423609337,20.2823499873022,4.312359374369054,22.46247726091998,25.17228758875732
0.72,31.222198778323367,131.01042695655977,11.22643419579406,4.247355657269927,-19.55846805443416,29.17684685208356,8.548705719782236,0.1929187930732588,350.7922053414578,25.724591166063416,10.398525232393087,68.65863212095438,-2.892848701637313,116.90081001157031,404.8912711210599,1.274,1.024337302174265,0,9.302949573523357,210.00008998959544,0.075604883540325,-1.0046712117866104e-07,-0.1254822367313647,-0.2913326669200677,0.0100178410733543,19.996680570024328,4.227014914295981,22.711673646780408,30.404045444218387
0.73,31.222198297328102,131.0104278956488,11.444226831327049,4.191000690947448,-19.186940784078672,36.86909867731824,9.133662359640232,0.0566160922542775,422.3203185282354,26.03162177800388,10.544444158416924,68.57781269884921,-3.308625019473044,116.45430233373963,414.60527159373686,1.274,1.024292465384646,0,9.33307401485721,210.00008998959544,0.076507438194734,-2.0196944717217361e-07,-0.1296900907994047,-0.3121695347398866,0.0104771302217453,19.622472413880327,4.121606187749555,23.07375926826036,37.98364688599082
0.74,31.2221978074652,131.01042885158785,11.66596666857548,4.117751773002141,-18.747464646420145,23.022719685158595,9.7673820166433,-0.0964822851600694,294.4828134710563,26.423430391719176,10.723245641634197,68.49263498233806,-3.751010777658799,115.9789484190314,427.17076092229024,1.274,1.0242470321640116,0,9.362996836833616,210.00008998959544,0.0776591655368308,-3.122211326693925e-07,-0.133960755041904,-0.3331397029082686,0.0109847925540062,19.178467778470377,4.004978435298838,23.53085232402819,25.00913197197747
0.75,31.222197308730586,131.01042982486675,11.891732722052408,4.083380370965713,-18.47439793836216,26.84390039530766,10.31573155190156,-0.216662770533762,330.24688556441737,26.58400969580719,10.81288421929133,68.40280098833611,-4.219608526306658,115.47512606893238,432.3691297979884,1.274,1.0241984712898409,0,9.392978667509182,210.00008998959544,0.0781313113924266,-4.311762915499682e-07,-0.1383064586579746,-0.3542966460652,0.0114098151065074,18.90490119736795,3.938197705257426,23.732081815922808,28.75858565090139
0.76,31.22219680897864,131.01043079673073,12.1164447670161,4.025758509462251,-18.10652854385244,28.848063147346902,10.922787916778343,-0.3582263092331151,349.2703242098581,26.865191401788035,10.94925233792916,68.3079881973223,-4.714052442052044,114.9431755643591,441.5543950295632,1.274,1.0241522053390697,0,9.422982807403145,210.00008998959544,0.0789579141910441,-5.588184442761582e-07,-0.1426814973428958,-0.3754239004573662,0.0118949846129218,18.53401729433575,3.856802504834707,24.06812879817468,30.84876609066982
0.77,31.22219629962028,131.01043178829846,12.345761486753291,3.9642742063861696,-17.724058024003348,26.896751619325823,11.544800071221724,-0.5046115670605535,331.76876669606884,27.157777604650065,11.090276782821933,68.20789598064773,-5.233625591359714,114.3838114043846,451.2146846452442,1.274,1.0241065975906936,0,9.452397015825971,210.00008998959544,0.0798180437032333,-6.950182210397242e-07,-0.1471043841713036,-0.39660524537333,0.0123969990329986,18.14808613853497,3.78373658044902,24.417880165542982,29.27408904116059
0.78,31.22219578430903,131.01043279107287,12.577356450501902,3.906674787418592,-17.360637825746554,21.975450016969223,12.158023102891557,-0.6476007260353711,286.8734378128874,27.41437311942555,11.217502096623814,68.10219787719113,-5.77768683280961,113.79766316559352,459.77118564351343,1.274,1.0240588105546735,0,9.481963843074684,210.00008998959544,0.0805724010619214,-8.396812108381924e-07,-0.1515733471163776,-0.417827966746522,0.0128940166048727,17.78155674384652,3.728450760893725,24.728906687789973,25.122844502944307
0.79,31.222195263608462,131.0104338038383,12.810888943196629,3.856291914639036,-17.02894089545797,31.284413995459783,12.746187679317748,-0.7822035949363582,373.6203323159581,27.61116641807848,11.321699256634188,67.99055806268603,-6.345532215050626,113.18542447373233,466.3853272390052,1.274,1.0240083170932772,0,9.511377188195947,210.00008998959544,0.0811510015650472,-9.927056239385892e-07,-0.1560778675907328,-0.4390415167162554,0.0133722165693737,17.447498715736725,3.695104223241313,24.9754740258933,33.790408429902755
0.8,31.22219473845036,131.01043482434025,13.04575337882564,3.7794980711875183,-16.590068723811953,31.611424376525427,13.422938071486756,-0.9470997888970398,377.42502064505805,27.96589207527948,11.487438524923256,67.87264026342869,-6.936343383953934,112.54790867449384,478.434986854377,1.274,1.0239625010683884,0,9.54055246591547,210.00008998959544,0.082193780978728,-1.153966660010881e-06,-0.1606032387181641,-0.4601761718801009,0.01393639689834,17.00333542989895,3.658583122706211,25.39619179163352,34.35628640574944
0.81,31.22219420388461,131.01043586657707,13.285514738737884,3.7069214497679286,-16.170697266154537,20.31875363587313,14.08888506294962,-1.1081698132661972,273.9374926939922,28.28245967695285,11.63860315255471,67.74811414344767,-7.549164614037619,111.88607391184628,489.3165783856039,1.274,1.0239149950770308,0,9.56944456837132,210.00008998959544,0.0831244209274925,-1.3232799992408348e-06,-0.1651729330238392,-0.4813349320553839,0.0144948454063872,16.57907751603625,3.646953105000746,25.775960150742,24.75028226035709
0.82,31.222193664318244,131.0104369190231,13.52715881159095,3.6556790365030687,-15.841179012560172,26.1489517163316,14.667079371579153,-1.240783239611688,328.725004432774,28.43681389672604,11.726751128287212,67.61662285696798,-8.183138228768051,111.2007689893258,494.660657550332,1.274,1.0238644186635044,0,9.598505756441282,210.00008998959544,0.0835783082373151,-1.5005203237539072e-06,-0.1697751266495183,-0.502460861899179,0.0149796770783908,16.246986829427303,3.673373375152464,25.98006831116228,30.007173079164676
0.83,31.222193122316263,131.010437974224,13.768807396837529,3.582507534913858,-15.423465641214404,33.28715632194074,15.326962281669855,-1.401063726560269,395.6875032246518,28.73070858388689,11.869509901268476,67.47781528351472,-8.837287087531996,110.49296819715371,504.9264191726946,1.274,1.0238188483711983,0,9.627366297687695,210.00008998959544,0.0844423209061184,-1.6855546014099472e-06,-0.1743766927774357,-0.5234044123898259,0.0155443350157705,15.824223766299294,3.707763128266545,26.3371500961616,36.673062707536886
0.84,31.222192571933444,131.01043905033495,14.0149703558919,3.4973894720533054,-14.958717137155318,20.14187508458264,16.039244459856654,-1.578708325993502,275.45937482564227,29.10135565415051,12.042580668273924,67.33136990677913,-9.510399297601028,109.76389671255215,518.0260445359695,1.274,1.0237739661568126,0,9.655808310751398,210.00008998959544,0.0855319259076941,-1.8781351893613548e-06,-0.1789966799686494,-0.5442475682059014,0.0161616353511146,15.35303547796016,3.759636214508325,26.77824858857637,25.796217062672863
0.85,31.222192014830743,131.01044014351112,14.264598166119663,3.439665207430115,-14.60716250185976,21.907455511595938,16.61552341482281,-1.7136542546205495,292.9609323393965,29.24957230157895,12.128822737642547,67.17694809401073,-10.201339652227952,109.0146939887622,523.3036727659354,1.274,1.0237227741398531,0,9.68436467529006,210.00008998959544,0.0859677922463884,-2.078049128903063e-06,-0.183642300380499,-0.5650180992216322,0.0166651390050044,14.998099405174528,3.856248735071123,26.979859341827364,27.549026048945166
0.86,31.222191456794988,131.01044123531187,14.51317389599629,3.3680220441670428,-14.200742959744856,27.53714208148637,17.24576971034189,-1.8671784595968752,346.2265619465616,29.488525222433164,12.250804047152464,67.01420545792233,-10.908976894064638,108.24649235595248,531.876107477359,1.274,1.023674789281455,0,9.712871628411348,210.00008998959544,0.0866703449055677,-2.2851529424713835e-06,-0.1882704717531487,-0.5855258365298269,0.0172243004637781,14.586685256299418,3.969008618629533,27.28064561171085,32.545308760527924
0.87,31.2221908918865,131.01044234563832,14.765505052855584,3.285328892389357,-13.75075140804252,25.40336461180814,17.925113388967134,-2.0373271325215074,327.9640783669946,29.80253411597071,12.402620607789885,66.84284579011249,-11.631911841101148,107.46071272598395,543.2506302619572,1.274,1.0236288969245204,0,9.740844995298009,210.00008998959544,0.0875935044246984,-2.49915525596646e-06,-0.1928908033263375,-0.605810856933985,0.0178344828392586,14.130409734696125,4.099971958164111,27.663246436841074,31.157524379396754
0.88,31.22219032123924,131.0104434720252,15.020904437576256,3.207684394024215,-13.322881477491316,21.609321638094297,18.56596427684672,-2.1966536781858927,294.4828134710421,30.06051131716853,12.532679960907172,66.66257115180333,-12.368781567313087,106.65873527585484,552.6827706856425,1.274,1.0235805388426191,0,9.768840578805795,210.00008998959544,0.0883519873959374,-2.719776027881436e-06,-0.1975093853735081,-0.6258955513202407,0.0184191359585873,13.696797276768184,4.259462153578081,27.986566034465973,28.574168379318525
0.89,31.222189746883604,131.0104446077575,15.27774686979324,3.133025901640047,-12.908332300541565,23.66368180593863,19.17254195425558,-2.3469020797043103,315.02813424808807,30.275779909694016,12.64614590919514,66.47308625399552,-13.118238808689908,105.8419219690158,560.6130017506975,1.274,1.0235293752791452,0,9.796778277580188,210.00008998959544,0.0889849493368664,-2.946774039088641e-06,-0.2021106792492888,-0.645711338411039,0.0189827462036104,13.276830290817468,4.44553466013084,28.26525308556312,30.546098784822288
0.9,31.22218916863068,131.01044575388048,15.536258346144953,3.050851138759735,-12.465144611912768,26.11893073672193,19.80926192257849,-2.508121754821764,339.3781423542166,30.541693033298568,12.77994985493576,66.27412359151835,-13.878846222566496,105.0117322710321,570.4898480104765,1.274,1.0234837388140003,0,9.824481476120711,210.00008998959544,0.0897667687597127,-3.1798756891749725e-06,-0.2066815969838643,-0.6652008359341018,0.0195820689143705,12.827321667796834,4.648326550194593,28.59908215847537,32.87698397791388
0.91,31.22218858533584,131.0104469159414,15.797661825010472,2.964049889817912,-12.005147551948456,19.23353872570573,20.46159338146932,-2.675769367377216,277.7421810230785,30.83593201895376,12.92537105711222,66.0654441314956,-14.649101336257948,104.16969700963128,581.5204087814577,1.274,1.023436404813438,0,9.851978468350758,210.00008998959544,0.0906318500423105,-3.4187518786097912e-06,-0.2112232976887746,-0.6843664115569941,0.020204664982411,12.360428346169057,4.868179683177594,28.96393590289365,28.209316853288126
0.92,31.222187997559807,131.01044809288712,16.061648474459805,2.886884169911862,-11.584113798326728,23.07436168233203,21.023352994070283,-2.8176794593104324,315.0281342480675,31.01990235809387,13.027269685863352,65.8468235329535,-15.427516629423392,103.31733174244182,588.4650093333397,1.274,1.0233859136578225,0,9.879400442130589,210.00008998959544,0.0911728405340829,-3.66307596403472e-06,-0.2157329912728575,-0.7031936701633713,0.0207586323198826,11.933645919600467,5.118575775056826,29.212645568138253,31.342413048388227
0.93,31.22218740753389,131.01044927524796,16.326071969523777,2.798717484048072,-11.121608104734532,27.64700458132915,21.64518516739248,-2.9798581436071627,359.16250706547066,31.29639064675981,13.166386189076407,65.6180579802979,-16.21260613406827,102.45615200694223,598.9868262203332,1.274,1.0233407575091376,0,9.906714074282496,210.00008998959544,0.0919857617154936,-3.912566371747688e-06,-0.2201873289181965,-0.7215842893858894,0.0213755497651596,11.464045856276108,5.375625747839327,29.560362374482725,35.2384797885318
0.94,31.222186812425743,131.01045047739527,16.594068510892043,2.704349062762069,-10.636516477818365,19.15438016770005,22.298549463303026,-3.153519620622415,283.06875048378083,31.624000451864006,13.32646852422132,65.37899095777857,-17.00279986447543,101.58776819341205,611.5770783809885,1.274,1.0232914783978162,0,9.93370068611496,210.00008998959544,0.0929489473418193,-4.166822550999258e-06,-0.224592619659487,-0.7395620373829161,0.02203087907018,10.971087702929651,5.641897633014798,29.96280052079831,29.564510376020156
0.95,31.222186213202423,131.01045169662115,16.864950820642786,2.621667007506308,-10.197625084793064,25.363902286898952,22.825341228733976,-3.2912143125529414,342.421873617488,31.80709577862144,13.428968745501896,65.12947985124242,-17.796592606500496,100.71372329627098,618.6632515121486,1.274,1.0232418269359267,0,9.96068382815481,210.00008998959544,0.093487385037341,-4.425463146820977e-06,-0.2289482591685461,-0.7571210077233603,0.022587574720941,10.52577581645336,5.941387907153358,30.213700272081343,34.28054598571403
0.96,31.22218561237972,131.01045291973642,17.135863862131487,2.5254811267641384,-9.709049847884357,24.53504898751288,23.44837166439168,-3.4600985211566018,337.09533515678265,32.126276801495955,13.58668269371175,64.8694048610994,-18.59251536903397,99.83552475797684,631.1255769069792,1.274,1.0231951201821403,0,9.987591392560402,210.00008998959544,0.0944258102262719,-4.688194476663228e-06,-0.2332265412635719,-0.7741484218437618,0.0232399564003101,10.029084219888333,6.234901851156271,30.60847118073848,34.11403002149136
0.97,31.22218500661149,131.01045416765265,17.411194601109173,2.431433959323692,-9.229766246968818,14.269581131490964,24.02556817730981,-3.6175734205124206,245.0218871929888,32.40569376046238,13.728942161730938,64.59870461051399,-19.38903049663267,98.95476123912006,642.1347157795997,1.274,1.0231476260761452,0,10.014140192615638,210.00008998959544,0.0952473706883218,-4.954546451017015e-06,-0.2374378561858479,-0.7906831386378312,0.0238647419206394,9.5419716900842,6.546145747932317,30.962147741081225,28.17686478946092
0.98,31.22218439847057,131.01045542667845,17.687987868693742,2.347346295995316,-8.78880751503211,22.1108118546206,24.46320857460932,-3.735892998774352,319.593746642963,32.54051103635454,13.812913867149083,64.31732967260845,-20.184703090149544,98.07291442070672,647.4715584682452,1.274,1.0230935628253934,0,10.040757563960272,210.00008998959544,0.0956439266462133,-5.224148591593185e-06,-0.241568523422108,-0.8066679728212176,0.0243802764014953,9.094497407689826,6.891611438381903,31.165375951668263,33.18574198558111
0.99,31.222183789004166,131.0104566892954,17.964704680610755,2.248779588842948,-8.295750824387058,24.232580318509186,25.02554725842477,-3.89403972691236,341.66094855170127,32.845047215269055,13.966443353383337,64.02527382869128,-20.978105739098726,97.19146497510224,659.629692614838,1.274,1.0230490803133316,0,10.067167141199068,210.00008998959544,0.0965393288242206,-5.496672428468826e-06,-0.24559292177206,-0.8220028492808449,0.0250177417750717,8.593084460636932,7.218556645518359,31.54650187767122,35.052239726890804
1.0,31.222183175526148,131.01045797838864,18.245926084592224,2.1495600250915934,-7.801756305295527,20.968911108649568,25.56657123867736,-4.048479857151074,314.2672081822764,33.14554348112962,14.119070559126792,63.72259125768952,-21.76778768188752,96.31192822554596,671.7365427461516,1.274,1.022999484445133,0,10.093229945885051,210.00008998959544,0.0974228672534154,-5.771578046745722e-06,-0.2495237935651418,-0.836733461270475,0.0256500223695597,8.090699252840432,7.554569447537078,31.92383000248791,33.31268507848879
1.01,31.22218256005868,131.01045928094197,18.528938776959208,2.0530556681617584,-7.319474235617613,21.836861528728303,26.03830756129835,-4.185053974692966,324.92031610370094,33.39047980702986,14.249501942981915,63.409346980651314,-22.552426594648416,95.43568621811475,681.6825871747172,1.274,1.0229507481225095,0,10.119376596129232,210.00008998959544,0.0981431084900957,-6.048439711499732e-06,-0.253351965348405,-0.8508211774673564,0.0262352841246312,7.600446316729542,7.908431377941095,32.24386418490161,34.239694199170565
1.02,31.222181942842365,131.01046059562216,18.81345948361556,1.9533000261727973,-6.827310291579755,17.14980558225868,26.51602015392643,-4.326272752442121,284.59063161543185,33.66778092496747,14.393939182217988,63.08564542263797,-23.330748112910708,94.56407763052871,693.0331336718036,1.274,1.0229039803623294,0,10.145354376229967,210.00008998959544,0.0989584846668239,-6.326855784715079e-06,-0.2570624993105195,-0.8642084753469034,0.0268398562276269,7.099962693902661,8.262890546971194,32.597885618056935,31.873684949205774
1.03,31.22218132353982,131.0104619289188,19.100693758656483,1.856813052492728,-6.3478419298848685,12.788969555458102,26.905472104253416,-4.444222941963754,247.3046933904342,33.87439698060528,14.509711058333592,62.751638268540255,-24.10151517229618,93.69841056970716,701.5460409050247,1.274,1.022853416101322,0,10.171140981877024,210.00008998959544,0.0995661064273257,-6.606351882493278e-06,-0.2606502482551131,-0.8768731836489673,0.0273807097562203,6.612770428955983,8.63861339923845,32.87931891654908,30.11998155711703
1.04,31.22218070311409,131.0104632715046,19.38880719047028,1.761334465768015,-5.8729940003825725,23.169101814059644,27.23223029898689,-4.54657029798351,345.4656368807608,34.04266818017723,14.60999677755505,62.40751162165007,-24.86356588219952,92.8399208466302,708.5136116278983,1.274,1.0228049544826707,0,10.196847022276849,210.00008998959544,0.1000610267479697,-6.886522322085003e-06,-0.2640997747079408,-0.8887572431418278,0.0278801169136214,6.130537020850021,9.028872554751809,33.12175507306201,36.042654555426786
1.05,31.22218008155381,131.01046462508967,19.678101796020407,1.655117619689147,-5.364213554887133,11.421295569863824,27.696431627105287,-4.692911750412118,240.4562587980608,34.39071182712151,14.786351392508028,62.05349973714749,-25.61578569506338,91.98980386563449,723.0549070406151,1.274,1.022755494436122,0,10.222312289618165,210.00008998959544,0.101084355403075,-7.166929667883863e-06,-0.2673999205485917,-0.8998195908955404,0.0285163108424172,5.61303771064186,9.38199736867434,33.54933354612825,30.324276381576944
1.06,31.2221794583798,131.01046600776576,19.97183163583667,1.559664847228004,-4.891768277275623,18.487763161054414,27.92474435246493,-4.772262016436927,308.1796836557233,34.51529553591486,14.869390742767612,61.6898788948496,-26.35712705205045,91.14919316233023,728.2825234488806,1.274,1.0227013895379469,0,10.24756343077059,210.00008998959544,0.1014508795918087,-7.446960638075006e-06,-0.270558880677273,-0.9100825989032184,0.0289568981748642,5.133813163690564,9.793027038074715,33.747831545926466,33.82843801601383
1.07,31.222178835080697,131.01046738627903,20.26388603323124,1.455178313963168,-4.392892902709316,22.56641009050769,28.277858759354583,-4.892007254912242,348.5093681440431,34.80728562482599,15.023918892973716,61.31694061521392,-27.08666193716796,90.31910092257348,740.63601607704,1.274,1.0226540159946436,0,10.272880218340056,210.00008998959544,0.1023094638274296,-7.726331801372283e-06,-0.2735494844302029,-0.919453673341835,0.0295238183322733,4.627191475230511,10.165153904294153,34.11792746697641,36.50769638540739
1.08,31.22217821085835,131.01046879499256,20.56041868872579,1.3490387314831205,-3.8911014755158986,12.714420132861424,28.627725367037414,-5.014221530633567,261.0015785751465,35.12841910035667,15.192032339046657,60.93503825036854,-27.803488907466896,89.50052371419633,754.3438518563931,1.274,1.0226061614050743,0,10.297744714103535,210.00008998959544,0.1032537207220552,-8.004426564976563e-06,-0.2763776414702379,-0.9279472888329892,0.0301034041605917,4.117982195017248,10.531700878426328,34.51767603184211,31.72294999781229
1.09,31.22217758649104,131.01047022144746,20.859092355173576,1.2491334532070235,-3.409890659347748,10.82788107389516,28.78908031667813,-5.083517512424232,246.54375332456465,35.285351282657594,15.290604446469992,60.54454179361991,-28.50681916657178,88.69434470423813,761.0769626303733,1.274,1.0225512795791307,0,10.32268813958108,210.00008998959544,0.1037153444212333,-8.280749359523859e-06,-0.279036660783698,-0.9355350277220948,0.0305279295247496,3.63123202496702,10.94436955681119,34.750043041937666,31.175251471795463
1.1,31.22217696200425,131.01047165126965,21.15740506165085,1.1475053928797314,-2.925461184472621,28.68975596725757,28.937960342060407,-5.152434026037823,413.1890617384087,35.466473612341794,15.400193350379457,60.14585412223681,-29.195939660218382,87.90137542559755,768.8883141392264,1.274,1.0224981043155532,0,10.347511003647009,210.00008998959544,0.1042480739103183,-8.554978785132854e-06,-0.2815073925383191,-0.9421573738141252,0.0309554419434892,3.142283765164028,11.352252692153742,35.00714288508284,41.073777798153955
1.11,31.222176337631566,131.01047309871953,21.45778556701345,1.0359301518672817,-2.418018742547261,18.66920678114496,29.319384670071905,-5.294850571742912,324.1593910379213,35.92772381913454,15.63275111377574,59.73942509145979,-29.87019105330076,87.12238114695629,788.9947603385928,1.274,1.0224548851875197,0,10.372010424133924,210.00008998959544,0.1056042036871805,-8.826625137871603e-06,-0.2837848801268705,-0.9477960394973584,0.0316108098071356,2.6304616933718346,11.678242502711504,35.548015059516686,35.159650763992
1.12,31.22217571460839,131.01047458703124,21.763998494289805,0.9320251363963488,-1.9329975674126552,1.851512146969844,29.43868282351791,-5.36226765089191,172.7328179403806,36.15301197649766,15.763687974790727,59.325732147937046,-30.528996024622,86.3580482350026,798.8972177159133,1.274,1.0223979224661404,0,10.396392458468023,210.00008998959544,0.1062667719319972,-9.094956334618595e-06,-0.2858763304366758,-0.952455977478342,0.0320425134909035,2.1458846303765404,12.07372969531752,35.849435024670704,29.980294494448636
1.13,31.22217509177093,131.01047607379786,22.06893529292807,0.8331445085371477,-1.4610020663027996,22.818014550116896,29.32841751409955,-5.363778955984771,367.5328077894322,36.17951177345775,15.80751063459112,58.90526602966608,-31.17186834672184,85.60897295081561,800.0453811944636,1.274,1.0223460397860296,0,10.420959546251042,210.00008998959544,0.1063450303509801,-9.35974366177879e-06,-0.2877606308444679,-0.9560791794483112,0.0322764120144408,1.6818163861961355,12.531080728264197,35.95004297473424,37.544480107991276
1.14,31.2221744688389,131.01047756128588,22.37305479946624,0.7237026927569278,-0.9711130985410864,8.576043163079843,29.5648739387093,-5.473990980537181,239.6953177322812,36.60728073126682,16.030227939547604,58.47856186325078,-31.798370461021342,84.87571031162551,819.051993494458,1.274,1.0223022138470996,0,10.445142357899645,210.00008998959544,0.1076027715618397,-9.620741900374267e-06,-0.2894234459191187,-0.9586353515954804,0.0328457864827998,1.2110970578630254,12.859316702644504,36.45474594588251,31.2665134705132
1.15,31.22217384934958,131.01047910018153,22.684377312971904,0.6217803892964134,-0.4972049625800543,8.056582314473252,29.458289713725826,-5.483870765452079,237.4125115347709,36.71963103428767,16.11349959566795,58.046186827796696,-32.408131067105785,84.15875337932113,824.0625215536705,1.274,1.0222426194541194,0,10.468988888760592,210.00008998959544,0.1079333911720732,-9.877094994663017e-06,-0.290873767911817,-0.9601209536681728,0.0331107001481582,0.7961243135249074,13.288292248140426,36.64153124162941,31.028570544255953
1.16,31.222173229200333,131.0104806247442,22.99239721393941,0.5182840489777277,-0.0245689123732464,35.38117126883992,29.375155187775263,-5.504398501158949,490.043774385954,36.89828391783433,16.227179061961106,57.60871925629685,-33.000850282731854,83.45852642531337,832.0760715257427,1.274,1.02219674531104,0,10.493125562671688,210.00008998959544,0.1084588990266004,-1.0128702688243988e-05,-0.2920947819481627,-0.9605080142875037,0.0334104724405063,0.5188660428429518,13.6926283776517,36.89442464222167,46.314419196621955
