Time,Latitude,Longitude,Altitude,Angle of Attack,Angle of Sideslip,X-Acceleration,Y-Acceleration,Z-Acceleration,Thrust,True Velocity,Ground Velocity,Pitch,Roll,Yaw,Dynamic Pressure,cp,parachute_deploy_gain,Wind Speed,Mach,omega_x,omega_y,omega_z,Cmq,Angle of Attack(total),Angle of Attack(gust),True Velocity(gust),Acceleration
0.0,31.222216000000007,131.010392,3.000000004412624,0.0,0.0,0.0,0.0,0.0,2.2828121974499247,0.0,0.0,71.99999999612658,-1.0292491154817412e-14,119.99999999354436,0.0,15.288,0,0.0,0.0,0.0,0.0,0.0,-0.0,0.0,90.0,0.0,0.0
0.01,31.22221599999862,131.01039200000284,3.0000009727369523,0.0,0.0,0.0,0.0,0.0,34.24218696174923,5.916279387578309e-11,5.734623670548936e-11,71.99999999613168,-5.86671995824671e-13,119.9999999935449,2.1432944861733093e-21,15.288,0,0.0,1.7386402909615473e-13,-3.4220131069073734e-19,7.115076756936125e-19,5.488773498207866e-19,-1.1574302492039043e-31,0.0,89.99999999962336,5.916279387578309e-11,0.0
0.02,31.22221599999738,131.01039200000537,3.0000018317022668,0.0,0.0,0.0,0.0,0.0,25.871876237766408,1.2265415415436536e-10,1.1895038237325684e-10,71.9999999961369,-1.1836364828043265e-12,119.99999999354544,9.211895886571454e-21,15.288,0,0.0,3.6044858651615574e-13,-6.979551485375437e-19,1.4162390878091906e-18,1.0909784360635388e-18,-4.776231873571785e-31,0.0,89.99999999921916,1.2265415415436536e-10,0.0
0.03,31.22221599921969,131.01039200159065,3.0001883335529382,18.80143492628821,-0.0001350810307892,10.931161642028636,-1.75114298675875e-05,3.026590975169265,180.34219359854663,0.0798232026864394,0.0478175828508887,71.99999999765336,-5.341802909786072e-12,119.99999999436793,0.0039016003969354,15.288,0,0.0,0.0002345795854893,3.788270153300133e-17,-7.771883375645477e-10,1.1422790048099072e-11,1.7057759223764537e-13,18.80143492675591,89.51882325913425,0.079801984207741,11.342422482672777
0.04,31.222215995131297,131.01039200995308,3.001692634342189,9.19442604083399,-4.49173898918486e-05,52.29595764159784,6.445392950801871e-06,3.026413589912948,548.6359724538078,0.3504174083926908,0.1601447499964056,72.00000000319055,-3.111420077280171e-11,119.99999999870242,0.0751892535633216,15.288,0,0.0,0.0010297854387864,2.0082066977226968e-15,-1.520937588847922e-08,2.5623342884322286e-11,1.4654248781413086e-11,9.19442604094277,87.798916624545,0.3504103527855857,52.383455068075136
0.05,31.222215983575865,131.01039203366796,3.0074067499493786,5.158590039700252,1.707592688632746e-06,76.26884281015512,5.843947534199429e-05,3.0258124765658088,761.6984298824644,0.9592973585397016,0.3772700771701255,72.0000000004862,-1.3608731808076822e-10,120.0000000109612,0.5634958029902841,15.288,0,0.0,0.0028191251099456,2.086299069701397e-14,-1.0551247853743037e-07,3.973493515691201e-11,2.783064866637575e-10,5.158590039700515,83.94063169874748,0.959297626767734,76.32884071402438
0.06,31.222215961742712,131.0103920785344,3.019291017943491,4.109521257467909,3.140103977270004e-05,57.06876634333886,0.0001151069734147,3.024834864051463,590.4875390737208,1.6257536642597354,0.6118982818704327,71.99999992547217,-3.5903296759057166e-10,120.00000003412836,1.6184272268450337,15.288,0,0.0,0.0047776672697797,1.0694899894620088e-13,-3.741090980393931e-07,5.521401959501359e-11,1.6723176417636091e-09,4.109521257587776,79.78719176344794,1.6257585967235286,57.148873286519276
0.07,31.222215929936205,131.01039214392435,3.0371334573469446,3.649087515174788,5.707077112564807e-05,86.89643797254193,0.0001728541558773,3.0234947746384675,855.2937749779139,2.3057260079826607,0.8506307413593818,71.99999965378231,-6.907496536790437e-10,120.00000006788592,3.255354923652711,15.288,0,0.0,0.0067759305364855,3.495199904512709e-13,-9.036515915819006e-07,7.594816279105379e-11,5.728932851326001e-09,3.6490875156204896,75.6601668283889,2.305734972638426,86.94902215090157
0.08,31.222215886364623,131.01039223353447,3.0621840248716574,3.4254446680114707,8.413075603463509e-05,17.831756866644035,0.0002285946601282,3.021841001032126,241.2171988638848,2.961944911520492,1.0819695676346892,71.99999900671328,-1.141745983122182e-09,120.00000011415082,5.371998197385977,15.288,0,0.0,0.0087043901031071,8.800530155962314e-13,-1.829098470920821e-06,1.0943386634701918e-10,1.4896287129277132e-08,3.4254446690434226,71.81713637501419,2.9619581267487467,18.085991154451033
0.09,31.22221583454733,131.01039234010327,3.0919888289029,3.389560809024919,0.0001118726864415,54.09031716446879,0.0002748660999733,3.020060228038602,563.0937377043176,3.504225426410036,1.2780161667917422,71.99999774508822,-1.634190085504106e-09,120.00000016921716,7.519080503822694,15.288,0,0.0,0.0102980157586766,1.865782139518716e-12,-3.1503298654458527e-06,1.6284478329871028e-10,3.03536411425607e-08,3.389560810868955,68.76526501308032,3.504242999330529,54.17456206384468
0.1,31.22221577423132,131.0103924641528,3.1267248829165366,3.4447939461814814,0.0001419149103147,51.372195336549765,0.0003131602029306,3.0182021883815127,538.7437595981919,3.950569597142709,1.4443465951180965,71.99999562056465,-2.1287748602259068e-09,120.00000023339832,9.55649523509932,15.288,0,0.0,0.0116097108366932,3.485956000178229e-12,-4.949356763187612e-06,2.4573266549165286e-10,5.3761299442583966e-08,3.444793949101151,66.34639928474206,3.9505918890846927,51.460781166288626
0.11,31.222215706113143,131.01039260424562,3.165907002780892,3.4691423802630394,0.0001702373452339,40.591037561894986,0.0003534470100582,3.016051659024047,442.8656393052949,4.421478635995476,1.6182620895289603,71.99999235067894,-2.5564479031457968e-09,120.00000030601664,11.970509656144712,15.288,0,0.0,0.0129935974697161,5.942887149865172e-12,-7.273722517324353e-06,3.67769289312894e-10,8.842679949465076e-08,3.4691423844348632,63.88798785789768,4.421505376815134,40.70293476011277
0.12,31.222215630588888,131.0103927595646,3.2092596514826863,3.4852659299808075,0.0001974376474727,44.30042894095728,0.000394069215595,3.013641598889868,475.58594813540446,4.896982486381051,1.793579340340896,71.99998761802138,-2.8337988279882726e-09,120.00000038673312,14.683611096353944,15.288,0,0.0,0.0143909889875706,9.464337642181618e-12,-1.017558359402848e-05,5.395790443954697e-10,1.3700793350599625e-07,3.4852659355662303,61.5068242157714,4.897013499814194,44.40281567867803
0.13,31.222215548046687,131.0103929293088,3.256512891171917,3.5606043721293616,0.0002276507019012,48.86766833507025,0.0004268800875964,3.0112558910133567,515.9156326236895,5.278566579338586,1.939796541405244,71.99998107389406,-2.8573058577484587e-09,120.00000047523812,17.061052093156064,15.288,0,0.0,0.0155123760833565,1.4300406003001044e-11,-1.3705268062305584e-05,7.724776992181392e-10,1.989112774124932e-07,3.560604379397528,59.67313531776262,5.27860233862722,48.960358155653
0.14,31.222215458587108,131.01039311327068,3.30759734332425,3.6000732663755977,0.0002555702913645,45.540290862247225,0.0004629468001456,3.0085404980032777,486.2390860568404,5.70011779273801,2.098362647205908,71.99997235012626,-2.508533681468686e-09,120.00000057154703,19.894788765881632,15.288,0,0.0,0.0167512184495524,2.071534240530911e-11,-1.7917736259613292e-05,1.0787346240473087e-09,2.8081526258393346e-07,3.6000732754351943,57.72385750323359,5.700157937625502,45.639559681930805
0.15,31.222215362317904,131.01039331122794,3.3624387479639086,3.651605404442164,0.0002842753491325,44.01308509501,0.0004965057129938,3.005703619811542,472.54218587214,6.091938849578711,2.2476968067377374,71.99996103728932,-1.6446954747148112e-09,120.00000067569304,22.723773683610247,15.288,0,0.0,0.0179026934683374,2.9002783512213203e-11,-2.287326399669318e-05,1.47199345427166e-09,3.831202693354572e-07,3.651605415492516,55.98561718911576,6.091983503446133,44.115597174664394
0.16,31.22221525912812,131.01039352340948,3.421115382839859,3.67540086436193,0.0003108411545024,34.83804992586084,0.0005330990866742,3.002517946501868,391.1218908297564,6.521183188362317,2.4085903880902046,71.99994669525161,-1.0153513453738144e-10,120.00000078796704,26.03872642002185,15.288,0,0.0,0.019164148528834,3.9478358970291335e-11,-2.864207894220033e-05,1.9677461746207517e-09,5.135466997084602e-07,3.6754008774883777,54.15946979122355,6.521232015176687,34.96719658394182
0.17,31.2222151493826,131.01039374906244,3.4833737923187487,3.7139589864597298,0.0003384978477213,43.96471427482637,0.0005668629535037,2.999235483723449,471.78125980632376,6.916861975403744,2.559060925010733,71.99992884100092,2.3206494032971838e-09,120.0000009081849,29.29426197817256,15.288,0,0.0,0.0203269651395979,5.248754693205839e-11,-3.5267097947693114e-05,2.580363454062817e-09,6.706952682968329e-07,3.713959001863866,52.549031795895466,6.916915146521327,44.06689817851128
0.18,31.22221503253009,131.01039398932429,3.549599475912623,3.7380363034619775,0.0003650282082698,36.67395661481795,0.0006021794701355,2.9956556354306425,407.10156721191447,7.332140201215607,2.71556808256092,71.99990696207136,5.837017536380516e-09,120.00000103716444,32.917216366714264,15.288,0,0.0,0.0215473823438242,6.839750892601699e-11,-4.285557247677198e-05,3.331016495775474e-09,8.639362741436378e-07,3.738036321259578,50.93050624815799,7.332197539712479,36.796100973258795
0.19,31.22221490871209,131.01039424390297,3.619694897703461,3.747799769666444,0.0003901520189829,41.42208371271829,0.0006393759928961,2.991742733214697,448.9531328318269,7.771071983754382,2.879366399937307,71.99988049019642,1.0709144790974043e-08,120.00000117502664,36.97605053227239,15.288,0,0.0,0.0228373144884866,8.761416506509219e-11,-5.146771415177372e-05,4.238406957677133e-09,1.0996552116864756e-06,3.747799789945131,49.29705748437159,7.771133268690212,41.529983675580546
0.2,31.22221477769685,131.01039451327668,3.693822889232993,3.7700519460961166,0.0004166800650969,37.99697972290605,0.0006740224661302,2.987733789228414,418.51563019916136,8.179966026035371,3.0338260708461373,71.99984881140107,1.723179577184912e-08,120.0000013223286,40.969302182777255,15.288,0,0.0,0.024038975990988,1.1057590044953188e-10,-6.120032215177249e-05,5.3263847350253015e-09,1.376394225587184e-06,3.7700519690893857,47.8457752505109,8.180031477986942,38.11426270718793
0.21,31.222214639876928,131.01039479663547,3.771710975053407,3.7926098867321474,0.0004432924407074,36.46301043881366,0.0007080907240332,2.983530483977461,404.8187610144644,8.582757448615462,3.1863584283669346,71.99981127559042,2.5745201416596626e-08,120.00000147900325,45.103059028532826,15.288,0,0.0,0.0252227064089584,1.3774582723633048e-10,-7.20875523136271e-05,6.61341033873124e-09,1.7010673350603349e-06,3.792609912601061,46.47936953648762,8.582827080829217,36.584868250565684
0.22,31.22221449507626,131.01039509434258,3.8534832466471007,3.782921298925821,0.0004660920499522,44.14577847155813,0.0007479176313898,2.978724032883548,472.5421858721365,9.056569122268344,3.360845972992861,71.99976720416048,3.661811567390422e-08,120.00000164562512,50.21995530074818,15.288,0,0.0,0.0266151520780326,1.6960703048385348e-10,-8.421592474264931e-05,8.124635526119773e-09,2.0969540034515424e-06,3.7829213275976334,44.9464484092354,9.056642335836344,44.24615863872642
0.23,31.22221434283448,131.01039540734791,3.9394622486964206,3.813874679301352,0.0004940771488601,36.66675459308932,0.000779455230549,2.974212905336642,406.3406421461021,9.430647902846331,3.5044030163419806,71.99971583979395,5.0272885112871524e-08,120.00000182313076,54.45382429059888,15.288,0,0.0,0.0277145095638672,2.0669790509245914e-10,-9.77285871729516e-05,9.894576563683824e-09,2.5339062472561444e-06,3.813874711257219,43.79476959007253,9.430725512303388,36.78718303164376
0.24,31.222214184153326,131.01039573358457,4.028950821673608,3.829256049377765,0.0005200487408944,37.802126339316736,0.0008136255607606,2.9692962675112065,416.2328240017114,9.837806876534357,3.658163422426286,71.9996564062533,6.718950080713476e-08,120.0000020109434,59.25679777340223,15.288,0,0.0,0.0289110855155543,2.4956955046738006e-10,-0.0001125744417092,1.1934277804843484e-08,3.0448209172448607e-06,3.829256084638984,42.59361542722471,9.83788856559955,37.91856374864305
0.25,31.22221401888584,131.01039607335582,4.122052964664892,3.851417709838087,0.0005469594058717,38.85163035360012,0.0008459008130282,2.964283881833675,425.36408079150686,10.22297576958679,3.8050691648373967,71.99958811418384,8.786880969336211e-08,120.00000220974424,63.98709205399403,15.288,0,0.0,0.0300430411774988,2.987811646313829e-10,-0.0001288461362054,1.4273117985167728e-08,3.621333387698252e-06,3.8514177486178034,41.50703126619192,10.223061685769354,38.96455005232871
0.26,31.222213847358866,131.0103964259872,4.218542267117083,3.8780574625554745,0.0005745172425185,42.3164797140743,0.0008766626387865,2.959162938653076,455.8015834241788,10.590779679138215,3.946551912391076,71.99951013710364,1.1286401474734325e-07,120.00000241975916,68.67355887153568,15.288,0,0.0,0.0311239685467471,3.5491769188178554e-10,-0.0001465721578858,1.6932703957058654e-08,4.267712643344226e-06,3.8780575050466,40.51245375834074,10.590869924095635,42.41981967733593
0.27,31.22221366913008,131.0103967923915,4.318728802515264,3.886188503202341,0.0005994342651313,38.70936050721014,0.0009111181036949,2.953518013741325,423.84219965987256,11.004860953238978,4.102320296019413,71.99942161756776,1.4276417094868828e-07,120.0000026420792,74.14786134434608,15.288,0,0.0,0.0323408987462391,4.1858405402174807e-10,-0.0001658847815307,1.995072923688136e-08,5.018832267232506e-06,3.886188549362022,39.43841359495857,11.00495511215316,38.8218734782956
0.28,31.22221348431185,131.01039717233687,4.422535913956003,3.90556090261878,0.0006261175699806,44.68030766832924,0.0009425767186621,2.947879457547137,476.3468732012221,11.38358114165448,4.247086834352694,71.999321619057,1.7823531611327881e-07,120.000002877279,79.33831935330025,15.288,0,0.0,0.033453914386159,4.904408325040897e-10,-0.0001868529238516,2.3357766479368094e-08,5.847713054408178e-06,3.9055609527288775,38.49894431917428,11.383679491972384,44.77744842575601
0.29,31.222213292835256,131.0103975659655,4.530013412817602,3.9242599519377537,0.0006528240665589,35.802573724660256,0.0009737210635801,2.942037024315898,397.97031042211177,11.759725774384751,4.391004157029451,71.99920917567837,2.1999186079018322e-07,120.00000312617878,84.66717879828003,15.288,0,0.0,0.0345593650464213,5.711677680739745e-10,-0.0002095620322847,2.7188189988316943e-08,6.77505090435382e-06,3.9242600061534456,37.60352534239979,11.759828319749328,35.92324968749781
0.3,31.222213095024976,131.0103979726075,4.64093665799555,3.936939025755682,0.0006785438093183,33.570228713727204,0.0010059102294455,2.93586442972183,378.1859457108711,12.149968255527943,4.539237002744259,71.99908328532703,2.6880857935396905e-07,120.00000338923812,90.3787563598417,15.288,0,0.0,0.0357062504417728,6.614698865958865e-10,-0.0002340353597042,3.1467140861055e-08,7.817263716758327e-06,3.9369390841381695,36.71173884615234,12.150074840940263,33.698361337808635
0.31,31.22221289105846,131.01039839189684,4.755183729044857,3.9598342215431432,0.0007060286581592,35.396825578217346,0.0010350810412898,2.9297385597941448,394.1656220930212,12.504537499407316,4.6763673222047455,71.99894291513503,3.255120771695107e-07,120.00000366712923,95.72967338626896,15.288,0,0.0,0.0367483036680869,7.620720834468404e-10,-0.0002603234137215,3.622454560346964e-08,8.948994505138873e-06,3.9598342843844345,35.934338386209795,12.504648402129598,35.5178635353378
0.32,31.222212681031937,131.01039882363492,4.872689374180126,3.985461429033668,0.0007340760463279,38.52097867048992,0.0010630242168685,2.9235095146848846,421.55939346242695,12.84534566718622,4.809181081594425,71.99878701464397,3.909756427278764e-07,120.0000039606604,101.01782231644016,15.288,0,0.0,0.0377499198995686,8.737098716736534e-10,-0.0002884807530145,4.1491545539590986e-08,1.0187112828155184e-05,3.98546149652875,35.21473736963424,12.845460975581933,38.631757748577954
0.33,31.22221246496604,131.01039926777932,4.9934410812554,4.010606629086,0.0007621365968788,38.18822026147908,0.0010905599149574,2.917102431053817,418.5156301991682,13.18247167592885,4.940798912752974,71.99861449732019,4.661299779655886e-07,120.000004270781,106.38859400029033,15.288,0,0.0,0.0387407190563976,9.971421990244511e-10,-0.0003185760672934,4.7302669734505256e-08,1.154498667827874e-05,4.010606701382261,34.52805863348922,13.182591392065536,38.299473293007864
0.34,31.222212242662028,131.01039972474007,5.117579377337869,4.019339771238816,0.0007871574969313,29.898022638335373,0.0011220389395318,2.910051232417875,345.46563688075645,13.569536737955724,5.0878303926024735,71.99842423285973,5.519675040347761e-07,120.0000045987411,112.72655675097128,15.288,0,0.0,0.0398782837956187,1.1331556132162459e-09,-0.0003507224668667,5.37022358302301e-08,1.308298593306914e-05,4.019339848191799,33.76700548046532,13.5696603843662,30.039310197084795
0.35,31.22221201433324,131.01040019407705,5.2449575244483055,4.033762873683395,0.000813261106463,32.76415525156106,0.0011515840876071,2.902959820469776,370.5765700527033,13.934300103976534,5.227895396154902,71.99821502296155,6.495674834876441e-07,120.000004945438,118.8669740701126,15.288,0,0.0,0.040950312688979,1.2825853697215452e-09,-0.0003849609961885,6.072234695821837e-08,1.4746020857580124e-05,4.033762955530055,33.07785186209504,13.934427850732408,32.89250745069162
0.36,31.22221177990305,131.01040067594835,5.375631006350063,4.051723629010647,0.0008401329464575,37.01692984301412,0.0011797030485285,2.8957873473716007,407.8625232777193,14.282998147928636,5.362923567977223,71.9979856440668,7.600645476620651e-07,120.00000531213882,124.88900300695136,15.288,0,0.0,0.0419751331662584,1.4462801652534363e-09,-0.0004213876232777,6.84067806399068e-08,1.654507199147348e-05,4.051723715967022,32.44322602189087,14.283130115703262,37.13002398000203
0.37,31.222211539445663,131.01040117020102,5.509550188388412,4.071639898917391,0.0008674922629137,35.12417761390579,0.0012067983861697,2.88849906286036,391.1218908297666,14.620581431527652,5.494447309446232,71.99773482653193,8.846681943540367e-07,120.00000570002652,130.86067091914967,15.288,0,0.0,0.0429672939311924,1.6251202388969355e-09,-0.0004600660652957,7.679415042686734e-08,1.849041957573993e-05,4.071639991174516,31.85023865502424,14.620717696893658,35.24274792557624
0.38,31.222211292895075,131.01040167697127,5.646763233102716,4.08264881385344,0.0008930259828975,36.695642158537446,0.0012360471443664,2.880711738179021,404.8187610144602,14.986392916850402,5.634654729559426,71.99746126698146,1.0246533537040716e-06,120.0000061105033,137.4891296153862,15.288,0,0.0,0.0440424171304414,1.8200057922063743e-09,-0.0005010869196581,8.592980519823866e-08,2.0642694281337543e-05,4.082648911356968,31.228847973200924,14.986533193043764,36.808540518115166
0.39,31.22221104018777,131.0104021963902,5.787316652586672,4.096641430700089,0.0009192713382325,31.335681548387896,0.0012640110027448,2.872831219844713,357.64062493382744,15.337978856701952,5.770390286512262,71.99716358743511,1.1813915463769678e-06,120.00000654506955,144.01394309468844,15.288,0,0.0,0.0450757388736732,2.031886352449547e-09,-0.00054455673306,9.586443829735616e-08,2.295945663566148e-05,4.096641533664766,30.65298398882095,15.338123255506089,31.4670954954126
0.4,31.222210781536543,131.01040272801887,5.931064331106764,4.109028969993624,0.0009451871856381,29.95928076777898,0.0012920492774571,2.8646905607053603,345.465636880754,15.692185018814769,5.906873567965718,71.99684037970908,1.3563276523471372e-06,120.00000700500496,150.74021066990193,15.288,0,0.0,0.0461167659598875,2.2617341782092324e-09,-0.0005905037520737,1.0663253249436129e-07,2.5471259834659164e-05,4.1090290785164525,30.09246700352443,15.692333488470696,30.095929256306363
0.41,31.222210517064383,131.01040327160345,6.077922766619747,4.122888296344507,0.0009714525997821,33.78425365340317,0.0013192264430821,2.85640971467756,378.94687077668647,16.03742529732769,6.0405139809190125,71.99649020751959,1.5509747261474075e-06,120.0000074917568,157.44375780268788,15.288,0,0.0,0.0471314487675864,2.5105374204052982e-09,-0.0006389770219162,1.1827345344180344e-07,2.816813594418537e-05,4.122888410595805,29.56469007160549,16.037577892745222,33.904791300285986
0.42,31.22221024682894,131.0104038270252,6.227854084363214,4.14444025865494,0.0009995884754813,38.04468161607466,0.0013435485656724,2.8482703202464488,416.2328240017114,16.348862540904037,6.163613566771559,71.99611159893284,1.766920641656551e-06,120.00000800692096,163.6157044470786,15.288,0,0.0,0.0480467946810589,2.779304965995011e-09,-0.0006900467934588,1.308321832549104e-07,3.100973487310896e-05,4.144440378988911,29.104646754454564,16.34901955589459,38.15115260238947
0.43,31.222209970843565,131.0104043942566,6.380851271439565,4.1618082623168045,0.0010268052928652,33.45815353250911,0.0013687230309017,2.8397750580998298,375.9031395134336,16.67263197205097,6.290467308135904,71.99570306121484,2.005818691215035e-06,120.00000855220898,170.15779512382937,15.288,0,0.0,0.0489983878509763,3.0690566816849196e-09,-0.0007437862329608,1.443552931671376e-07,3.4086145072160934e-05,4.161808388761201,28.640125213458976,16.672793262249197,33.57845085853367
0.44,31.22220968892116,131.01040497368373,6.537047157143216,4.164954087655709,0.0010505545842624,30.86574023822051,0.0013980747538988,2.830419582421933,353.0750125389216,17.050421620730056,6.433992917638883,71.99526304125902,2.269416145406482e-06,120.00000912964636,177.9537948947602,15.288,0,0.0,0.050108743779844,3.380847125286677e-09,-0.0008003278134917,1.589055036683518e-07,3.750784460406397e-05,4.164954219916419,28.113519280259386,17.050586641458253,30.99524475496968
0.45,31.22220940081287,131.01040556582012,6.696617751072218,4.165241899529329,0.0010735835484822,35.912216710755274,0.0014280646808282,2.820677244966047,397.2093853562869,17.438293672974723,6.580571293039616,71.99478987454265,2.5595995397253085e-06,120.00000974147088,186.13940823302417,15.288,0,0.0,0.0512487363629523,3.7158016249566814e-09,-0.000859850913876,1.745604864109677e-07,4.121350642664912e-05,4.1652420376426775,27.591357195572936,17.43846231108416,36.02281959036367
0.46,31.222209106468902,131.0104061707686,6.859600379555308,4.174585124444534,0.0010989881252456,41.916816790010685,0.0014546917035209,2.811153314474766,449.7140588976434,17.786187321601275,6.714685486378061,71.99428180697711,2.8783880229668832e-06,120.0000103898448,193.6374175079873,15.288,0,0.0,0.0522712438446989,4.0751091178509895e-09,-0.0009224765531151,1.9138630415982226e-07,4.50966024037632e-05,4.1745852688465686,27.13985967570823,17.786359950252297,42.01097612387663
0.47,31.22220880579083,131.01040678873238,7.026066274755745,4.1823089530633855,0.0011240727220223,28.37640408484148,0.0014814747534716,2.801325368441072,331.0078106302534,18.138167428286582,6.849989708801916,71.99373704967608,3.2278903746588286e-06,120.00001107707628,201.37401505997488,15.288,0,0.0,0.0533057667609836,4.459978104761035e-09,-0.0009883252835099,2.094509673354327e-07,4.927107017839778e-05,4.182309103852639,26.69716826759888,18.13834399721685,28.514342615617974
0.48,31.222208499300592,131.0104074186346,7.195654207463586,4.189479568102716,0.0011490100608361,27.95074823096412,0.0015080719422187,2.7912412472910484,327.2031223011574,18.48995085190441,6.98515976370584,71.99315377257649,3.6103201777021456e-06,120.00001180491516,209.25751230436188,15.288,0,0.0,0.0543397174489847,4.8716620260348906e-09,-0.0010573190976925,2.2877013380347535e-07,5.373205427420879e-05,4.189479725385959,26.268461765425428,18.4901313379827,28.089773168283216
0.49,31.222208187201936,131.01040806005494,7.368224738812109,4.202723284133339,0.001175611380853,35.08821363242469,0.0015321405723077,2.781292092003844,389.60000969812296,18.812014261754847,7.111044804193205,71.99253015042137,4.027946338669921e-06,120.0000125755114,216.60722913930897,15.288,0,0.0,0.0552863302793499,5.311396446020465e-09,-0.0011294854492155,2.4938633613154685e-07,5.8398320167141767e-05,4.202723448262914,25.88860807032205,18.81219892635871,35.1982716047702
0.5,31.22220786953184,131.01040871291724,7.5437546994244835,4.220815778795054,0.0012036252596423,36.05491615971072,0.0015540388599792,2.7714444106710974,397.97031042210494,19.10875420627192,7.229005658018125,71.99186435180009,4.483102820610566e-06,120.00001339126192,223.4908652241728,15.288,0,0.0,0.0561585257949344,5.7804122391526605e-09,-0.0012048912160576,2.713531252030471e-07,6.327866493526626e-05,4.220815950099865,25.54902500917784,19.108943271285572,36.161276053538906
0.51,31.222207546379583,131.0104093770373,7.722184419225251,4.232567510615346,0.0012298790840397,27.54004661432325,0.0015777580800203,2.761017323676155,323.3984349720841,19.430597746636646,7.354673636736509,71.99115452520388,4.978202222778502e-06,120.00001425458936,231.07869697977367,15.288,0,0.0,0.0571045034845869,6.2799518101633574e-09,-0.0012835871653678,2.947201005874635e-07,6.854585242460463e-05,4.232567688976395,25.189423168613605,19.430790935591396,27.678103017910345
0.52,31.2222072175632,131.01041005233037,7.903543842943144,4.238566350745844,-23.97767640562235,33.76412531668065,1.55572829763626,2.7502718458785846,372.0984511843415,21.63246502716864,7.483651994928269,71.99038980007542,-7.978903778269114e-05,119.99992546852134,286.41255100492486,15.288,0,8.80001985709808,0.0635756922121411,6.790559363377808e-09,-0.0013916502652435,-0.0002622087752942,8.273670264586693e-05,24.32761404387257,5.035990494643482,17.97503893931681,33.911656464449116
0.53,31.2222068819209,131.0104107386289,8.087982426365242,4.246640498067854,-23.667406750540728,35.43009177291009,1.5949166057408797,2.739133099622972,386.5562464348624,21.944565960638563,7.612702962431227,71.98957125840789,-0.0009593657902948,119.99900092805632,294.7313439080355,15.288,0,8.833885965085265,0.064493060419689,7.095263918208886e-09,-0.0014770978656045,-0.0007910116892615,8.908214511802115e-05,24.02378323892937,4.995363236943907,18.33172450622564,35.571589958189236
0.54,31.22220653921409,131.0104114360871,8.275575613642989,4.25452417346604,-23.366661509024304,31.175621445579004,1.6345742276351305,2.7277568689482314,349.2703242098436,22.255375639821853,7.741106186153773,71.98870280060348,-0.002781371721151,119.99708539955613,303.1338034113593,15.288,0,8.867683682191732,0.06540663988712,7.1469264742000414e-09,-0.0015662667332617,-0.001333303174964,9.57959680116908e-05,23.72944702971064,4.958331930948759,18.68585132442733,31.33738762181348
0.55,31.22220618971979,131.01041214407402,8.466117987354405,4.263418481990724,-23.080661575580905,33.01566698965883,1.6742462877424444,2.7162311671619426,365.2500005919907,22.55953842737718,7.867072739853001,71.98778226940564,-0.0055690341998739,119.99415444817949,311.47054592183656,15.288,0,8.90137086675283,0.0663006907417068,6.940591883625889e-09,-0.0016591275454521,-0.00188854482749,0.0001028604961771,23.44993201698279,4.926570510709428,19.03129869558166,33.169493200191184
0.56,31.22220583342064,131.0104128625677,8.659609747598095,4.2741811853330365,-22.812853153564507,30.848416297482984,1.7135677475392344,2.704631235756646,346.2265619465787,22.852898586674,7.989224785203546,71.98680747492338,-0.0093451934020835,119.99018404524936,319.61789033896525,15.288,0,8.934944899540028,0.0671629995405473,6.4714541780377084e-09,-0.0017557784760005,-0.0024569337126068,0.0001102659886543,23.18876466838872,4.901062011040015,19.36339718358242,31.014127951784342
0.57,31.22220547037581,131.01041359138975,8.855998123580374,4.282748874816773,-22.54323257508813,30.51010762579423,1.75409210152646,2.692644174287929,343.1828296833023,23.153743003742782,8.113730542713897,71.98577617231291,-0.0141326681183142,119.98515018310351,328.0822411964871,15.288,0,8.968389221942001,0.0680473100626619,5.734780895308916e-09,-0.0018562754573626,-0.0030384262028604,0.000118109819027,22.92558695973064,4.874476824175214,19.70331906731857,30.678882624494516
0.58,31.22220510054453,131.01041433056875,9.055300167353352,4.286474281708155,-22.259348239887306,40.024012852575446,1.796961008373705,2.6800287524017152,426.1250058573153,23.474856898980583,8.244864586629882,71.98468604787585,-0.0199544707476046,119.97902864910644,337.239084569734,15.288,0,9.00170222153741,0.0689911975507743,4.7258457322690685e-09,-0.0019607214060891,-0.0036332369003915,0.0001264832176697,22.64769913990716,4.842471714184982,20.065660307756705,40.15386940012681
0.59,31.222204723481955,131.0104150809646,9.257814067161512,4.295264380047402,-22.007488000737176,32.53639124792901,1.8382153850155607,2.667597884107983,360.68438819711065,23.77011621322068,8.367158529365796,71.98353460100134,-0.0268350631759574,119.9717937077812,345.76908402253576,15.288,0,9.034933705713929,0.069859106579987,3.439594416169408e-09,-0.0020694333819616,-0.0042427195877784,0.0001351725079509,22.40227970208881,4.821178593570036,20.397566336121013,32.69727618183687
0.6,31.22220433939416,131.01041584209457,9.463384524168942,4.2959021385752925,-21.725938299088146,28.970271550984727,1.8833139027779204,2.654214156267515,329.4859594986058,24.10215998286561,8.501582857812348,71.9823193684039,-0.034799235391326,119.9634192685427,355.48960531974177,15.288,0,9.068050746238082,0.0708351298216143,1.870974467965257e-09,-0.0021824009670953,-0.0048664444769742,0.0001445398346912,22.12640387866584,4.789134614266343,20.770653870763937,29.15250174138615
0.61,31.22220394821153,131.0104166140448,9.672048401598088,4.295017303958501,-21.44555186941865,33.86718235413471,1.929639083682184,2.640411490168205,372.0984511843297,24.44031561343311,8.637852011263828,71.98103766615156,-0.0438723219518634,119.95387867420716,365.527364061393,15.288,0,9.101057606855624,0.0718291226146009,1.485656551868607e-11,-0.0022997582157163,-0.0055047555504072,0.0001544462366798,21.85152019020549,4.757078177689863,21.14976363632495,34.024716316802696
0.62,31.222203550036284,131.0104173965462,9.883722755592624,4.305821009948019,-21.22541507351315,41.99628401119229,1.9713381636047085,2.6274405472277773,442.86563930529206,24.718943079889826,8.754125004937409,71.97968670688607,-0.0540802065697286,119.94314468790505,373.9015299702045,15.288,0,9.133952931159694,0.0726481712192008,-2.133961495441642e-09,-0.0024215746650451,-0.006157653881763,0.0001644777952761,21.63797692660056,4.744749747925383,21.4606002553231,42.124547341582506
0.63,31.22220314465808,131.01041818997993,10.098543610508916,4.312550033024153,-20.99357321918517,24.02003216260536,2.015222763925982,2.6138540108098285,286.11251274707894,25.01515391060932,8.876117631127052,71.9782638144269,-0.065447839032342,119.93119104537776,382.9083590068288,15.288,0,9.166712149845226,0.073518903405791,-4.580371955838539e-09,-0.002548039112926,-0.0068257367606904,0.0001751377737738,21.41233435898925,4.7277017145602045,21.79078484971269,24.245727472498494
0.64,31.222202732673903,131.0104189930585,10.316083974511752,4.312958735087203,-20.74046182159136,23.59049525991845,2.062469439311708,2.5993828924780567,282.30782441796754,25.34136147944117,9.007923798003452,71.97676606517733,-0.0780003498534614,119.91799129939452,392.9518196943201,15.288,0,9.199350507472408,0.0744778019650005,-7.329261345773321e-09,-0.002678913991211,-0.0075074508414797,0.0001865306474275,21.164791223307315,4.702920055031497,22.154143251296368,23.8227210498305
0.65,31.222202314047184,131.0104198058063,10.536359305815235,4.321987731799363,-20.53137852135188,41.33533576732206,2.106153512294905,2.585534280955966,436.7781447787475,25.621222638348808,9.124227360376196,71.9751906247962,-0.09176227367427,119.9035196198504,401.6704944239583,15.288,0,9.231773722923768,0.0753004959618221,-1.0385298957024165e-08,-0.0028143323001968,-0.0082031353368007,0.0001981196364942,20.96211638378484,4.691893474646237,22.46473989143724,41.46963772608346
0.66,31.22220188823172,131.01042062930435,10.759741281526592,4.328486128822028,-20.31719635648429,35.229004029507564,2.1514462508128527,2.571183648127688,383.51251517160017,25.91152154138613,9.243861621948696,71.97353452827754,-0.1067583631877564,119.8877499479509,410.8154288968256,15.288,0,9.264103911573914,0.0761538732102388,-1.3753091244900904e-08,-0.0029546967601635,-0.0089144250685457,0.0002103530497555,20.75408417862733,4.678380191939587,22.786567394784324,35.38816795531518
0.67,31.222201455404704,131.01042146313384,10.986096039020868,4.3293794032020925,-20.08485954372481,24.397536943230367,2.199949875570337,2.555961128100284,289.1562440103425,26.2291286114888,9.372389973636183,71.97179462360332,-0.1230150464255536,119.87065445924132,420.9390336520949,15.288,0,9.296325180404072,0.0770875161575835,-1.7437656332944352e-08,-0.0031000043468126,-0.0096409458787571,0.0002233982191269,20.52731606806899,4.658189341834787,23.138424875949944,24.62950518462911
0.68,31.22220101572585,131.01042230691272,11.21530215573932,4.331415730541432,-19.86308266972921,30.35155673873028,2.248416980596831,2.5405817630967182,340.8999924858462,26.53875501265775,9.49814909532922,71.96996767806287,-0.1405586448240757,119.85220543872612,430.9263058402476,15.288,0,9.328336724208333,0.0779977111043837,-2.1443924087741607e-08,-0.0032502730758791,-0.0103824383254878,0.0002369869207822,20.31120981808389,4.640638181753511,23.480792390141524,30.540578433912795
0.69,31.22220056926232,131.01042316045297,11.447303347300966,4.338150003337628,-19.666518189655488,37.271115165143634,2.2949572745170466,2.525484464776573,401.0140726853634,26.820666103062564,9.614641238801791,71.96805036309638,-0.1594150550223025,119.8323756176243,440.1202583843944,15.288,0,9.360226342093014,0.078826457411761,-2.5776643319737896e-08,-0.0034055586233579,-0.0111388279248638,0.000250941348328,20.12079137551652,4.630417986976665,23.791760780876405,37.4270079798945
0.7,31.22220011585606,131.01042402403627,11.682201384937974,4.3441816976532985,-19.47203128058517,31.33019279093588,2.342281336190005,2.5100556440402424,349.27032420985284,27.10376232608636,9.731410841092153,71.96603937106873,-0.1796098602604161,119.8111380483066,449.4502273908941,15.288,0,9.39199573164428,0.0796586937982066,-3.044037910663954e-08,-0.0035660606927888,-0.0119107099673006,0.0002655356408359,19.93237133473997,4.620036444062843,24.103642272863237,31.51773534870887
0.71,31.222199655547584,131.0104248975324,11.919959274701752,4.346462977637179,-19.26682589296736,25.823468468812152,2.3920536475872645,2.493899029980693,301.33126406340574,27.40519247468421,9.854104938168582,71.96393126120059,-0.2011692449261472,119.7884651472814,459.4923035472696,15.288,0,9.423551623838842,0.0805448212430675,-3.5439819427160664e-08,-0.0037318512955906,-0.012698072536012,0.0002809647144563,19.732829285597024,4.60539321141658,24.435481563218683,26.053655727832314
0.72,31.22219918832329,131.01042578092333,12.160577878017277,4.344338572080781,-19.04865890286156,31.52183736643947,2.444799211399012,2.4768832218742127,350.79220534145287,27.72948056416133,9.984178173988516,71.96172234676484,-0.2241198818294873,119.76432882109611,470.4201996249309,15.288,0,9.454985768499675,0.0814981365422585,-4.0779684626662176e-08,-0.003903054703908,-0.0135011438355008,0.0002973246611475,19.51983310470496,4.585874058744957,24.79214132808566,31.71337611537313
0.73,31.222198714163856,131.0104266742019,12.404061896664048,4.351232967854448,-18.871847615133216,39.76319248905711,2.4930596785502703,2.460760199550936,422.320318528234,28.00022792318451,10.09655504269125,71.95940885175149,-0.2484893881380103,119.73869997431692,479.6400854824207,15.288,0,9.48630412685604,0.0822941007404847,-4.646485854992058e-08,-0.0040798129138385,-0.0143202271867728,0.0003138168221937,19.34915812814328,4.578662927384225,25.08915525790914,39.91719133709579
0.74,31.2221982329885,131.0104275774941,12.650460220413894,4.354640775686611,-18.685228899149,25.053194839124167,2.543713245576728,2.443909533817763,294.48281347105944,28.288311097897303,10.214517141601675,71.95698706338118,-0.2743043672923278,119.71155056788876,489.5489252095538,15.288,0,9.517442018007722,0.0831410230341386,-5.24999027684035e-08,-0.0042622665567496,-0.0151556019166281,0.000331216341066,19.168290219787917,4.567529900673176,25.40499203281055,25.300311115326735
0.75,31.22219774516017,131.01042849000052,12.899510621249403,4.355672791241753,-18.493406890673256,29.17802538628528,2.596251613423599,2.426441496356982,330.24688556441487,28.58792707190268,10.336150271491356,71.95445296864239,-0.3015915601310103,119.68285242502812,499.962011564472,15.288,0,9.548401262581397,0.0840218482260713,-5.888950303174268e-08,-0.0044502571978327,-0.0160062260401473,0.0003494793500166,18.981946069159843,4.553983775836935,25.73316730809838,29.39362696603051
0.76,31.22219725054856,131.01042941195217,13.1512972347565,4.359629045342372,-18.31729202277085,31.37620544998817,2.6475581573104017,2.4091049235920674,349.27032420986166,28.86792182499157,10.45125511515409,71.95180265856679,-0.330377481466577,119.6525775904482,509.7910607207705,15.288,0,9.579222371320974,0.0848450127324473,-6.563803747496238e-08,-0.00464400248514,-0.0168727272432765,0.0003682571650461,18.8116274976856,4.544601518327335,26.03941099719981,31.5797343112491
0.77,31.222196749079608,131.01043034346426,13.40586509437535,4.364001458833728,-18.146693245381563,29.36600724170589,2.699070813596624,2.391556316739307,331.7687666960708,29.142752386990264,10.564572317403451,71.94903192498353,-0.3606888597928438,119.62069789000124,519.5312674508717,15.288,0,9.609908486107678,0.08565300661134,-7.274987706115042e-08,-0.0048436698541582,-0.0177554946637189,0.0003877374275128,18.64686703836442,4.536179106116135,26.339693836984157,29.586600112092427
0.78,31.22219624080776,131.0104312843849,13.663169349353756,4.36507673124793,-17.96701523336989,24.196565940988453,2.753081137754173,2.3732262312210377,286.8734378128899,29.43488067062063,10.683443727983295,71.94613662558619,-0.3925525102266421,119.58718504143648,529.9859852388954,15.288,0,9.64038983303478,0.0865118474115394,-8.022944082292446e-08,-0.0050493144189496,-0.0186544255307321,0.0004082409703667,18.472644865065845,4.52415688477459,26.65865582917598,24.468049816693927
0.79,31.222195725812057,131.01043223451052,13.923147857758174,4.364128205552446,-17.783381805069443,34.204397158881946,2.8089242489496784,2.354269533992972,373.6203323159534,29.73713850385497,10.805513448614386,71.94311230120411,-0.4259954900334304,119.55201051360416,540.912894949408,15.288,0,9.67070892973161,0.0874004676091951,-8.808114334003286e-08,-0.005260987411963,-0.0195694053784801,0.0004297120067669,18.294220439985143,4.510179614481702,26.988366294358087,34.40019513720171
0.8,31.22219520384776,131.0104331943168,14.18596646380998,4.368448862726448,-17.623472059733718,34.65022729880025,2.861904212879137,2.335853696009178,377.42502064505743,30.00439182044177,10.916069793175442,71.93995445650717,-0.4610456140522584,119.51514496393769,550.6652596314412,15.288,0,9.700902829562292,0.0881862137180925,-9.630928540237025e-08,-0.0054790323846753,-0.0205015414032576,0.000451532260445,18.14012754685511,4.502865977526696,27.27954863480832,34.84659179993616
0.81,31.22219467500998,131.01043416356913,14.45155238997551,4.368807519023573,-17.45203385971027,22.716486679919527,2.917952179332915,2.316499664114189,273.9374926939919,30.293672450828165,11.03370322854634,71.93665841982529,-0.4977304221476325,119.47655933704516,561.32036122309,15.288,0,9.730955927585766,0.0890367081619449,-1.0491830753835305e-07,-0.0057034606196249,-0.0214505323182978,0.0004745471666956,17.97403087120189,4.491261772996875,27.594506986714052,23.019977903848567
0.82,31.222194139483744,131.01043514184363,14.719769446165044,4.367335543958135,-17.277196291599665,29.043281133087124,2.975797934314361,2.2965127426680807,328.72500443277005,30.59222285327832,11.154251402357293,71.9332194156559,-0.5360774014311322,119.43622462504952,572.4239910604977,15.288,0,9.760846012286024,0.0899144554175703,-1.139126408686162e-07,-0.0059342294131442,-0.022415867048425,0.0004986010533834,17.804304612739404,4.477922946777477,27.919269149869148,29.285517292659197
0.83,31.22219359723968,131.01043612916817,14.990632851093986,4.372340194752356,-17.129531911555144,36.77890568367945,3.029712330329277,2.277345207491659,395.68750322465047,30.846859611100303,11.260435075128791,71.92963252675862,-0.576114174880392,119.3941116703338,581.97774249581,15.288,0,9.790538482475103,0.0906631424851885,-1.232964896523742e-07,-0.0061715045709253,-0.0233978928017463,0.0005228396803037,17.662531100991952,4.472335263621242,28.196063244008123,36.973684713423175
0.84,31.22219304815654,131.0104371257692,15.264223778025595,4.375645538134285,-16.97857003217363,22.90145301832462,3.0852121154696075,2.257602486015838,275.4593748256452,31.109402704160185,11.36910240333435,71.92589276404469,-0.6178676261151089,119.35019208566872,591.9109802090552,15.288,0,9.82008885669693,0.091435074815966,-1.3307377420845946e-07,-0.0064154921321611,-0.0243971000414148,0.0005481214111039,17.517253301063338,4.4650693446479055,28.481276669677293,23.21835164547292
0.85,31.222192492532788,131.01043813098693,15.54032678376812,4.373053442474239,-16.809122268191267,24.925889895194967,3.1454117085377544,2.236468347642109,292.96093233939376,31.40773312375313,11.489295178344587,71.92199501722233,-0.6613644505964182,119.30443767351495,603.3019361377018,15.288,0,9.849473314953586,0.0923121990300762,-1.432487389010704e-07,-0.0066660152583368,-0.0254124482197361,0.0005749717370378,17.352756466000976,4.451450773293345,28.805075219545824,25.222914037707735
0.86,31.222191930175992,131.01043914519877,15.819073577996532,4.374293497289727,-16.656577258286113,31.08367667763767,3.20339271830281,2.215724276179724,346.2265619465587,31.67842790270312,11.60042878644637,71.91793395596659,-0.7066322598038903,119.25681926510153,613.7297144039276,15.288,0,9.878711894117362,0.0931081058000967,-1.538252064990433e-07,-0.0069234108214601,-0.0264449472270812,0.0006023039331206,17.2056299475743,4.442454715995963,29.098717108953423,31.326763554118443
0.87,31.222191361102087,131.0104401683441,16.10044906374982,4.37717947678046,-16.512700573406736,28.97731122543337,3.260617395510587,2.194998117934332,327.964078366998,31.935308944464364,11.707000292816668,71.9137041333013,-0.7536983150389779,119.20730805113024,623.7067109772535,15.288,0,9.907803004469857,0.0938634193898063,-1.6480712152889033e-07,-0.007187782807529,-0.027494665791469,0.0006303566045739,17.067376757890013,4.435547799402466,29.377258058225426,29.242677859479084
0.88,31.22219078533977,131.01044120033745,16.384429583488448,4.376970885379566,-16.360498411263176,25.110148918655785,3.3206355807306487,2.173355202260848,294.4828134710418,32.2100604981702,11.819274605984823,71.90929997491577,-0.8025896141879226,119.15587549031252,634.4675424476485,15.288,0,9.936739592202423,0.0946712652639784,-1.7619837292802176e-07,-0.0074591958389973,-0.0285615175373397,0.0006597690603541,16.920403273442613,4.425488420278676,29.674940432552173,25.421834556386347
0.89,31.222190202965564,131.01044224099132,16.670957511810197,4.373734361683446,-16.200311130560447,27.48849849031988,3.3835158961401044,2.150759997261697,315.028134248087,32.50281329052194,11.937285913050028,71.90471574233537,-0.85333325755841,119.10249292402824,646.0353522049186,15.288,0,9.965482969085151,0.0955320281677048,-1.8800283254206789e-07,-0.0077377095506843,-0.0296453996339834,0.000690605163867,16.765050475727,4.412402073259618,29.99184640446963,27.77933580267124
0.9,31.22218961389276,131.01044329046627,16.960091346197142,4.377114148022524,-16.065887710493524,30.307997093049305,3.4417412856766667,2.1292142349035683,339.37814235421445,32.74754708496392,12.039681222154568,71.89994547220599,-0.905957055594904,119.04713093670966,655.7825689597529,15.288,0,9.994077836103031,0.0962516619286445,-2.002242159003441e-07,-0.0080235607396686,-0.0307468808791207,0.0007214899815054,16.636312659433337,4.406762147564181,30.256863834330854,30.577014637271777
0.91,31.22218901818808,131.01044434860043,17.2517815316728,4.377441689707132,-15.923253060337451,23.179409202379112,3.50281543341088,2.1067191825907727,277.7421810230789,33.01026419086555,12.147809496155087,71.89498315707999,-0.9604874952874538,118.98976149440249,666.3281363607016,15.288,0,10.022520747569107,0.0970241599452968,-2.1286619179943306e-07,-0.0083167838378422,-0.0318657495735096,0.0007538355817443,16.498966793027435,4.3980687310220095,30.54111858661931,23.537055734440848
0.92,31.22218841605345,131.01044541494076,17.545881691959377,4.374805733750398,-15.772858064704556,27.49600498683672,3.5667954140024904,2.083243788128069,315.02813424806214,33.29093645186031,12.26165349242692,71.88982261720126,-1.0169511069503512,118.93035650643512,677.6881762308985,15.288,0,10.050798205188508,0.0978494398871114,-2.2593263130276105e-07,-0.0086172622740913,-0.0330012422952097,0.0007876898963587,16.353466255336624,4.386485201657291,30.84451686701013,27.80453604076632
0.93,31.222187807388952,131.01044648968303,17.842461392329888,4.378211632413931,-15.645432703450156,32.60752613065178,3.6262513450884,2.060801940688819,359.1625070654728,33.52617248446694,12.36075148080954,71.88445750121905,-1.0753744030981955,118.86888788967224,687.2796179907403,15.288,0,10.078924599214233,0.0985411804765947,-2.394267097036489e-07,-0.0089252740907662,-0.0341540643138126,0.0008215861668541,16.231737433201058,4.381565770532541,31.09902120045082,32.87320130163232
0.94,31.22218719207688,131.0104475730679,18.14160430766149,4.375648018454596,-15.499987994548524,23.798636165467688,3.6911585434428233,2.036676946143443,283.0687504837787,33.80067288218216,12.47243623862867,71.87888135128144,-1.135783150638666,118.8053283334258,698.5600244149877,15.288,0,10.106899498115164,0.0993483360131152,-2.533515215767691e-07,-0.0092410344830668,-0.035324665946393,0.0008575926314109,16.091189532557237,4.3706034139472765,31.395529314703687,24.16914950328393
0.95,31.2221865704092,131.01044866444747,18.443099558105622,4.373642404634767,-15.358699621985911,30.67436916243389,3.7561034948615695,2.0123360116714726,342.4218736174873,34.068496712935826,12.581886133379706,71.8730874424402,-1.198203983663781,118.73964960149372,709.6535876363282,15.288,0,10.134711620902833,0.100135875549464,-2.677109674509812e-07,-0.0095643557547801,-0.0365120351040629,0.0008946047929967,15.954868975126091,4.36051489122323,31.684746794929637,30.9689317413639
0.96,31.2221859420806,131.01044976447082,18.747166141716644,4.374545457828446,-15.229272200944466,30.05934878133116,3.8189626681983806,1.9883704803748603,337.09533515678345,34.312227334971965,12.683492191829254,71.86706890656171,-1.2626630663657508,118.67182393949602,719.822802198679,15.288,0,10.162382587459588,0.1008526071338118,-2.825075712963624e-07,-0.0098957474930551,-0.0377176753651792,0.0009321962704551,15.830805440724914,4.353714156555835,31.948087825271376,30.366141377956374
0.97,31.22218530710792,131.0104508730911,19.053792032227065,4.373664265058254,-15.095975668574436,19.38990490139301,3.883836525887425,1.9636435534662573,245.02188719299323,34.565758729750286,12.788176462501536,71.86081864412547,-1.3291869279919677,118.60182319465936,730.4780615131621,15.288,0,10.189909617594497,0.1015981537038481,-2.977446255572123e-07,-0.0102353171204149,-0.0389416204268407,0.0009712800149774,15.702628844736616,4.345329447274475,32.22182847210283,19.87230470403349
0.98,31.222184665781736,131.01045198966443,19.36276763849748,4.367116046754001,-14.946179872335415,28.03364792712702,3.954376035843661,1.9371164120810247,319.5937466429581,34.8583146484992,12.905338500605389,71.85432940150105,-1.3978016246266265,118.52961969721945,742.8735103810742,15.288,0,10.217274101759488,0.1024584122233213,-3.1342600889425984e-07,-0.0105828010181701,-0.0401826008505691,0.0010127241905446,15.55716098042702,4.331442546971602,32.53711025030007,28.37736643751357
0.99,31.222184017947207,131.01045311451804,19.67420481795792,4.369577839352309,-14.827795380476775,30.59315092120616,4.01708470335585,1.912580637462024,341.6609485517054,35.080911357747404,12.999916614657195,71.84759367450849,-1.4685336407429703,118.45518531186715,752.3689166264363,15.288,0,10.244496651210824,0.1031130490535579,-3.2955429133899665e-07,-0.0109386004217848,-0.0414416948376676,0.001053425440701,15.444364555254529,4.327038091168881,32.77767857087279,30.914977235903432
1.0,31.222183363602007,131.01045424765465,19.988107115613623,4.36652337496368,-14.693398791730084,27.416721571562874,4.085369661949354,1.886258175124596,314.2672081822764,35.3415196659645,13.106641910124784,71.84060393971254,-1.5414075867538757,118.37849385939973,763.5657798408035,15.288,0,10.271569009517892,0.1038794209645537,-3.461323318375179e-07,-0.0113027895998133,-0.0427188125388051,0.0010965512817059,15.314780969748467,4.317320787466095,33.058701154656774,27.78353535658487
1.01,31.22218270292639,131.01045538867152,20.30434475098436,4.364170616552015,-14.563155814126864,28.652593346078813,4.15344228307043,1.85977749599938,324.9203161036979,35.59380810561912,13.210616884813348,71.83335235759048,-1.6164490320713174,118.29951813464632,774.4827248668563,15.288,0,10.298487304829347,0.1046213463648733,-3.631634194797914e-07,-0.011675290301195,-0.0440133480804617,0.0011407409581425,15.189450395340344,4.308626496055738,33.330784939039674,29.011738324153946
1.02,31.222182035842327,131.01045653773835,20.622976392015712,4.363013154036839,-14.438526422787929,23.972013464607613,4.220765345563003,1.8332939903459915,284.59063161540416,35.83374465377199,13.31054977207089,71.8258309719612,-1.6936825351843003,118.21823197935792,784.9354144919245,15.288,0,10.325258037601104,0.1053269737008028,-3.806499272714789e-07,-0.0120563451964078,-0.0453257945249729,0.0011858765199989,15.06990735744472,4.301441695602517,33.589674585178095,24.40969595272897
1.03,31.222181362418542,131.01045769470403,20.94395458865236,4.358034145330413,-14.303600084867965,19.64194349418317,4.292318254348329,1.80536850642998,247.30469339049705,36.09996033682172,13.41884365227042,71.81803166788715,-1.7731320134932815,118.13460989190185,796.6170458140643,15.288,0,10.351876326509863,0.1061098520827132,-3.9859456375391497e-07,-0.0124459757898868,-0.0466558833914731,0.0012332578513804,14.939514195112356,4.290785586174797,33.87642124830109,20.186364102267294
1.04,31.222180682715862,131.01045885943176,21.26723703259165,4.356340329464789,-14.180752670944091,31.037013652665923,4.361020154673792,1.7780411603769664,345.46563688072297,36.33755724143142,13.51787885677772,71.80994602119881,-1.85482207795284,118.04862562192103,807.1125832535469,15.288,0,10.37834589655396,0.1068086184521996,-4.169999712933889e-07,-0.0128442671713113,-0.0480035670333168,0.0012810609317058,14.821680216748096,4.2837335565421215,34.13272187860661,31.39229433528611
1.05,31.222179996452915,131.01046003255505,21.59303356631373,4.351527638298648,-14.049900266531244,18.840075162577666,4.433347074868864,1.749429950575376,240.45625879819983,36.596251251617744,13.62360296015319,71.80156546678988,-1.938776426420057,117.9602538609521,818.6198501956918,15.288,0,10.40468118819631,0.1075694048717458,-4.3586754500571137e-07,-0.0132517719264134,-0.0493703355464308,0.0013310724366567,14.695382626043388,4.273963524163316,34.41134953386426,19.43356641406292
1.06,31.222179303865623,131.01046121354955,21.9211743320842,4.3440454674621884,-13.912566568004848,26.704154706019256,4.509018948636212,1.7195976239656523,308.17968365593924,36.87315059047411,13.735083672663784,71.79288107782669,-2.0250197707065225,117.86946821213948,831.0284199170867,15.288,0,10.43087103051326,0.10838371188962,-4.5520064766775654e-07,-0.0136682746852651,-0.0507551236734431,0.0013832522778306,14.562202787946408,4.261974090565338,34.70918211256679,27.136693726954267
1.07,31.222178604840483,131.0104624026735,22.25174608560683,4.3421312582650815,-13.794021570147004,31.388743768381413,4.579221579226805,1.691137056163314,348.5093681440308,37.10240161979662,13.831216415730712,71.78388363961616,-2.113577075356893,117.77624199143784,841.3673153203555,15.288,0,10.456930337904476,0.1090579715570837,-4.750011717442182e-07,-0.0140941627498022,-0.0521588523521111,0.0014351753407123,14.44864400052774,4.255811671499842,34.95651249534319,31.766058146573492
1.08,31.222177899282062,131.01046360015405,22.58482436353765,4.3388156744099176,-13.67274068897798,21.21569178805535,4.651317638837794,1.6618822179524215,261.00157857466235,37.33929079443311,13.929721661436156,71.7745638239947,-2.204471966090132,117.6805499017571,852.1181741138084,15.288,0,10.482860699555784,0.1097546908385629,-4.952710530232689e-07,-0.0145297051602158,-0.0535820259323661,0.0014889243471039,14.332142747945296,4.24867631704447,35.21190778016069,21.783071094991847
1.09,31.22217718746356,131.01046480538352,22.92021203248549,4.329152741502528,-13.533882523334066,19.530170464229016,4.730912285701607,1.6301444712202342,246.54375332474407,37.62462678711608,14.043663024578208,71.7649120578388,-2.2977278403622727,117.58236686262892,865.1633408667722,15.288,0,10.508646857840509,0.1105938228077538,-5.160136805537431e-07,-0.0149745785383618,-0.0550232414293034,0.0015461890136503,14.197096166542304,4.235845085169316,35.518443680075755,20.161013377652814
1.1,31.2221764694618,131.01046601819544,23.25785649396712,4.322495044474676,-13.405725165837048,38.906783209758,4.807687442299858,1.5989905289712325,413.1890617385841,37.88247683122909,14.148727576109328,71.75491851973919,-2.393367832303963,117.48166804682693,877.0338491202596,15.288,0,10.534293771390002,0.1113521714669033,-5.37231230601925e-07,-0.0154288603616706,-0.0564824025038985,0.0016039613693722,14.07320530979069,4.226373201002182,35.79587088609087,39.235295449195924
1.11,31.222175744890208,131.01046723948767,23.598051096162816,4.322035915296939,-13.297514820510528,28.549133085434672,4.8776974608712855,1.5696276301588252,324.1593910376397,38.0852708866783,14.23610101928038,71.74457309899404,-2.491415094971571,117.37842858248628,886.4199648692597,15.288,0,10.559825693115652,0.1119486963295128,-5.589238366178897e-07,-0.0158934067912691,-0.0579618565472431,0.0016610455663024,13.970224317376475,4.223282797441592,36.015203154821776,29.005321293635223
1.12,31.222175013817267,131.01046846912837,23.94075281648132,4.309480627497895,-13.154991790729644,10.924894371723743,4.962296143387809,1.535592632718622,172.73281794065943,38.38552644375015,14.354568790384736,71.7338655558286,-2.5918914084922675,117.27262501659068,900.4220828520373,15.288,0,10.585231516012325,0.1128317105818496,-5.810938597161623e-07,-0.0163681987848829,-0.0594611486545923,0.0017240965940092,13.831045590197611,4.209133628085761,36.33725232531903,12.096931213397154
1.13,31.22217427681637,131.01046970580376,24.285536976388823,4.303224090105924,-13.032564115933324,33.590614146755684,5.0399487912741545,1.5033957231345725,367.5328077900705,38.62990830923632,14.455097074395429,71.72278506712246,-2.694820835597804,117.16423146443393,911.8934720022004,15.288,0,10.61049446987532,0.1135504966862121,-6.037459919549673e-07,-0.0168524258326724,-0.0609774012018709,0.001786343280642,13.7129456565219,4.201496859096203,36.60036508923331,33.99986237141598
1.14,31.22217353325761,131.0104709509973,24.632884332263483,4.3013360402174925,-12.924235599415436,18.704455128351896,5.112615582520549,1.4724680008698752,239.69531773195544,38.83316137157807,14.542404937047564,71.71132097670385,-2.800223550801705,117.05322610884312,921.4839111240544,15.288,0,10.635647746027752,0.1141483953561574,-6.268782638635624e-07,-0.0173474242347416,-0.062514376732254,0.0018484260296327,13.609642658021164,4.198499470471122,36.82019967037595,19.446430051727933
1.15,31.22217278361644,131.01047220363253,24.982445949379063,4.287197155695145,-12.781823041773375,18.43114215314317,5.200829829801987,1.4364874542900827,237.41251153546767,39.13812451012053,14.662139552648645,71.69946239845768,-2.9081190739529807,116.93958779167924,935.9824387158468,15.288,0,10.660661028860956,0.1150452751241616,-6.504948817897451e-07,-0.0178523693973044,-0.0640691579505782,0.0019171037702027,13.470301574159826,4.184492221051941,37.14697240745394,19.20466423018799
1.16,31.222172028028428,131.0104734634054,25.334124955188,4.28604374350242,-12.678165646397195,47.85221822819994,5.273143556123435,1.4051422469590416,490.0437743845894,39.3273250702092,14.744826627187088,71.68719785664352,-3.018529013899216,116.82329312455816,945.021793890808,15.288,0,10.685544840566989,0.1156018829638807,-6.745975607781157e-07,-0.0183672907416788,-0.0656414922156227,0.0019818673532417,13.371803983241229,4.183267876899992,37.35205519690318,48.16238425428028
1.17,31.222171265677275,131.01047473227496,25.688551341566807,4.278344586486974,-12.557053689312244,8.663785751495102,5.35405577785249,1.3708625611201288,153.70937929486794,39.5692816327956,14.844283486462976,71.67451601652891,-3.131471293237216,116.7043225713266,956.653256550286,15.288,0,10.71033169569838,0.1163135746561135,-6.991827135968783e-07,-0.0188939391712971,-0.0672362620266839,0.0020511667506784,13.25479974814733,4.176475155358747,37.61257653653714,10.276495559364875
1.18,31.22217049766133,131.01047600767674,26.0448990738006,4.26199174682124,-12.41284404396266,23.37408288631621,5.446799789656185,1.332587775471049,280.02501822196746,39.88470674067199,14.967125468195071,71.66140504052197,-3.246965107288253,116.58265522028148,971.93263035126,15.288,0,10.734968575131692,0.1172412356280142,-7.242583925861247e-07,-0.0194301695942498,-0.0688466556639051,0.0021261231572432,13.113279096970825,4.162226123929592,37.95011837159476,24.037287053748678
1.19,31.2221697234982,131.01047729077587,26.403543243409807,4.264032554684511,-12.32170162257086,40.66500906745548,5.515464930275554,1.3015825599020387,428.4078130529292,40.0327307770082,15.036469068048808,71.64785269995859,-3.3650299416988227,116.45826982168252,979.1265482427914,15.288,0,10.759489381911235,0.1176768290958214,-7.498216898185144e-07,-0.0199773603331027,-0.0704764240148353,0.0021940361567092,13.02785625109242,4.165762761542778,38.11212680418856,41.057976484643966
1.2,31.222168942786126,131.01047858258636,26.764805859615308,4.250872488638286,-12.18917007283032,4.37122002590579,5.604825304718648,1.2637683552700885,117.1843741360236,40.31253089572488,15.147789249593432,71.63384702197312,-3.4856807253610675,116.33114989137252,992.8267107034972,15.288,0,10.78387299509341,0.1184997889862989,-7.758711515104651e-07,-0.0205363885075751,-0.0721277246014015,0.0022711170960401,12.898536781671416,4.155809643808166,38.41227050337452,7.219331109394855
1.21,31.222168156611964,131.01047988052613,27.12786023572015,4.238281647718521,-12.059589870642265,32.67050443214127,5.693924650465906,1.2257200930420196,359.92343213200894,40.584401229215565,15.256515174424576,71.61937519486665,-3.6089359068708378,116.20127519882556,1006.2281495804518,15.288,0,10.808109408321693,0.1192994480856835,-8.024148656290908e-07,-0.0211050653012647,-0.0737937862095114,0.0023496657524323,12.772258707923775,4.147089393009659,38.704041216753446,33.18561476788147
1.22,31.222167364169337,131.01048118657863,27.49333901403324,4.238319665408197,-11.965957632598595,23.698234271290623,5.765515097990652,1.1929600898319124,283.0687504825761,40.73660178050849,15.32700296575188,71.60442448718838,-3.734810611962744,116.06862897945165,1013.7538689493588,15.288,0,10.832247619932664,0.1197473415304609,-8.29446649272904e-07,-0.0216855190208162,-0.0754804166987844,0.0024232577752493,12.684063743446853,4.150778016128664,38.8706274029886,24.418653232683887
1.23,31.22216656580115,131.01048249996927,27.860991751372755,4.2241005883512415,-11.834394467510268,9.3040042856275,5.85754860719624,1.15335817455728,159.79687382222795,41.015693411211295,15.437890153527736,71.58898225642668,-3.863316676220947,115.93319789623892,1027.6558702739978,15.288,0,10.856259826414032,0.1205682460399023,-8.569696478285086e-07,-0.0222769685852316,-0.0771849484185216,0.0025063158955768,12.55553102529857,4.142015582797006,39.16994077877298,11.054664468515522
