Time,Latitude,Longitude,Altitude,Angle of Attack,Angle of Sideslip,X-Acceleration,Y-Acceleration,Z-Acceleration,Thrust,True Velocity,Ground Velocity,Pitch,Roll,Yaw,Dynamic Pressure,cp,cg,parachute_deploy_gain,Wind Speed,Wind Direction,Mach,omega_x,omega_y,omega_z,Cmq,Angle of Attack(total),Angle of Attack(gust),True Velocity(gust),Acceleration
0.0,31.222216000000007,131.010392,3.000000004412624,0.0,0.0,0.0,0.0,0.0,2.2828121974499247,0.0,0.0,69.99999999623412,0.0,119.9999999935444,0.0,1.274,1.0271675151847728,0,0.0,0.0,0.0,0.0,0.0,0.0,-0.0,0.0,90.0,0.0,0.0
0.01,31.22221599999084,131.01039200000497,3.000002745347096,0.0,0.0,0.0,0.0,0.0,34.242186961749226,3.465174813755316e-14,2.8705476994166025e-14,69.9999999962611,-2.1713911667908447e-11,119.99999999352175,7.352495975525499e-28,1.274,1.0271659134330349,0,0.0,0.0,1.0183245502395064e-16,-3.3305335486039093e-18,7.169286865560398e-18,5.624298769768554e-18,-7.715917190115602e-34,0.0,89.99999999999979,3.465174813755316e-14,0.0
0.02,31.222215999994315,131.0103920000094,3.0000030495639742,0.0,0.0,0.0,0.0,0.0,25.871876237766216,3.8197434737535036e-11,2.4171837235633357e-11,69.99999999628672,-1.1921727947863515e-11,119.99999999353136,8.93414285188691e-22,1.274,1.027164492361118,0,0.0,0.0,1.1225230367947217e-13,-6.657678965418802e-18,1.4338573731120796e-17,1.1241821275959074e-17,-1.7010872994127372e-30,0.0,89.99999999975682,3.8197434737535036e-11,0.0
0.03,31.222215999994315,131.0103920000094,3.0000030495639742,0.0,0.0,9.81877837424427,-2.5122800045972096e-05,3.3498614629347925,180.34219359854663,1.2659015405517447e-10,1.1364406173918436e-10,69.99999999631459,-1.6431898037347223e-11,119.99999999352724,9.812605835254651e-21,1.274,1.0271551940870716,0,0.0,0.0,3.720154642239108e-13,-9.991600645811728e-18,2.150108433310316e-17,1.6859343782149594e-17,-8.453698244545225e-30,0.0,89.99999999919412,1.2659015405517447e-10,10.374487003414373
0.04,31.222215999994315,131.0103920000094,3.0000030495639742,18.83801224594347,-0.0001111777826462,48.68248476615645,-1.016330065874988e-05,3.3497854396877287,548.635972453808,0.1556173050466994,0.0975908358443652,69.99999999633813,-2.0932768807056278e-11,119.99999999352085,0.0148286043323172,1.274,1.027133720825283,0,0.0,0.0,0.0004573186944143,-1.3322134194415637e-17,-1.04744143520903e-11,1.336824254131964e-11,5.0626055458604615e-15,18.83801224625964,89.06236267790787,0.1555998412814392,48.79759610369246
0.05,31.22221599164764,131.01039201704114,3.002326315126219,5.772385609593056,-4.395076213712875e-06,71.20344550265034,4.905512691849684e-05,3.349217396035405,761.6984298824663,0.8326471944351852,0.3620326097059287,70.00000001316391,-1.0866255162484559e-10,120.00000000231074,0.4245281043148827,1.274,1.027093426565204,0,0.0,0.0,0.0024469331205246,-5.0245994431125096e-18,-7.32924164976824e-07,2.217344936947165e-11,1.895424184525467e-09,5.772385609594774,84.74112356985832,0.8326465040582279,71.28217104309611
0.06,31.22221596664444,131.01039206837547,3.015081730143309,4.056581213689704,3.169093567502233e-05,53.16249142470188,0.0001203825427859,3.3481235983850643,590.4875390737236,1.657216205300742,0.6755452977614796,69.99999964391398,-3.9285905645317736e-10,120.0000000287861,1.6816755551786196,1.274,1.027050317124926,0,0.0,0.0,0.0048701272653724,3.095757869075056e-13,-7.483541766772344e-06,3.074135420506017e-11,3.8518749565858254e-08,4.056581213813337,79.59316473687034,1.657221183301277,53.26781792157489
0.07,31.22221592883117,131.0103921460222,3.034593611434361,4.115662018628709,6.450869598349036e-05,81.18203554989698,0.0001593212642178,3.347059402768047,855.2937749779172,2.099899704220947,0.8579771146174259,69.99999543281565,-8.233801910783518e-10,120.00000006883089,2.700101932075157,1.274,1.027003201295312,0,0.0,0.0,0.006171060252819,3.4704292086287e-12,-2.6327204536316785e-05,1.9541142932033486e-10,1.7170712165327165e-07,4.115662019133419,76.90111966094352,2.099909837223217,81.2510043180746
0.08,31.22221588914193,131.01039222747755,3.0542761843835606,3.459696193892355,8.037433511260004e-05,16.298214211652088,0.0002413456836072,3.344878926597744,241.2171988638792,3.051964775152957,1.2149999716613011,69.99998042886442,-1.0128995578004475e-09,120.00000011111383,5.703497661025892,1.274,1.0269597189470347,0,0.0,0.0,0.0089689344021769,1.458982438104473e-11,-5.702803872814215e-05,7.043261397829576e-10,5.405702492731987e-07,3.459696194824858,71.30331929508368,3.051977400323993,16.63790856991177
0.09,31.2222158241468,131.01039236098703,3.0886872184095737,4.313676956300389,0.0001337561018991,50.35975918308536,0.0002293282821279,3.344215841840564,563.0937377043203,2.893161298572128,1.191209213966114,69.99994788602814,-7.098432023887522e-10,120.00000018106356,5.125380275808925,1.274,1.026918932011013,0,0.0,0.0,0.0085022553945842,3.8672912027154325e-11,-0.0001115933708951,2.016054215232918e-09,1.0027525988343615e-06,4.313676958370176,72.2316578138625,2.893182308931483,50.47067588835877
0.1,31.2222157788302,131.01039245392113,3.109877853389092,4.035124630954496,0.0001457499816535,47.804664812504015,0.0002878217657545,3.341734392237128,538.7437595981891,3.5677148583138303,1.4531247507621967,69.99988403958329,1.9248461973355822e-09,120.0000002323013,7.7939962029572305,1.274,1.0268846934974103,0,0.0,0.0,0.0104845969583028,8.579678749070606e-11,-0.0001726817043215,3.984565639703107e-09,1.913455350430327e-06,4.0351246335824245,68.43243098813296,3.567737752667411,47.92132267234452
0.11,31.222215703308,131.01039260899836,3.148841432727305,4.043401107254707,0.0001752764476999,37.67622367577205,0.0003286462930162,3.3392563999062723,442.86563930529127,4.034183355956686,1.6436552022667772,69.99978525353545,7.302513231814865e-09,120.00000031883242,9.96528118825134,1.274,1.026848594915519,0,0.0,0.0,0.0118554331868328,1.5870341853361987e-10,-0.0002596204409236,7.232030302688121e-09,3.252930323390323e-06,4.04340111104746,65.92012987243639,4.034210888316708,37.82391391539392
0.12,31.222215627491828,131.01039276462643,3.186995101203875,4.17874459224363,0.0002066711490009,41.15991989399172,0.0003576945202315,3.336766085769504,475.58594813540793,4.361857560629481,1.7865750500940407,69.99963665601238,1.781774420198147e-08,120.00000041104812,11.649831899889556,1.274,1.0268114448194128,0,0.0,0.0,0.0128183893919737,2.682972478760441e-10,-0.0003710216542429,1.2215991071490164e-08,5.026311388647148e-06,4.178744597345269,64.21681651392016,4.361890024457652,41.29495143136631
0.13,31.22221554594398,131.01039293200228,3.2277173449026786,4.202734874672792,0.0002327160860324,45.44886120763352,0.0003953741266062,3.333578629398489,515.9156326236897,4.792165672014363,1.9646716520715424,69.99942424225341,3.613383418913551e-08,120.00000051758742,14.061726603124043,1.274,1.026779572895131,0,0.0,0.0,0.0140829618979635,4.248908088871395e-10,-0.0005056103199642,1.908859219307828e-08,7.5253154423526356e-06,4.202734881104192,62.048594618540655,4.792202226971676,45.570952718869485
0.14,31.222215454191247,131.01039312033683,3.2737880595608355,4.184830647080848,0.000257138757548,42.32232525579263,0.0004369426767266,3.329727443445437,486.2390860568421,5.269261304374574,2.158791628597544,69.99913473613935,6.515851355725497e-08,120.00000064630268,17.000925061330125,1.274,1.0267449573927567,0,0.0,0.0,0.0154850332441425,6.382432869666793e-10,-0.0006690086306358,2.8426433029675884e-08,1.0948547100483978e-05,4.184830654966803,59.74181173116622,5.269301695636157,42.45310707234106
0.15,31.222215353826755,131.0103933263496,3.3242182719560263,4.21963947489699,0.0002846467688673,40.886944113003565,0.0004726792395108,3.325585650885676,472.5421858721398,5.6781946837482895,2.329510773545807,69.99875162806286,1.0876776246115984e-07,120.00000079954532,19.742017654108928,1.274,1.0267115958081523,0,0.0,0.0,0.0166867950518804,9.204756288136623e-10,-0.000865746478554,4.08948221429571e-08,1.526771148078443e-05,4.219639484480408,57.84996018384879,5.678239395958187,41.02196629910223
0.16,31.222215247130432,131.01039354534575,3.3775922280208457,4.253495568077899,0.0003118339050386,32.26872905470846,0.0005078415214353,3.32090791922544,391.1218908297597,6.081244877834229,2.4981889727471702,69.99825581174558,1.7187028096464329e-07,120.0000009800088,22.644030778355887,1.274,1.026675762255412,0,0.0,0.0,0.0178712695992133,1.2856146928958252e-09,-0.0010961187242953,5.6923362293832417e-08,2.0702404729358337e-05,4.253495579487569,56.06022383757386,6.081293860589489,32.43916312841722
0.17,31.22221513260033,131.01039378041813,3.4348437275053194,4.364838523348639,0.0003448792023946,40.840448242802736,0.0005326487904353,3.3162727284953744,471.78125980632416,6.362544479165355,2.6250789114832647,69.99762801982864,2.5997588617291615e-07,120.00000119506798,24.78723182122683,1.274,1.0266409836796937,0,0.0,0.0,0.0186979513961862,1.747791994374917e-09,-0.0013624931601664,7.706724512977917e-08,2.6923621797558364e-05,4.364838536947241,54.85936171416122,6.362598652663785,40.97486885600156
0.18,31.222215014088988,131.01039402363364,3.4935801365785646,4.353948305387995,0.0003681615230806,33.992183768165326,0.0005718025428208,3.310131992647221,407.1015672119096,6.81502088160835,2.810667639293692,69.99684761766231,3.794979223522764e-07,120.00000144728236,28.437950785509614,1.274,1.0266048342046536,0,0.0,0.0,0.020027681385988,2.3221419748804155e-09,-0.0016616990447559,1.0147209890543081e-07,3.517105786247627e-05,4.353948320923495,52.99157233768714,6.815078712285162,34.152972512863755
0.19,31.22221488419521,131.01039429023237,3.558399965607869,4.432620772533925,0.0003996774584738,38.45149959021069,0.0005986099513107,3.304145139297767,448.95313283182486,7.1223367465208405,2.946425726785696,69.99589577323147,5.440084577183829e-07,120.00000176148238,31.060341085698347,1.274,1.026566130444714,0,0.0,0.0,0.0209308229359413,3.022391489754689e-09,-0.0020041563310821,1.3135864879722746e-07,4.433199397898183e-05,4.432620790516937,51.77883352025967,7.122399527709208,38.59320142454953
0.2,31.222214751373183,131.01039456280608,3.624052454705669,4.443889400961181,0.0004246617145652,35.23432408779927,0.0006337972852267,3.2968110145188256,418.5156301991588,7.530482904611057,3.1167566004785483,69.99474776398331,7.478025600151903e-07,120.00000211715036,34.72195181863731,1.274,1.026529240027363,0,0.0,0.0,0.0221302820454282,3.866698391504749e-09,-0.0023849544920781,1.668144671071589e-07,5.57780533277244e-05,4.443889421210987,50.22448880200342,7.530549610317194,35.38822625098952
0.21,31.222214608673173,131.01039485566503,3.6948551453492566,4.493351735844891,0.0004538195602194,33.79371564104691,0.0006629296043866,3.2891790438445727,404.8187610144608,7.868284042829251,3.2629204975089228,69.99338155599101,1.0150082652278477e-06,120.00000255293388,37.906665490338085,1.274,1.0264923657015164,0,0.0,0.0,0.0231230169900677,4.871073773182836e-09,-0.0028117605859743,2.089322918608601e-07,6.870935089180403e-05,4.493351758715364,48.992529909481824,7.868355328639073,33.95340801819282
0.22,31.22221446109996,131.01039515850383,3.767700382407304,4.5412639153933885,0.000482649303782,41.008966751568416,0.0006914639179131,3.2808061382386606,472.5421858721387,8.20057841132235,3.4071691679735228,69.9917708347139,1.3454961520984431e-06,120.00000305929996,41.175744234065135,1.274,1.0264494137127138,0,0.0,0.0,0.0240995709751246,6.054779813287368e-09,-0.0032829112061357,2.580881224843564e-07,8.3609968899004e-05,4.54126394098788,47.82515604752711,8.2006542256977,41.13999323561041
0.23,31.22221430675399,131.0103954752338,3.843768625625224,4.52371495179584,0.0005047555656171,33.98493478127787,0.0007294889663961,3.2705214710765107,406.340642146096,8.647938096586296,3.5908865300848416,69.98989017772566,1.7539876018835507e-06,120.00000365514876,45.79040229326471,1.274,1.0264133390858623,0,0.0,0.0,0.0254142776666487,7.436335125872812e-09,-0.0038001790077148,3.1489825108822685e-07,0.0001020628978177,4.523714979897577,46.31461705147579,8.648017383405135,34.14194053232237
0.24,31.222214142622448,131.0103958120587,3.92493179063287,4.57837522350066,0.0005351929930195,35.051650311058864,0.0007555049947555,3.26053011385611,416.2328240017099,8.954297884844461,3.72617527247482,69.98771316795013,2.25257161141768e-06,120.0000043564586,49.09180568115741,1.274,1.0263750048312463,0,0.0,0.0,0.0263146218848643,9.034877387788232e-09,-0.0043732521010013,3.809642748985157e-07,0.00012161410144,4.578375254714954,45.32798984252032,8.954381952763216,35.20297212911011
0.25,31.22221397517227,131.0103961556623,4.0071748888306855,4.6034117733065,0.0005618935542827,36.03738579534623,0.000785606492708,3.249069743648399,425.3640807915084,9.311611941121669,3.8789349536029696,69.98520781816889,2.8559738498748624e-06,120.00000517181904,53.08749562138344,1.274,1.0263373768840591,0,0.0,0.0,0.0273647110956883,1.0873791100894836e-08,-0.0049950711786164,4.5609738277273444e-07,0.0001444478241125,4.603411807525074,44.2165428352526,9.311700203154778,36.183554686886296
0.26,31.22221379934012,131.01039651647062,4.09364247475714,4.621386912291471,0.0005881033207375,39.29107511182762,0.0008162761165496,3.236407051295005,455.80158342417656,9.67833954512075,4.034902068846398,69.98234620927953,3.5784678110229355e-06,120.00000612171208,57.350948423913096,1.274,1.0263006300381676,0,0.0,0.0,0.0284424679130479,1.2973286442992724e-08,-0.0056712051373577,5.414206381221602e-07,0.0001704578711045,4.621386949630312,43.12063533194282,9.678431924174348,39.42414126789902
0.27,31.222213616776543,131.01039689108487,4.183310605341074,4.617158109135719,0.0006115457810536,35.90419462403674,0.0008503454714941,3.221982799915672,423.8421996598744,10.088790784535757,4.205862468567124,69.97909721779352,4.436165972465058e-06,120.000007221354,62.31798301949865,1.274,1.026260090595354,0,0.0,0.0,0.0296487219805601,1.5355910600537293e-08,-0.0064045199323113,6.379142666348734e-07,0.0002006609239367,4.617158149547818,41.94410287616451,10.08888684592241,36.048472443180565
0.28,31.22221342607797,131.0103972823952,4.277051150896916,4.642105655370123,0.0006389739579882,41.51133203546672,0.0008785747638736,3.2071101123224945,476.3468732012228,10.432377224420517,4.35383399240675,69.97542808435722,5.446665372087172e-06,120.00000849080963,66.63429581008447,1.274,1.0262212716723291,0,0.0,0.0,0.0306584788590473,1.8045308789081613e-08,-0.0072006835403936,7.469524967369969e-07,0.0002332868227611,4.642105699250441,41.0023231023774,10.432477594215127,41.63503624837164
0.29,31.22221323001776,131.01039768469093,4.373143569786686,4.62134615173668,0.0006600657405645,33.17552944492765,0.0009148746278066,3.1894209319791806,397.9703104221098,10.876662296046485,4.536381530986506,69.9713027936179,6.629751536885327e-06,120.00000994797426,72.43000748232016,1.274,1.026183007522519,0,0.0,0.0,0.0319641703260467,2.1067646517035105e-08,-0.0080566154554079,8.688043379161898e-07,0.000272130659453,4.621346198772975,39.83162628795024,10.876765978930557,33.32848872465723
0.3,31.22221302403368,131.01039810736614,4.4744193758467325,4.664362353358112,0.0006905183788532,31.08096762732793,0.0009381960428197,3.172549142946348,378.1859457108735,11.168362145070317,4.66647911311536,69.96668711012893,8.005507138509574e-06,120.00001161892672,76.36634300732833,1.274,1.0261430389738484,0,0.0,0.0,0.0328214509167604,2.4447409007156216e-08,-0.0089829108229115,1.0056222251461646e-06,0.0003115527202986,4.664362404357781,39.09908960432563,11.168470611443622,31.242464973103964
0.31,31.22221281503337,131.01039853619727,4.576593712520673,4.700143580504286,0.0007196683316923,32.79732593144512,0.0009620705970519,3.154230688182399,394.1656220930229,11.470279728974068,4.800072153432283,69.96154070456518,9.597499105113692e-06,120.00001352112182,80.55022837857167,1.274,1.0261054058068628,0,0.0,0.0,0.0337087616009043,2.8214060606649844e-08,-0.0099686353219717,1.1565909895184251e-06,0.0003550834484269,4.700143635477137,38.36463422765983,11.47039277421126,32.94865339301887
0.32,31.222212598991007,131.01039897947376,4.68216432480395,4.718667719113184,0.0007464384342556,35.7316568886908,0.0009885845337584,3.133859770838664,421.5593934624264,11.808280530415894,4.946054328851105,69.95582953472353,1.14278227255889e-05,120.00001568218067,85.36654007972253,1.274,1.026068246703101,0,0.0,0.0,0.0347021168382987,3.2392058795580455e-08,-0.0110163301561155,1.3226102501723267e-06,0.0004039614423012,4.718667778018562,37.5686120062341,11.808397780690962,35.8688218659563
0.33,31.222212376029034,131.0103994369436,4.791055524254013,4.72141404831576,0.0007708346814671,35.42013590291081,0.0010176135371143,3.1111955852784385,418.5156301991632,12.181577273013426,5.104163223586657,69.94951809396906,1.351997394754887e-05,120.00001812674968,90.84831229869296,1.274,1.0260310883392356,0,0.0,0.0,0.0357992034445943,3.700677535501642e-08,-0.0121310534481307,1.5051409581878843e-06,0.0004588955105349,4.721414111097893,36.7208578211118,12.181698355442045,35.55651229220977
0.34,31.222212145785647,131.0103999093516,4.903491659547144,4.73024573449122,0.0007962944975467,27.63851074646407,0.0010446307681611,3.0871492806781062,345.4656368807584,12.53557620048282,5.2556261014174765,69.94256797855994,1.5899658158227497e-05,120.000020882338,96.20413272674828,1.274,1.0259901535019136,0,0.0,0.0,0.0368395817555172,4.208561016221623e-08,-0.0133180771902383,1.7057647550599631e-06,0.0005184333231541,4.730245801363397,35.94841996438923,12.535701282129995,27.810389570354005
0.35,31.222211909310875,131.01040039453565,5.018822212845608,4.780248518778662,0.0008286678570753,30.332092807652543,0.0010618579815451,3.063967690608957,370.5765700527057,12.774786382148209,5.367579971644358,69.93493776125636,1.8594985713558667e-05,120.00002397748868,99.9096898192772,1.274,1.025950003202184,0,0.0,0.0,0.0375426220587071,4.7658312175989686e-08,-0.0145774693288123,1.9252724355785177e-06,0.0005782798420984,4.780248590437683,35.44790728185619,12.774916548990808,30.486451961956565
0.36,31.22221166933814,131.0104008868675,5.135354490370708,4.798132156899578,0.0008554457330409,34.32674769697476,0.0010851169437774,3.0374319611165923,407.8625232777224,13.09301701329486,5.506730645516068,69.92658597246795,2.163521613217148e-05,120.0000274401514,104.94818266210537,1.274,1.0259105142325406,0,0.0,0.0,0.0384778908056978,5.3755109608570216e-08,-0.0158991451700967,2.162609490834569e-06,0.0006464142451675,4.798132232978766,34.796094028187134,13.09315138639638,34.46087058603792
0.37,31.222211421355144,131.01040139563804,5.255882891363927,4.797392186816851,0.0008791822061288,32.551601855236584,0.00111162791192,3.0078619428913056,391.1218908297639,13.457513730739372,5.661815946371007,69.91747693543164,2.5047738471809164e-05,120.0000313040604,110.87154396328836,1.274,1.025872170958032,0,0.0,0.0,0.0395491312153729,6.040098808671168e-08,-0.0172926678053148,2.420031948898497e-06,0.0007226353721561,4.797392267189059,34.07332166419882,13.457651832357364,32.69027405888565
0.38,31.22221116634284,131.01040191882743,5.379799334000849,4.811698494594017,0.0009057112478668,34.02947987649063,0.0011338447913587,2.9774881690446744,404.81876101445977,13.77554886562956,5.800899861213392,69.90756948297444,2.886339581486796e-05,120.00003560072224,116.17243393848278,1.274,1.02583050512925,0,0.0,0.0,0.0404838339452728,6.762496638941508e-08,-0.0187646375218858,2.69955777313946e-06,0.0008026686661094,4.8116985796350695,33.46655348088405,13.775691134419684,34.15949264475229
0.39,31.222210906095896,131.01040245274032,5.505993307722699,4.813508003664984,0.000929862892873,29.00025983045028,0.0011579891265804,2.9442136901860865,357.6406249338268,14.124492165837273,5.950648592462506,69.8968186645841,3.311602501056718e-05,120.00004036395212,122.13093644173792,1.274,1.02579027384009,0,0.0,0.0,0.0415093739609825,7.545934774906889e-08,-0.020311592409804,3.0013532510753577e-06,0.0008908380763632,4.813508093268025,32.821616487639595,14.124638228358922,29.149330452482886
0.4,31.222210638473225,131.0104030017851,5.635788650457906,4.841647069358873,0.0009592124397379,27.71178845184976,0.0011749448424961,2.91135549588368,345.4656368807565,14.390874239274588,6.07193451174791,69.8851815212744,3.783947407715338e-05,120.00004563180136,126.77947425345651,1.274,1.0257493418632293,0,0.0,0.0,0.0422922854866381,8.39343718693383e-08,-0.021938519432511,3.3271332720311508e-06,0.0009803271643914,4.841647164150728,32.348088166612904,14.391024912012275,27.864299944624147
0.41,31.22221036681104,131.01040355909262,5.767123077463226,4.86553909860892,0.0009876699832274,31.306062598221665,0.0011918093836199,2.876450850006428,378.9468707766882,14.663028799871563,6.195223154320929,69.87261222561014,4.307011032901644e-05,120.0000514391194,131.6183642808765,1.274,1.025708445186429,0,0.0,0.0,0.0430921644173401,9.308325447883581e-08,-0.0236371933433427,3.6760977501392174e-06,0.0010761942383903,4.865539198612839,31.87689439156756,14.663183942709727,31.437931330109585
0.42,31.22221008906472,131.01040412887247,5.901259531771367,4.867510642114694,0.0010118258958528,35.308283402190774,0.0012128114559048,2.8374461227958245,416.23282400171047,14.9952917972178,6.33928625560071,69.85906967380902,4.884273094936628e-05,120.00005782486392,137.64909586091787,1.274,1.0256701057426505,0,0.0,0.0,0.0440686959134695,1.0293499639582845e-07,-0.0254093547296826,4.049238334851429e-06,0.0011830797791891,4.867510747027452,31.315270489291198,14.995450734457847,35.422111438762386
0.43,31.222209804115888,131.01040471342728,6.038886819939341,4.854590670645608,0.0010330089741511,31.00586934514032,0.0012363751872706,2.794478603999558,375.90313951343126,15.369430568701889,6.497852263156962,69.8445117629242,5.519340856908871e-05,120.00006482835984,144.60167924299955,1.274,1.0256308158337524,0,0.0,0.0,0.0451682983415116,1.135186446762958e-07,-0.0272634397889413,4.449073329427772e-06,0.0013010625065656,4.854590780289497,30.70250814963406,15.369592833372094,31.13154422839874
0.44,31.22220951192321,131.01040531284193,6.180028459770617,4.866912332640401,0.0010595850174406,28.57707721036899,0.0012525768202179,2.752165534925872,353.07501253892326,15.659290812546615,6.627318538707029,69.82889155423543,6.216182865383864e-05,120.00007249162944,150.1053167542629,1.274,1.025586171750536,0,0.0,0.0,0.0460202245100907,1.2486676023179565e-07,-0.0292060158163984,4.8779154055816594e-06,0.001420032405556,4.866912447705031,30.24619499837236,15.659457251771938,28.709297424144207
0.45,31.222209215425703,131.01040592106523,6.322872201489905,4.881836476567178,0.0010866574689855,33.31904824532484,0.0012669045761511,2.7082028218433374,397.2093853562887,15.934249290371609,6.751662050993672,69.81215834018458,6.97909417564726e-05,120.00008085697964,155.42080512416243,1.274,1.0255397023523487,0,0.0,0.0,0.0468283602442113,1.3701614206272197e-07,-0.0312276295846745,5.334643585560923e-06,0.0015449645531859,4.8818365972149325,29.82567893138932,15.934419982127675,33.428929688274074
0.46,31.22220891307435,131.0104065412864,6.468371919199588,4.869610441729251,0.0011078049156487,38.95909776354321,0.0012868374716666,2.6582856015412624,449.7140588976424,16.292139278621757,6.904766425053949,69.79426683863348,7.812149592850748e-05,120.00008996920153,162.4785746623087,1.274,1.02549635315424,0,0.0,0.0,0.0478802236363867,1.499987870203256e-07,-0.0333272350234362,5.819761874615242e-06,0.0016858511402973,4.869610567434908,29.29014635640275,16.292313292210977,39.04968351401366
0.47,31.22220860266524,131.01040717804253,6.6178810515614845,4.838450928223533,0.0011247917292402,26.253747818137555,0.0013104398935566,2.6026193242279367,331.0078106302504,16.710658191447514,7.078951441335346,69.77517236812905,8.719457259907165e-05,120.0000998741591,170.9309671061642,1.274,1.025453319323251,0,0.0,0.0,0.0491102725711187,1.6384464803343264e-07,-0.0355167087264168,6.3368207228363735e-06,0.0018427306558807,4.838451058652396,28.68386015667837,16.710834873319172,26.382435512333956
0.48,31.222208284201663,131.0104078313267,6.771393590864176,4.869339340099417,0.0011561785713505,25.860860976019296,0.0013165328518772,2.5543454292827983,327.20312230115803,16.911139899671,7.177575416403102,69.75482343794755,9.70562828082882e-05,120.00011062072316,175.0543877818846,1.274,1.0254092882449153,0,0.0,0.0,0.0496995461609974,1.7858865391586845e-07,-0.0378054080201581,6.88909442277235e-06,0.0019849793891693,4.869339477030596,28.40887970825325,16.911321511776286,25.986704537635287
0.49,31.22220796480208,131.01040848648364,6.924537656029012,4.881367714530694,0.0011829003785372,32.565703383222065,0.0013261973190012,2.5011623511055703,389.6000096981238,17.169005224738054,7.296160258358563,69.73316318155707,0.0001077573203115,120.000122255028,180.4309832312717,1.274,1.025367445590036,0,0.0,0.0,0.05045746454003,1.942747077649401e-07,-0.0401641298712614,7.47069711110948e-06,0.002140948887153,4.881367857509675,28.058569663954906,17.169191034294997,32.66161128464712
0.5,31.222207637929923,131.01040915697027,7.081324512896956,4.862566137860805,0.001202418260511,33.47759680712428,0.0013425340759632,2.4399894027711366,397.970310422106,17.52898693231981,7.450304424940405,69.71015149227495,0.0001193385310595,120.0001348274002,188.0736471953394,1.274,1.0253278572281015,0,0.0,0.0,0.0515154948878309,2.109295159784217e-07,-0.0426011733481599,8.084173008518589e-06,0.0023184335011768,4.862566286171007,27.57768313050809,17.529175807738486,33.56639745442473
0.51,31.22220730314019,131.01040984370235,7.24202048914867,4.8479762258125,0.001223054804074,25.49162310288008,0.0013562860883156,2.3767006597692686,323.39843497208153,17.86914397471067,7.597652147346554,69.68574349602717,0.0001318441288964,120.00014838524436,195.4407439266201,1.274,1.025286455263166,0,0.0,0.0,0.0525152689856776,2.2858192086249162e-07,-0.0451315948093539,8.734206149830708e-06,0.002503767471626,4.847976379721193,27.13799345359824,17.86933609171003,25.602178740977283
0.52,31.222206962738102,131.01041054193402,7.405210501673173,4.865306299521403,0.0012516517170965,30.733671928447727,0.0013599291289974,2.317711624364424,372.098451184342,18.08534843773428,7.701914987606457,69.65988568649581,0.0001453248538387,120.00016298000436,200.19561780583155,1.274,1.0252426840672306,0,0.0,0.0,0.0531507657929359,2.4726951523704535e-07,-0.0477531686556663,9.421346966092632e-06,0.0026812161964639,4.865306460134566,26.8699055233151,18.085545046726228,30.820940596104087
0.53,31.222206619320115,131.01041124632013,7.569307468221277,4.848802699234936,0.0012715119568563,32.301199055744725,0.0013711327835325,2.2490252325653923,386.55624643486095,18.41963113311156,7.8474319110539055,69.6325258319474,0.0001598315062727,120.0001786629144,207.6614205945027,1.274,1.0251993415311351,0,0.0,0.0,0.0541332845214831,2.67031759303889e-07,-0.0504479325599339,1.0141887756417996e-05,0.0028848299490111,4.848802865552398,26.45837260670532,18.419830861742675,32.37940050117613
0.54,31.22220626697288,131.01041196903336,7.737918664599091,4.831496690588052,0.0012913635058467,28.31291960103712,0.0013809098107221,2.177242866245296,349.2703242098436,18.75116898748492,7.992112829440902,69.60362200959217,0.0001754082864028,120.00019548734956,215.20067397992847,1.274,1.0251561018460285,0,0.0,0.0,0.0551077428911958,2.878941684235108e-07,-0.0532336286085667,1.090122304443916e-05,0.003098869611663,4.831496862756785,26.061835558272342,18.751371834390056,28.396510432451375
0.55,31.222205908994248,131.01041270328463,7.909026079894722,15.583667740966511,19.664999119857367,30.720439458472708,-1.3368252415728843,1.3946302070072405,365.2500005919912,22.576858604022103,8.113323699629928,69.57312211246325,0.0001921068626005,120.00021350480982,311.9656824561849,1.274,1.025112921033824,0,8.77241248081048,0.0,0.0663511763773331,3.0989272306468813e-07,-0.0561100530405476,1.1700476995263424e-05,0.0039326558448982,24.8978919174017,43.03553878934265,25.605539229253623,30.78112239120741
0.56,31.222205546564343,131.01041344664463,8.081909946161325,-13.875069568369426,-19.53241504531256,28.484637456016195,0.6004228573780014,2.707665277496857,346.22656194657776,18.679450974295648,8.244196224145494,69.54097415464405,0.0002099796112633,120.00023276987916,213.55060269274705,1.274,1.0250709539098009,0,8.804417249057844,165.0000707061107,0.0548971841105086,3.329453068617489e-07,-0.0676788746658307,0.0162031517425457,0.0039245672591429,23.80100488723364,13.755004686773985,15.670390033636927,28.619338389685122
0.57,31.22220518050852,131.0104142056356,8.258482545612129,-13.627066176021836,-19.293529142476,28.15747424078172,0.8263872433453504,2.8423079191823564,343.1828296833045,18.91657290466793,8.384359737437283,69.50219571939748,0.0250463022753114,120.02674470608842,219.003038578356,1.274,1.0250279191823897,0,8.836171976839463,165.0000707061107,0.0555941743388029,3.697299960462769e-07,-0.0605105773159896,0.0051764074691737,0.0035533740949948,23.46995460962465,13.560243098117237,15.94290270618404,28.312629439945997
0.58,31.22220480286768,131.01041497434602,8.436726025502905,-13.400538016738196,-19.07755542805097,37.07569816025642,1.0624541491271615,2.982620095812236,426.12500585731766,19.16559480862273,8.519904095504796,69.46752497785468,0.0329258235688932,120.03515795479063,224.8031513084956,1.274,1.024981594484354,0,8.868005395768742,165.0000707061107,0.0563261414701767,3.9745279883563706e-07,-0.0532617555683941,-0.006007511185173,0.0031688196560013,23.16933131564281,13.370629214036018,16.223965441504593,37.21064666900297
0.59,31.22220442093445,131.01041575557386,8.61773864793153,-13.07985281536925,-18.73458357939029,30.03630040461127,1.3160818491661488,3.1263822651563777,360.68438819710633,19.540014543718414,8.703259861748307,69.4370107162536,0.0237029754551324,120.025308643467,233.66841202779824,1.274,1.0249386802161349,0,8.899580891763906,165.0000707061107,0.0574266482191656,4.160075584693405e-07,-0.0459185993054878,-0.0173717016083656,0.0027852597931948,22.71354817276377,13.112688644716595,16.649352552069637,30.22723406958765
0.6,31.22220402771521,131.0104165569074,8.803616944221796,-12.868798149369628,-18.530743031807432,26.67811628453616,1.57150437163076,3.27908241228392,329.4859594986072,19.77674864188739,8.834309428784415,69.41070390149707,-0.0028232683612687,119.99697503589924,239.36038680567043,1.274,1.024891335813742,0,8.931090646361712,165.0000707061107,0.0581225139891074,4.2526683521771293e-07,-0.038427928453723,-0.0289926075890976,0.0023590997854397,22.431236643954666,12.937810993572691,16.916427591858472,26.9247821894224
0.61,31.222203630903223,131.01041736347264,8.99001019501488,-12.669158271140958,-18.338494864719767,31.260101532437965,1.8338689185075352,3.4365670982521026,372.0984511843332,20.000041348713733,8.960235073712361,69.38867989554636,-0.0469911310172061,119.94979021711733,244.7915963734148,1.274,1.0248423929069768,0,8.962881516402215,165.0000707061107,0.0587788796048372,4.2505351436042374e-07,-0.0308544524087006,-0.040778770012345,0.0019155143400421,22.16464799781373,12.773211725867462,17.168368935998696,31.50185734920065
0.62,31.22220322697496,131.01041818254424,9.179050839618569,-12.413790746944237,-18.068759613963035,38.87087771989853,2.112591832155244,3.5993026789403872,442.86563930529206,20.30317112872945,9.116479107029914,69.37097060834883,-0.10902077165444,119.88351484621576,252.26359720098503,1.274,1.0247996097896497,0,8.994206479558075,165.0000707061107,0.0596698864571662,4.1526448762464413e-07,-0.0232066564091704,-0.0527182747215488,0.0014625315208846,21.80421450888624,12.568656193756723,17.511748075211276,39.09428549979166
0.63,31.222202814020687,131.01041901804973,9.371876918255373,-12.105615349425568,-17.7232922436371,21.98380218716453,2.4125789409091065,3.770100552472432,286.11251274707456,20.69209320543516,9.305143399033412,69.3575964474618,-0.1891365990191048,119.79790657462593,262.0158988516203,1.274,1.024756158874558,0,9.025412392717566,165.0000707061107,0.0608130390151413,3.9580491257319033e-07,-0.0154532132875028,-0.0648569813421177,0.0009925307505892,21.3528250022298,12.325300131106106,17.95231034542584,22.434833494506954
0.64,31.22220239118385,131.01041987177774,9.568999208830189,-11.977042566276872,-17.61744137821898,21.563735068918508,2.6900800443602204,3.9420535780634767,282.3078244179702,20.810453465135257,9.391392695180215,69.34858870681478,-0.287655989269758,119.6926252966396,265.0169549333455,1.274,1.024708534665538,0,9.056700656575536,165.0000707061107,0.0611610299764566,3.66544603727044e-07,-0.0075605281819043,-0.0772447259357544,0.0004883668828683,21.19578318643345,12.22210397611989,18.086513132062283,22.085537964466567
0.65,31.22220196845445,131.01042072303417,9.764387450296864,-11.799624900858706,-17.44286828834006,38.192146564690326,2.9818580058494266,4.118194095979627,436.7781447787504,21.002109745912385,9.505241016502891,69.34399024132667,-0.4049963435379385,119.56722564565624,269.9157773362215,1.274,1.0246641738210605,0,9.0881394910609,165.0000707061107,0.0617244356189321,3.273302225549878e-07,0.0003496913687494,-0.0897042009493696,-2.2795662262775257e-05,20.95577821172417,12.083742624758932,18.30431776802531,38.52909366956348
0.66,31.222201536925663,131.01042159034878,9.963437044644111,-11.477287959680748,-17.066033604186124,32.43573635954672,3.3179548608841167,4.30803854109553,383.5125151715984,21.42958083722312,9.707941653907492,69.34376700450986,-0.5413291334255549,119.42152678988612,281.0098063228087,1.274,1.0246195561629028,0,9.118773710894368,165.0000707061107,0.0629808990140415,2.781433017519342e-07,0.0083061075884841,-0.1022772592332929,-0.000552468225191,20.470674133570743,11.83550207603543,18.788317940603235,32.88837201377488
0.67,31.22220109266077,131.01042248204848,10.168549120188224,-11.253966968005448,-16.821638369686717,22.2465248457956,3.6421085587482622,4.49906304825932,289.15624401033847,21.69944034955847,9.85108291539782,69.34789344851575,-0.6969142584595123,119.25525511031096,288.1261229445183,1.274,1.024572383541697,0,9.149463036549284,165.0000707061107,0.0637741556435949,2.189290467478584e-07,0.0164049431076758,-0.115106916930339,-0.0011048689893563,20.148200323179207,11.666997731289154,19.09490048425384,22.987265839601733
0.68,31.22220064532685,131.0104233779169,10.373852099689543,-11.09720036777544,-16.667071266147133,27.80508256837181,3.9536768400917057,4.68833647268946,340.89999248584934,21.853546476957,9.950557913318146,69.35638971447793,-0.8722562870929261,119.06787728660308,292.2273496897332,1.274,1.0245245285832842,0,9.1805507813742,165.0000707061107,0.0642272187621746,1.495313959854641e-07,0.0245737609213134,-0.1280866346802211,-0.0016667578739646,19.935827025774078,11.553880106165956,19.272256498232498,28.47340295909503
0.69,31.22220019349341,131.0104242809466,10.580219467471856,-10.86784054926048,-16.408330691871587,34.263897870572805,4.295147580035884,4.888432451497993,401.0140726853658,22.13456634574592,10.097420989429263,69.36922596274982,-1.0677234333306556,118.85900758514896,299.7853713460788,1.274,1.024479631064582,0,9.211137301787366,165.0000707061107,0.0650532830530324,6.988194907922343e-08,0.032759702839239,-0.1411375063030069,-0.0022505119637429,19.598188132433663,11.386683600037871,19.592237920006525,34.87634960617568
0.7,31.22219973183108,131.01042520256536,10.790950254560771,-10.604824618591817,-16.098458930071917,28.652794160918184,4.660214423020278,5.09892579019977,349.270324209851,22.48167275696689,10.268683779975213,69.38633369862463,-1.2835887765645888,118.628363766684,309.2550902250135,1.274,1.0244351749185203,0,9.241403764695086,165.0000707061107,0.0660735826242615,-2.0024602838741244e-08,0.0410108665100385,-0.1543320130483597,-0.0028614695824044,19.20002287687236,11.195791978281584,19.986073454628947,29.473704482308253
0.71,31.222199261891884,131.0104261396356,11.005127082154912,-10.400203468510032,-15.868225036225567,23.44792438454443,5.012353141825086,5.307015658411077,301.3312640634036,22.719832367731904,10.398996958000753,69.40766172065071,-1.520263321684562,118.37551804911224,315.8354876391155,1.274,1.0243880468141104,0,9.271830157811223,165.0000707061107,0.0667736944951344,-1.2024676874928318e-07,0.0493486722613221,-0.1677032930449247,-0.0034796313044785,18.89918116808928,11.055475095838808,20.259000021290788,24.55795710478169
0.72,31.222198787593136,131.01042708376104,11.220326164024195,-10.21772414367215,-15.66730180461224,28.75287719225952,5.360498587089296,5.51464062012619,350.7922053414578,22.9114530419826,10.511731817358797,69.43316023915624,-1.778236954971909,118.09996029079728,321.17887462301127,1.274,1.024337302174265,0,9.30219104766836,165.0000707061107,0.0673370320418689,-2.3086674833205882e-07,0.0577226802549249,-0.1811754070079436,-0.0041043348112132,18.634526496342485,10.937398910008213,20.48099402162604,29.76363810263271
0.73,31.22219830762824,131.0104280378181,11.437377073832456,-9.985301279358834,-15.391646965942492,36.436868283024914,5.739568802122981,5.735101357172169,422.3203185282354,23.20398543182096,10.661523544763313,69.4627409626586,-2.057909290257131,117.80127870342244,329.4259616552311,1.274,1.024292465384646,0,9.332227738057467,165.0000707061107,0.0681969551973049,-3.519032337537723e-07,0.0661086747818467,-0.1947116585323968,-0.0047605336909059,18.280978998986008,10.782798226724978,20.81524538123976,37.329337094112034
0.74,31.222197818810617,131.01042900902036,11.658349325205176,-9.715229698985713,-15.057520826019251,22.584529486676047,6.150809526810849,5.970040577299702,294.4828134710563,23.58198030987217,10.842352961048295,69.49629168151374,-2.359648908973928,117.47909647576824,340.2389139294506,1.274,1.0242470321640116,0,9.362059895863563,165.0000707061107,0.0693080621266428,-4.833380164115885e-07,0.0745409506540474,-0.2083650033571374,-0.0054550733131345,17.85854125824115,10.601160150453278,21.24388260113889,24.15646527255699
0.75,31.222197321123808,131.0104299976922,11.883327406523271,-9.550135633663144,-14.874509036684024,26.401285463862088,6.508426547298872,6.184244381999696,330.24688556441737,23.72679748149117,10.936967744556735,69.53370742015257,-2.6839333938579406,117.1329222198531,344.4231248893163,1.274,1.0241984712898409,0,9.391963138671752,165.0000707061107,0.0697338606098802,-6.251892718059054e-07,0.0830462936803714,-0.2221775719484403,-0.006114703281986,17.61800522582458,10.5126665397095,21.41647204924228,27.886060475481564
0.76,31.222196822461328,131.01043098602915,12.107201211738772,-9.330737599637748,-14.608863764571488,28.40383848520601,6.904501931591831,6.414684365456528,349.2703242098581,23.993081928420107,11.0757057052966,69.57488503593979,-3.0313340400176627,116.7621663855664,352.18981566962486,1.274,1.0241522053390697,0,9.42187651867805,165.0000707061107,0.0705166577147229,-7.775232268505481e-07,0.0915262236199676,-0.2359974038203443,-0.0068145668051695,17.27956465062066,10.383572920682628,21.72311037356864,29.92654946908276
0.77,31.2221963141778,131.01043199390347,12.335669062184175,-9.105662194287348,-14.332327329814868,26.45357927048526,7.311293062155864,6.650341895673922,331.76876669606884,24.270929456493967,11.218149637633267,69.61965677963569,-3.4022073502653845,116.36647046313672,360.3860792063823,1.274,1.0241065975906936,0,9.45119591550289,165.0000707061107,0.0713334469298926,-9.402605768900836e-07,0.100021832001392,-0.2498884985117744,-0.0075331802171271,16.928944787693275,10.255829332327089,22.043018068027955,28.23958055265573
0.78,31.22219579993634,131.0104330131836,12.56639334585664,-8.895396303056252,-14.075077976379168,21.53601024511143,7.7136304073747235,6.884536843636153,286.8734378128874,24.51239529405561,11.34681093503834,69.66786415969757,-3.7970345172459705,115.9453444786191,367.58439974226536,1.274,1.0240588105546735,0,9.480669165825631,165.0000707061107,0.0720433143495142,-1.1133756117717926e-06,0.1085293946423721,-0.2638459410051053,-0.0082550679827236,16.602265046900833,10.146884348939468,22.32365719429493,23.88925865091891
0.79,31.22219528029866,131.01043404267935,12.79903277807934,-8.70698361270161,-13.848657805678474,30.851469645218952,8.101020697763444,7.112107187056926,373.6203323159581,24.69361650875066,11.453178058447032,69.71933345322542,-4.216311972139935,115.49828380343058,373.0312922437468,1.274,1.0240083170932772,0,9.509988753272705,165.0000707061107,0.0725761242229783,-1.2968400134253404e-06,0.1170279955559437,-0.2778372617433059,-0.0089671056253221,16.312955573354976,10.064205436542997,22.539393640371856,32.68060256873555
0.8,31.22219475619839,131.0104350802607,13.032978003049,-8.458031620959986,-13.52756248451392,31.18865705914965,8.546812569614582,7.365911663256397,377.42502064505805,25.03373903816568,11.61616368123024,69.77386666170321,-4.660505098931473,115.02481838189574,383.3694930844704,1.274,1.0239625010683884,0,9.5390889821321,165.0000707061107,0.0735759603688027,-1.4906012457749392e-06,0.1254879496276834,-0.2918159752283475,-0.0097475575222469,15.912168343820102,9.934547096046751,22.92852112635033,33.16680552727778
0.81,31.22219422262275,131.01043613858613,13.2718381137171,-8.223848794839924,-13.226080239723355,19.909385219740656,8.98731912318328,7.617747535961379,273.9374926939922,25.335424789906625,11.764574907474872,69.83123741091039,-5.1300218921600935,114.52454059249578,392.6562621749461,1.274,1.0239149950770308,0,9.567887731654336,165.0000707061107,0.0744628371685964,-1.6945343067122448e-06,0.133959269924435,-0.3058621511510114,-0.0105307441903401,15.535561698033524,9.825646253638723,23.27627873611528,23.134078809661066
0.82,31.22219368401031,131.01043720700855,13.512570892449991,-8.045472882563308,-13.008289962069927,25.75587904517625,9.372707266051842,7.844001543867003,328.725004432774,25.47384626902753,11.854163375110216,69.89122990681773,-5.625417518936233,113.99688711411972,396.9494042409451,1.274,1.0238644186635044,0,9.59686034628861,165.0000707061107,0.0748698722994433,-1.9086006413916205e-06,0.14241846104917,-0.3199393915346546,-0.0112566424828822,15.258694758007556,9.776511919401573,23.448017991828337,28.50861811987803
0.83,31.222193142955927,131.01043827883808,13.7532730851064,-7.8181593188883935,-12.712304329468145,32.91445665768039,9.812491366010091,8.09490519241463,395.6875032246518,25.752501491093497,11.992892302009208,69.95360158618665,-6.147202969434677,113.44134276109112,405.6718853628337,1.274,1.0238188483711983,0,9.625633633725313,165.0000707061107,0.075689070026537,-2.1327571650943888e-06,0.1507997902712054,-0.3339424984797301,-0.0120491990929236,14.89022420514098,9.690256971398224,23.77200022384806,35.28702217462568
0.84,31.22219259342229,131.0104393701674,13.99852353432242,-7.566360928657281,-12.375178994569856,19.79360858211162,10.288264140668792,8.362582368303164,275.45937482564227,26.108257585321475,12.157898141500784,70.01806407193924,-6.695724805440145,112.85756813927364,416.947733626084,1.274,1.0237739661568126,0,9.65398677021936,165.0000707061107,0.0767348836093274,-2.3668149453190496e-06,0.159143737458358,-0.3479372957288218,-0.012891256071519,14.47414305926928,9.589257380387728,24.17944774460395,23.82368786726079
0.85,31.222192037070144,131.01044047731725,14.247268463435638,-7.383127588141549,-12.143763819246532,21.586648361281384,10.677862378569271,8.589055627989342,292.9609323393965,26.24044689628917,12.243740650878909,70.08433374915911,-7.2714444766524515,112.24510195175628,421.1704762121776,1.274,1.0237227741398531,0,9.682460729077537,165.0000707061107,0.0771236181817876,-2.6106396982721032e-06,0.1674660186913849,-0.3619506009879898,-0.0136337504880529,14.183158143500174,9.565316955108525,24.347158703512388,25.568965740326156
0.86,31.222191479777084,131.01044158411688,14.494914848646928,-7.170710402105838,-11.863972182835443,27.248005012605663,11.104422509703852,8.83210650986463,346.2265619465616,26.463669328458423,12.360702507116452,70.15211840891477,-7.8748725806063264,111.60343092246714,428.35639939755686,1.274,1.023674789281455,0,9.710916319259905,165.0000707061107,0.0777799112827625,-2.8641939383965222e-06,0.175682781931604,-0.3758462155404678,-0.0144240211802404,13.836009882171489,9.52253338174872,24.61336963997294,30.72080861309797
0.87,31.222190915489428,131.01044270781435,14.746360528756336,-6.935549668402623,-11.54563851032008,25.15016575420021,11.565263738602937,9.090839670500335,327.9640783669946,26.76224645204512,12.50287645235014,70.22107334020585,-8.506286552843155,110.93228966893692,438.0662360941602,1.274,1.0236288969245204,0,9.738811101925684,165.0000707061107,0.0786576885557119,-3.1272493769357366e-06,0.1838155902281461,-0.3896598915662076,-0.015261650790302,13.444334916660893,9.46718984082714,24.96091064921536,29.13639525957066
0.88,31.22219034533647,131.01044384600667,15.000917761757467,-6.715782084108209,-11.249525536094312,21.39590002899024,12.0035843395681,9.337933822487509,294.4828134710421,27.004468760444983,12.624697809737109,70.29084957210196,-9.16601459049394,110.2313582524667,446.0210019881408,1.274,1.0235805388426191,0,9.766735247345451,165.0000707061107,0.0793698390674701,-3.3996006487927096e-06,0.1918778268176327,-0.4034151004417397,-0.0160748309864627,13.079448601062056,9.43872660318618,25.2487289589296,26.250096821170494
0.89,31.22218977137921,131.0104449928593,15.25693195236218,-6.506098914365606,-10.967641179188648,23.49390511910837,12.422088035275213,9.574316863599057,315.02813424808807,27.203766208596253,12.731020392529237,70.36108913229674,-9.85441155711364,109.5002876019454,452.61758450132606,1.274,1.0235293752791452,0,9.79460836447995,165.0000707061107,0.079955832568444,-3.681099533208648e-06,0.1998416069563613,-0.4170665227622743,-0.0168651518357955,12.731840170359792,9.43305739488691,25.491475048099527,28.24782101873331
0.9,31.22218919341457,131.01044614919735,15.514637347617414,-6.28233232262045,-10.660582189743248,25.99702619543878,12.86303578715186,9.820435760607904,339.3781423542166,27.453792818920533,12.8536918288752,70.4314080533926,-10.5717340576948,108.7388318540246,460.9643193461197,1.274,1.0234837388140003,0,9.822250462113487,165.0000707061107,0.0806909318248368,-3.971558815296628e-06,0.2076841579301374,-0.430576956841575,-0.0176876559446469,12.355518934191489,9.423556967179747,25.78887775361261,30.622606342310352
0.91,31.22218861024888,131.010447319487,15.775295982787853,-6.051295952245786,-10.339140613136296,19.16366283414003,13.317290950846113,10.071905289644215,277.7421810230785,27.73213870795111,12.984870226605388,70.50140008910654,-11.31814556367809,107.94684235622098,470.34709102224735,1.274,1.023436404813438,0,9.849690610133038,165.0000707061107,0.0815092730430405,-4.270723275969659e-06,0.2154101102620151,-0.4439552701951456,-0.0185311825838792,11.963167913480303,9.417342052364797,26.116870032626696,25.41730685288374
0.92,31.222188022435777,131.01044850265353,16.03860139488273,-5.844667203290307,-10.056296554965744,23.059969523192063,13.715207936485248,10.29427159339492,315.0281342480675,27.89992560934237,13.078129399753864,70.57064825733703,-12.093789675990996,107.12418943146628,476.0437233839593,1.274,1.0233859136578225,0,9.877063949160773,165.0000707061107,0.0820026696945948,-4.578346990261539e-06,0.2230165535670573,-0.4571979032175729,-0.0193011351428989,11.616259940812904,9.453902809678445,26.32838406964593,28.73745205807488
0.93,31.22218743226551,131.01044969089287,16.302348788157268,-5.61658355178008,-9.735266632070498,27.692304517874927,14.155885997586031,10.536212130119589,359.16250706547066,28.16029390822708,13.201204947373396,70.6387221896346,-12.898761512908187,106.27079233111346,484.9579895484957,1.274,1.0233407575091376,0,9.904337119515269,165.0000707061107,0.0827681831161756,-4.894245286818103e-06,0.2304620663875906,-0.4702354120692933,-0.0201311386694355,11.22573237582336,9.475825823168906,26.638429308188307,32.83693962503582
0.94,31.222186836789025,131.01045089568558,16.569779403636144,-5.3777338024724815,-9.39360851150777,19.26339326797901,14.62112768105166,10.788869156624465,283.06875048378083,28.471808347077683,13.339919768654124,70.70516628641353,-13.732980606658147,105.38675346672602,495.7339943667967,1.274,1.0232914783978162,0,9.931285204258032,165.0000707061107,0.0836840327503783,-5.2180806047100495e-06,0.2377613907621167,-0.4830941930044727,-0.0209979518451439,10.812038060708344,9.495499947065436,27.002865187528872,26.48122717211566
0.95,31.222186236976867,131.01045211458413,16.84019904195859,-5.167153646191824,-9.098118109718436,25.539565244951405,15.00654925732987,11.000229207716565,342.421873617488,28.638580110345487,13.430275278043611,70.76952089413538,-14.596354033881196,104.47218491499544,501.5454361898801,1.274,1.0232418269359267,0,9.958242263607945,165.0000707061107,0.0841744633527878,-5.549546804453523e-06,0.2449157707692297,-0.4957782865566143,-0.0217559226318581,10.45228788767685,9.567945384502536,27.21544939189483,31.598591046692224
0.96,31.222185635439605,131.0104533371118,17.110654382287287,-4.93036193156341,-8.755050115852075,24.78138240219005,15.459648387983048,11.24350759604152,337.09533515678265,28.94143101914534,13.563684093184063,70.83131791165142,-15.48872949066375,103.5272577674122,512.1958326245017,1.274,1.0231951201821403,0,9.985135050429776,165.0000707061107,0.0850648617841384,-5.888452627108478e-06,0.2518771458434104,-0.508205368808962,-0.0226103224693205,10.038415645440445,9.61404334947465,27.571536510880872,31.297509567150627
0.97,31.22218502865256,131.01045457946145,17.38570801960733,-4.700613456818263,-8.422059755638358,14.58963184468276,15.886764131428675,11.472021573147556,245.0218871929888,29.204498566878645,13.683032043615633,70.8900684879125,-16.409728025100517,102.55237873981444,521.5357380929407,1.274,1.0231476260761452,0,10.011672681002969,165.0000707061107,0.0858383382069447,-6.2343772198516286e-06,0.2586677069713685,-0.5204158026367812,-0.0234303343704656,9.63677417968323,9.683714679767302,27.886323441886,24.430593748531635
0.98,31.222184419284687,131.01045583078397,17.66230186115492,-4.4944133589829365,-8.128619764192537,22.50668988133385,16.225205515671792,11.65417523866828,319.593746642963,29.32286389213461,13.755332232319644,70.94528593247134,-17.358960317273432,101.54796062177093,525.7578891475869,1.274,1.0230935628253934,0,10.038306111666277,165.0000707061107,0.0861865084785072,-6.587033667452808e-06,0.2652650787535972,-0.5323722364122296,-0.0241246736678482,9.281080220884364,9.806318723170294,28.05030223050276,30.09365687207041
0.99,31.22218380843988,131.01045708536245,17.938829403409812,-4.260175016021618,-7.783310481219407,24.70757497939389,16.651230542987637,11.87805161141595,341.66094855170127,29.61087563000673,13.880180283105272,70.99647485800914,-18.33587640755741,100.51458096753971,536.1224522753324,1.274,1.0230490803133316,0,10.06473590915167,165.0000707061107,0.0870333114724518,-6.946185453221926e-06,0.2716265341256293,-0.5439995753933075,-0.0249451942897852,8.866633820895178,9.892228512879072,28.39203285805081,32.07515939230164
1.0,31.22218319322624,131.01045836027927,18.220094015768407,-4.026840608961432,-7.437411355683698,21.525261934606704,17.068107000120847,12.095219949062466,314.2672081822764,29.89484756355203,14.00236950406609,71.04313105067972,-19.339686417552343,99.45306544535676,546.4399586725482,1.274,1.022999484445133,0,10.090814639813615,165.0000707061107,0.087868250478308,-7.311318125130636e-06,0.2777777220679292,-0.5553457830418149,-0.025754046300636,8.452178663439325,9.991062405401587,28.729859824791305,30.015854536181394
1.01,31.22218257576224,131.0104596455002,18.50327213699811,-3.8017589919179113,-7.104104583375345,22.476183838502635,17.443672160520368,12.289426509182505,324.92031610370094,30.123185796551013,14.106056826467952,71.08475982916353,-20.369583915787164,98.36425119177464,554.8042160259017,1.274,1.0229507481225095,0,10.116999133137467,165.0000707061107,0.0885396751584148,-7.68207058837877e-06,0.2837047781202116,-0.5663883128540727,-0.0265037579005499,8.052795119713918,10.117259525850493,29.010132706248537,30.99178185116948
1.02,31.22218195629164,131.01046093997792,18.788070640846183,-3.572368476701332,-6.760688386229178,17.873720363819388,17.828552018326512,12.485948553347264,284.59063161543185,30.38383155265928,14.218464669795727,71.1208691201242,-21.4246099643084,97.2491304012946,564.4313814239193,1.274,1.0229039803623294,0,10.14302244490762,165.0000707061107,0.0893060660623804,-8.058109460587907e-06,0.2893849398025024,-0.5770871899687485,-0.0272675734291268,7.642605937995357,10.2451655239028,29.324327703732138,28.16426917196718
1.03,31.222181334410024,131.01046224828323,19.075772243246377,-3.3514848005524613,-6.431236482173982,13.598028578817072,18.15925956182157,12.65279914083366,247.3046933904342,30.573850335222595,14.3082070238207,71.15097214350523,-22.503616143240468,96.10888916705645,571.4975100651144,1.274,1.022853416101322,0,10.168860663282244,165.0000707061107,0.0898648729329758,-8.439001396748072e-06,0.2948121582652472,-0.5874335159404265,-0.027951913964798,7.248863998877148,10.404746318726437,29.56575405797226,25.976112395087434
1.04,31.222180711151427,131.01046356354254,19.36444818254837,-3.134401809816993,-6.107261723446588,24.06336380853209,18.45270970469741,12.798382590826495,345.4656368807608,30.72552930922381,14.385411402744316,71.17459389521355,-23.60532065732385,94.94484804060424,577.1660501688592,1.274,1.0228049544826707,0,10.19463235741482,165.0000707061107,0.0903109929204923,-8.824398269976369e-06,0.2999626442588388,-0.5973848087611491,-0.0285805466329758,6.861914957116489,10.58620415332315,29.76801846456117,32.91423051157017
1.05,31.222180086481057,131.01046488691185,19.65442365383824,-2.898432442149367,-5.744710542554327,12.40145148074508,18.84533972668188,12.991135981439095,240.4562587980608,31.05674882347732,14.514893453469991,71.19127308861438,-24.72824453390216,93.75852945316836,589.6603347841212,1.274,1.022755494436122,0,10.220166273780215,165.0000707061107,0.0912848391375242,-9.213900961922075e-06,0.3048203575927227,-0.606912253287409,-0.0293556598436734,6.432296247037185,10.722896218208891,30.15588295835524,26.03291075411219
1.06,31.222179459753903,131.01046623083707,19.949183903856543,-2.6846433050985024,-5.423794806680236,19.55191022122387,19.083086561675945,13.103413246391275,308.1796836557233,31.16482395799652,14.577196903340466,71.2005680748753,-25.8707394196519,92.55162845175644,593.7546123972683,1.274,1.0227013895379469,0,10.245496679159984,165.0000707061107,0.0916028081400892,-9.606875254584003e-06,0.3094013295480178,-0.6160501418843353,-0.029899673598539,6.0500673791395885,10.93761157369426,30.314128119737543,30.300838680223322
1.07,31.222178832733967,131.01046757205768,20.24221516095193,-2.4559793388540268,-5.0708885036538645,23.71404292034517,19.411974216915183,13.258652348552603,348.5093681440431,31.439984275596668,14.687292396112472,71.20206129776665,-27.031111092196152,91.32588246459856,604.2686420718275,1.274,1.0226540159946436,0,10.27092861661506,165.0000707061107,0.0924118927882072,-1.0003116335281747e-05,0.3136628474330776,-0.624716796256205,-0.0305782601724141,5.632937567892406,11.108818245266498,30.64449042651683,33.39120298410844
1.08,31.22217820432628,131.01046893414207,20.540114525935287,-2.2259340481127925,-4.712858402420608,13.943841342543088,19.74536230088413,13.41319394748233,261.0015785751465,31.744333938614204,14.804317424002676,71.19536152189941,-28.207407402640207,90.08329574636576,616.0066907202429,1.274,1.0226061614050743,0,10.295901105560796,165.0000707061107,0.0933067847622722,-1.0401965118960416e-05,0.3176173458636902,-0.6329397618232628,-0.0312626202959144,5.211011041374793,11.27912821332614,31.00487437818541,27.6445983087468
1.09,31.222177575406068,131.01047030823784,20.84040227149592,-2.0090642039370654,-4.379952083983514,12.135694349546911,19.95517662470644,13.502905018753648,246.54375332456465,31.884663639967453,14.873108839683,71.18010852128381,-29.39763311759984,88.82591290839576,621.4470701092184,1.274,1.0225512795791307,0,10.320982830132932,165.0000707061107,0.0937195763547311,-1.0802920899245836e-05,0.3212552988573927,-0.6407043311166777,-0.0317595659319706,4.817930368930801,11.50959798141838,31.1973322670788,26.978002064910914
1.1,31.22217694610644,131.01047168468347,21.14037996152744,-1.7905707578975496,-4.041757463752484,30.072731389862582,20.162185623281097,13.588270923034536,413.1890617384087,32.04913898978777,14.947819268700467,71.15597520846902,-30.59968084737505,87.5558925450865,627.8569198693608,1.274,1.0224981043155532,0,10.345961276668012,165.0000707061107,0.0942033427067196,-1.120570148242454e-05,0.3245490754613987,-0.6479548781851235,-0.0322497719806615,4.420025658095056,11.739699140538852,31.414787624330607,38.67200549534837
1.11,31.222176316541496,131.01047307290355,21.44268136985173,-1.557062427197213,-3.667152495134109,20.12500668025036,20.53809558161109,13.754721290360168,324.1593910379213,32.49340604134016,15.099529741723035,71.12267441239132,-31.811269857400408,86.27557268311939,645.3656069787532,1.274,1.0224548851875197,0,10.370616755664829,165.0000707061107,0.0955095207951248,-1.160978188267434e-05,0.3274929207528856,-0.6546817981603683,-0.0329924410585133,3.983608813890237,11.883522573939883,31.917764281494183,31.87509406692005
1.12,31.22217568777556,131.01047448771783,21.751438239038706,-1.338198987558194,-3.322888496243436,3.37445521207518,20.73872361865827,13.8304197004669,172.7328179403806,32.702067906397666,15.184120465360412,71.07996067432096,-33.030047589094934,84.98736444577467,653.6614824667402,1.274,1.0223979224661404,0,10.39517180264134,165.0000707061107,0.0961231861297027,-1.2014307378938565e-05,0.3300980248106594,-0.6609179083697169,-0.0334674449468269,3.5819486638365587,12.111909786633351,32.18040235030708,25.15476325470901
1.13,31.222175058946167,131.01047590139817,22.05891486041977,-1.1286307996155556,-2.999086751420031,24.401645020119112,20.78398734863161,13.825828616092611,367.5328077894322,32.712099583098826,15.2133677727271,71.02762684565262,-34.253681303450335,83.69365612850122,654.0432616711748,1.274,1.0223460397860296,0,10.419957425782451,165.0000707061107,0.0961530064703452,-1.2419092118306588e-05,0.3323346928625975,-0.6665992922857553,-0.0337035532680969,3.2042417540692782,12.413776652502596,32.241219233126635,34.90799259077422
1.14,31.222174429738548,131.01047731564003,22.365589917391898,-0.9046876260023352,-2.6356056649475743,10.216451837828789,21.08025499777224,13.942487223999311,239.6953177322812,33.12301338690995,15.350585770658128,70.96551643560747,-35.47970323126823,82.3969779901943,670.5582712606091,1.274,1.0223022138470996,0,10.444353073048596,165.0000707061107,0.0973611716434818,-1.282389832708836e-05,0.3341853175379601,-0.6716829107278567,-0.0343159481046921,2.786449271721441,12.581795527485989,32.70915940569355,27.260704116312933
1.15,31.22217380337828,131.01047876225425,22.680319791163665,-0.6925289379432858,-2.3012634671834604,9.74523268695005,21.140736418101618,13.938934298925584,237.4125115347709,33.218950572695725,15.401484140503108,70.89352710910653,-36.70557303792872,81.0999374945792,674.4279055210825,1.274,1.0222426194541194,0,10.46840839719006,165.0000707061107,0.0976435144180115,-1.3227646589472218e-05,0.335660638735455,-0.6762086222219841,-0.034566228241675,2.4031545831611947,12.86442681368536,32.85756613491378,27.132898588470265
1.16,31.222173176151685,131.01048019968297,22.991534387576003,-0.4800644718418984,-1.9620962488116225,37.11094618619715,21.223717546288164,13.943333142953437,490.043774385954,33.38100022496181,15.469203939670548,70.81159736173475,-37.92883728178512,79.80505175718942,681.003625184006,1.274,1.02219674531104,0,10.492814061466971,165.0000707061107,0.0981201864459804,-1.3630277539105223e-05,0.3367396148878819,-0.6801210846614753,-0.0348454632368852,2.0199488830057746,13.12699190440416,33.072855103290365,44.96760002996407
