Time,Latitude,Longitude,Altitude,Angle of Attack,Angle of Sideslip,X-Acceleration,Y-Acceleration,Z-Acceleration,Thrust,True Velocity,Ground Velocity,Pitch,Roll,Yaw,Dynamic Pressure,cp,parachute_deploy_gain,Wind Speed,Mach,omega_x,omega_y,omega_z,Cmq,Angle of Attack(total),Angle of Attack(gust),True Velocity(gust),Acceleration
0.0,31.222216000000007,131.010392,3.000000004412624,0.0,0.0,0.0,0.0,0.0,2.2828121974499247,0.0,0.0,71.99999999612658,-1.0292491154817412e-14,119.99999999354436,0.0,15.288,0,0.0,0.0,0.0,0.0,0.0,-0.0,0.0,90.0,0.0,0.0
0.01,31.22221599999862,131.01039200000284,3.0000009727369523,0.0,0.0,0.0,0.0,0.0,34.24218696174923,5.916279387578309e-11,5.734623670548936e-11,71.99999999613168,-5.86671995824671e-13,119.9999999935449,2.1432944861733093e-21,15.288,0,0.0,1.7386402909615473e-13,-3.4220131069073734e-19,7.115076756936125e-19,5.488773498207866e-19,-1.1574302492039043e-31,0.0,89.99999999962336,5.916279387578309e-11,0.0
0.02,31.22221599999738,131.01039200000537,3.0000018317022668,0.0,0.0,0.0,0.0,0.0,25.871876237766408,1.2265415415436536e-10,1.1895038237325684e-10,71.9999999961369,-1.1836364828043265e-12,119.99999999354544,9.211895886571454e-21,15.288,0,0.0,3.6044858651615574e-13,-6.979551485375437e-19,1.4162390878091906e-18,1.0909784360635388e-18,-4.776231873571785e-31,0.0,89.99999999921916,1.2265415415436536e-10,0.0
0.03,31.22221599921969,131.01039200159065,3.0001883335529382,18.80143492628821,-0.0001350810307892,10.931161642028636,-1.75114298675875e-05,3.026590975169265,180.34219359854663,0.0798232026864394,0.0478175828508887,71.99999999765336,-5.341802909786072e-12,119.99999999436793,0.0039016003969354,15.288,0,0.0,0.0002345795854893,3.788270153300133e-17,-7.771883375645477e-10,1.1422790048099072e-11,1.7057759223764537e-13,18.80143492675591,89.51882325913425,0.079801984207741,11.342422482672777
0.04,31.222215995131297,131.01039200995308,3.001692634342189,9.19442604083399,-4.49173898918486e-05,52.29595764159784,6.445392950801871e-06,3.026413589912948,548.6359724538078,0.3504174083926908,0.1601447499964056,72.00000000319055,-3.111420077280171e-11,119.99999999870242,0.0751892535633216,15.288,0,0.0,0.0010297854387864,2.0082066977226968e-15,-1.520937588847922e-08,2.5623342884322286e-11,1.4654248781413086e-11,9.19442604094277,87.798916624545,0.3504103527855857,52.383455068075136
0.05,31.222215983575865,131.01039203366796,3.0074067499493786,5.158590039700252,1.707592688632746e-06,76.26884281015512,5.843947534199429e-05,3.0258124765658088,761.6984298824644,0.9592973585397016,0.3772700771701255,72.0000000004862,-1.3608731808076822e-10,120.0000000109612,0.5634958029902841,15.288,0,0.0,0.0028191251099456,2.086299069701397e-14,-1.0551247853743037e-07,3.973493515691201e-11,2.783064866637575e-10,5.158590039700515,83.94063169874748,0.959297626767734,76.32884071402438
0.06,31.222215961742712,131.0103920785344,3.019291017943491,4.109521257467909,3.140103977270004e-05,57.06876634333886,0.0001151069734147,3.024834864051463,590.4875390737208,1.6257536642597354,0.6118982818704327,71.99999992547217,-3.5903296759057166e-10,120.00000003412836,1.6184272268450337,15.288,0,0.0,0.0047776672697797,1.0694899894620088e-13,-3.741090980393931e-07,5.521401959501359e-11,1.6723176417636091e-09,4.109521257587776,79.78719176344794,1.6257585967235286,57.148873286519276
0.07,31.222215929936205,131.01039214392435,3.0371334573469446,3.649087515174788,5.707077112564807e-05,86.89643797254193,0.0001728541558773,3.0234947746384675,855.2937749779139,2.3057260079826607,0.8506307413593818,71.99999965378231,-6.907496536790437e-10,120.00000006788592,3.255354923652711,15.288,0,0.0,0.0067759305364855,3.495199904512709e-13,-9.036515915819006e-07,7.594816279105379e-11,5.728932851326001e-09,3.6490875156204896,75.6601668283889,2.305734972638426,86.94902215090157
0.08,31.222215886364623,131.01039223353447,3.0621840248716574,3.4254446680114707,8.413075603463509e-05,17.831756866644035,0.0002285946601282,3.021841001032126,241.2171988638848,2.961944911520492,1.0819695676346892,71.99999900671328,-1.141745983122182e-09,120.00000011415082,5.371998197385977,15.288,0,0.0,0.0087043901031071,8.800530155962314e-13,-1.829098470920821e-06,1.0943386634701918e-10,1.4896287129277132e-08,3.4254446690434226,71.81713637501419,2.9619581267487467,18.085991154451033
0.09,31.22221583454733,131.01039234010327,3.0919888289029,3.389560809024919,0.0001118726864415,54.09031716446879,0.0002748660999733,3.020060228038602,563.0937377043176,3.504225426410036,1.2780161667917422,71.99999774508822,-1.634190085504106e-09,120.00000016921716,7.519080503822694,15.288,0,0.0,0.0102980157586766,1.865782139518716e-12,-3.1503298654458527e-06,1.6284478329871028e-10,3.03536411425607e-08,3.389560810868955,68.76526501308032,3.504242999330529,54.17456206384468
0.1,31.22221577423132,131.0103924641528,3.1267248829165366,3.4447939461814814,0.0001419149103147,51.372195336549765,0.0003131602029306,3.0182021883815127,538.7437595981919,3.950569597142709,1.4443465951180965,71.99999562056465,-2.1287748602259068e-09,120.00000023339832,9.55649523509932,15.288,0,0.0,0.0116097108366932,3.485956000178229e-12,-4.949356763187612e-06,2.4573266549165286e-10,5.3761299442583966e-08,3.444793949101151,66.34639928474206,3.9505918890846927,51.460781166288626
0.11,31.222215706113143,131.01039260424562,3.165907002780892,3.4691423802630394,0.0001702373452339,40.591037561894986,0.0003534470100582,3.016051659024047,442.8656393052949,4.421478635995476,1.6182620895289603,71.99999235067894,-2.5564479031457968e-09,120.00000030601664,11.970509656144712,15.288,0,0.0,0.0129935974697161,5.942887149865172e-12,-7.273722517324353e-06,3.67769289312894e-10,8.842679949465076e-08,3.4691423844348632,63.88798785789768,4.421505376815134,40.70293476011277
0.12,31.222215630588888,131.0103927595646,3.2092596514826863,3.4852659299808075,0.0001974376474727,44.30042894095728,0.000394069215595,3.013641598889868,475.58594813540446,4.896982486381051,1.793579340340896,71.99998761802138,-2.8337988279882726e-09,120.00000038673312,14.683611096353944,15.288,0,0.0,0.0143909889875706,9.464337642181618e-12,-1.017558359402848e-05,5.395790443954697e-10,1.3700793350599625e-07,3.4852659355662303,61.5068242157714,4.897013499814194,44.40281567867803
0.13,31.222215548046687,131.0103929293088,3.256512891171917,3.5606043721293616,0.0002276507019012,48.86766833507025,0.0004268800875964,3.0112558910133567,515.9156326236895,5.278566579338586,1.939796541405244,71.99998107389406,-2.8573058577484587e-09,120.00000047523812,17.061052093156064,15.288,0,0.0,0.0155123760833565,1.4300406003001044e-11,-1.3705268062305584e-05,7.724776992181392e-10,1.989112774124932e-07,3.560604379397528,59.67313531776262,5.27860233862722,48.960358155653
0.14,31.222215458587108,131.01039311327068,3.30759734332425,3.6000732663755977,0.0002555702913645,45.540290862247225,0.0004629468001456,3.0085404980032777,486.2390860568404,5.70011779273801,2.098362647205908,71.99997235012626,-2.508533681468686e-09,120.00000057154703,19.894788765881632,15.288,0,0.0,0.0167512184495524,2.071534240530911e-11,-1.7917736259613292e-05,1.0787346240473087e-09,2.8081526258393346e-07,3.6000732754351943,57.72385750323359,5.700157937625502,45.639559681930805
0.15,31.222215362317904,131.01039331122794,3.3624387479639086,3.651605404442164,0.0002842753491325,44.01308509501,0.0004965057129938,3.005703619811542,472.54218587214,6.091938849578711,2.2476968067377374,71.99996103728932,-1.6446954747148112e-09,120.00000067569304,22.723773683610247,15.288,0,0.0,0.0179026934683374,2.9002783512213203e-11,-2.287326399669318e-05,1.47199345427166e-09,3.831202693354572e-07,3.651605415492516,55.98561718911576,6.091983503446133,44.115597174664394
0.16,31.22221525912812,131.01039352340948,3.421115382839859,3.67540086436193,0.0003108411545024,34.83804992586084,0.0005330990866742,3.002517946501868,391.1218908297564,6.521183188362317,2.4085903880902046,71.99994669525161,-1.0153513453738144e-10,120.00000078796704,26.03872642002185,15.288,0,0.0,0.019164148528834,3.9478358970291335e-11,-2.864207894220033e-05,1.9677461746207517e-09,5.135466997084602e-07,3.6754008774883777,54.15946979122355,6.521232015176687,34.96719658394182
0.17,31.2222151493826,131.01039374906244,3.4833737923187487,3.7139589864597298,0.0003384978477213,43.96471427482637,0.0005668629535037,2.999235483723449,471.78125980632376,6.916861975403744,2.559060925010733,71.99992884100092,2.3206494032971838e-09,120.0000009081849,29.29426197817256,15.288,0,0.0,0.0203269651395979,5.248754693205839e-11,-3.5267097947693114e-05,2.580363454062817e-09,6.706952682968329e-07,3.713959001863866,52.549031795895466,6.916915146521327,44.06689817851128
0.18,31.22221503253009,131.01039398932429,3.549599475912623,3.7380363034619775,0.0003650282082698,36.67395661481795,0.0006021794701355,2.9956556354306425,407.10156721191447,7.332140201215607,2.71556808256092,71.99990696207136,5.837017536380516e-09,120.00000103716444,32.917216366714264,15.288,0,0.0,0.0215473823438242,6.839750892601699e-11,-4.285557247677198e-05,3.331016495775474e-09,8.639362741436378e-07,3.738036321259578,50.93050624815799,7.332197539712479,36.796100973258795
0.19,31.22221490871209,131.01039424390297,3.619694897703461,3.747799769666444,0.0003901520189829,41.42208371271829,0.0006393759928961,2.991742733214697,448.9531328318269,7.771071983754382,2.879366399937307,71.99988049019642,1.0709144790974043e-08,120.00000117502664,36.97605053227239,15.288,0,0.0,0.0228373144884866,8.761416506509219e-11,-5.146771415177372e-05,4.238406957677133e-09,1.0996552116864756e-06,3.747799789945131,49.29705748437159,7.771133268690212,41.529983675580546
0.2,31.22221477769685,131.01039451327668,3.693822889232993,3.7700519460961166,0.0004166800650969,37.99697972290605,0.0006740224661302,2.987733789228414,418.51563019916136,8.179966026035371,3.0338260708461373,71.99984881140107,1.723179577184912e-08,120.0000013223286,40.969302182777255,15.288,0,0.0,0.024038975990988,1.1057590044953188e-10,-6.120032215177249e-05,5.3263847350253015e-09,1.376394225587184e-06,3.7700519690893857,47.8457752505109,8.180031477986942,38.11426270718793
0.21,31.222214639876928,131.01039479663547,3.771710975053407,3.7926098867321474,0.0004432924407074,36.46301043881366,0.0007080907240332,2.983530483977461,404.8187610144644,8.582757448615462,3.1863584283669346,71.99981127559042,2.5745201416596626e-08,120.00000147900325,45.103059028532826,15.288,0,0.0,0.0252227064089584,1.3774582723633048e-10,-7.20875523136271e-05,6.61341033873124e-09,1.7010673350603349e-06,3.792609912601061,46.47936953648762,8.582827080829217,36.584868250565684
0.22,31.22221449507626,131.01039509434258,3.8534832466471007,3.782921298925821,0.0004660920499522,44.14577847155813,0.0007479176313898,2.978724032883548,472.5421858721365,9.056569122268344,3.360845972992861,71.99976720416048,3.661811567390422e-08,120.00000164562512,50.21995530074818,15.288,0,0.0,0.0266151520780326,1.6960703048385348e-10,-8.421592474264931e-05,8.124635526119773e-09,2.0969540034515424e-06,3.7829213275976334,44.9464484092354,9.056642335836344,44.24615863872642
0.23,31.22221434283448,131.01039540734791,3.9394622486964206,3.813874679301352,0.0004940771488601,36.66675459308932,0.000779455230549,2.974212905336642,406.3406421461021,9.430647902846331,3.5044030163419806,71.99971583979395,5.0272885112871524e-08,120.00000182313076,54.45382429059888,15.288,0,0.0,0.0277145095638672,2.0669790509245914e-10,-9.77285871729516e-05,9.894576563683824e-09,2.5339062472561444e-06,3.813874711257219,43.79476959007253,9.430725512303388,36.78718303164376
0.24,31.222214184153326,131.01039573358457,4.028950821673608,3.829256049377765,0.0005200487408944,37.802126339316736,0.0008136255607606,2.9692962675112065,416.2328240017114,9.837806876534357,3.658163422426286,71.9996564062533,6.718950080713476e-08,120.0000020109434,59.25679777340223,15.288,0,0.0,0.0289110855155543,2.4956955046738006e-10,-0.0001125744417092,1.1934277804843484e-08,3.0448209172448607e-06,3.829256084638984,42.59361542722471,9.83788856559955,37.91856374864305
0.25,31.22221401888584,131.01039607335582,4.122052964664892,3.851417709838087,0.0005469594058717,38.85163035360012,0.0008459008130282,2.964283881833675,425.36408079150686,10.22297576958679,3.8050691648373967,71.99958811418384,8.786880969336211e-08,120.00000220974424,63.98709205399403,15.288,0,0.0,0.0300430411774988,2.987811646313829e-10,-0.0001288461362054,1.4273117985167728e-08,3.621333387698252e-06,3.8514177486178034,41.50703126619192,10.223061685769354,38.96455005232871
0.26,31.222213847358866,131.0103964259872,4.218542267117083,3.8780574625554745,0.0005745172425185,42.3164797140743,0.0008766626387865,2.959162938653076,455.8015834241788,10.590779679138215,3.946551912391076,71.99951013710364,1.1286401474734325e-07,120.00000241975916,68.67355887153568,15.288,0,0.0,0.0311239685467471,3.5491769188178554e-10,-0.0001465721578858,1.6932703957058654e-08,4.267712643344226e-06,3.8780575050466,40.51245375834074,10.590869924095635,42.41981967733593
0.27,31.22221366913008,131.0103967923915,4.318728802515264,3.886188503202341,0.0005994342651313,38.70936050721014,0.0009111181036949,2.953518013741325,423.84219965987256,11.004860953238978,4.102320296019413,71.99942161756776,1.4276417094868828e-07,120.0000026420792,74.14786134434608,15.288,0,0.0,0.0323408987462391,4.1858405402174807e-10,-0.0001658847815307,1.995072923688136e-08,5.018832267232506e-06,3.886188549362022,39.43841359495857,11.00495511215316,38.8218734782956
0.28,31.22221348431185,131.01039717233687,4.422535913956003,3.90556090261878,0.0006261175699806,44.68030766832924,0.0009425767186621,2.947879457547137,476.3468732012221,11.38358114165448,4.247086834352694,71.999321619057,1.7823531611327881e-07,120.000002877279,79.33831935330025,15.288,0,0.0,0.033453914386159,4.904408325040897e-10,-0.0001868529238516,2.3357766479368094e-08,5.847713054408178e-06,3.9055609527288775,38.49894431917428,11.383679491972384,44.77744842575601
0.29,31.222213292835256,131.0103975659655,4.530013412817602,3.9242599519377537,0.0006528240665589,35.802573724660256,0.0009737210635801,2.942037024315898,397.97031042211177,11.759725774384751,4.391004157029451,71.99920917567837,2.1999186079018322e-07,120.00000312617878,84.66717879828003,15.288,0,0.0,0.0345593650464213,5.711677680739745e-10,-0.0002095620322847,2.7188189988316943e-08,6.77505090435382e-06,3.9242600061534456,37.60352534239979,11.759828319749328,35.92324968749781
0.3,31.222213095024976,131.0103979726075,4.64093665799555,3.936939025755682,0.0006785438093183,33.570228713727204,0.0010059102294455,2.93586442972183,378.1859457108711,12.149968255527943,4.539237002744259,71.99908328532703,2.6880857935396905e-07,120.00000338923812,90.3787563598417,15.288,0,0.0,0.0357062504417728,6.614698865958865e-10,-0.0002340353597042,3.1467140861055e-08,7.817263716758327e-06,3.9369390841381695,36.71173884615234,12.150074840940263,33.698361337808635
0.31,31.22221289105846,131.01039839189684,4.755183729044857,3.9598342215431432,0.0007060286581592,35.396825578217346,0.0010350810412898,2.9297385597941448,394.1656220930212,12.504537499407316,4.6763673222047455,71.99894291513503,3.255120771695107e-07,120.00000366712923,95.72967338626896,15.288,0,0.0,0.0367483036680869,7.620720834468404e-10,-0.0002603234137215,3.622454560346964e-08,8.948994505138873e-06,3.9598342843844345,35.934338386209795,12.504648402129598,35.5178635353378
0.32,31.222212681031937,131.01039882363492,4.872689374180126,3.985461429033668,0.0007340760463279,38.52097867048992,0.0010630242168685,2.9235095146848846,421.55939346242695,12.84534566718622,4.809181081594425,71.99878701464397,3.909756427278764e-07,120.0000039606604,101.01782231644016,15.288,0,0.0,0.0377499198995686,8.737098716736534e-10,-0.0002884807530145,4.1491545539590986e-08,1.0187112828155184e-05,3.98546149652875,35.21473736963424,12.845460975581933,38.631757748577954
0.33,31.22221246496604,131.01039926777932,4.9934410812554,4.010606629086,0.0007621365968788,38.18822026147908,0.0010905599149574,2.917102431053817,418.5156301991682,13.18247167592885,4.940798912752974,71.99861449732019,4.661299779655886e-07,120.000004270781,106.38859400029033,15.288,0,0.0,0.0387407190563976,9.971421990244511e-10,-0.0003185760672934,4.7302669734505256e-08,1.154498667827874e-05,4.010606701382261,34.52805863348922,13.182591392065536,38.299473293007864
0.34,31.222212242662028,131.01039972474007,5.117579377337869,4.019339771238816,0.0007871574969313,29.898022638335373,0.0011220389395318,2.910051232417875,345.46563688075645,13.569536737955724,5.0878303926024735,71.99842423285973,5.519675040347761e-07,120.0000045987411,112.72655675097128,15.288,0,0.0,0.0398782837956187,1.1331556132162459e-09,-0.0003507224668667,5.37022358302301e-08,1.308298593306914e-05,4.019339848191799,33.76700548046532,13.5696603843662,30.039310197084795
0.35,31.22221201433324,131.01040019407705,5.2449575244483055,4.033762873683395,0.000813261106463,32.76415525156106,0.0011515840876071,2.902959820469776,370.5765700527033,13.934300103976534,5.227895396154902,71.99821502296155,6.495674834876441e-07,120.000004945438,118.8669740701126,15.288,0,0.0,0.040950312688979,1.2825853697215452e-09,-0.0003849609961885,6.072234695821837e-08,1.4746020857580124e-05,4.033762955530055,33.07785186209504,13.934427850732408,32.89250745069162
0.36,31.22221177990305,131.01040067594835,5.375631006350063,4.051723629010647,0.0008401329464575,37.01692984301412,0.0011797030485285,2.8957873473716007,407.8625232777193,14.282998147928636,5.362923567977223,71.9979856440668,7.600645476620651e-07,120.00000531213882,124.88900300695136,15.288,0,0.0,0.0419751331662584,1.4462801652534363e-09,-0.0004213876232777,6.84067806399068e-08,1.654507199147348e-05,4.051723715967022,32.44322602189087,14.283130115703262,37.13002398000203
0.37,31.222211539445663,131.01040117020102,5.509550188388412,4.071639898917391,0.0008674922629137,35.12417761390579,0.0012067983861697,2.88849906286036,391.1218908297666,14.620581431527652,5.494447309446232,71.99773482653193,8.846681943540367e-07,120.00000570002652,130.86067091914967,15.288,0,0.0,0.0429672939311924,1.6251202388969355e-09,-0.0004600660652957,7.679415042686734e-08,1.849041957573993e-05,4.071639991174516,31.85023865502424,14.620717696893658,35.24274792557624
0.38,31.222211292895075,131.01040167697127,5.646763233102716,4.08264881385344,0.0008930259828975,36.695642158537446,0.0012360471443664,2.880711738179021,404.8187610144602,14.986392916850402,5.634654729559426,71.99746126698146,1.0246533537040716e-06,120.0000061105033,137.4891296153862,15.288,0,0.0,0.0440424171304414,1.8200057922063743e-09,-0.0005010869196581,8.592980519823866e-08,2.0642694281337543e-05,4.082648911356968,31.228847973200924,14.986533193043764,36.808540518115166
0.39,31.22221104018777,131.0104021963902,5.787316652586672,4.096641430700089,0.0009192713382325,31.335681548387896,0.0012640110027448,2.872831219844713,357.64062493382744,15.337978856701952,5.770390286512262,71.99716358743511,1.1813915463769678e-06,120.00000654506955,144.01394309468844,15.288,0,0.0,0.0450757388736732,2.031886352449547e-09,-0.00054455673306,9.586443829735616e-08,2.295945663566148e-05,4.096641533664766,30.65298398882095,15.338123255506089,31.4670954954126
0.4,31.222210781536543,131.01040272801887,5.931064331106764,4.109028969993624,0.0009451871856381,29.95928076777898,0.0012920492774571,2.8646905607053603,345.465636880754,15.692185018814769,5.906873567965718,71.99684037970908,1.3563276523471372e-06,120.00000700500496,150.74021066990193,15.288,0,0.0,0.0461167659598875,2.2617341782092324e-09,-0.0005905037520737,1.0663253249436129e-07,2.5471259834659164e-05,4.1090290785164525,30.09246700352443,15.692333488470696,30.095929256306363
0.41,31.222210517064383,131.01040327160345,6.077922766619747,4.122888296344507,0.0009714525997821,33.78425365340317,0.0013192264430821,2.85640971467756,378.94687077668647,16.03742529732769,6.0405139809190125,71.99649020751959,1.5509747261474075e-06,120.0000074917568,157.44375780268788,15.288,0,0.0,0.0471314487675864,2.5105374204052982e-09,-0.0006389770219162,1.1827345344180344e-07,2.816813594418537e-05,4.122888410595805,29.56469007160549,16.037577892745222,33.904791300285986
0.42,31.22221024682894,131.0104038270252,6.227854084363214,4.14444025865494,0.0009995884754813,38.04468161607466,0.0013435485656724,2.8482703202464488,416.2328240017114,16.348862540904037,6.163613566771559,71.99611159893284,1.766920641656551e-06,120.00000800692096,163.6157044470786,15.288,0,0.0,0.0480467946810589,2.779304965995011e-09,-0.0006900467934588,1.308321832549104e-07,3.100973487310896e-05,4.144440378988911,29.104646754454564,16.34901955589459,38.15115260238947
0.43,31.222209970843565,131.0104043942566,6.380851271439565,4.1618082623168045,0.0010268052928652,33.45815353250911,0.0013687230309017,2.8397750580998298,375.9031395134336,16.67263197205097,6.290467308135904,71.99570306121484,2.005818691215035e-06,120.00000855220898,170.15779512382937,15.288,0,0.0,0.0489983878509763,3.0690566816849196e-09,-0.0007437862329608,1.443552931671376e-07,3.4086145072160934e-05,4.161808388761201,28.640125213458976,16.672793262249197,33.57845085853367
0.44,31.22220968892116,131.01040497368373,6.537047157143216,4.164954087655709,0.0010505545842624,30.86574023822051,0.0013980747538988,2.830419582421933,353.0750125389216,17.050421620730056,6.433992917638883,71.99526304125902,2.269416145406482e-06,120.00000912964636,177.9537948947602,15.288,0,0.0,0.050108743779844,3.380847125286677e-09,-0.0008003278134917,1.589055036683518e-07,3.750784460406397e-05,4.164954219916419,28.113519280259386,17.050586641458253,30.99524475496968
0.45,31.22220940081287,131.01040556582012,6.696617751072218,4.165241899529329,0.0010735835484822,35.912216710755274,0.0014280646808282,2.820677244966047,397.2093853562869,17.438293672974723,6.580571293039616,71.99478987454265,2.5595995397253085e-06,120.00000974147088,186.13940823302417,15.288,0,0.0,0.0512487363629523,3.7158016249566814e-09,-0.000859850913876,1.745604864109677e-07,4.121350642664912e-05,4.1652420376426775,27.591357195572936,17.43846231108416,36.02281959036367
0.46,31.222209106468902,131.0104061707686,6.859600379555308,4.174585124444534,0.0010989881252456,41.916816790010685,0.0014546917035209,2.811153314474766,449.7140588976434,17.786187321601275,6.714685486378061,71.99428180697711,2.8783880229668832e-06,120.0000103898448,193.6374175079873,15.288,0,0.0,0.0522712438446989,4.0751091178509895e-09,-0.0009224765531151,1.9138630415982226e-07,4.50966024037632e-05,4.1745852688465686,27.13985967570823,17.786359950252297,42.01097612387663
0.47,31.22220880579083,131.01040678873238,7.026066274755745,4.1823089530633855,0.0011240727220223,28.37640408484148,0.0014814747534716,2.801325368441072,331.0078106302534,18.138167428286582,6.849989708801916,71.99373704967608,3.2278903746588286e-06,120.00001107707628,201.37401505997488,15.288,0,0.0,0.0533057667609836,4.459978104761035e-09,-0.0009883252835099,2.094509673354327e-07,4.927107017839778e-05,4.182309103852639,26.69716826759888,18.13834399721685,28.514342615617974
0.48,31.222208499300592,131.0104074186346,7.195654207463586,4.189479568102716,0.0011490100608361,27.95074823096412,0.0015080719422187,2.7912412472910484,327.2031223011574,18.48995085190441,6.98515976370584,71.99315377257649,3.6103201777021456e-06,120.00001180491516,209.25751230436188,15.288,0,0.0,0.0543397174489847,4.8716620260348906e-09,-0.0010573190976925,2.2877013380347535e-07,5.373205427420879e-05,4.189479725385959,26.268461765425428,18.4901313379827,28.089773168283216
0.49,31.222208187201936,131.01040806005494,7.368224738812109,4.202723284133339,0.001175611380853,35.08821363242469,0.0015321405723077,2.781292092003844,389.60000969812296,18.812014261754847,7.111044804193205,71.99253015042137,4.027946338669921e-06,120.0000125755114,216.60722913930897,15.288,0,0.0,0.0552863302793499,5.311396446020465e-09,-0.0011294854492155,2.4938633613154685e-07,5.8398320167141767e-05,4.202723448262914,25.88860807032205,18.81219892635871,35.1982716047702
0.5,31.22220786953184,131.01040871291724,7.5437546994244835,4.220815778795054,0.0012036252596423,36.05491615971072,0.0015540388599792,2.7714444106710974,397.97031042210494,19.10875420627192,7.229005658018125,71.99186435180009,4.483102820610566e-06,120.00001339126192,223.4908652241728,15.288,0,0.0,0.0561585257949344,5.7804122391526605e-09,-0.0012048912160576,2.713531252030471e-07,6.327866493526626e-05,4.220815950099865,25.54902500917784,19.108943271285572,36.161276053538906
0.51,31.222207546379583,131.0104093770373,7.722184419225251,4.232567510615346,0.0012298790840397,27.54004661432325,0.0015777580800203,2.761017323676155,323.3984349720841,19.430597746636646,7.354673636736509,71.99115452520388,4.978202222778502e-06,120.00001425458936,231.07869697977367,15.288,0,0.0,0.0571045034845869,6.2799518101633574e-09,-0.0012835871653678,2.947201005874635e-07,6.854585242460463e-05,4.232567688976395,25.189423168613605,19.430790935591396,27.678103017910345
0.52,31.22220721757215,131.01041005254694,7.9035350257193935,-14.048531774731693,-18.73075048258857,33.61629507342494,1.0081166592626811,3.6919541387963832,372.0984511843415,19.3605522485926,7.48911158992255,71.99041667148907,-3.164788388055714e-05,119.99997608993355,229.41167064146424,15.288,0,8.800018690167905,0.0568987634624763,6.7869295322721155e-09,-0.0012034288100645,-0.00015262680766,6.40324674680763e-05,23.26140778853552,14.016998103623386,16.470460463458902,33.83344675059331
0.53,31.222206881979407,131.0104107400603,8.087924168489286,-13.765093373469716,-18.47839120955585,35.27932831592264,1.034039451120572,3.706658149069761,386.5562464348624,19.65889716307271,7.626691531071225,71.98978821954745,-0.0005711297184199,119.99940916776912,236.5323996272856,15.288,0,8.833876578436506,0.0577756900712179,7.0603574043553e-09,-0.000968330752191,-0.0004952822495906,5.231633090592716e-05,22.897347410503315,13.779336951918443,16.806374354251833,35.48858349727698
0.54,31.222206539364684,131.01041143981175,8.27542404878261,-13.491701284353024,-18.234039358730872,31.021912821735096,1.0602916948535537,3.721420378306589,349.2703242098436,19.956128381538,7.76378452645824,71.98929580886413,-0.0017214879212736,119.99819989887584,243.7345496894238,15.288,0,8.86765856816952,0.0586493493295678,7.048179130107289e-09,-0.0007280419144145,-0.0008468721273608,3.992815621414296e-05,22.54543781575548,13.548544978210629,17.14003521527497,31.262313785604277
0.55,31.222206190004364,131.01041215119082,8.465828431039,-13.2316802752527,-18.002185938081823,32.85899213379386,1.0865565121214464,3.736016686181496,365.2500005919907,20.24683918340241,7.898589584559137,71.9889423224794,-0.0034981843871515,119.99633202186408,250.88288985553487,15.288,0,8.901322817358217,0.0595038512482127,6.744238608264563e-09,-0.0004828938467404,-0.0012070342293012,2.6868755321093293e-05,22.211177013906056,13.327334814417537,17.465359675246482,33.088544691209776
0.56,31.22220583388052,131.0104128741957,8.659136711140063,-12.987044369811787,-17.785790513321217,30.68874753035728,1.1125791098408715,3.750273765634141,346.2265619465787,20.52682219929872,8.029728361352024,71.98873054132827,-0.0059164702640953,119.9937894987352,257.8647370967282,15.288,0,8.934866980313437,0.0603268306361538,6.142550399489761e-09,-0.0002328508173311,-0.0015759088235846,1.3134999771776148e-05,21.89809873547686,13.117459111213426,17.77768971196712,30.937058854630447
0.57,31.222205471051765,131.0104136086676,8.855295331972988,-12.743939058480516,-17.567717060293322,30.3474482914132,1.139438966512026,3.764950263213618,343.1828296833023,20.814529027617407,8.163364547427518,71.98866320379702,-0.0089916396417481,119.99055624784252,265.1389379718796,15.288,0,8.968274754045972,0.061172515350637,5.2372010093810185e-09,2.2003102797449663e-05,-0.0019534709309703,-1.2585570838191706e-06,21.58458867461931,12.90832455147786,18.098034065123244,30.60132006046269
0.58,31.222205101476764,131.01041435465416,9.054320559273885,-12.4940660960704,-17.33733119379497,39.85838796386077,1.1679303897840996,3.7805870187911466,426.1250058573153,21.12286967356681,8.30377129260523,71.98874303988553,-0.0127391798013551,119.9866159862086,273.04729252487886,15.288,0,9.001544759034147,0.0620788473665576,4.022268863140312e-09,0.00028171065341,-0.0023398723479749,-1.6351977949308346e-05,21.257378298954084,12.693402448318674,18.440897686465583,40.05431300970814
0.59,31.222204724709872,131.0104151130356,9.256509784039546,-12.26827225016954,-17.134277874220068,32.367747085851754,1.195297529231054,3.795276992327605,360.68438819711065,21.405254205856835,8.435497853190654,71.98897296969156,-0.017175640854971,119.98195131552713,280.39120267672206,15.288,0,9.034727015176085,0.0629089020652107,2.4914108115053648e-09,0.0005468659944727,-0.0027360471562432,-3.2166734843865144e-05,20.965846511506022,12.496961060098153,18.7537454229121,32.611407744001816
0.6,31.222204340956434,131.0104158833492,9.461706911183,-12.025523704741287,-16.905763318445704,28.79866316068632,1.225340529428242,3.811628768692692,329.4859594986058,21.724946037644983,8.579500280801545,71.98935591899007,-0.0223178528567197,119.9765445443972,288.8234553133819,15.288,0,9.067788788952408,0.0638486071337053,6.382764163090477e-10,0.0008171912609351,-0.0031417049612259,-4.8784238853994254e-05,20.64423882184956,12.286663533420729,19.10776010521378,29.075642265065387
0.61,31.22220395014605,131.01041666570103,9.669948007679476,-11.786348998480271,-16.678219114277855,33.692611280885814,1.256236858854308,3.828376884281081,372.0984511843297,22.050966149949943,8.725494379518224,71.98989485930619,-0.0281831095106814,119.97037749628832,297.5511324534928,15.288,0,9.100734524031656,0.0648069173441327,-1.5436133832498272e-09,0.0010927864163904,-0.003557087694345,-6.621423101765437e-05,20.325454021655787,12.078677617055003,19.46799868831224,33.9326782841926
0.62,31.22220355238004,131.01041745984247,9.881149336410784,-11.588653708163696,-16.50209267293729,41.81863636035384,1.2839072591438896,3.8427714140700377,442.86563930529206,22.31698328261444,8.851642836719266,71.99059280316845,-0.034789161275511,119.96343151646064,304.7674145868868,15.288,0,9.133563029354692,0.0655888874497075,-4.060848623122279e-09,0.001373587906801,-0.0039822029937902,-8.423092463851542e-05,20.07166675927955,11.903674846041175,19.76053000231208,42.01444581367681
0.63,31.222203147447303,131.01041826617288,10.095446170230629,-11.385539819245013,-16.315923589690367,23.83933296744684,1.3130988708732123,3.858030288586337,286.11251274707894,22.60090453829692,8.983659016760294,71.9914525311889,-0.0421531758107122,119.95568856829853,312.56493817353834,15.288,0,9.1662509467641,0.0664234833617323,-6.919628710940519e-09,0.0016598077398911,-0.0044174652400224,-0.0001030752248743,19.80675837320221,11.724155582763212,20.072503521856557,24.185169478114805
0.64,31.222202735944016,131.01041908342427,10.312410747905828,-11.171134010198024,-16.111572495188422,23.406789149655324,1.34463035893692,3.8746810002085823,282.30782441796754,22.91526993594963,9.125605781622417,71.99247693343422,-0.0502925803546084,119.94713033627532,321.31390824104267,15.288,0,9.1988098027546,0.0673475601113585,-1.0126217516644186e-08,0.0019506471488639,-0.0048618120250083,-0.0001228189361528,19.52080921074992,11.535180002152853,20.41769159963841,23.763395421361285
0.65,31.222202317832856,131.0104199116388,10.53205779603595,-10.986624983377483,-15.94475120498538,41.148533606514285,1.373675984826701,3.889510393483324,436.7781447787475,23.182940988958062,9.252182787998963,71.99366864142482,-0.0592244431892987,119.93773889334214,328.8572865752069,15.288,0,9.231155856408511,0.0681344092844046,-1.3686584568636096e-08,0.0022462074957593,-0.0053154833359965,-0.0001430773468865,19.282148800219066,11.370509350140694,20.71054821022323,41.35477112472925
0.66,31.22220189256675,131.01042075191356,10.754758320764443,-10.800818246672756,-15.7735407812508,35.03911724628569,1.403838351314339,3.9049197867595935,383.51251517160017,23.461275401887853,9.382231928032356,71.99503027793443,-0.0689660842956258,119.92749605120288,336.79400877256853,15.288,0,9.263396573042357,0.0689526043082165,-1.7606645703811444e-08,0.0025471823709047,-0.0057796074472751,-0.0001641930789455,19.03925398420275,11.204690912800965,21.014752614301347,35.28397508865183
0.67,31.22220146032196,131.01042160384824,10.980377707975176,-10.605753033651656,-15.586871743313148,24.20461025535856,1.4362372566785655,3.921629394327913,289.1562440103425,23.767332104424856,9.521299594816826,71.99656479497487,-0.0795361066425485,119.91638226705396,345.63091598169115,15.288,0,9.295532558488487,0.0698522816584518,-2.189286959898445e-08,0.0028533280933149,-0.0062539320185453,-0.0001863227677454,18.7786500006144,11.031059533226358,21.34903999865985,24.56227009414515
0.68,31.22220102125728,131.01042246707925,11.20879380748094,-10.419147865904916,-15.409184276023309,30.155569583079235,1.4686060755506103,3.938142631755833,340.8999924858462,24.06545676317863,9.65772363281124,71.99827492100951,-0.0909531193107355,119.90437800513382,354.34834203713683,15.288,0,9.32744627191284,0.0707286534538289,-2.655161515242296e-08,0.0031644595989222,-0.0067382851230273,-0.0002092270916611,18.530133981803072,10.864367914009648,21.674060872025663,30.447071256085213
0.69,31.22220057543893,131.0104233414358,11.43994962019994,-10.249746865653362,-15.252934608298268,37.07201183480555,1.4996261590435975,3.953616322497695,401.0140726853634,24.3356695392849,9.785010795337188,72.00016339457892,-0.1032355828303317,119.8914638818082,362.342390785437,15.288,0,9.359232372367176,0.0715229984224174,-3.158906025709521e-08,0.0034804778087119,-0.0072326217363912,-0.0002327002136796,18.30875427681808,10.712001115370832,21.96794387696338,37.31238429961788
0.7,31.222200122707967,131.0104242272151,11.673946269277872,-10.083273550168752,-15.098451561461722,31.12797241095845,1.5311893933976453,3.969281637605023,349.27032420985284,24.60718622927388,9.912699880232148,72.00223282331902,-0.1164018436852326,119.87762063942294,370.4645873909424,15.288,0,9.390899527665024,0.0723211820902735,-3.701115816253192e-08,0.0038015856263954,-0.0077373568005484,-0.0002569990913901,18.09050688082805,10.562104047054085,22.262880482474674,31.417358324570706
0.71,31.22219966310392,131.0104251243033,11.910746082856372,-9.912003081581217,-14.93487030501132,25.61816301758249,1.5644574652292431,3.9858719398029954,301.33126406340574,24.897367268034493,10.04642370897704,72.00448589433297,-0.1304707996779724,119.8628284417723,379.24491287008897,15.288,0,9.422351952769894,0.0731742274548282,-4.282404275513455e-08,0.0041277085791294,-0.008252487811789,-0.0002823302632153,17.862207818469276,10.408208722592484,22.577879316008115,25.973543822059625
0.72,31.222199196612173,131.01042603269855,12.15034925638465,-9.734776772130871,-14.760288665366405,31.313483826886063,1.5997929412068328,4.003604184522816,350.79220534145287,25.210762761899208,10.18762865101192,72.00692515706338,-0.1454618050727036,119.84706698713993,388.8435424974414,15.288,0,9.453670201257324,0.0740955079936614,-4.9033908539542674e-08,0.0044588807057834,-0.0087781776578117,-0.000308813889614,17.621642025912564,10.24918518975798,22.917782383594528,31.608898324644578
0.73,31.2221987232123,131.01042695241023,12.39275981473432,-9.583626934107189,-14.6208226589516,39.55168994974281,1.631994843230322,4.019182624996716,422.320318528234,25.470114631501808,10.311285996965427,72.0095535005157,-0.1613950505369741,119.8303150824051,396.8757918350633,15.288,0,9.484868380280778,0.0748579589366282,-5.564719868527109e-08,0.0047951719141124,-0.0093146438476764,-0.0003355134681596,17.424361565152548,10.11244268679732,23.19832535893,39.78886042628002
0.74,31.22219824282248,131.0104278835786,12.63802603638828,-9.428194484785438,-14.473078488013648,24.83857978545212,1.6658662120188743,4.035651059612894,294.48281347105944,25.747108354902487,10.440634856995027,72.01237343782998,-0.1782901282015067,119.8125521793786,405.5454213089864,15.288,0,9.515901847284583,0.075672266933609,-6.26699428507479e-08,0.0051366328865951,-0.0098620839490774,-0.0003633052188789,17.217976816314817,9.972143494325204,23.497782690293317,25.21937024331836
0.75,31.222197755804665,131.01042882542188,12.885884991567012,-9.271194034169492,-14.320911591630493,28.96031572846561,1.7010447341283088,4.05276658241475,330.24688556441487,26.03586798120925,10.573743358496316,72.01538746581879,-0.1961669109426151,119.79375743818532,414.6831275857343,15.288,0,9.54673440056588,0.0765211624529632,-7.010837547297469e-08,0.0054827334758887,-0.0104197862258658,-0.00039212407402,17.00714502974846,9.830585486944914,23.8096940063676,29.29195038319326
0.76,31.222197262027446,131.01042977818463,13.13642023141644,-9.124709218272695,-14.182076699058417,31.15536592147023,1.7353599008900609,4.069175457901292,349.27032420986166,26.304878756943687,10.700441538503984,72.01859812406991,-0.2150452774243771,119.7739100097858,423.2864866858658,15.288,0,9.577425005434169,0.0773120216960942,-7.796836563964143e-08,0.0058336839444922,-0.01098819116673,-0.0004215247337167,16.813131282663544,9.698228899953236,24.09984175442094,31.467864379291964
0.77,31.222196761415702,131.0104307419953,13.389676216869429,-8.982726129267217,-14.047932203288376,29.142030193715552,1.7698148168063783,4.085507386031153,331.7687666960708,26.5687578803668,10.825460817090216,72.0220077570333,-0.2349454152958267,119.75298873652476,431.8110334540791,15.288,0,9.60797694456699,0.0780878054520678,-8.625580372924477e-08,0.0061895840327693,-0.0115675738799643,-0.0004517165621746,16.62551526991745,9.56993167653994,24.38415605844681,29.48018892236838
0.78,31.22219625402277,131.01043171671589,13.645607497824887,-8.836931920579369,-13.906165209362788,23.96949156508609,1.8060129695907503,4.102744483220045,286.8734378128899,26.850237308682416,10.956114136793031,72.02561879650065,-0.2558877544407856,119.7309722026915,440.99819888127166,15.288,0,9.638346968855732,0.0789153249424257,-9.497665011149469e-08,0.0065503175124946,-0.0121578702871065,-0.0004830956268173,16.429575350406626,9.438461329031124,24.687244869086616,24.385051179557856
0.79,31.22219573992656,131.01043270215715,13.904151336979352,-8.690242511238704,-13.761045533122813,33.97424418908612,1.8434809731906627,4.120582342062618,373.6203323159534,27.142051163583297,11.09004280464364,72.02943361132354,-0.2778930977116449,119.70783860890111,450.62481677823774,15.288,0,9.668526751333795,0.0797732254847518,-1.0413690872126217e-07,0.0069157653754938,-0.012759009005983,-0.0005155784522529,16.230426825614398,9.306339613112923,25.00119286644261,34.272830188881194
0.8,31.222195218881065,131.0104336988053,14.16547308559448,-8.55812669739007,-13.636026994595031,34.416936102853086,1.878949586602202,4.1370299399499295,377.42502064505743,27.39854965215168,11.212599393593756,72.03345460333924,-0.300982950958734,119.68356542356236,459.17054903643776,15.288,0,9.698578123522104,0.080527337830821,-1.1374245624153413e-07,0.0072863336956219,-0.0133717636518528,-0.0005483244032696,16.055922685121388,9.18724659829142,25.2767706215768,34.71557228364394
0.81,31.22219469098024,131.01043470643936,14.429499385685892,-8.420829982470435,-13.501289255399582,22.48010616763732,1.9165545233210648,4.15460450534137,273.9374926939919,27.67740798575043,11.342297186606457,72.0376841742107,-0.3251788666839683,119.65813006572562,468.5529714342322,15.288,0,9.728485607091963,0.0813471753335228,-1.2379938222042348e-07,0.0076618170008912,-0.0139959326339522,-0.0005824345406576,15.87060011504159,9.063743178593802,25.5762027913413,22.94099154668147
0.82,31.222194156407927,131.01043572465028,14.69609344583538,-8.282933740343914,-13.363729027253436,28.803835731149885,1.955410429899246,4.172755001780928,328.72500443277005,27.96572695957725,11.47497449653837,72.04212451363787,-0.3505025468976379,119.63150981261133,478.35351826994895,15.288,0,9.758235680320553,0.0821948261259285,-1.343137659111402e-07,0.0080419265049269,-0.0146311716610177,-0.0006176821142276,15.68266193559456,8.939862704462138,25.88553856920609,29.170129706281962
0.83,31.222193615133463,131.01043675347765,14.96526996993079,-8.161062726416825,-13.249190890797315,36.53632560875214,1.9915283550000191,4.1890864678000765,395.68750322465047,28.209735387782214,11.593434328975496,72.04677787356924,-0.3769760351346282,119.60368158254737,486.7248773558216,15.288,0,9.787803513905864,0.0829122497167205,-1.4529145656001714e-07,0.0084267402222232,-0.0152777313529059,-0.0006528692359247,15.522596696145587,8.830577685913417,26.147055580910653,36.8295766960772
0.84,31.222193067034432,131.01043779315648,15.237109700917772,-8.03841943559739,-13.131862418144587,22.655762433850576,2.0287464725215,4.205908517701394,275.4593748256452,28.4618180302408,11.714451797963152,72.05164639209087,-0.4046211031983212,119.57462258331948,495.4495713727719,15.288,0,9.817201761050914,0.0836534114656846,-1.5673798649052108e-07,0.0088163879470637,-0.0159359581007918,-0.0006891433636781,15.35985396047868,8.72088703887976,26.41708189068,23.131991919593013
0.85,31.22219251240807,131.01043884304255,15.51139657837332,-7.906930298070672,-12.998961597400363,24.67716611805041,2.0692370553798884,4.224497409940759,292.96093233939376,28.750169197085057,11.84699636479873,72.05673202336311,-0.4334596184317338,119.54430993493212,505.526063461112,15.288,0,9.846431548660837,0.0845011788757107,-1.6865928385023258e-07,0.0092103608176898,-0.0166051407736652,-0.0007272133743513,15.179421213968004,8.603430176359401,26.72576863967428,25.121517628833818
0.86,31.22219195106064,131.0104399035205,15.78826192242388,-7.785608144738803,-12.880371802265186,30.83188085452876,2.1081810808515047,4.241989872745057,346.2265619465587,29.01065336865824,11.97060307721796,72.06203677058438,-0.4635143426403341,119.51271982561052,514.7142761013557,15.288,0,9.87551305499782,0.0852670483663298,-1.810608139934052e-07,0.0096090091332466,-0.0172859890773935,-0.0007655426250816,15.016452693369828,8.495430107135043,27.0044078164569,31.193649715574946
0.87,31.22219138300676,131.0104409745398,16.067690184918053,-7.669900816151388,-12.769135570659808,28.72243264237304,2.146598577911695,4.25899841881752,327.964078366998,29.257247109899964,12.089746675587232,72.06756269997939,-0.4948080957761751,119.47982837869807,523.4876726630716,15.288,0,9.90444481604126,0.085992098758415,-1.9394823276548697e-07,0.0100122855959092,-0.0179785604080687,-0.0008044300680589,14.86270024949613,8.39283816380127,27.268038613387425,29.11571894839348
0.88,31.222190808273808,131.01044205602437,16.349657256133952,-7.5508028718768,-12.65091654284801,24.852237656803368,2.1869620855152125,4.276969585026889,294.4828134710418,29.52198576364339,12.214620177406182,72.07331159642777,-0.5273637555786482,119.44561167597617,532.989817257944,15.288,0,9.933219897966016,0.0867704874063642,-2.073271294397984e-07,0.0104200780437499,-0.0186828042247373,-0.0008447464668434,14.701349748975462,8.2874362918187,27.55089203205559,25.31223001920142
0.89,31.222190226937023,131.01044314779747,16.6341050485459,-7.428609306336489,-12.526061724011344,27.22761181576755,2.2293262562531133,4.295919200222532,315.028134248087,29.80500832390456,12.345243259702087,72.07928529330422,-0.5612045823661644,119.41004539862172,543.2433389032186,15.288,0,9.9618359306964,0.087602623358791,-2.21203116853066e-07,0.0108322697016861,-0.0193986599267937,-0.0008865570622731,14.53284167030982,8.17944927493049,27.85305527268204,27.654432963302373
0.9,31.22218963890828,131.01044425002644,16.921091693956583,-7.320737252238646,-12.422941988082364,30.044060289069456,2.268447061829637,4.3128036763542,339.37814235421445,30.03955626068385,12.460426191248464,72.08548563567305,-0.5963546374377336,119.37310439524184,551.811784427861,15.288,0,9.990278240338192,0.0882922905302949,-2.3558166168210402e-07,0.011249018701263,-0.0201265352792212,-0.00092788502023,14.39025014396412,8.08503140016022,28.10341881869768,30.436683233827203
0.91,31.22218904425293,131.0104453625583,17.210567224979908,-7.209516097099085,-12.312929641471628,22.9124772380986,2.309552037428506,4.330654615927855,277.7421810230789,30.29235675499824,12.58135288078028,72.09191423381334,-0.6328373654112808,119.33476417049968,561.1229047438745,15.288,0,10.01855605313096,0.0890356127765988,-2.5046818427608295e-07,0.0116701590729515,-0.0208662927906526,-0.0009706971991294,14.240151029724164,7.987863337618238,28.373098964081198,23.432247293045407
0.92,31.222188443171586,131.0104464849529,17.502384746548564,-7.095265864167257,-12.196424381843183,27.22613446386754,2.352682138942931,4.349479227645864,315.02813424806214,30.56337951529916,12.707983646465507,72.09857264120512,-0.6706765693063325,119.29499986052843,571.1924360783901,15.288,0,10.046666750023755,0.0898325015036958,-2.658683778085186e-07,0.0120953098797642,-0.0216174155864395,-0.0010150329480283,14.083042910039213,7.888190570906216,28.662005323174306,27.671564477694787
0.93,31.222187835562888,131.01044761741022,17.796613539785415,-6.993566317392458,-12.099320211228964,32.3346550122082,2.3926678626863893,4.366321805967123,359.1625070654728,30.788542387028645,12.820044882153388,72.10546234494387,-0.7098963781767421,119.25378626769792,579.6230987214864,15.288,0,10.074624854668034,0.0904946051883764,-2.8178714095575125e-07,0.0125246799511667,-0.0223804070345644,-0.0010587788550668,13.948964156543354,7.800639623322279,28.902079729669943,32.7157384201078
0.94,31.222187221307752,131.01044876017227,18.093337081913536,-6.883638438306561,-11.987084798474456,23.522867434403967,2.436451714843024,4.385139477106321,283.0687504837787,31.05346304188324,12.944619575110284,72.11258467294992,-0.7505207448949663,119.21109838829533,589.6239675134314,15.288,0,10.102430053382424,0.0912735734935007,-2.98229297246029e-07,0.0129583652792628,-0.0231555884874827,-0.001104834874345,13.797849314190271,7.705724573928111,29.184242254864436,24.05184062663356
0.95,31.22218660069672,131.01044991260727,18.39234390072873,-6.77668433881947,-11.878401164273615,30.395700872244355,2.4802697522571133,4.403780119496106,342.4218736174873,31.311702162494367,13.067004885972548,72.11994099758716,-0.7925746067118946,119.16691019274874,599.4540976926802,15.288,0,10.130071162886397,0.0920329106898763,-3.1520067789671374e-07,0.0133958925492274,-0.0239422737421301,-0.0011516035051752,13.651352536381912,7.613974788820736,29.45918444952669,30.81304348648129
0.96,31.22218597342296,131.01045107535836,18.693852990509164,-6.67646170572392,-11.779758448938509,29.77769210282956,2.522657226096558,4.42142437576795,337.09533515678345,31.545654919332502,13.1816705876925,72.1275325648255,-0.8360829484211753,119.12119561149709,608.4278691964413,15.288,0,10.157569945739093,0.0927208717011136,-3.327055065728769e-07,0.0138377749488725,-0.0247415242559293,-0.0011984443728387,13.516932030750077,7.529024261040146,29.70830291106392,30.209663022978756
0.97,31.222185339501767,131.01045224838344,18.99785203786064,-6.575131214445446,-11.67791096492274,19.10530549776687,2.566454483161968,4.439669264128724,245.02188719299323,31.789576905569422,13.299418942451668,72.13536055700845,-0.8810714147152413,119.07392789348914,617.8553588869136,15.288,0,10.184923728936846,0.0934381422734096,-3.5074896233329585e-07,0.0142839430678317,-0.0255533802797643,-0.0012466147102964,13.37927946166579,7.443444141484289,29.96788902903114,19.781558329716912
0.98,31.22218469922231,131.0104534310544,19.30413087619475,-6.466579268354426,-11.5622275591838,27.746195554072862,2.614201504392196,4.459913249812481,319.5937466429581,32.07299804311455,13.429507397347235,72.14342615358372,-0.9275657543798016,119.0250801799407,628.902994065818,15.288,0,10.21211398253404,0.0942715192521523,-3.693369685545673e-07,0.0147338250714706,-0.0263769744802568,-0.0012973037716523,13.226189822074536,7.351316358162753,30.269109240984328,28.22368231514577
0.99,31.22218405242809,131.01045462369635,19.61280125378445,-6.374095447687737,-11.473040616713218,30.302773560739524,2.65650885102223,4.476936467491359,341.6609485517054,32.285784597090334,13.537315353351632,72.15173039209162,-0.9755924241360396,118.97462488659956,637.2566283299773,15.288,0,10.239161456076747,0.0948972890221929,-3.884739231902226e-07,0.0151877609148874,-0.0272130756798786,-0.0013461046831262,13.10400002601558,7.275121298013257,30.495623141576203,30.746675997300386
1.0,31.22218339911529,131.01045582631346,19.92386653389603,-6.274626782253181,-11.370432077516618,27.12351324044071,2.7027058582915138,4.495914411023295,314.2672081822764,32.53704226305249,13.657135322062215,72.16027404884416,-1.02517698758993,118.92253537512724,647.1945317448104,15.288,0,10.26605798756049,0.0956361438917265,-4.081645780000593e-07,0.0156456279682362,-0.0280616329528204,-0.0013974356993312,12.966844093987572,7.192630868873351,30.76267932382493,27.62612596532588
1.01,31.22218273946261,131.01045703851395,20.23719649283604,-6.177917421339392,-11.271375729810709,28.35657980487383,2.748765955275049,4.51461151735273,324.9203161036979,32.77995276245983,13.774247938815112,72.16905794419586,-1.0763461545298747,118.86878381334276,656.8743042278097,15.288,0,10.292799801009384,0.0963504714946584,-4.284142559283309e-07,0.0161071169474407,-0.0289222442005522,-0.0014493518483927,12.83419546012536,7.113284654089505,31.020846811902917,28.844983093419753
1.02,31.222182073390435,131.01045826046533,20.552849714248303,-6.084608404110311,-11.177101319318233,23.673217676361386,2.794317043858413,4.5328266398593415,284.59063161540416,33.010442605119984,13.887387093163753,72.17808270161197,-1.1291263789107813,118.81334264888584,666.1241124801033,15.288,0,10.319393510975472,0.097028298393148,-4.4922721297383373e-07,0.0165723321189027,-0.0297952693854979,-0.0015016527032645,12.707433858517062,7.037761583344038,31.26586199729278,24.264706061294152
1.03,31.22218140096593,131.0104594920202,20.87077851563697,-5.98718117284269,-11.074219762817084,19.340447535361747,2.8428224868080463,4.552442201031018,247.30469339049705,33.26753822192543,14.00875964603312,72.18734879307857,-1.18354413959446,118.75618431399566,676.5198237750316,15.288,0,10.345834328667875,0.0977843358306469,-4.7060813547669634e-07,0.0170410877470731,-0.0306805379371595,-0.0015561062321907,12.571271347701895,6.958668611433726,31.5388144923459,20.071354726408227
1.04,31.222180722248293,131.01046073304624,21.190940324448665,-5.896136996244202,-10.981561627282284,30.73281879801808,2.889359023394876,4.570777125448462,345.46563688072297,33.49577902045751,14.121014146513396,72.1968566961747,-1.2396269220545884,118.69728019477824,685.8134663605708,15.288,0,10.372126083349023,0.0984555669832364,-4.925616895983885e-07,0.0175132863079354,-0.0315780375500676,-0.0016101474188157,12.447171929767334,6.886402134703485,31.781341230699116,31.20491227945385
1.05,31.22218003695445,131.01046198415963,21.5135453313443,-5.8020880241020265,-10.882229624406536,18.53326302359416,2.9384319051353742,4.590269099922296,240.45625879819983,33.745384096993526,14.239853012830176,72.20660670191174,-1.2974020712587606,118.63660183678516,696.0511213071824,15.288,0,10.398283345205783,0.0991896028790231,-5.150910837872422e-07,0.0179893893279907,-0.0324888209250023,-0.0016661927846509,12.315888012707749,6.81167164450964,32.046266196164495,19.318043140353048
1.06,31.22217934531867,131.01046324484946,21.838423191637936,-5.705802635965646,-10.777505938951409,26.394799770923232,2.989845129410264,4.610792563246176,308.17968365593924,34.01342751498964,14.364327825566487,72.21659913976463,-1.356898215572768,118.57411944880091,707.1305975004145,15.288,0,10.42429501239786,0.0999778436799879,-5.382019389769885e-07,0.0184689170325624,-0.0334121672385966,-0.0017241407993338,12.178903124315866,6.735193468064948,32.33046658694245,26.96078702312441
1.07,31.222178647225647,131.01046451536638,22.16566074177756,-5.618826826066365,-10.6886542024548,31.07691015498538,3.0374598227199936,4.629062608353109,348.5093681440308,34.233398712955335,14.473725699203106,72.22683428351912,-1.4181447318875424,118.50980246604624,716.2839504363861,15.288,0,10.45017612548906,0.1006247906711288,-5.618981782776604e-07,0.0189521193498737,-0.0343487381221978,-0.0017806355976451,12.060315638036316,6.668654216461573,32.56415041358196,31.566259322062926
1.08,31.222177942578224,131.01046579592804,22.49533367074317,-5.53125831540296,-10.597566083991463,20.90145597145577,3.0864087055771,4.6478273984893725,261.00157857466235,34.46113670567164,14.58545350660444,72.2373121654493,-1.4811705964444992,118.44362075685238,725.8228371275486,15.288,0,10.475928371513232,0.1012945748307162,-5.86183795932769e-07,0.0194390799738473,-0.0352988977646411,-0.0018384795494927,11.93956940088554,6.602121290655729,32.80595034614942,21.633286388126855
1.09,31.222177231647866,131.01046708594237,22.827244320414,-5.436471622167037,-10.491751197045476,19.21368233039749,3.1405841819749547,4.669128818628753,246.54375332474407,34.7378447972669,14.712277382828784,72.24803270469273,-1.5460052185153332,118.3755437469278,737.5022111672946,15.288,0,10.50153654404248,0.1021083091008537,-6.110645665051861e-07,0.0199292002702192,-0.0362616901031445,-0.00189990722603,11.80257543808074,6.528762343814817,33.098999106835315,20.02072979744868
1.1,31.22217651450961,131.01046838524633,23.161339903620924,-5.347195637776736,-10.395003984914908,38.58805488372689,3.1928229124756875,4.689166531574365,413.1890617385841,34.98684466221468,14.830362734103703,72.25899570105902,-1.6126784354063672,118.30554042553088,748.0888856955147,15.288,0,10.527005700150053,0.1028406062265338,-6.365448668580721e-07,0.020422361639814,-0.037237074688312,-0.0019608142523373,11.67621610566896,6.461612467301238,33.362944240696294,39.002825290237446
1.11,31.22217579077503,131.0104696947043,23.497914590963727,-5.267398386597025,-10.315110156888023,28.22813468366437,3.240390451303392,4.706527326561703,324.1593910376397,35.180307742208505,14.931137166791148,72.27020086467331,-1.681220740165773,118.2335791069939,756.3605637437962,15.288,0,10.552360247595225,0.1034096658907127,-6.626266902967989e-07,0.0209193041836109,-0.0382267106860552,-0.0020195682966726,11.569200737093968,6.404950342031806,33.5687526130833,28.80067911476508
1.12,31.222175060510807,131.010471014182,23.836925342165628,-5.173154435313364,-10.206410125672663,10.601875232992484,3.2981088173359088,4.728953611691296,172.73281794065943,35.472208147010186,15.062278663238928,72.28164766040774,-1.7516622804632351,118.15962848098305,768.939046455033,15.288,0,10.5775891362477,0.1042680823898746,-6.89314718899487e-07,0.0214197580052799,-0.0392302986970625,-0.0020849724339683,11.430158050189464,6.333837553615517,33.877454507369464,12.068151577124661
1.13,31.222174324288428,131.01047234241088,24.177946155629705,-5.088386084832501,-10.114684365839864,33.26554255417976,3.3510314246167985,4.748630791366865,367.5328077900705,35.7077472134937,15.17582811143731,72.29333570879659,-1.8240355868278064,118.08365474851652,779.1590933938174,15.288,0,10.602675620443287,0.1049608369817609,-7.166165306394968e-07,0.0219226311419085,-0.0402458678215274,-0.0021480205678227,11.310563428339767,6.273261303532252,34.12717586092793,33.76944221371492
1.14,31.22217358147611,131.0104736808125,24.52145941346189,-5.010321144538254,-10.03489717044422,18.377335999211272,3.400523870544319,4.7662990823500335,239.69531773195544,35.90181912277031,15.27647054506947,72.30526410382487,-1.8983710093329773,118.00562641482875,787.6255925703455,15.288,0,10.627653080351273,0.1055317091202198,-7.445317177147882e-07,0.0224291349047162,-0.0412760657588754,-0.0022095200899423,11.204692923156554,6.220521430820736,34.333587457615025,19.287499785209565
1.15,31.22217283254753,131.01047502834368,24.867115198877208,-4.918234923622941,-9.926487174202538,18.10224102751562,3.4608336899617584,4.7892881315157645,237.41251153546767,36.1985866978624,15.408648407504955,72.3174317727501,-1.974699137111951,117.9255117465249,800.6739888279839,15.288,0,10.652491182160684,0.1064044585098911,-7.730673073588926e-07,0.0229381534673688,-0.042318879072592,-0.0022782670345202,11.067138877186435,6.153456466660076,34.64712631931504,19.042210503366512
1.16,31.222172077636248,131.0104763847093,25.214816320409028,-4.843296379170512,-9.850761198651185,47.52140221881768,3.510140541619134,4.806378757416357,490.0437743845894,36.37856891401393,15.504691339418253,72.32983776469482,-2.0530528646795703,117.84327660478225,808.6288026790234,15.288,0,10.677194852791954,0.106933929428983,-8.022274582463976e-07,0.0234495198136777,-0.0433741711409831,-0.0023405591270281,10.966463437339518,6.1055494947952855,34.838826824160606,47.892651129628554
1.17,31.222171315924225,131.0104777517755,25.56519526358729,-4.7614981269034535,-9.760382853989244,8.331243781589366,3.565442695013039,4.826286810988453,153.70937929486794,36.611832918760186,15.617039020366036,72.3424806303145,-2.133463091239482,117.7588889603296,819.0045455303175,15.288,0,10.701771649057209,0.1076200289093393,-8.320099632245083e-07,0.0239647813721421,-0.0444453684710836,-0.00240724547226,10.849751331895714,6.051042485773757,35.08608003138982,10.267183106461793
1.18,31.222170548507727,131.0104791270803,25.917423127643914,-4.670664262398549,-9.650614177113995,23.040034425051832,3.628984749293053,4.850101638936351,280.02501822196746,36.919260304058575,15.751981291455508,72.35535895188865,-2.215962472312837,117.6723149525356,832.78837992675,15.288,0,10.726196445204572,0.1085241392812458,-8.624266569468666e-07,0.0244815314281125,-0.0455277481904007,-0.0024797181099604,10.711800770859044,5.987250531285298,35.41050305181372,23.823018333666038
1.19,31.22216977490236,131.0104805117316,26.2718765184758,-4.60250802562754,-9.585619214293889,40.329240256411325,3.6758627599311375,4.865229737560907,428.4078130529292,37.05783619449288,15.834958400383222,72.36847122793073,-2.300584692261789,117.5835196575808,839.0232621766437,15.288,0,10.750512785796868,0.1089319187570771,-8.934763183946588e-07,0.0250009473120168,-0.0466239725350499,-0.0025417479170655,10.62398639346076,5.949326989116617,35.55914481588614,40.7876212482224
1.2,31.22216899470469,131.01048190668104,26.628879129670675,-4.517810420513904,-9.485872042723228,4.03408336381368,3.7371451409476952,4.88735443583268,117.1843741360236,37.32940093577611,15.958590726617167,72.38181537426969,-2.38736082395163,117.49247090642852,851.3360706397132,15.288,0,10.774723687398676,0.1097306284134409,-9.251594351822658e-07,0.0255236178202604,-0.047735564438536,-0.0026138117989782,10.497879584141486,5.893808622475276,35.846161307315704,7.357058907753875
1.21,31.222168208999207,131.01048330946313,26.987601017774672,-4.434958759337162,-9.38867361202947,32.3320795026676,3.798284887594004,4.909115262865523,359.92343213200894,37.59299584522639,16.079565765470303,72.39538955615498,-2.476325476170276,117.39913283264012,863.3718843786036,15.288,0,10.798788429426136,0.11050591905424,-9.57488104474954e-07,0.0260472099063902,-0.0488578350287956,-0.0026861746224242,10.37495163808373,5.841026445019912,36.12481746855405,32.922480856069186
1.22,31.222167416977783,131.01048472195302,27.34867777706173,-4.367234063355111,-9.321850977599327,23.358409158366616,3.8473261709173214,4.924581501162171,283.0687504825761,37.73592792442385,16.163525179775384,72.40919147834447,-2.5675116002632894,117.303471325958,869.9194319627702,15.288,0,10.822756286647364,0.1109265248992262,-9.90457291306776e-07,0.0265735348409668,-0.0499948842740953,-0.002750777058965,10.285960788328188,5.806375188014533,36.27810641250707,24.17992349112543
1.23,31.222166618981383,131.01048614339965,27.71185828949704,-4.284742106775144,-9.223122813362508,8.963124122854019,3.910591602912808,4.946836435706008,159.79687382222795,38.006873688696615,16.286415560799018,72.4232184003385,-2.66095052632141,117.2054539900184,882.4256185009228,15.288,0,10.846599403148367,0.1117234405740334,-1.0240731655392523e-06,0.027101597507389,-0.0511448692391242,-0.002825484430209,10.161992883728006,5.755616747662971,36.56435771638377,10.95908351314508
