Time,Latitude,Longitude,Altitude,Angle of Attack,Angle of Sideslip,X-Acceleration,Y-Acceleration,Z-Acceleration,Thrust,True Velocity,Ground Velocity,Pitch,Roll,Yaw,Dynamic Pressure,cp,parachute_deploy_gain,Wind Speed,Mach,omega_x,omega_y,omega_z,Cmq,Angle of Attack(total),Angle of Attack(gust),True Velocity(gust),Acceleration
0.0,31.222216000000007,131.010392,3.000000004412624,0.0,0.0,0.0,0.0,0.0,2.2828121974499247,0.0,0.0,71.99999999612658,-1.0292491154817412e-14,119.99999999354436,0.0,15.288,0.0,0.0,0.0,0.0,0.0,0.0,-0.0,0.0,90.0,0.0,0.0
0.01,31.22221599999862,131.01039200000284,3.0000009727369523,0.0,0.0,0.0,0.0,0.0,34.24218696174923,5.916279387578309e-11,5.734623670548936e-11,71.99999999613168,-5.86671995824671e-13,119.9999999935449,2.1432944861733093e-21,15.288,0.0,0.0,1.7386402909615473e-13,-3.4220131069073734e-19,7.115076756936125e-19,5.488773498207866e-19,-1.1574302492039043e-31,0.0,89.99999999962336,5.916279387578309e-11,0.0
0.02,31.22221599999738,131.01039200000537,3.0000018317022668,0.0,0.0,0.0,0.0,0.0,25.871876237766408,1.2265415415436536e-10,1.1895038237325684e-10,71.9999999961369,-1.1836364828043265e-12,119.99999999354544,9.211895886571454e-21,15.288,0.0,0.0,3.6044858651615574e-13,-6.979551485375437e-19,1.4162390878091906e-18,1.0909784360635388e-18,-4.776231873571785e-31,0.0,89.99999999921916,1.2265415415436536e-10,0.0
0.03,31.22221599921969,131.01039200159065,3.0001883335529382,18.80143492628821,-0.0001350810307892,10.931161642028636,-1.75114298675875e-05,3.026590975169265,180.34219359854663,0.0798232026864394,0.0478175828508887,71.99999999765336,-5.341802909786072e-12,119.99999999436793,0.0039016003969354,15.288,0.0,0.0,0.0002345795854893,3.788270153300133e-17,-7.771883375645477e-10,1.1422790048099072e-11,1.7057759223764537e-13,18.80143492675591,89.51882325913425,0.079801984207741,11.342422482672777
0.04,31.222215995131297,131.01039200995308,3.001692634342189,9.19442604083399,-4.49173898918486e-05,52.29595764159784,6.445392950801871e-06,3.026413589912948,548.6359724538078,0.3504174083926908,0.1601447499964056,72.00000000319055,-3.111420077280171e-11,119.99999999870242,0.0751892535633216,15.288,0.0,0.0,0.0010297854387864,2.0082066977226968e-15,-1.520937588847922e-08,2.5623342884322286e-11,1.4654248781413086e-11,9.19442604094277,87.798916624545,0.3504103527855857,52.383455068075136
0.05,31.222215983575865,131.01039203366796,3.0074067499493786,5.158590039700252,1.707592688632746e-06,76.26884281015512,5.843947534199429e-05,3.0258124765658088,761.6984298824644,0.9592973585397016,0.3772700771701255,72.0000000004862,-1.3608731808076822e-10,120.0000000109612,0.5634958029902841,15.288,0.0,0.0,0.0028191251099456,2.086299069701397e-14,-1.0551247853743037e-07,3.973493515691201e-11,2.783064866637575e-10,5.158590039700515,83.94063169874748,0.959297626767734,76.32884071402438
0.06,31.222215961742712,131.0103920785344,3.019291017943491,4.109521257467909,3.140103977270004e-05,57.06876634333886,0.0001151069734147,3.024834864051463,590.4875390737208,1.6257536642597354,0.6118982818704327,71.99999992547217,-3.5903296759057166e-10,120.00000003412836,1.6184272268450337,15.288,0.0,0.0,0.0047776672697797,1.0694899894620088e-13,-3.741090980393931e-07,5.521401959501359e-11,1.6723176417636091e-09,4.109521257587776,79.78719176344794,1.6257585967235286,57.148873286519276
0.07,31.222215929936205,131.01039214392435,3.0371334573469446,3.649087515174788,5.707077112564807e-05,86.89643797254193,0.0001728541558773,3.0234947746384675,855.2937749779139,2.3057260079826607,0.8506307413593818,71.99999965378231,-6.907496536790437e-10,120.00000006788592,3.255354923652711,15.288,0.0,0.0,0.0067759305364855,3.495199904512709e-13,-9.036515915819006e-07,7.594816279105379e-11,5.728932851326001e-09,3.6490875156204896,75.6601668283889,2.305734972638426,86.94902215090157
0.08,31.222215886364623,131.01039223353447,3.0621840248716574,3.4254446680114707,8.413075603463509e-05,17.831756866644035,0.0002285946601282,3.021841001032126,241.2171988638848,2.961944911520492,1.0819695676346892,71.99999900671328,-1.141745983122182e-09,120.00000011415082,5.371998197385977,15.288,0.0,0.0,0.0087043901031071,8.800530155962314e-13,-1.829098470920821e-06,1.0943386634701918e-10,1.4896287129277132e-08,3.4254446690434226,71.81713637501419,2.9619581267487467,18.085991154451033
0.09,31.22221583454733,131.01039234010327,3.0919888289029,3.389560809024919,0.0001118726864415,54.09031716446879,0.0002748660999733,3.020060228038602,563.0937377043176,3.504225426410036,1.2780161667917422,71.99999774508822,-1.634190085504106e-09,120.00000016921716,7.519080503822694,15.288,0.0,0.0,0.0102980157586766,1.865782139518716e-12,-3.1503298654458527e-06,1.6284478329871028e-10,3.03536411425607e-08,3.389560810868955,68.76526501308032,3.504242999330529,54.17456206384468
0.1,31.22221577423132,131.0103924641528,3.1267248829165366,3.4447939461814814,0.0001419149103147,51.372195336549765,0.0003131602029306,3.0182021883815127,538.7437595981919,3.950569597142709,1.4443465951180965,71.99999562056465,-2.1287748602259068e-09,120.00000023339832,9.55649523509932,15.288,0.0,0.0,0.0116097108366932,3.485956000178229e-12,-4.949356763187612e-06,2.4573266549165286e-10,5.3761299442583966e-08,3.444793949101151,66.34639928474206,3.9505918890846927,51.460781166288626
0.11,31.222215706113143,131.01039260424562,3.165907002780892,3.4691423802630394,0.0001702373452339,40.591037561894986,0.0003534470100582,3.016051659024047,442.8656393052949,4.421478635995476,1.6182620895289603,71.99999235067894,-2.5564479031457968e-09,120.00000030601664,11.970509656144712,15.288,0.0,0.0,0.0129935974697161,5.942887149865172e-12,-7.273722517324353e-06,3.67769289312894e-10,8.842679949465076e-08,3.4691423844348632,63.88798785789768,4.421505376815134,40.70293476011277
0.12,31.222215630588888,131.0103927595646,3.2092596514826863,3.4852659299808075,0.0001974376474727,44.30042894095728,0.000394069215595,3.013641598889868,475.58594813540446,4.896982486381051,1.793579340340896,71.99998761802138,-2.8337988279882726e-09,120.00000038673312,14.683611096353944,15.288,0.0,0.0,0.0143909889875706,9.464337642181618e-12,-1.017558359402848e-05,5.395790443954697e-10,1.3700793350599625e-07,3.4852659355662303,61.5068242157714,4.897013499814194,44.40281567867803
0.13,31.222215548046687,131.0103929293088,3.256512891171917,3.5606043721293616,0.0002276507019012,48.86766833507025,0.0004268800875964,3.0112558910133567,515.9156326236895,5.278566579338586,1.939796541405244,71.99998107389406,-2.8573058577484587e-09,120.00000047523812,17.061052093156064,15.288,0.0,0.0,0.0155123760833565,1.4300406003001044e-11,-1.3705268062305584e-05,7.724776992181392e-10,1.989112774124932e-07,3.560604379397528,59.67313531776262,5.27860233862722,48.960358155653
0.14,31.222215458587108,131.01039311327068,3.30759734332425,3.6000732663755977,0.0002555702913645,45.540290862247225,0.0004629468001456,3.0085404980032777,486.2390860568404,5.70011779273801,2.098362647205908,71.99997235012626,-2.508533681468686e-09,120.00000057154703,19.894788765881632,15.288,0.0,0.0,0.0167512184495524,2.071534240530911e-11,-1.7917736259613292e-05,1.0787346240473087e-09,2.8081526258393346e-07,3.6000732754351943,57.72385750323359,5.700157937625502,45.639559681930805
0.15,31.222215362317904,131.01039331122794,3.3624387479639086,3.651605404442164,0.0002842753491325,44.01308509501,0.0004965057129938,3.005703619811542,472.54218587214,6.091938849578711,2.2476968067377374,71.99996103728932,-1.6446954747148112e-09,120.00000067569304,22.723773683610247,15.288,0.0,0.0,0.0179026934683374,2.9002783512213203e-11,-2.287326399669318e-05,1.47199345427166e-09,3.831202693354572e-07,3.651605415492516,55.98561718911576,6.091983503446133,44.115597174664394
0.16,31.22221525912812,131.01039352340948,3.421115382839859,3.67540086436193,0.0003108411545024,34.83804992586084,0.0005330990866742,3.002517946501868,391.1218908297564,6.521183188362317,2.4085903880902046,71.99994669525161,-1.0153513453738144e-10,120.00000078796704,26.03872642002185,15.288,0.0,0.0,0.019164148528834,3.9478358970291335e-11,-2.864207894220033e-05,1.9677461746207517e-09,5.135466997084602e-07,3.6754008774883777,54.15946979122355,6.521232015176687,34.96719658394182
0.17,31.2222151493826,131.01039374906244,3.4833737923187487,3.7139589864597298,0.0003384978477213,43.96471427482637,0.0005668629535037,2.999235483723449,471.78125980632376,6.916861975403744,2.559060925010733,71.99992884100092,2.3206494032971838e-09,120.0000009081849,29.29426197817256,15.288,0.0,0.0,0.0203269651395979,5.248754693205839e-11,-3.5267097947693114e-05,2.580363454062817e-09,6.706952682968329e-07,3.713959001863866,52.549031795895466,6.916915146521327,44.06689817851128
0.18,31.22221503253009,131.01039398932429,3.549599475912623,3.7380363034619775,0.0003650282082698,36.67395661481795,0.0006021794701355,2.9956556354306425,407.10156721191447,7.332140201215607,2.71556808256092,71.99990696207136,5.837017536380516e-09,120.00000103716444,32.917216366714264,15.288,0.0,0.0,0.0215473823438242,6.839750892601699e-11,-4.285557247677198e-05,3.331016495775474e-09,8.639362741436378e-07,3.738036321259578,50.93050624815799,7.332197539712479,36.796100973258795
0.19,31.22221490871209,131.01039424390297,3.619694897703461,3.747799769666444,0.0003901520189829,41.42208371271829,0.0006393759928961,2.991742733214697,448.9531328318269,7.771071983754382,2.879366399937307,71.99988049019642,1.0709144790974043e-08,120.00000117502664,36.97605053227239,15.288,0.0,0.0,0.0228373144884866,8.761416506509219e-11,-5.146771415177372e-05,4.238406957677133e-09,1.0996552116864756e-06,3.747799789945131,49.29705748437159,7.771133268690212,41.529983675580546
0.2,31.22221477769685,131.01039451327668,3.693822889232993,3.7700519460961166,0.0004166800650969,37.99697972290605,0.0006740224661302,2.987733789228414,418.51563019916136,8.179966026035371,3.0338260708461373,71.99984881140107,1.723179577184912e-08,120.0000013223286,40.969302182777255,15.288,0.0,0.0,0.024038975990988,1.1057590044953188e-10,-6.120032215177249e-05,5.3263847350253015e-09,1.376394225587184e-06,3.7700519690893857,47.8457752505109,8.180031477986942,38.11426270718793
0.21,31.222214639876928,131.01039479663547,3.771710975053407,3.7926098867321474,0.0004432924407074,36.46301043881366,0.0007080907240332,2.983530483977461,404.8187610144644,8.582757448615462,3.1863584283669346,71.99981127559042,2.5745201416596626e-08,120.00000147900325,45.103059028532826,15.288,0.0,0.0,0.0252227064089584,1.3774582723633048e-10,-7.20875523136271e-05,6.61341033873124e-09,1.7010673350603349e-06,3.792609912601061,46.47936953648762,8.582827080829217,36.584868250565684
0.22,31.22221449507626,131.01039509434258,3.8534832466471007,3.782921298925821,0.0004660920499522,44.14577847155813,0.0007479176313898,2.978724032883548,472.5421858721365,9.056569122268344,3.360845972992861,71.99976720416048,3.661811567390422e-08,120.00000164562512,50.21995530074818,15.288,0.0,0.0,0.0266151520780326,1.6960703048385348e-10,-8.421592474264931e-05,8.124635526119773e-09,2.0969540034515424e-06,3.7829213275976334,44.9464484092354,9.056642335836344,44.24615863872642
0.23,31.22221434283448,131.01039540734791,3.9394622486964206,3.813874679301352,0.0004940771488601,36.66675459308932,0.000779455230549,2.974212905336642,406.3406421461021,9.430647902846331,3.5044030163419806,71.99971583979395,5.0272885112871524e-08,120.00000182313076,54.45382429059888,15.288,0.0,0.0,0.0277145095638672,2.0669790509245914e-10,-9.77285871729516e-05,9.894576563683824e-09,2.5339062472561444e-06,3.813874711257219,43.79476959007253,9.430725512303388,36.78718303164376
0.24,31.222214184153326,131.01039573358457,4.028950821673608,3.829256049377765,0.0005200487408944,37.802126339316736,0.0008136255607606,2.9692962675112065,416.2328240017114,9.837806876534357,3.658163422426286,71.9996564062533,6.718950080713476e-08,120.0000020109434,59.25679777340223,15.288,0.0,0.0,0.0289110855155543,2.4956955046738006e-10,-0.0001125744417092,1.1934277804843484e-08,3.0448209172448607e-06,3.829256084638984,42.59361542722471,9.83788856559955,37.91856374864305
0.25,31.22221401888584,131.01039607335582,4.122052964664892,3.851417709838087,0.0005469594058717,38.85163035360012,0.0008459008130282,2.964283881833675,425.36408079150686,10.22297576958679,3.8050691648373967,71.99958811418384,8.786880969336211e-08,120.00000220974424,63.98709205399403,15.288,0.0,0.0,0.0300430411774988,2.987811646313829e-10,-0.0001288461362054,1.4273117985167728e-08,3.621333387698252e-06,3.8514177486178034,41.50703126619192,10.223061685769354,38.96455005232871
0.26,31.222213847358866,131.0103964259872,4.218542267117083,3.8780574625554745,0.0005745172425185,42.3164797140743,0.0008766626387865,2.959162938653076,455.8015834241788,10.590779679138215,3.946551912391076,71.99951013710364,1.1286401474734325e-07,120.00000241975916,68.67355887153568,15.288,0.0,0.0,0.0311239685467471,3.5491769188178554e-10,-0.0001465721578858,1.6932703957058654e-08,4.267712643344226e-06,3.8780575050466,40.51245375834074,10.590869924095635,42.41981967733593
0.27,31.22221366913008,131.0103967923915,4.318728802515264,3.886188503202341,0.0005994342651313,38.70936050721014,0.0009111181036949,2.953518013741325,423.84219965987256,11.004860953238978,4.102320296019413,71.99942161756776,1.4276417094868828e-07,120.0000026420792,74.14786134434608,15.288,0.0,0.0,0.0323408987462391,4.1858405402174807e-10,-0.0001658847815307,1.995072923688136e-08,5.018832267232506e-06,3.886188549362022,39.43841359495857,11.00495511215316,38.8218734782956
0.28,31.22221348431185,131.01039717233687,4.422535913956003,3.90556090261878,0.0006261175699806,44.68030766832924,0.0009425767186621,2.947879457547137,476.3468732012221,11.38358114165448,4.247086834352694,71.999321619057,1.7823531611327881e-07,120.000002877279,79.33831935330025,15.288,0.0,0.0,0.033453914386159,4.904408325040897e-10,-0.0001868529238516,2.3357766479368094e-08,5.847713054408178e-06,3.9055609527288775,38.49894431917428,11.383679491972384,44.77744842575601
0.29,31.222213292835256,131.0103975659655,4.530013412817602,3.9242599519377537,0.0006528240665589,35.802573724660256,0.0009737210635801,2.942037024315898,397.97031042211177,11.759725774384751,4.391004157029451,71.99920917567837,2.1999186079018322e-07,120.00000312617878,84.66717879828003,15.288,0.0,0.0,0.0345593650464213,5.711677680739745e-10,-0.0002095620322847,2.7188189988316943e-08,6.77505090435382e-06,3.9242600061534456,37.60352534239979,11.759828319749328,35.92324968749781
0.3,31.222213095024976,131.0103979726075,4.64093665799555,3.936939025755682,0.0006785438093183,33.570228713727204,0.0010059102294455,2.93586442972183,378.1859457108711,12.149968255527943,4.539237002744259,71.99908328532703,2.6880857935396905e-07,120.00000338923812,90.3787563598417,15.288,0.0,0.0,0.0357062504417728,6.614698865958865e-10,-0.0002340353597042,3.1467140861055e-08,7.817263716758327e-06,3.9369390841381695,36.71173884615234,12.150074840940263,33.698361337808635
0.31,31.22221289105846,131.01039839189684,4.755183729044857,3.9598342215431432,0.0007060286581592,35.396825578217346,0.0010350810412898,2.9297385597941448,394.1656220930212,12.504537499407316,4.6763673222047455,71.99894291513503,3.255120771695107e-07,120.00000366712923,95.72967338626896,15.288,0.0,0.0,0.0367483036680869,7.620720834468404e-10,-0.0002603234137215,3.622454560346964e-08,8.948994505138873e-06,3.9598342843844345,35.934338386209795,12.504648402129598,35.5178635353378
0.32,31.222212681031937,131.01039882363492,4.872689374180126,3.985461429033668,0.0007340760463279,38.52097867048992,0.0010630242168685,2.9235095146848846,421.55939346242695,12.84534566718622,4.809181081594425,71.99878701464397,3.909756427278764e-07,120.0000039606604,101.01782231644016,15.288,0.0,0.0,0.0377499198995686,8.737098716736534e-10,-0.0002884807530145,4.1491545539590986e-08,1.0187112828155184e-05,3.98546149652875,35.21473736963424,12.845460975581933,38.631757748577954
0.33,31.22221246496604,131.01039926777932,4.9934410812554,4.010606629086,0.0007621365968788,38.18822026147908,0.0010905599149574,2.917102431053817,418.5156301991682,13.18247167592885,4.940798912752974,71.99861449732019,4.661299779655886e-07,120.000004270781,106.38859400029033,15.288,0.0,0.0,0.0387407190563976,9.971421990244511e-10,-0.0003185760672934,4.7302669734505256e-08,1.154498667827874e-05,4.010606701382261,34.52805863348922,13.182591392065536,38.299473293007864
0.34,31.222212242662028,131.01039972474007,5.117579377337869,4.019339771238816,0.0007871574969313,29.898022638335373,0.0011220389395318,2.910051232417875,345.46563688075645,13.569536737955724,5.0878303926024735,71.99842423285973,5.519675040347761e-07,120.0000045987411,112.72655675097128,15.288,0.0,0.0,0.0398782837956187,1.1331556132162459e-09,-0.0003507224668667,5.37022358302301e-08,1.308298593306914e-05,4.019339848191799,33.76700548046532,13.5696603843662,30.039310197084795
0.35,31.22221201433324,131.01040019407705,5.2449575244483055,4.033762873683395,0.000813261106463,32.76415525156106,0.0011515840876071,2.902959820469776,370.5765700527033,13.934300103976534,5.227895396154902,71.99821502296155,6.495674834876441e-07,120.000004945438,118.8669740701126,15.288,0.0,0.0,0.040950312688979,1.2825853697215452e-09,-0.0003849609961885,6.072234695821837e-08,1.4746020857580124e-05,4.033762955530055,33.07785186209504,13.934427850732408,32.89250745069162
0.36,31.22221177990305,131.01040067594835,5.375631006350063,4.051723629010647,0.0008401329464575,37.01692984301412,0.0011797030485285,2.8957873473716007,407.8625232777193,14.282998147928636,5.362923567977223,71.9979856440668,7.600645476620651e-07,120.00000531213882,124.88900300695136,15.288,0.0,0.0,0.0419751331662584,1.4462801652534363e-09,-0.0004213876232777,6.84067806399068e-08,1.654507199147348e-05,4.051723715967022,32.44322602189087,14.283130115703262,37.13002398000203
0.37,31.222211539445663,131.01040117020102,5.509550188388412,4.071639898917391,0.0008674922629137,35.12417761390579,0.0012067983861697,2.88849906286036,391.1218908297666,14.620581431527652,5.494447309446232,71.99773482653193,8.846681943540367e-07,120.00000570002652,130.86067091914967,15.288,0.0,0.0,0.0429672939311924,1.6251202388969355e-09,-0.0004600660652957,7.679415042686734e-08,1.849041957573993e-05,4.071639991174516,31.85023865502424,14.620717696893658,35.24274792557624
0.38,31.222211292895075,131.01040167697127,5.646763233102716,4.08264881385344,0.0008930259828975,36.695642158537446,0.0012360471443664,2.880711738179021,404.8187610144602,14.986392916850402,5.634654729559426,71.99746126698146,1.0246533537040716e-06,120.0000061105033,137.4891296153862,15.288,0.0,0.0,0.0440424171304414,1.8200057922063743e-09,-0.0005010869196581,8.592980519823866e-08,2.0642694281337543e-05,4.082648911356968,31.228847973200924,14.986533193043764,36.808540518115166
0.39,31.22221104018777,131.0104021963902,5.787316652586672,4.096641430700089,0.0009192713382325,31.335681548387896,0.0012640110027448,2.872831219844713,357.64062493382744,15.337978856701952,5.770390286512262,71.99716358743511,1.1813915463769678e-06,120.00000654506955,144.01394309468844,15.288,0.0,0.0,0.0450757388736732,2.031886352449547e-09,-0.00054455673306,9.586443829735616e-08,2.295945663566148e-05,4.096641533664766,30.65298398882095,15.338123255506089,31.4670954954126
0.4,31.222210781536543,131.01040272801887,5.931064331106764,4.109028969993624,0.0009451871856381,29.95928076777898,0.0012920492774571,2.8646905607053603,345.465636880754,15.692185018814769,5.906873567965718,71.99684037970908,1.3563276523471372e-06,120.00000700500496,150.74021066990193,15.288,0.0,0.0,0.0461167659598875,2.2617341782092324e-09,-0.0005905037520737,1.0663253249436129e-07,2.5471259834659164e-05,4.1090290785164525,30.09246700352443,15.692333488470696,30.095929256306363
0.41,31.222210517064383,131.01040327160345,6.077922766619747,4.122888296344507,0.0009714525997821,33.78425365340317,0.0013192264430821,2.85640971467756,378.94687077668647,16.03742529732769,6.0405139809190125,71.99649020751959,1.5509747261474075e-06,120.0000074917568,157.44375780268788,15.288,0.0,0.0,0.0471314487675864,2.5105374204052982e-09,-0.0006389770219162,1.1827345344180344e-07,2.816813594418537e-05,4.122888410595805,29.56469007160549,16.037577892745222,33.904791300285986
0.42,31.22221024682894,131.0104038270252,6.227854084363214,4.14444025865494,0.0009995884754813,38.04468161607466,0.0013435485656724,2.8482703202464488,416.2328240017114,16.348862540904037,6.163613566771559,71.99611159893284,1.766920641656551e-06,120.00000800692096,163.6157044470786,15.288,0.0,0.0,0.0480467946810589,2.779304965995011e-09,-0.0006900467934588,1.308321832549104e-07,3.100973487310896e-05,4.144440378988911,29.104646754454564,16.34901955589459,38.15115260238947
0.43,31.222209970843565,131.0104043942566,6.380851271439565,4.1618082623168045,0.0010268052928652,33.45815353250911,0.0013687230309017,2.8397750580998298,375.9031395134336,16.67263197205097,6.290467308135904,71.99570306121484,2.005818691215035e-06,120.00000855220898,170.15779512382937,15.288,0.0,0.0,0.0489983878509763,3.0690566816849196e-09,-0.0007437862329608,1.443552931671376e-07,3.4086145072160934e-05,4.161808388761201,28.640125213458976,16.672793262249197,33.57845085853367
0.44,31.22220968892116,131.01040497368373,6.537047157143216,4.164954087655709,0.0010505545842624,30.86574023822051,0.0013980747538988,2.830419582421933,353.0750125389216,17.050421620730056,6.433992917638883,71.99526304125902,2.269416145406482e-06,120.00000912964636,177.9537948947602,15.288,0.0,0.0,0.050108743779844,3.380847125286677e-09,-0.0008003278134917,1.589055036683518e-07,3.750784460406397e-05,4.164954219916419,28.113519280259386,17.050586641458253,30.99524475496968
0.45,31.22220940081287,131.01040556582012,6.696617751072218,4.165241899529329,0.0010735835484822,35.912216710755274,0.0014280646808282,2.820677244966047,397.2093853562869,17.438293672974723,6.580571293039616,71.99478987454265,2.5595995397253085e-06,120.00000974147088,186.13940823302417,15.288,0.0,0.0,0.0512487363629523,3.7158016249566814e-09,-0.000859850913876,1.745604864109677e-07,4.121350642664912e-05,4.1652420376426775,27.591357195572936,17.43846231108416,36.02281959036367
0.46,31.222209106468902,131.0104061707686,6.859600379555308,4.174585124444534,0.0010989881252456,41.916816790010685,0.0014546917035209,2.811153314474766,449.7140588976434,17.786187321601275,6.714685486378061,71.99428180697711,2.8783880229668832e-06,120.0000103898448,193.6374175079873,15.288,0.0,0.0,0.0522712438446989,4.0751091178509895e-09,-0.0009224765531151,1.9138630415982226e-07,4.50966024037632e-05,4.1745852688465686,27.13985967570823,17.786359950252297,42.01097612387663
0.47,31.22220880579083,131.01040678873238,7.026066274755745,4.1823089530633855,0.0011240727220223,28.37640408484148,0.0014814747534716,2.801325368441072,331.0078106302534,18.138167428286582,6.849989708801916,71.99373704967608,3.2278903746588286e-06,120.00001107707628,201.37401505997488,15.288,0.0,0.0,0.0533057667609836,4.459978104761035e-09,-0.0009883252835099,2.094509673354327e-07,4.927107017839778e-05,4.182309103852639,26.69716826759888,18.13834399721685,28.514342615617974
0.48,31.222208499300592,131.0104074186346,7.195654207463586,4.189479568102716,0.0011490100608361,27.95074823096412,0.0015080719422187,2.7912412472910484,327.2031223011574,18.48995085190441,6.98515976370584,71.99315377257649,3.6103201777021456e-06,120.00001180491516,209.25751230436188,15.288,0.0,0.0,0.0543397174489847,4.8716620260348906e-09,-0.0010573190976925,2.2877013380347535e-07,5.373205427420879e-05,4.189479725385959,26.268461765425428,18.4901313379827,28.089773168283216
0.49,31.222208187201936,131.01040806005494,7.368224738812109,4.202723284133339,0.001175611380853,35.08821363242469,0.0015321405723077,2.781292092003844,389.60000969812296,18.812014261754847,7.111044804193205,71.99253015042137,4.027946338669921e-06,120.0000125755114,216.60722913930897,15.288,0.0,0.0,0.0552863302793499,5.311396446020465e-09,-0.0011294854492155,2.4938633613154685e-07,5.8398320167141767e-05,4.202723448262914,25.88860807032205,18.81219892635871,35.1982716047702
0.5,31.22220786953184,131.01040871291724,7.5437546994244835,4.220815778795054,0.0012036252596423,36.05491615971072,0.0015540388599792,2.7714444106710974,397.97031042210494,19.10875420627192,7.229005658018125,71.99186435180009,4.483102820610566e-06,120.00001339126192,223.4908652241728,15.288,0.0,0.0,0.0561585257949344,5.7804122391526605e-09,-0.0012048912160576,2.713531252030471e-07,6.327866493526626e-05,4.220815950099865,25.54902500917784,19.108943271285572,36.161276053538906
0.51,31.222207546379583,131.0104093770373,7.722184419225251,4.232567510615346,0.0012298790840397,27.54004661432325,0.0015777580800203,2.761017323676155,323.3984349720841,19.430597746636646,7.354673636736509,71.99115452520388,4.978202222778502e-06,120.00001425458936,231.07869697977367,15.288,0.0,0.0,0.0571045034845869,6.2799518101633574e-09,-0.0012835871653678,2.947201005874635e-07,6.854585242460463e-05,4.232567688976395,25.189423168613605,19.430790935591396,27.678103017910345
0.52,31.222207217780287,131.01041005246427,7.9035253564984895,4.241504796881504,3.636833005922496,33.130464343932495,-0.213724213959515,2.75014688324492,372.0984511843415,19.800791723662496,7.482797074374729,71.99039755455428,3.100677365016306e-05,120.00004197240015,239.96347193731305,15.288,0.0,1.257145320285159,0.0581925840784545,6.8199136959207925e-09,-0.0013691657107362,4.9588682964914176e-05,7.450761508822296e-05,5.585046163393677,28.33837832824804,20.3716805805112,33.24509969249057
0.53,31.2222068836978,131.01041073959476,8.087886021508343,4.250881135311718,3.585416023436904,34.79424656972456,-0.2192428744844623,2.7391373630605607,386.5562464348624,20.12710398496496,7.6098466720264,71.98959184983241,0.0001762019651968,120.00019500234863,247.93333276305071,15.288,0.0,1.261981466376384,0.0591517068185503,7.429959392560877e-09,-0.0014547921742359,0.0001228160925906,8.047049095012739e-05,5.55892047014026,27.943926605617555,20.68993231722576,34.9025863695875
0.54,31.22220654403597,131.01041143864953,8.275340837476158,4.260048652133186,3.535787485689211,30.537658467196465,-0.2248245695985783,2.7278947897041115,349.2703242098436,20.45147873636474,7.73621139240764,71.9887361523358,0.0004519352098592,120.00048530304356,255.9846656794417,15.288,0.0,1.2668063720072733,0.0601051414711784,8.114253832446094e-09,-0.0015441003891766,0.0001979548139809,8.678543301216641e-05,5.534144545115368,27.56250931136472,21.00652648453949,30.660080572789205
0.55,31.222206199096927,131.0104121490138,8.465684176295062,4.270213158324862,3.4888071879942366,32.3756494212277,-0.2304033190197846,2.716506445248726,365.2500005919907,20.76814964142682,7.8601022269787535,71.98782835663093,0.000861496709496,120.00091633528668,263.9685529036919,15.288,0.0,1.2716140984590825,0.0610359411540182,8.875121856339185e-09,-0.001637060575128,0.0002749261872027,9.343319578170576e-05,5.51216342220022,27.200354827296717,21.31583160329735,32.49023189210466
0.56,31.22220584888766,131.01041287068142,8.65891603135814,4.282238733570045,3.4450260912158126,30.206409780425368,-0.235926386507004,2.7050471864604204,346.2265619465787,21.07268402366256,7.980141267574813,71.9868663419303,0.0014081192497735,120.0014915000016,271.7616902508668,15.288,0.0,1.2764043459275325,0.06193107849998,9.714851152416664e-09,-0.0017337692855603,0.0003537579068896,0.0001004018584377,5.493965909375825,26.86151434957001,21.61350145303643,30.32820689331641
0.57,31.22220549349112,131.01041360348947,8.854983433121987,4.292050809166775,3.4010613797607374,29.86620785471504,-0.2416191561696151,2.693207574549036,343.1828296833023,21.384937439827613,8.102496964284192,71.98584795125893,0.0020950313361119,120.00221419372124,279.86997985679574,15.288,0.0,1.281174817622264,0.0628489074853266,1.0635748985124756e-08,-0.0018342811326376,0.0004344428433649,0.0001077944244956,5.474236816644255,26.52221318306617,21.91886122960473,29.988366385604913
0.58,31.222205132890032,131.01041434748154,9.05390323290341,4.296987903044833,3.3548351127754272,39.378330820917725,-0.247646674869959,2.6807485111352287,426.1250058573153,21.71867308802477,8.231444466276033,71.98477097897198,0.0029254882131459,120.00308784140964,288.6679909054518,15.288,0.0,1.28592534606765,0.0638298775746037,1.1640145267577986e-08,-0.0019386973016288,0.0005170111858624,0.0001157064086415,5.449578872294826,26.167657616140666,22.24534828872625,39.47025056542163
0.59,31.222204766663936,131.01041510353363,9.255973432133684,4.30700031473451,3.3140735173453417,31.88898528775044,-0.253435461177944,2.6684755893170298,360.68438819711065,22.024114463908635,8.351514104430526,71.98363309479518,0.0039029540218167,120.00411608835182,296.838711106068,15.288,0.0,1.2906631048753168,0.0647276990114234,1.2730465587539085e-08,-0.0020473316311771,0.0006016575997549,0.0001239060022053,5.432553276556027,25.852693436394848,22.54439768814438,32.00144331410893
0.6,31.22220439504317,131.01041587117868,9.461038545165309,4.308806845186745,3.2684833226655536,28.321280419406065,-0.2597755652773406,2.65526146109868,329.4859594986058,22.36876159403693,8.48367863578548,71.98243190892617,0.0050309358882052,120.00530262457424,306.19560737708395,15.288,0.0,1.2953834438100866,0.0657407506486604,1.390924132323534e-08,-0.002160172801871,0.0006883190414326,0.000132778444256,5.406352614819361,25.504116150438453,22.881895339493653,28.446666261018084
0.61,31.2222040179824,131.01041665051866,9.669135254377474,4.309065942124479,3.223213541048968,33.21670541073068,-0.2662876767608455,2.641635213120016,372.0984511843297,22.719508520283057,8.617651930252034,71.98116495600011,0.0063130215232433,120.00665122539884,315.86700372873474,15.288,0.0,1.3000870217679965,0.066771736315802,1.51790386470119e-08,-0.0022773528658208,0.0007770444146814,0.0001421731949734,5.379363889408864,25.15850755926534,23.22554271283173,33.3226449140709
0.62,31.22220363560832,131.01041744130055,9.880180447002608,4.321075611005017,3.188008395644174,41.3443532388621,-0.2721263033006675,2.628838491253548,442.86563930529206,23.006044820916,8.73158877128579,71.97982969396418,0.0077528766612403,120.00816574828777,323.8780517422684,15.288,0.0,1.304773691267601,0.0676140161427708,1.6542501331144653e-08,-0.0023989396985361,0.0008678333471849,0.000151649490235,5.368036123005139,24.885846839316127,23.50655765509142,41.42873868799111
0.63,31.222203247732903,131.01041824391993,10.09430996854848,4.328979158916899,3.150945761511633,23.366785287665977,-0.2782762753502668,2.615435468818775,286.11251274707894,23.31116169797176,8.85120901008767,71.97842359898867,0.0093540279430287,120.00984990507044,332.51902538221293,15.288,0.0,1.3094401907230295,0.0685109102034686,1.8002174228430526e-08,-0.0025251198006937,0.0009607708839227,0.0001617397011355,5.352533641697912,24.60088009006447,23.80586165252775,23.514348705776676
0.64,31.222202854976576,131.01041905710483,10.311096671194516,4.33050807756557,3.110466845326212,22.93606591259701,-0.2849065009713162,2.601158719065634,282.30782441796754,23.64801724534628,8.980609259288482,71.9769440906293,0.0111200320518865,120.01170743861192,342.19140055410946,15.288,0.0,1.3140879844057105,0.0695010900498461,1.956075023645424e-08,-0.0026556555622718,0.0010556326036814,0.0001725552475849,5.330091039051394,24.292145287514376,24.136368276396365,23.084850398975114
0.65,31.22220245732436,131.0104198808936,10.530555844250712,4.340717239823487,3.0772978775450586,40.679792543232494,-0.2910184063056605,2.587505494642937,436.7781447787475,23.935119460731777,9.094466090236116,71.97538858696916,0.0130543553566368,120.0137419978196,350.5433002026986,15.288,0.0,1.3187056570929152,0.0703450523707257,2.1220786273112767e-08,-0.0027906777332562,0.0011524670639733,0.0001835260957045,5.319159762533096,24.037174690488172,24.418267916719728,40.76303960400954
0.66,31.22220205424937,131.01042071637988,10.753059018793795,4.348372680528451,3.043350950272444,34.57247775059598,-0.2973575208093324,2.5733590408714,383.51251517160017,24.233116730603623,9.211617567831771,71.97375441018437,0.0151605037498311,120.01595727661709,359.31863536707107,15.288,0.0,1.3233078271530467,0.0712210418412471,2.2984797447715618e-08,-0.0029305854592483,0.0012515086897131,0.0001951223080884,5.305896472122388,23.77754151376173,24.710940420409745,34.66939307319743
0.67,31.22220164595128,131.01042156315964,10.978472182188751,4.350368400793601,3.0065076287505743,23.740175131431183,-0.304154900526437,2.558351619508749,289.1562440103425,24.55991190426747,9.33763056987179,71.9720388475879,0.0174422001650445,120.018357189114,369.0671590089394,15.288,0.0,1.3278949522700991,0.0721816752265564,2.4855569095240854e-08,-0.0030753742255117,0.0013527028797451,0.0002075193670696,5.286531288521659,23.497780617648,25.03195632243594,23.879564244005394
0.68,31.222201232611805,131.01042242086535,11.206673773798483,4.353510882843183,2.9714561351186832,29.69348090063781,-0.3109421411056723,2.543194110717339,340.8999924858462,24.877955328865443,9.460837681215583,71.97023902787714,0.0199031752057778,120.02094566556111,378.6793672641057,15.288,0.0,1.3324507942665635,0.0731165943088352,2.6835905538749816e-08,-0.0032250603393569,0.0014560118713875,0.0002204331315493,5.269307991755753,23.232054273303063,25.344501361675142,29.8038140058692
0.69,31.222200814319,131.0104232893227,11.437607372160835,4.361394126163264,2.940564119009752,36.61242652385777,-0.3174472543708558,2.5283234475547287,401.0140726853634,25.166330642682084,9.574737229173223,71.9683521026899,0.0225470911730183,120.0237265623568,387.5006549795767,15.288,0.0,1.3369878677314275,0.073964325344949,2.89285742014248e-08,-0.00337969752748,0.0015614244739127,0.0002336751034019,5.258513626669717,22.997484062259517,25.628030625644364,36.70099410342514
0.7,31.222200390933505,131.0104241688256,11.671374619385768,4.36856744755044,2.910059690192229,30.671027377281927,-0.3240609393555822,2.513129726366107,349.27032420985284,25.455769215710703,9.688878072009237,71.96637520132217,0.0253775625112022,120.0267036862648,396.4563198850266,15.288,0.0,1.341507912993541,0.0748151881377972,3.1136277148633736e-08,-0.0035394828378749,0.0016690255798821,0.0002475317989085,5.247514602616962,22.766675552474283,25.912683818178586,30.775522040932763
0.71,31.22219996251544,131.01042505925685,11.90793840532657,4.371948415810987,2.8778702574180235,25.163988219090232,-0.3310226047716185,2.497218780663644,301.33126406340574,25.76444689984545,9.808911797150405,71.96430536525008,0.0283982899516458,120.02988093505265,406.12027989559726,15.288,0.0,1.3459979366010764,0.0757226022206479,3.3461835056981093e-08,-0.0037044861819393,0.0017788129079241,0.000262206769078,5.232588953010048,22.52463756518685,26.21631164650608,25.289760392180096
0.72,31.222199529070583,131.01042596061123,12.147299470242483,4.370869390198676,2.8436362910506894,30.86219465570479,-0.3384063904000706,2.4804597545644134,350.79220534145287,26.097047740524257,9.936295861502332,71.96213951244347,0.0316130554122878,120.03326229499709,416.6638352301462,15.288,0.0,1.3504681563283996,0.0767003347418889,3.5908120613049166e-08,-0.0038748294399892,0.0018908186484123,0.0002777979807146,5.212971488286176,22.268490862804004,26.543541729908757,30.96356340032088
0.73,31.2221990905994,131.01042687289467,12.389462412644905,4.378913401358052,2.816130362677648,39.103487439651126,-0.3451411734634276,2.464596803295056,422.320318528234,26.372860662066177,10.04593435712816,71.9598745665005,0.0350257505937384,120.0368518606794,425.5077043998252,15.288,0.0,1.3549212269017317,0.0775111724309652,3.847808294805565e-08,-0.0040506521124749,0.0020050861136093,0.0002934655997587,5.204807722462283,22.06253352724167,26.81503929926362,39.18259932387571
0.74,31.22219864703825,131.0104277962445,12.634476017053352,4.383429996367608,2.7870897086997943,24.39360451918369,-0.3522163351085645,2.448017260657564,294.48281347105944,26.666829290426765,10.16112749122604,71.95750735494595,0.0386401428851287,120.04065360427283,435.0362940595402,15.288,0.0,1.3593515955047253,0.0783753777589657,4.117461179392826e-08,-0.0042320923003845,0.0021216546935542,0.0003100211390875,5.192991816588832,21.84630257643104,27.10445168471463,24.518662000474936
0.75,31.222198198771284,131.01042872987543,12.882077961125104,4.385540158623231,2.757246494508,28.51870686809349,-0.359556765121221,2.4308309379831887,330.24688556441487,26.972777677389647,10.279961798114757,71.95503468273154,0.0424600172897622,120.04467151402308,445.06531313617626,15.288,0.0,1.3637525242995567,0.0792747994919033,4.400076375601359e-08,-0.0044189902700518,0.0022403744243547,0.000327418479669,5.178852758169951,21.62515378822035,27.40571779646586,28.624375304006957
0.76,31.222197745684063,131.01042967402907,13.132352296075918,4.390613773170106,2.7299672959260968,30.717301193477656,-0.3667160231143404,2.41378378636502,349.27032420986166,27.257885050544107,10.392227137706683,71.952453284341,0.0464891290596937,120.04890955059888,454.5129652707001,15.288,0.0,1.36813321098543,0.0801129753598704,4.6959422284683663e-08,-0.0046115607193323,0.0023613350499813,0.0003452900936174,5.168714996809396,21.423791222306384,27.68654507492624,30.814175721893832
0.77,31.22219728771837,131.01043062883124,13.385343971971574,4.396112189817248,2.7036072320643227,28.70767524840745,-0.3739005777734026,2.396534043139208,331.7687666960708,27.537414936103936,10.50266854127326,71.94975994499936,0.0507312461828903,120.0533716810004,463.8715642725878,15.288,0.0,1.372494133721561,0.0809347657411311,5.0053520204809726e-08,-0.0048099683088025,0.0024845919257235,0.0003638302994558,5.159548729239168,21.23012990029069,27.96193898531574,28.809960000493064
0.78,31.222196824945225,131.01043159414107,13.641008064625815,4.398268930853596,2.675836317164149,23.53899209488493,-0.3814401749304426,2.3785146437057136,286.8734378128899,27.834995194866263,10.618638043841756,71.94695127383523,0.0551901682689375,120.05806191369572,473.93965929291,15.288,0.0,1.3768301127783975,0.0818096149890046,5.3286088236130246e-08,-0.0050142658032627,0.0026101298692546,0.0003833728205623,5.146921194023883,21.02697373112135,28.255161804854065,23.661930972776265
0.79,31.22219635746069,131.0104325697664,13.899282364636791,4.398372531420844,2.6474602000833425,33.54775276451835,-0.3892368600839208,2.3598799537800947,373.6203323159534,28.143040060791407,10.73777880627367,71.94402380447349,0.0598697360007553,120.06298430112544,484.4756975478944,15.288,0.0,1.3811380332743393,0.0827152282535954,5.6660210293099764e-08,-0.0052245020651754,0.0027379321653581,0.000403857320777,5.132343606093914,20.820255614097704,28.55875416940063,33.632904339036045
0.8,31.22219588503229,131.01043355619117,14.160332661695852,4.403827592169203,2.6229074571737008,33.9946666906314,-0.3966191134876896,2.3417935116548256,377.42502064505743,28.41421540743468,10.845356394566844,71.94097408346936,0.0647738715601626,120.06814297469197,493.844735390276,15.288,0.0,1.3854276782542267,0.0835124858672699,6.017887802870819e-08,-0.0054410170658148,0.0028681573092074,0.0004246361021884,5.124430332595876,20.642795245076687,28.82607685863671,34.07753903936633
0.81,31.222195407771224,131.0104345531917,14.424086121741576,4.4052626763114775,2.596544153021067,22.062206518069207,-0.4044365402238817,2.322781766598756,273.9374926939919,28.708347561153285,10.959990133911427,71.93779845684881,0.0699064934284994,120.07354207281838,504.1090356462661,15.288,0.0,1.3896968446091502,0.0843772235161436,6.384529485551378e-08,-0.0056638197799108,0.0030007615542737,0.0004465887504747,5.112248870791867,20.45273761921591,29.116072169219372,22.18783091012385
0.82,31.22219492588015,131.01043556035597,14.690406508095142,4.404839338260334,2.569673643687651,28.390462975770504,-0.4125072069720918,2.303149077728279,328.72500443277005,29.01203274311604,11.077513821802512,71.9344933813071,0.0752714818177285,120.07918568400405,514.8174999974972,15.288,0.0,1.3939436084594456,0.0852700463435308,6.76626936154248e-08,-0.005892865414771,0.0031356714127206,0.0004695520399602,5.09831503439689,20.25972377985364,29.415540830251096,28.48671700720601
0.83,31.222194439343408,131.01043657772118,14.959309010788136,4.411004222173397,2.5471633177636805,36.12771815108424,-0.4200122782371858,2.284343175680228,395.68750322465047,29.26966955287765,11.180615779928688,71.93105508250795,0.0808727698008017,120.08507796381218,523.9880792956216,15.288,0.0,1.3981656170689485,0.0860275346265252,7.163423695907718e-08,-0.0061283168438192,0.0032729366424974,0.0004926368167136,5.092364324064279,20.10018776009056,29.669645250806894,36.202301761936745
0.84,31.222193948049707,131.01043760552056,15.230874768442275,4.415448274578377,2.52414202738486,22.2521002553458,-0.4277391044140831,2.2649743620419964,275.4593748256452,29.53548292561283,11.286174222695651,71.9274799061758,0.086714163439386,120.09122292762302,533.5346065790233,15.288,0.0,1.4023623446561,0.0868090622172964,7.576300241184397e-08,-0.0063703768826722,0.0034126270754689,0.0005167324215622,5.084767156679199,19.93778261586978,29.931845988379276,22.37116526638952
0.85,31.222193452315853,131.0104386431069,15.504888315134844,4.413895861521598,2.498210744407381,24.27857967167132,-0.436133796009735,2.2442291038547304,292.96093233939376,29.83855276884832,11.40325417000588,71.92376415746257,0.0927994438129284,120.0976245647876,544.5258773149102,15.288,0.0,1.4065351080480937,0.0877000995186863,8.005232715604872e-08,-0.0066188670151007,0.0035545933173589,0.000542383526533,5.070619378188748,19.75438321709131,30.230846466836372,24.385983839744963
0.86,31.22219295195765,131.01043969086325,15.781481343801552,4.416248419993189,2.474987403930515,30.438594562478887,-0.4442072292504192,2.223883510026083,346.2265619465587,30.1126532849658,11.511226565968666,71.91990388046233,0.0991325500573166,120.10428704044868,554.561255646886,15.288,0.0,1.4106867925180016,0.0885059993315365,8.450533173506596e-08,-0.0068741203922255,0.0036989800324293,0.0005684597261112,5.061291902786877,19.592136661959497,30.50130250407584,30.522958848507027
0.87,31.22219244700259,131.01044074873704,16.060638757634614,4.42028438022436,2.453159573652528,28.334657853021746,-0.4521687352247331,2.2035668740021204,327.964078366998,30.37225749001225,11.614596759707998,71.91589521030461,0.1057173500074468,120.11121443758616,564.1492041263986,15.288,0.0,1.4148171932839633,0.0892692996026478,8.91252724184511e-08,-0.0071362381418994,0.0038457968751088,0.0005952073806639,5.054202233340421,19.44124708195303,30.7574811718457,28.423810426843215
0.88,31.222191937490365,131.01044181665037,16.342336893283726,4.421174127745672,2.4300350575206062,24.47014368148036,-0.4605254502907416,2.1823475381872184,294.4828134710418,30.65039057262684,11.72365624073948,71.91173419546074,0.1125576860157247,120.1184108163188,574.5133308290839,15.288,0.0,1.4189253243284488,0.0900870670017803,9.39154481866236e-08,-0.0074052821234022,0.003995031208463,0.000623286575297,5.043820458993323,19.2814126697626,31.031985161597568,24.57158229052599
0.89,31.22219142350981,131.01044289442436,16.62651813842322,4.418981725243285,2.4056810807190887,26.85136879383175,-0.4692883709636743,2.160190197896875,315.028134248087,30.947157570330564,11.838443117276876,71.90741685311409,0.1196574106187612,120.12588024583992,585.6764530768505,15.288,0.0,1.4230108508958763,0.090959610784893,9.887919617788153e-08,-0.0076813092386688,0.0041466682105681,0.000652761172601,5.0302306125370935,19.11306061136972,31.324930051341145,26.942209622979572
0.9,31.22219090498189,131.01044398222493,16.91324100561282,4.42354406663691,2.3854153363722483,29.673938656694872,-0.4773824287862742,2.1390910432465806,339.37814235421445,31.193870808144723,11.937543062541083,71.90293895086937,0.1270205057490581,120.13362694060324,595.0354095649208,15.288,0.0,1.427073093147551,0.0916850447553232,1.0401982279160257e-07,-0.0079645529081581,0.0043007895560336,0.0006822083173065,5.024603149733241,18.97651732416742,31.568462735472217,29.7547683552721
0.91,31.22219038198333,131.01044507989744,17.202455968863347,4.425001123825352,2.3638660860038705,22.54865805590662,-0.485878709308313,2.117057289176388,277.7421810230789,31.45920911721167,12.042366627966128,71.89829641883524,0.1346507459222358,120.14165489045052,605.1845188163533,15.288,0.0,1.4311105719976178,0.0924652290187449,1.093406933504896e-07,-0.0082550448018379,0.0044573646331795,0.0007130853447692,5.015713542968188,18.83109612186432,31.830419002995143,22.653034891775906
0.92,31.222189854731315,131.01044618699927,17.494016675903463,4.423439553225683,2.341112981732644,26.86879432034217,-0.4947858702752339,2.094058087747087,315.02813424806214,31.74310438009028,12.152901543171504,71.89348508094328,0.142551923436971,120.14996810716607,616.1392032854828,15.288,0.0,1.435124302362263,0.0932999638108171,1.148453379457773e-07,-0.0085526663086468,0.0046162842201263,0.0007454405957586,5.003671918971861,18.67728617050753,32.11074322880724,26.954814051689077
0.93,31.22218932313011,131.01044730372956,17.787992731943604,4.428057447095872,2.3219979934236825,31.984067287252216,-0.5030441598716648,2.072101922491125,359.1625070654728,31.97974906084665,12.248616640035277,71.88850064414781,0.1507278426413928,120.158570619918,625.3424195701832,15.288,0.0,1.4391163587284734,0.0939958263499995,1.2053698161976908e-07,-0.0088576918759543,0.0047776495234724,0.0007777597671759,4.998862614626147,18.55201350013922,32.34438781994398,32.055065434958166
0.94,31.22218878706293,131.0104484303299,18.0844678696982,4.426584971155397,2.300062602606645,23.17919100735272,-0.5120764206560539,2.048479846586021,283.0687504837787,32.25706208845828,12.356939499399198,71.88333893775408,0.159182182390161,120.16746631904482,636.216664796499,15.288,0.0,1.4430866977969377,0.0948112301871457,1.2641887010850854e-07,-0.0091703330475602,0.0049415246318666,0.000812170864944,4.987425335420077,18.40598781164177,32.618258046923565,23.275166759828
0.95,31.222188246840595,131.01044956616568,18.3832312551912,4.425690075548605,2.278800049610153,30.059155619566017,-0.5211111652441403,2.0246538556136806,342.4218736174873,32.527357926428515,12.462999785286272,71.87799550621727,0.1679187779756534,120.17665926889458,646.9050418636726,15.288,0.0,1.44703372562966,0.0956060166795317,1.3249472627023965e-07,-0.0094904004854452,0.0051077651545739,0.0008475363890916,4.976879475150518,18.26585269791549,32.885216636882085,30.131770884614145
0.96,31.222187702149785,131.01045071188082,18.684501957259208,4.427779646131747,2.259419125949868,29.448533538708183,-0.5298481465021663,2.0012096025482924,337.09533515678345,32.7726175134946,12.561162967255395,71.8724658690268,0.1769414030684957,120.1861534705594,656.6782788007089,15.288,0.0,1.4509605481744154,0.0963272232237774,1.3876763248151004e-07,-0.0098184009757221,0.0052765872775624,0.0008834141535414,4.969913461529362,18.140940944349445,33.12743426270771,29.521207741420472
0.97,31.22218715301232,131.0104518674324,18.988268013431988,4.428054074085557,2.239445995928957,18.783744120358,-0.53886925309674,1.9770186180426736,245.02188719299323,33.02796416989849,12.662394904035148,71.8667455439475,0.1862538716073629,120.19595296151796,666.9316555939693,15.288,0.0,1.454866784826292,0.0970780860197773,1.452411130426848e-07,-0.0101544403722258,0.0054479966086778,0.0009207412222108,4.9611280402467175,18.012259585235675,33.37964596478067,18.8951852562261
0.98,31.222186599737128,131.01045303218953,19.29431990429249,4.422534171309226,2.216900205928764,27.432392459705564,-0.5486947871363407,1.9510441206579323,319.5937466429581,33.32360104759275,12.776143129628752,71.86082985199728,0.1958599696192467,120.20606176132996,678.9046899817354,15.288,0.0,1.4587497932896956,0.0979473807129515,1.5191907395058722e-07,-0.0104982534138697,0.0056218116918159,0.0009604085133112,4.946078219659283,17.86443559278519,33.671744035732274,27.507158980772537
0.99,31.22218604216611,131.01045420647756,19.602769561027948,4.426252324934952,2.1992985968559364,29.99706334805432,-0.5574009661160078,1.927070787317949,341.6609485517054,33.546810981075005,12.86718590391674,71.85471415888568,0.2057635205428567,120.216483920325,688.0097191526895,15.288,0.0,1.4626125338023452,0.0986038003044781,1.5880479706312304e-07,-0.0108502376434229,0.0057981875509004,0.0009992281232502,4.941558154179705,17.755587245167952,33.8921911678976,30.064066710336196
1.0,31.222185480297696,131.0104553903004,19.91362061829432,4.424329611785715,2.1792007272584724,26.826070443744225,-0.566898929622662,1.9013277636965984,314.2672081822764,33.80925671671193,12.970415043828552,71.84839374113142,0.2159681245538164,120.22722326702772,698.7959348530492,15.288,0.0,1.466453842074004,0.0993755529548871,1.659018173893765e-07,-0.0112104642095622,0.0059771111700738,0.0010404480728008,4.930939537939748,17.62816196012257,34.15148224184148,26.89933971520748
1.01,31.22218491432491,131.01045658326436,20.22674339418846,4.423136205954512,2.159769023109837,28.06766467882697,-0.5763631218223849,1.8754417692338727,324.9203161036979,34.06303522930393,13.070865379975324,71.84186384599266,0.2264775006548403,120.23828374703491,709.3045569604982,15.288,0.0,1.4702731797905677,0.100121837927792,1.7321391634833252e-07,-0.0115788527737645,0.006158496503559,0.0010826722486983,4.921327586999391,17.506633097449118,34.40221061734471,28.136156041667366
1.02,31.22218434416592,131.01045778553737,20.54219665824681,4.423180279255419,2.141230676668436,23.393163547581214,-0.5857149247066951,1.8495728066410189,284.59063161540416,34.30400265337104,13.167237036708888,71.83511965536853,0.2372952478598698,120.2496691865123,719.3537281038994,15.288,0.0,1.4740714899667715,0.1008304749267835,1.8074450250840494e-07,-0.0119556404407599,0.0063424134641714,0.0011257776273734,4.913275891493819,17.392807156398973,34.640268095670166,23.473476144448068
1.03,31.22218376989322,131.01045899697144,20.85993308684229,4.419313135692391,2.1210952843333994,19.069466175768486,-0.5956659812972434,1.8222796357672817,247.30469339049705,34.57201820985745,13.2720034571548,71.82815633726534,0.2484248809507102,120.26138332383825,730.6158954300626,15.288,0.0,1.4778480893606087,0.1016186230162798,1.8849721357949497e-07,-0.0123408446357009,0.0065288233146172,0.0011710928653725,4.901065947069179,17.267212904441582,34.905122979842005,19.16559577109424
1.04,31.2221831915722,131.01046021743355,21.17991049213653,4.418829829106652,2.1028635257249224,30.4711830524856,-0.605208817229389,1.7955970171709552,345.46563688072297,34.8104547497449,13.367447074349828,71.82096890688908,0.2598700244334699,120.27343001427111,740.7057169021923,15.288,0.0,1.4816035237150975,0.102319836498418,1.964757162423651e-07,-0.0127345477553911,0.0067177200041364,0.0012167506672066,4.892782481746952,17.157235479893384,35.14069762717135,30.530041647181076
1.05,31.222182608899207,131.01046144754287,21.50233887092529,4.41515436464102,2.083394132344766,18.28120608495568,-0.6152649461533614,1.7676481401729418,240.45625879819983,35.07057596275921,13.469607543023484,71.81355232113887,0.2716341957120851,120.28581300611847,751.7936447599701,15.288,0.0,1.4853398692195776,0.1030847968002971,2.046831498198217e-07,-0.0131372971363133,0.0069093166602395,0.0012645728149911,4.881139573053828,17.03825227609131,35.39776263555876,18.37676867194128
1.06,31.22218202212568,131.01046268678647,21.82704850182474,4.408744515362593,2.0629269675074986,26.152549055342007,-0.6257943081081879,1.7384957418525495,308.17968365593924,35.34936620985388,13.577554957024727,71.80590144815196,0.2837210501050125,120.2985361871004,763.7699576438687,15.288,0.0,1.4890555427411138,0.1039046404225825,2.131236620210117e-07,-0.013548875991472,0.0071034617549665,0.0013145172051056,4.866651083195347,16.91205055780379,35.67334001229955,26.217738423681208
1.07,31.222181431127904,131.01046393541628,22.154126299805533,4.408071045988877,2.045407577329301,30.84469764953109,-0.6355438315281444,1.710725631451094,348.5093681440308,35.57903649735797,13.670046113185384,71.79801086216072,0.296134325896021,120.311603545362,773.7025542057579,15.288,0.0,1.4927526874295085,0.1045801108986105,2.218007849718852e-07,-0.0139696676245581,0.0073002877811415,0.0013641055870142,4.858654551599382,16.80982942064585,35.900260128873725,30.898638663198188
1.08,31.222180835797616,131.01046519365175,22.48364797968088,4.405969918644847,2.027473624810652,20.67952958961064,-0.6455606507060526,1.6821777959376287,261.00157857466235,35.81652326033494,13.764915071682232,71.789875346431,0.308877551595669,120.3250188388922,784.0409953134669,15.288,0.0,1.4964315422933732,0.1052785648987159,2.3071812018573214e-07,-0.0143999372001013,0.0074998672064982,0.0014154613330445,4.849238466367384,16.705062755652175,36.134931612362,20.7578759688574
1.09,31.2221802364262,131.01046646089833,22.815416559316283,4.397346101357316,2.006811154432605,19.002228015498964,-0.6566413664062521,1.6511682830367664,246.54375332474407,36.10375810154788,13.875327667886852,71.78148938878883,0.3219542810528173,120.33878586766173,796.6414521800561,15.288,0.0,1.5000899390305542,0.1061232561031555,2.398800640060577e-07,-0.0148393604345081,0.0077020003025229,0.0014703060365061,4.832807951858516,16.57923922145549,36.41892281153461,19.085130445873197
1.1,31.22217963309356,131.01046773699247,23.14937961736224,4.391826091085025,1.987831428129768,38.38737011290285,-0.6673195100663212,1.6207553182282617,413.1890617385841,36.36265274438704,13.97679993931678,71.77284761974663,0.3353680047049328,120.352908352791,808.0816873607257,15.288,0.0,1.50372859731498,0.1068846528922448,2.492904733012794e-07,-0.015288012528447,0.0079066745504707,0.0015255723302057,4.819944769709254,16.46743248691633,36.67483793723495,38.42736456374633
1.11,31.222179025371084,131.01046902280464,23.485830726935863,4.392707041147044,1.9719726464624685,28.03857938848424,-0.677035065486146,1.5921426739205975,324.1593910376397,36.56494631632312,14.060437526558328,71.76394437965287,0.3491222681090084,120.3673900874514,817.07136950312,15.288,0.0,1.5073509929748516,0.1074796842021694,2.589523365002478e-07,-0.01574674329325,0.0081142261036327,0.0015800392198577,4.814242271483639,16.381333793133923,36.87464190474312,28.091906822043075
1.12,31.222178413323064,131.0104703182011,23.824727059489927,4.381131678422872,1.9507807905726977,10.423578334020275,-0.68882178008365,1.5588857936730027,172.73281794065943,36.86725357893327,14.175415935739665,71.75477403449335,0.3632204414676342,120.38223468217492,830.6107498858951,15.288,0.0,1.5109555495845794,0.1083687062436123,2.688697719756725e-07,-0.0162155308856093,0.0083245902225989,0.0016404764491119,4.795043284561138,16.253083630892636,37.17362230869648,10.561987769728292
1.13,31.222177797577228,131.01047162190568,24.16564409265736,4.376061468051317,1.9327317752635127,33.09884837752272,-0.6996205226464186,1.5274758787968497,367.5328077900705,37.112126978192336,14.272315644623443,71.74533072029021,0.3776662169314534,120.39744607948744,841.6537145155182,15.288,0.0,1.5145398811963195,0.109088914115295,2.7904808451168894e-07,-0.0166935676688107,0.0085373580103921,0.0016999996335307,4.783105607415366,16.150705376933246,37.41566220324078,33.141460670197574
1.14,31.222177177426687,131.010472935351,24.509062869446783,4.37551476364347,1.916888965690632,18.22259517296497,-0.7097104216224287,1.497345670373879,239.69531773195544,37.31477667713285,14.35587635829615,71.73560872071046,0.3924627804716219,120.41302770226667,850.8423940970366,15.288,0.0,1.5181087397607167,0.1096850160660919,2.894894852613176e-07,-0.0171821810593786,0.008753067591504,0.0017592543442321,4.776237678269571,16.06689966645274,37.61582472362562,18.2977787662031
1.15,31.22217655338653,131.01047425748834,24.854634633187462,4.362332946060192,1.895754564810666,17.959574109983787,-0.7220072374318715,1.462191656997477,237.41251153546767,37.62163995291058,14.472160967673243,71.72560224736975,0.4076132523411531,120.42898290653764,864.8652683896643,15.288,0.0,1.5216578032445007,0.1105874573788868,3.001991844301773e-07,-0.0176805481121079,0.0089713030978123,0.0018251078172846,4.755721449087386,15.940782260619748,37.919370052823936,18.033457824407858
1.16,31.22217592560216,131.01047558802136,25.202262728220106,4.362576149895502,1.88065677924508,47.39125598986946,-0.7320451646935859,1.4316729873708156,490.0437743845894,37.809804960857846,14.551064389027896,71.71530531220138,0.4231210455837844,120.44531534920888,873.5089988118345,15.288,0.0,1.5251861447801405,0.1111409976618609,3.111813037822198e-07,-0.0181886975560031,0.0091920309376858,0.0018868901381527,4.749958152437031,15.864445656943037,38.10516479387445,47.418527201540705
1.17,31.22217529314236,131.01047692883267,25.55257750270185,4.356072719751512,1.8628516712682173,8.213855066164083,-0.7433027937710903,1.3982426404104098,153.70937929486794,38.05198481628764,14.646893873399543,71.7047120075097,0.4389891088538427,120.46202821446178,884.7050872423774,15.288,0.0,1.5286980870874431,0.1118533216280718,3.224375285641954e-07,-0.0187083683077758,0.0094159484365911,0.0019531661445881,4.73697125030523,15.766790979250972,38.34454932176756,8.365105891298636
1.18,31.22217465722965,131.0104782774427,25.90475303819008,4.340630964305773,1.841468008724068,22.93555888904257,-0.7562393532379491,1.3608430292039044,280.02501822196746,38.369285922053166,14.766363576786024,71.69381623136911,0.455220585473724,120.47912488631628,899.4906153302545,15.288,0.0,1.5321884300670494,0.1127864724221427,3.339751272283285e-07,-0.0192374251489115,0.0096420849904599,0.0020250788116304,4.714402540307452,15.640275674506514,38.65849324456829,22.988337331400423
1.19,31.22217401731045,131.01047963496984,26.259164750600974,4.344232067962137,1.828343701443488,40.23822328435637,-0.765759232710742,1.3307038399209272,428.4078130529292,38.51522858199829,14.831793049613369,71.68261167663933,0.4718186938380325,120.4966088343116,906.3154365215904,15.288,0.0,1.5356633703247533,0.113215923533659,3.457963055287161e-07,-0.019777239008557,0.0098709786800815,0.0020897514065197,4.712619678398684,15.58241989330367,38.80237540023988,40.267502691299114
1.2,31.222173372905505,131.01048100237685,26.616134998401616,4.3321181157379,1.8088064124282373,3.956642439815524,-0.7782180947404774,1.2937903294593145,117.1843741360236,38.79594933282448,14.939648071666964,71.67109240285356,0.4887860322160473,120.51448287810254,919.5435287600948,15.288,0.0,1.5391233335839782,0.1140415645896202,3.579039705469802e-07,-0.0203286789920138,0.0101029373533099,0.0021636008021253,4.693909934862471,15.472321750413302,39.08002878663342,4.234918678809935
1.21,31.22217272524305,131.01048237717836,26.97483720716728,4.3206031872134965,1.7897393990492327,32.268496519593064,-0.7906404497109961,1.2566562667113204,359.92343213200894,39.06846365089522,15.044910388238367,71.65925190310949,0.5061257380850399,120.53275040701558,932.4750646207176,15.288,0.0,1.5425625244467167,0.1148430914539334,3.703056837053058e-07,-0.0208895681545138,0.0103369973535483,0.0022388367277377,4.675970994206595,15.366582718497856,39.34954954193768,32.30263402461746
1.22,31.222172073383,131.01048376126883,27.335904449077955,4.322191440226875,1.7762650431709113,23.30917904478848,-0.8005800915205461,1.224805951828632,283.0687504825761,39.21864545788991,15.111506061546692,71.64708389096637,0.5238405070623156,120.55141435078887,939.6252464442706,15.288,0.0,1.5459879513775303,0.1152850258107743,3.830023254346713e-07,-0.0214620227887461,0.0105739898647125,0.0023089514747505,4.672308721935566,15.308168415827977,39.49761582682336,23.35506167503268
1.23,31.222171417695893,131.01048515389363,27.699086537556703,4.309017344013392,1.7569119966412023,8.928356063368179,-0.8134212092638788,1.1861481823671567,159.79687382222795,39.4984204043681,15.218991551947052,71.63458230193596,0.5419326009575888,120.57047718435076,953.0458655342836,15.288,0.0,1.5493956485252691,0.1161079131339352,3.9599919635905403e-07,-0.0220452636551967,0.0108135349333519,0.0023885340553168,4.652800029790684,15.20126070471188,39.77435224875115,9.043458606556264
