Time,Latitude,Longitude,Altitude,Angle of Attack,Angle of Sideslip,X-Acceleration,Y-Acceleration,Z-Acceleration,Thrust,True Velocity,Ground Velocity,Pitch,Roll,Yaw,Dynamic Pressure,cp,cg,parachute_deploy_gain,Wind Speed,Wind Direction,Mach,omega_x,omega_y,omega_z,Cmq,Angle of Attack(total),Angle of Attack(gust),True Velocity(gust),Acceleration
0.0,31.222216000000007,131.010392,3.000000004412624,0.0,0.0,0.0,0.0,0.0,2.2828121974499247,0.0,0.0,69.99999999623412,0.0,119.9999999935444,0.0,1.274,1.0271675151847728,0.0,0.0,0.0,0.0,0.0,0.0,0.0,-0.0,0.0,90.0,0.0,0.0
0.01,31.22221599999084,131.01039200000497,3.000002745347096,0.0,0.0,0.0,0.0,0.0,34.242186961749226,3.465174813755316e-14,2.8705476994166025e-14,69.9999999962611,-2.1713911667908447e-11,119.99999999352175,7.352495975525499e-28,1.274,1.0271659134330349,0.0,0.0,0.0,1.0183245502395064e-16,-3.3305335486039093e-18,7.169286865560398e-18,5.624298769768554e-18,-7.715917190115602e-34,0.0,89.99999999999979,3.465174813755316e-14,0.0
0.02,31.222215999994315,131.0103920000094,3.0000030495639742,0.0,0.0,0.0,0.0,0.0,25.871876237766216,3.8197434737535036e-11,2.4171837235633357e-11,69.99999999628672,-1.1921727947863515e-11,119.99999999353136,8.93414285188691e-22,1.274,1.027164492361118,0.0,0.0,0.0,1.1225230367947217e-13,-6.657678965418802e-18,1.4338573731120796e-17,1.1241821275959074e-17,-1.7010872994127372e-30,0.0,89.99999999975682,3.8197434737535036e-11,0.0
0.03,31.222215999994315,131.0103920000094,3.0000030495639742,0.0,0.0,9.81877837424427,-2.5122800045972096e-05,3.3498614629347925,180.34219359854663,1.2659015405517447e-10,1.1364406173918436e-10,69.99999999631459,-1.6431898037347223e-11,119.99999999352724,9.812605835254651e-21,1.274,1.0271551940870716,0.0,0.0,0.0,3.720154642239108e-13,-9.991600645811728e-18,2.150108433310316e-17,1.6859343782149594e-17,-8.453698244545225e-30,0.0,89.99999999919412,1.2659015405517447e-10,10.374487003414373
0.04,31.222215999994315,131.0103920000094,3.0000030495639742,18.83801224594347,-0.0001111777826462,48.68248476615645,-1.016330065874988e-05,3.3497854396877287,548.635972453808,0.1556173050466994,0.0975908358443652,69.99999999633813,-2.0932768807056278e-11,119.99999999352085,0.0148286043323172,1.274,1.027133720825283,0.0,0.0,0.0,0.0004573186944143,-1.3322134194415637e-17,-1.04744143520903e-11,1.336824254131964e-11,5.0626055458604615e-15,18.83801224625964,89.06236267790787,0.1555998412814392,48.79759610369246
0.05,31.22221599164764,131.01039201704114,3.002326315126219,5.772385609593056,-4.395076213712875e-06,71.20344550265034,4.905512691849684e-05,3.349217396035405,761.6984298824663,0.8326471944351852,0.3620326097059287,70.00000001316391,-1.0866255162484559e-10,120.00000000231074,0.4245281043148827,1.274,1.027093426565204,0.0,0.0,0.0,0.0024469331205246,-5.0245994431125096e-18,-7.32924164976824e-07,2.217344936947165e-11,1.895424184525467e-09,5.772385609594774,84.74112356985832,0.8326465040582279,71.28217104309611
0.06,31.22221596664444,131.01039206837547,3.015081730143309,4.056581213689704,3.169093567502233e-05,53.16249142470188,0.0001203825427859,3.3481235983850643,590.4875390737236,1.657216205300742,0.6755452977614796,69.99999964391398,-3.9285905645317736e-10,120.0000000287861,1.6816755551786196,1.274,1.027050317124926,0.0,0.0,0.0,0.0048701272653724,3.095757869075056e-13,-7.483541766772344e-06,3.074135420506017e-11,3.8518749565858254e-08,4.056581213813337,79.59316473687034,1.657221183301277,53.26781792157489
0.07,31.22221592883117,131.0103921460222,3.034593611434361,4.115662018628709,6.450869598349036e-05,81.18203554989698,0.0001593212642178,3.347059402768047,855.2937749779172,2.099899704220947,0.8579771146174259,69.99999543281565,-8.233801910783518e-10,120.00000006883089,2.700101932075157,1.274,1.027003201295312,0.0,0.0,0.0,0.006171060252819,3.4704292086287e-12,-2.6327204536316785e-05,1.9541142932033486e-10,1.7170712165327165e-07,4.115662019133419,76.90111966094352,2.099909837223217,81.2510043180746
0.08,31.22221588914193,131.01039222747755,3.0542761843835606,3.459696193892355,8.037433511260004e-05,16.298214211652088,0.0002413456836072,3.344878926597744,241.2171988638792,3.051964775152957,1.2149999716613011,69.99998042886442,-1.0128995578004475e-09,120.00000011111383,5.703497661025892,1.274,1.0269597189470347,0.0,0.0,0.0,0.0089689344021769,1.458982438104473e-11,-5.702803872814215e-05,7.043261397829576e-10,5.405702492731987e-07,3.459696194824858,71.30331929508368,3.051977400323993,16.63790856991177
0.09,31.2222158241468,131.01039236098703,3.0886872184095737,4.313676956300389,0.0001337561018991,50.35975918308536,0.0002293282821279,3.344215841840564,563.0937377043203,2.893161298572128,1.191209213966114,69.99994788602814,-7.098432023887522e-10,120.00000018106356,5.125380275808925,1.274,1.026918932011013,0.0,0.0,0.0,0.0085022553945842,3.8672912027154325e-11,-0.0001115933708951,2.016054215232918e-09,1.0027525988343615e-06,4.313676958370176,72.2316578138625,2.893182308931483,50.47067588835877
0.1,31.2222157788302,131.01039245392113,3.109877853389092,4.035124630954496,0.0001457499816535,47.804664812504015,0.0002878217657545,3.341734392237128,538.7437595981891,3.5677148583138303,1.4531247507621967,69.99988403958329,1.9248461973355822e-09,120.0000002323013,7.7939962029572305,1.274,1.0268846934974103,0.0,0.0,0.0,0.0104845969583028,8.579678749070606e-11,-0.0001726817043215,3.984565639703107e-09,1.913455350430327e-06,4.0351246335824245,68.43243098813296,3.567737752667411,47.92132267234452
0.11,31.222215703308,131.01039260899836,3.148841432727305,4.043401107254707,0.0001752764476999,37.67622367577205,0.0003286462930162,3.3392563999062723,442.86563930529127,4.034183355956686,1.6436552022667772,69.99978525353545,7.302513231814865e-09,120.00000031883242,9.96528118825134,1.274,1.026848594915519,0.0,0.0,0.0,0.0118554331868328,1.5870341853361987e-10,-0.0002596204409236,7.232030302688121e-09,3.252930323390323e-06,4.04340111104746,65.92012987243639,4.034210888316708,37.82391391539392
0.12,31.222215627491828,131.01039276462643,3.186995101203875,4.17874459224363,0.0002066711490009,41.15991989399172,0.0003576945202315,3.336766085769504,475.58594813540793,4.361857560629481,1.7865750500940407,69.99963665601238,1.781774420198147e-08,120.00000041104812,11.649831899889556,1.274,1.0268114448194128,0.0,0.0,0.0,0.0128183893919737,2.682972478760441e-10,-0.0003710216542429,1.2215991071490164e-08,5.026311388647148e-06,4.178744597345269,64.21681651392016,4.361890024457652,41.29495143136631
0.13,31.22221554594398,131.01039293200228,3.2277173449026786,4.202734874672792,0.0002327160860324,45.44886120763352,0.0003953741266062,3.333578629398489,515.9156326236897,4.792165672014363,1.9646716520715424,69.99942424225341,3.613383418913551e-08,120.00000051758742,14.061726603124043,1.274,1.026779572895131,0.0,0.0,0.0,0.0140829618979635,4.248908088871395e-10,-0.0005056103199642,1.908859219307828e-08,7.5253154423526356e-06,4.202734881104192,62.048594618540655,4.792202226971676,45.570952718869485
0.14,31.222215454191247,131.01039312033683,3.2737880595608355,4.184830647080848,0.000257138757548,42.32232525579263,0.0004369426767266,3.329727443445437,486.2390860568421,5.269261304374574,2.158791628597544,69.99913473613935,6.515851355725497e-08,120.00000064630268,17.000925061330125,1.274,1.0267449573927567,0.0,0.0,0.0,0.0154850332441425,6.382432869666793e-10,-0.0006690086306358,2.8426433029675884e-08,1.0948547100483978e-05,4.184830654966803,59.74181173116622,5.269301695636157,42.45310707234106
0.15,31.222215353826755,131.0103933263496,3.3242182719560263,4.21963947489699,0.0002846467688673,40.886944113003565,0.0004726792395108,3.325585650885676,472.5421858721398,5.6781946837482895,2.329510773545807,69.99875162806286,1.0876776246115984e-07,120.00000079954532,19.742017654108928,1.274,1.0267115958081523,0.0,0.0,0.0,0.0166867950518804,9.204756288136623e-10,-0.000865746478554,4.08948221429571e-08,1.526771148078443e-05,4.219639484480408,57.84996018384879,5.678239395958187,41.02196629910223
0.16,31.222215247130432,131.01039354534575,3.3775922280208457,4.253495568077899,0.0003118339050386,32.26872905470846,0.0005078415214353,3.32090791922544,391.1218908297597,6.081244877834229,2.4981889727471702,69.99825581174558,1.7187028096464329e-07,120.0000009800088,22.644030778355887,1.274,1.026675762255412,0.0,0.0,0.0,0.0178712695992133,1.2856146928958252e-09,-0.0010961187242953,5.6923362293832417e-08,2.0702404729358337e-05,4.253495579487569,56.06022383757386,6.081293860589489,32.43916312841722
0.17,31.22221513260033,131.01039378041813,3.4348437275053194,4.364838523348639,0.0003448792023946,40.840448242802736,0.0005326487904353,3.3162727284953744,471.78125980632416,6.362544479165355,2.6250789114832647,69.99762801982864,2.5997588617291615e-07,120.00000119506798,24.78723182122683,1.274,1.0266409836796937,0.0,0.0,0.0,0.0186979513961862,1.747791994374917e-09,-0.0013624931601664,7.706724512977917e-08,2.6923621797558364e-05,4.364838536947241,54.85936171416122,6.362598652663785,40.97486885600156
0.18,31.222215014088988,131.01039402363364,3.4935801365785646,4.353948305387995,0.0003681615230806,33.992183768165326,0.0005718025428208,3.310131992647221,407.1015672119096,6.81502088160835,2.810667639293692,69.99684761766231,3.794979223522764e-07,120.00000144728236,28.437950785509614,1.274,1.0266048342046536,0.0,0.0,0.0,0.020027681385988,2.3221419748804155e-09,-0.0016616990447559,1.0147209890543081e-07,3.517105786247627e-05,4.353948320923495,52.99157233768714,6.815078712285162,34.152972512863755
0.19,31.22221488419521,131.01039429023237,3.558399965607869,4.432620772533925,0.0003996774584738,38.45149959021069,0.0005986099513107,3.304145139297767,448.95313283182486,7.1223367465208405,2.946425726785696,69.99589577323147,5.440084577183829e-07,120.00000176148238,31.060341085698347,1.274,1.026566130444714,0.0,0.0,0.0,0.0209308229359413,3.022391489754689e-09,-0.0020041563310821,1.3135864879722746e-07,4.433199397898183e-05,4.432620790516937,51.77883352025967,7.122399527709208,38.59320142454953
0.2,31.222214751373183,131.01039456280608,3.624052454705669,4.443889400961181,0.0004246617145652,35.23432408779927,0.0006337972852267,3.2968110145188256,418.5156301991588,7.530482904611057,3.1167566004785483,69.99474776398331,7.478025600151903e-07,120.00000211715036,34.72195181863731,1.274,1.026529240027363,0.0,0.0,0.0,0.0221302820454282,3.866698391504749e-09,-0.0023849544920781,1.668144671071589e-07,5.57780533277244e-05,4.443889421210987,50.22448880200342,7.530549610317194,35.38822625098952
0.21,31.222214608673173,131.01039485566503,3.6948551453492566,4.493351735844891,0.0004538195602194,33.79371564104691,0.0006629296043866,3.2891790438445727,404.8187610144608,7.868284042829251,3.2629204975089228,69.99338155599101,1.0150082652278477e-06,120.00000255293388,37.906665490338085,1.274,1.0264923657015164,0.0,0.0,0.0,0.0231230169900677,4.871073773182836e-09,-0.0028117605859743,2.089322918608601e-07,6.870935089180403e-05,4.493351758715364,48.992529909481824,7.868355328639073,33.95340801819282
0.22,31.22221446109996,131.01039515850383,3.767700382407304,4.5412639153933885,0.000482649303782,41.008966751568416,0.0006914639179131,3.2808061382386606,472.5421858721387,8.20057841132235,3.4071691679735228,69.9917708347139,1.3454961520984431e-06,120.00000305929996,41.175744234065135,1.274,1.0264494137127138,0.0,0.0,0.0,0.0240995709751246,6.054779813287368e-09,-0.0032829112061357,2.580881224843564e-07,8.3609968899004e-05,4.54126394098788,47.82515604752711,8.2006542256977,41.13999323561041
0.23,31.22221430675399,131.0103954752338,3.843768625625224,4.52371495179584,0.0005047555656171,33.98493478127787,0.0007294889663961,3.2705214710765107,406.340642146096,8.647938096586296,3.5908865300848416,69.98989017772566,1.7539876018835507e-06,120.00000365514876,45.79040229326471,1.274,1.0264133390858623,0.0,0.0,0.0,0.0254142776666487,7.436335125872812e-09,-0.0038001790077148,3.1489825108822685e-07,0.0001020628978177,4.523714979897577,46.31461705147579,8.648017383405135,34.14194053232237
0.24,31.222214142622448,131.0103958120587,3.92493179063287,4.57837522350066,0.0005351929930195,35.051650311058864,0.0007555049947555,3.26053011385611,416.2328240017099,8.954297884844461,3.72617527247482,69.98771316795013,2.25257161141768e-06,120.0000043564586,49.09180568115741,1.274,1.0263750048312463,0.0,0.0,0.0,0.0263146218848643,9.034877387788232e-09,-0.0043732521010013,3.809642748985157e-07,0.00012161410144,4.578375254714954,45.32798984252032,8.954381952763216,35.20297212911011
0.25,31.22221397517227,131.0103961556623,4.0071748888306855,4.6034117733065,0.0005618935542827,36.03738579534623,0.000785606492708,3.249069743648399,425.3640807915084,9.311611941121669,3.8789349536029696,69.98520781816889,2.8559738498748624e-06,120.00000517181904,53.08749562138344,1.274,1.0263373768840591,0.0,0.0,0.0,0.0273647110956883,1.0873791100894836e-08,-0.0049950711786164,4.5609738277273444e-07,0.0001444478241125,4.603411807525074,44.2165428352526,9.311700203154778,36.183554686886296
0.26,31.22221379934012,131.01039651647062,4.09364247475714,4.621386912291471,0.0005881033207375,39.29107511182762,0.0008162761165496,3.236407051295005,455.80158342417656,9.67833954512075,4.034902068846398,69.98234620927953,3.5784678110229355e-06,120.00000612171208,57.350948423913096,1.274,1.0263006300381676,0.0,0.0,0.0,0.0284424679130479,1.2973286442992724e-08,-0.0056712051373577,5.414206381221602e-07,0.0001704578711045,4.621386949630312,43.12063533194282,9.678431924174348,39.42414126789902
0.27,31.222213616776543,131.01039689108487,4.183310605341074,4.617158109135719,0.0006115457810536,35.90419462403674,0.0008503454714941,3.221982799915672,423.8421996598744,10.088790784535757,4.205862468567124,69.97909721779352,4.436165972465058e-06,120.000007221354,62.31798301949865,1.274,1.026260090595354,0.0,0.0,0.0,0.0296487219805601,1.5355910600537293e-08,-0.0064045199323113,6.379142666348734e-07,0.0002006609239367,4.617158149547818,41.94410287616451,10.08888684592241,36.048472443180565
0.28,31.22221342607797,131.0103972823952,4.277051150896916,4.642105655370123,0.0006389739579882,41.51133203546672,0.0008785747638736,3.2071101123224945,476.3468732012228,10.432377224420517,4.35383399240675,69.97542808435722,5.446665372087172e-06,120.00000849080963,66.63429581008447,1.274,1.0262212716723291,0.0,0.0,0.0,0.0306584788590473,1.8045308789081613e-08,-0.0072006835403936,7.469524967369969e-07,0.0002332868227611,4.642105699250441,41.0023231023774,10.432477594215127,41.63503624837164
0.29,31.22221323001776,131.01039768469093,4.373143569786686,4.62134615173668,0.0006600657405645,33.17552944492765,0.0009148746278066,3.1894209319791806,397.9703104221098,10.876662296046485,4.536381530986506,69.9713027936179,6.629751536885327e-06,120.00000994797426,72.43000748232016,1.274,1.026183007522519,0.0,0.0,0.0,0.0319641703260467,2.1067646517035105e-08,-0.0080566154554079,8.688043379161898e-07,0.000272130659453,4.621346198772975,39.83162628795024,10.876765978930557,33.32848872465723
0.3,31.22221302403368,131.01039810736614,4.4744193758467325,4.664362353358112,0.0006905183788532,31.08096762732793,0.0009381960428197,3.172549142946348,378.1859457108735,11.168362145070317,4.66647911311536,69.96668711012893,8.005507138509574e-06,120.00001161892672,76.36634300732833,1.274,1.0261430389738484,0.0,0.0,0.0,0.0328214509167604,2.4447409007156216e-08,-0.0089829108229115,1.0056222251461646e-06,0.0003115527202986,4.664362404357781,39.09908960432563,11.168470611443622,31.242464973103964
0.31,31.22221281503337,131.01039853619727,4.576593712520673,4.700143580504286,0.0007196683316923,32.79732593144512,0.0009620705970519,3.154230688182399,394.1656220930229,11.470279728974068,4.800072153432283,69.96154070456518,9.597499105113692e-06,120.00001352112182,80.55022837857167,1.274,1.0261054058068628,0.0,0.0,0.0,0.0337087616009043,2.8214060606649844e-08,-0.0099686353219717,1.1565909895184251e-06,0.0003550834484269,4.700143635477137,38.36463422765983,11.47039277421126,32.94865339301887
0.32,31.222212598991007,131.01039897947376,4.68216432480395,4.718667719113184,0.0007464384342556,35.7316568886908,0.0009885845337584,3.133859770838664,421.5593934624264,11.808280530415894,4.946054328851105,69.95582953472353,1.14278227255889e-05,120.00001568218067,85.36654007972253,1.274,1.026068246703101,0.0,0.0,0.0,0.0347021168382987,3.2392058795580455e-08,-0.0110163301561155,1.3226102501723267e-06,0.0004039614423012,4.718667778018562,37.5686120062341,11.808397780690962,35.8688218659563
0.33,31.222212376029034,131.0103994369436,4.791055524254013,4.72141404831576,0.0007708346814671,35.42013590291081,0.0010176135371143,3.1111955852784385,418.5156301991632,12.181577273013426,5.104163223586657,69.94951809396906,1.351997394754887e-05,120.00001812674968,90.84831229869296,1.274,1.0260310883392356,0.0,0.0,0.0,0.0357992034445943,3.700677535501642e-08,-0.0121310534481307,1.5051409581878843e-06,0.0004588955105349,4.721414111097893,36.7208578211118,12.181698355442045,35.55651229220977
0.34,31.222212145785647,131.0103999093516,4.903491659547144,4.73024573449122,0.0007962944975467,27.63851074646407,0.0010446307681611,3.0871492806781062,345.4656368807584,12.53557620048282,5.2556261014174765,69.94256797855994,1.5899658158227497e-05,120.000020882338,96.20413272674828,1.274,1.0259901535019136,0.0,0.0,0.0,0.0368395817555172,4.208561016221623e-08,-0.0133180771902383,1.7057647550599631e-06,0.0005184333231541,4.730245801363397,35.94841996438923,12.535701282129995,27.810389570354005
0.35,31.222211909310875,131.01040039453565,5.018822212845608,4.780248518778662,0.0008286678570753,30.332092807652543,0.0010618579815451,3.063967690608957,370.5765700527057,12.774786382148209,5.367579971644358,69.93493776125636,1.8594985713558667e-05,120.00002397748868,99.9096898192772,1.274,1.025950003202184,0.0,0.0,0.0,0.0375426220587071,4.7658312175989686e-08,-0.0145774693288123,1.9252724355785177e-06,0.0005782798420984,4.780248590437683,35.44790728185619,12.774916548990808,30.486451961956565
0.36,31.22221166933814,131.0104008868675,5.135354490370708,4.798132156899578,0.0008554457330409,34.32674769697476,0.0010851169437774,3.0374319611165923,407.8625232777224,13.09301701329486,5.506730645516068,69.92658597246795,2.163521613217148e-05,120.0000274401514,104.94818266210537,1.274,1.0259105142325406,0.0,0.0,0.0,0.0384778908056978,5.3755109608570216e-08,-0.0158991451700967,2.162609490834569e-06,0.0006464142451675,4.798132232978766,34.796094028187134,13.09315138639638,34.46087058603792
0.37,31.222211421355144,131.01040139563804,5.255882891363927,4.797392186816851,0.0008791822061288,32.551601855236584,0.00111162791192,3.0078619428913056,391.1218908297639,13.457513730739372,5.661815946371007,69.91747693543164,2.5047738471809164e-05,120.0000313040604,110.87154396328836,1.274,1.025872170958032,0.0,0.0,0.0,0.0395491312153729,6.040098808671168e-08,-0.0172926678053148,2.420031948898497e-06,0.0007226353721561,4.797392267189059,34.07332166419882,13.457651832357364,32.69027405888565
0.38,31.22221116634284,131.01040191882743,5.379799334000849,4.811698494594017,0.0009057112478668,34.02947987649063,0.0011338447913587,2.9774881690446744,404.81876101445977,13.77554886562956,5.800899861213392,69.90756948297444,2.886339581486796e-05,120.00003560072224,116.17243393848278,1.274,1.02583050512925,0.0,0.0,0.0,0.0404838339452728,6.762496638941508e-08,-0.0187646375218858,2.69955777313946e-06,0.0008026686661094,4.8116985796350695,33.46655348088405,13.775691134419684,34.15949264475229
0.39,31.222210906095896,131.01040245274032,5.505993307722699,4.813508003664984,0.000929862892873,29.00025983045028,0.0011579891265804,2.9442136901860865,357.6406249338268,14.124492165837273,5.950648592462506,69.8968186645841,3.311602501056718e-05,120.00004036395212,122.13093644173792,1.274,1.02579027384009,0.0,0.0,0.0,0.0415093739609825,7.545934774906889e-08,-0.020311592409804,3.0013532510753577e-06,0.0008908380763632,4.813508093268025,32.821616487639595,14.124638228358922,29.149330452482886
0.4,31.222210638473225,131.0104030017851,5.635788650457906,4.841647069358873,0.0009592124397379,27.71178845184976,0.0011749448424961,2.91135549588368,345.4656368807565,14.390874239274588,6.07193451174791,69.8851815212744,3.783947407715338e-05,120.00004563180136,126.77947425345651,1.274,1.0257493418632293,0.0,0.0,0.0,0.0422922854866381,8.39343718693383e-08,-0.021938519432511,3.3271332720311508e-06,0.0009803271643914,4.841647164150728,32.348088166612904,14.391024912012275,27.864299944624147
0.41,31.22221036681104,131.01040355909262,5.767123077463226,4.86553909860892,0.0009876699832274,31.306062598221665,0.0011918093836199,2.876450850006428,378.9468707766882,14.663028799871563,6.195223154320929,69.87261222561014,4.307011032901644e-05,120.0000514391194,131.6183642808765,1.274,1.025708445186429,0.0,0.0,0.0,0.0430921644173401,9.308325447883581e-08,-0.0236371933433427,3.6760977501392174e-06,0.0010761942383903,4.865539198612839,31.87689439156756,14.663183942709727,31.437931330109585
0.42,31.22221008906472,131.01040412887247,5.901259531771367,4.867510642114694,0.0010118258958528,35.308283402190774,0.0012128114559048,2.8374461227958245,416.23282400171047,14.9952917972178,6.33928625560071,69.85906967380902,4.884273094936628e-05,120.00005782486392,137.64909586091787,1.274,1.0256701057426505,0.0,0.0,0.0,0.0440686959134695,1.0293499639582845e-07,-0.0254093547296826,4.049238334851429e-06,0.0011830797791891,4.867510747027452,31.315270489291198,14.995450734457847,35.422111438762386
0.43,31.222209804115888,131.01040471342728,6.038886819939341,4.854590670645608,0.0010330089741511,31.00586934514032,0.0012363751872706,2.794478603999558,375.90313951343126,15.369430568701889,6.497852263156962,69.8445117629242,5.519340856908871e-05,120.00006482835984,144.60167924299955,1.274,1.0256308158337524,0.0,0.0,0.0,0.0451682983415116,1.135186446762958e-07,-0.0272634397889413,4.449073329427772e-06,0.0013010625065656,4.854590780289497,30.70250814963406,15.369592833372094,31.13154422839874
0.44,31.22220951192321,131.01040531284193,6.180028459770617,4.866912332640401,0.0010595850174406,28.57707721036899,0.0012525768202179,2.752165534925872,353.07501253892326,15.659290812546615,6.627318538707029,69.82889155423543,6.216182865383864e-05,120.00007249162944,150.1053167542629,1.274,1.025586171750536,0.0,0.0,0.0,0.0460202245100907,1.2486676023179565e-07,-0.0292060158163984,4.8779154055816594e-06,0.001420032405556,4.866912447705031,30.24619499837236,15.659457251771938,28.709297424144207
0.45,31.222209215425703,131.01040592106523,6.322872201489905,4.881836476567178,0.0010866574689855,33.31904824532484,0.0012669045761511,2.7082028218433374,397.2093853562887,15.934249290371609,6.751662050993672,69.81215834018458,6.97909417564726e-05,120.00008085697964,155.42080512416243,1.274,1.0255397023523487,0.0,0.0,0.0,0.0468283602442113,1.3701614206272197e-07,-0.0312276295846745,5.334643585560923e-06,0.0015449645531859,4.8818365972149325,29.82567893138932,15.934419982127675,33.428929688274074
0.46,31.22220891307435,131.0104065412864,6.468371919199588,4.869610441729251,0.0011078049156487,38.95909776354321,0.0012868374716666,2.6582856015412624,449.7140588976424,16.292139278621757,6.904766425053949,69.79426683863348,7.812149592850748e-05,120.00008996920153,162.4785746623087,1.274,1.02549635315424,0.0,0.0,0.0,0.0478802236363867,1.499987870203256e-07,-0.0333272350234362,5.819761874615242e-06,0.0016858511402973,4.869610567434908,29.29014635640275,16.292313292210977,39.04968351401366
0.47,31.22220860266524,131.01040717804253,6.6178810515614845,4.838450928223533,0.0011247917292402,26.253747818137555,0.0013104398935566,2.6026193242279367,331.0078106302504,16.710658191447514,7.078951441335346,69.77517236812905,8.719457259907165e-05,120.0000998741591,170.9309671061642,1.274,1.025453319323251,0.0,0.0,0.0,0.0491102725711187,1.6384464803343264e-07,-0.0355167087264168,6.3368207228363735e-06,0.0018427306558807,4.838451058652396,28.68386015667837,16.710834873319172,26.382435512333956
0.48,31.222208284201663,131.0104078313267,6.771393590864176,4.869339340099417,0.0011561785713505,25.860860976019296,0.0013165328518772,2.5543454292827983,327.20312230115803,16.911139899671,7.177575416403102,69.75482343794755,9.70562828082882e-05,120.00011062072316,175.0543877818846,1.274,1.0254092882449153,0.0,0.0,0.0,0.0496995461609974,1.7858865391586845e-07,-0.0378054080201581,6.88909442277235e-06,0.0019849793891693,4.869339477030596,28.40887970825325,16.911321511776286,25.986704537635287
0.49,31.22220796480208,131.01040848648364,6.924537656029012,4.881367714530694,0.0011829003785372,32.565703383222065,0.0013261973190012,2.5011623511055703,389.6000096981238,17.169005224738054,7.296160258358563,69.73316318155707,0.0001077573203115,120.000122255028,180.4309832312717,1.274,1.025367445590036,0.0,0.0,0.0,0.05045746454003,1.942747077649401e-07,-0.0401641298712614,7.47069711110948e-06,0.002140948887153,4.881367857509675,28.058569663954906,17.169191034294997,32.66161128464712
0.5,31.222207637929923,131.01040915697027,7.081324512896956,4.862566137860805,0.001202418260511,33.47759680712428,0.0013425340759632,2.4399894027711366,397.970310422106,17.52898693231981,7.450304424940405,69.71015149227495,0.0001193385310595,120.0001348274002,188.0736471953394,1.274,1.0253278572281015,0.0,0.0,0.0,0.0515154948878309,2.109295159784217e-07,-0.0426011733481599,8.084173008518589e-06,0.0023184335011768,4.862566286171007,27.57768313050809,17.529175807738486,33.56639745442473
0.51,31.22220730314019,131.01040984370235,7.24202048914867,4.8479762258125,0.001223054804074,25.49162310288008,0.0013562860883156,2.3767006597692686,323.39843497208153,17.86914397471067,7.597652147346554,69.68574349602717,0.0001318441288964,120.00014838524436,195.4407439266201,1.274,1.025286455263166,0.0,0.0,0.0,0.0525152689856776,2.2858192086249162e-07,-0.0451315948093539,8.734206149830708e-06,0.002503767471626,4.847976379721193,27.13799345359824,17.86933609171003,25.602178740977283
0.52,31.222206962738102,131.01041054193402,7.405210501673173,4.865306299521403,0.0012516517170965,30.733671928447727,0.0013599291289974,2.317711624364424,372.098451184342,18.08534843773428,7.701914987606457,69.65988568649581,0.0001453248538387,120.00016298000436,200.19561780583155,1.274,1.0252426840672306,0.0,0.0,0.0,0.0531507657929359,2.4726951523704535e-07,-0.0477531686556663,9.421346966092632e-06,0.0026812161964639,4.865306460134566,26.8699055233151,18.085545046726228,30.820940596104087
0.53,31.222206619320115,131.01041124632013,7.569307468221277,4.848802699234936,0.0012715119568563,32.301199055744725,0.0013711327835325,2.2490252325653923,386.55624643486095,18.41963113311156,7.8474319110539055,69.6325258319474,0.0001598315062727,120.0001786629144,207.6614205945027,1.274,1.0251993415311351,0.0,0.0,0.0,0.0541332845214831,2.67031759303889e-07,-0.0504479325599339,1.0141887756417996e-05,0.0028848299490111,4.848802865552398,26.45837260670532,18.419830861742675,32.37940050117613
0.54,31.22220626697288,131.01041196903336,7.737918664599091,4.831496690588052,0.0012913635058467,28.31291960103712,0.0013809098107221,2.177242866245296,349.2703242098436,18.75116898748492,7.992112829440902,69.60362200959217,0.0001754082864028,120.00019548734956,215.20067397992847,1.274,1.0251561018460285,0.0,0.0,0.0,0.0551077428911958,2.878941684235108e-07,-0.0532336286085667,1.090122304443916e-05,0.003098869611663,4.831496862756785,26.061835558272342,18.751371834390056,28.396510432451375
0.55,31.222205908994248,131.01041270328463,7.909026079894722,11.26915367789886,12.12314324897902,30.280788740501023,-0.715987249178397,1.7136977663832424,365.2500005919912,20.6732111531256,8.113323699629928,69.57312211246325,0.0001921068626005,120.00021350480982,261.57466467513893,1.274,1.025112921033824,0.0,5.012807131891703,0.0,0.0607565429524601,3.0989272306468813e-07,-0.0561100530405476,1.1700476995263424e-05,0.003601060098754,16.494202625284505,36.86929337798087,22.56333263297584,30.33769214232267
0.56,31.222205546564343,131.01041344664463,8.081909946161325,13.570449639310588,9.546273946506222,28.27384632041821,-0.775680324722464,1.360664204573426,346.22656194657776,21.38887330142858,8.246362755413777,69.54097415464405,0.0002099796112633,120.00023276987916,279.9937922117431,1.274,1.0250709539098009,0.0,5.031095570890197,345.0001478400497,0.0628599265128638,3.330095088065315e-07,-0.0638209163462282,0.0086918130477972,0.0042376538982663,16.540097816892903,34.72896369159431,22.88147027769156,28.31719394280435
0.57,31.222205178926508,131.01041420507835,8.258332077308209,13.456618797954969,9.438891948968733,27.974740537974565,-0.9303680242873263,1.1376879118765997,343.1828296833045,21.663373097423936,8.364773822387926,69.5044076151286,0.0135342732551156,120.01445598648584,287.2217927445436,1.274,1.0250279191823897,0.0,5.049241129622549,345.0001478400497,0.0636667828136688,3.640086349844192e-07,-0.0738507718145707,0.0160672437324713,0.0049664755423306,16.386767491752813,34.35740947611758,23.139333519099647,28.013318736137705
0.58,31.22220480655296,131.01041497242875,8.436667546963063,13.3381272965295,9.326084581876287,36.921558819517074,-1.0904401036203812,0.905977539714183,426.12500585731766,21.94324270034169,8.48596830065066,69.4620908557498,0.0380838159818236,120.04066833734204,294.6859337002972,1.274,1.024981594484354,0.0,5.067416257180974,345.0001478400497,0.0644894251485691,4.031706591305746e-07,-0.0840622616813081,0.0235484794065137,0.0057261355352589,16.226579099513255,33.9797697261408,23.401720439130184,36.948766699107956
0.59,31.2222044291092,131.01041575206858,8.617705297810769,13.135024486681408,9.1572417894393,29.9120445502894,-1.2637550699405635,0.6478939554220882,360.68438819710633,22.35340135078433,8.654829674852806,69.41391433251164,0.0739266196682684,120.07895010049036,305.7999957346394,1.274,1.0249386802161349,0.0,5.0854689292345245,345.0001478400497,0.0656949825967769,4.5061448495943083e-07,-0.0944565866387818,0.0311330983547628,0.0065543263247422,15.965816012216925,33.420868899928706,23.78570159448721,29.945738471989145
0.6,31.22220404275185,131.01041655126403,8.803658610446714,13.018583004139844,9.047595137402848,26.58559780757759,-1.4353420450136996,0.3992403369794703,329.4859594986072,22.61951152423888,8.771159211970769,69.35976520215934,0.1211059900976196,120.12935667406424,313.11864765023734,1.274,1.024891335813742,0.0,5.103477088540009,345.0001478400497,0.0664772000402425,5.064523272539995e-07,-0.1050952524197227,0.0388629523068359,0.0073792251545075,15.809065640973111,33.069318234527486,24.034805404932065,26.627309485171985
0.61,31.222203654728368,131.01041735518743,8.990161285389314,12.906707754950508,8.941871352295882,31.200782741877006,-1.6107785560233188,0.1451360750114308,372.0984511843332,22.8713583611506,8.882387709307478,69.29949260502265,0.1797068983239977,120.1919895394284,320.12429022903626,1.274,1.0248423929069768,0.0,5.121650602459808,345.0001478400497,0.0672175021221652,5.708581641747076e-07,-0.1159013196269156,0.0466835283086134,0.0082284304767339,15.658254730842192,32.73802234041299,24.27024941248822,31.242671392546196
0.62,31.222203261478647,131.0104181711241,9.179344859205504,12.74219457453854,8.801565055720626,38.84610677490974,-1.7977771150151585,-0.1305396016263767,442.86563930529206,23.205731704287704,9.02411339476312,69.23298707494341,0.2497091724662702,120.26683945838776,329.54699461841966,1.274,1.0247996097896497,0.0,5.139560873293233,345.0001478400497,0.0682003501701167,6.439387151284058e-07,-0.1268631611559309,0.0545860491071923,0.0091381771071169,15.444989317310212,32.29759246449152,24.582847174792462,38.887903706815486
0.63,31.222202861065032,131.01041900301,9.372346667213511,12.525792830142215,8.62751065739488,21.994984413765376,-1.9994936982256053,-0.4325828981086563,286.11251274707456,23.62850056213328,9.198585361748128,69.16014307688457,0.3310574201056197,120.3538611285372,341.65760993437,1.274,1.024756158874558,0.0,5.157406110306803,345.0001478400497,0.0694429954428982,7.257850535080483e-07,-0.1380167307031769,0.0625943030893194,0.0101225195680326,15.170301295798966,31.74901986705096,24.978591274014985,22.089917210681477
0.64,31.222202452578934,131.01041985264763,9.569676109367592,12.461585520938325,8.555619001013772,21.613078036659104,-2.181116207774483,-0.6923626173223405,282.3078244179702,23.770543052907108,9.269953028143776,69.08083163825373,0.4237095679968431,120.45302512297884,345.7711474053871,1.274,1.024708534665538,0.0,5.1753008268971294,345.0001478400497,0.0698606068220984,8.165141964191306e-07,-0.1494009860019485,0.0707340689873031,0.0110231334372904,15.077472106701943,31.55826347419822,25.10946777304232,21.733885435522065
0.65,31.22220204622421,131.01042069928343,9.765309393572904,12.350283669267393,8.452939502472235,38.28081557810712,-2.372804997127471,-0.9713189645774788,436.7781447787504,23.9883544408756,9.36948512850875,68.99489848679899,0.5276385240284773,120.56431976322447,352.1302214157352,1.274,1.0246641738210605,0.0,5.1932838823858285,345.0001478400497,0.0705009007477557,9.163041966226432e-07,-0.1608675310014168,0.0789024879314218,0.0119776934108012,14.928831975327798,31.269440955719432,25.31132764490808,38.366580580114125
0.66,31.22220163281824,131.01042156152153,9.96463409475519,12.105682163095924,8.262338628157686,32.564715033106566,-2.596749659950364,-1.3097877474837218,383.5125151715984,24.44946785778387,9.559572774536322,68.9022721312242,0.6426426646295383,120.68754817079062,365.7908985639712,1.274,1.0246195561629028,0.0,5.210809917950701,345.0001478400497,0.0718562578796757,1.025187777954872e-06,-0.1724485713854856,0.0871210071875069,0.0130865460744464,14.621679876152417,30.68571715428737,25.742819515787566,32.69433158710157
0.67,31.2222012081332,131.0104224477628,10.170042917683276,11.943999010668255,8.1274492963674,22.41790111692905,-2.80919219972646,-1.6245523765713563,289.15624401033847,24.74724840508051,9.689490853194116,68.80286001244386,0.768531951612047,120.82252735422132,374.7480159144533,1.274,1.024572383541697,0.0,5.228369380513903,345.0001478400497,0.0727315945807405,1.1432024196128325e-06,-0.1842596436854004,0.0954672852611166,0.0141528728498495,14.413661601059069,30.30228460248628,26.019628056970536,22.651556717533484
0.68,31.222200782250244,131.01042333768189,10.375676524162197,11.837714566333103,8.029825118548516,28.020619338557747,-3.010616578465229,-1.918552114951026,340.89999248584934,24.925455498994776,9.775181432387162,68.69650020121804,0.9052078965215278,120.96917408370793,380.1571283181657,1.274,1.0245245285832842,0.0,5.246156752938145,345.0001478400497,0.0732555110777467,1.2705190279229182e-06,-0.1962101229921574,0.1038785422266011,0.0151790082930275,14.27194151515168,30.05621264472961,26.18265256308368,28.247119543710454
0.69,31.222200353680645,131.010424234287,10.582406952961868,11.661635320939668,7.88655815573852,34.52471042063743,-3.2328720462661305,-2.250096726124356,401.0140726853658,25.23414910634676,9.910115512695455,68.58308056875822,1.052459179702016,121.1272857946992,389.6239453581475,1.274,1.024479631064582,0.0,5.263661047098702,345.0001478400497,0.0741629295684867,1.4072364162097989e-06,-0.2082321370886597,0.1123080402268442,0.0163082246201336,14.047391518316765,29.65912475801518,26.46905858539789,34.74866942162413
0.7,31.222199916564115,131.0104251491391,10.793517887265958,11.449968956946805,7.720447836473062,28.96029691225789,-3.470538362991876,-2.6083413621861515,349.270324209851,25.610401794930816,10.071046445244006,68.46252605851996,1.2099889176594048,121.29656950761704,401.3213734243943,1.274,1.0244351749185203,0.0,5.280984463313797,345.0001478400497,0.075268911986573,1.553366382794282e-06,-0.2203825202940721,0.1207932807542894,0.0175168090824978,13.780804218055424,29.18933838739791,26.819460364067822,29.28390135273685
0.71,31.2221994724036,131.01042607911052,11.008090600169588,11.28720046237106,7.587089492335644,23.804008558255287,-3.6967973504833886,-2.9458379855221124,301.3312640634036,25.87427486535576,10.19022107746028,68.33472655672173,1.3775360867733264,121.47677210841678,409.62545047723535,1.274,1.0243880468141104,0.0,5.298397232908431,345.0001478400497,0.0760446184171602,1.7089705888480328e-06,-0.2326853177025452,0.1293493966874669,0.0186848526998374,13.57266977797924,28.843028020867,27.06257218435628,24.26880910817375
0.72,31.222199025495705,131.01042701570967,11.223712542361032,11.1409330333107,7.464976845430352,29.15914070158797,-3.918628529182039,-3.2758336952319382,350.7922053414578,26.090109015916017,10.29171748796472,68.1995558668079,1.5548428207069835,121.66764530615932,416.4792344097791,1.274,1.024337302174265,0.0,5.315775400914428,345.0001478400497,0.076679142552837,1.8741596733294216e-06,-0.2450746766700317,0.1379311822081318,0.0198434805774936,13.384370871840677,28.545318220672108,27.259390167958085,29.603077921113886
0.73,31.22219857432991,131.01042796186343,11.441207519372316,10.944039755021736,7.310174401076408,36.89449474349862,-4.161083226678619,-3.6419483509807247,422.3203185282354,26.40921503201456,10.433135035880172,68.05692425802064,1.741572113607246,121.8688569657828,426.7204731432004,1.274,1.024292465384646,0.0,5.332969671836933,345.0001478400497,0.0776171894029217,2.048984365707868e-06,-0.2575171133778241,0.146515365383769,0.0211055189925331,13.13615132526806,28.138717760069813,27.554381728341237,37.30659651842559
0.74,31.22219811502308,131.01042892495556,11.66262477994163,10.706965675528378,7.129735185395724,23.094858348372057,-4.42438884466942,-4.043848488861401,294.4828134710563,26.81549095011732,10.608755051605907,67.9067600485275,1.9373420165725,122.0800276027438,439.9413321639244,1.274,1.0242470321640116,0.0,5.350047909428608,345.0001478400497,0.0788114389865378,2.233437859264498e-06,-0.2700524292205582,0.1551276232225502,0.0224728966547184,12.84050358467093,27.64670072988485,27.9325390668431,23.860016961039076
0.75,31.22219764726627,131.01042990537965,11.888040275641288,10.564985688028983,7.0116456563336,26.96660887819287,-4.647742463936224,-4.377767980503768,330.24688556441737,26.982627136047928,10.693229899870351,67.74896698128191,2.141793612120893,122.3008035356616,445.4329330837501,1.274,1.0241984712898409,0.0,5.3671617905931965,345.0001478400497,0.0793028583442915,2.427542461908447e-06,-0.2827110236294715,0.1637871729528881,0.0236724271069562,12.657925448623374,27.390284386332475,28.081266864153957,27.712169833696358
0.76,31.22219718059516,131.01043088493054,12.112392156660146,10.367361185903688,6.857849448884752,29.025148541371887,-4.896679717407556,-4.756141592812724,349.2703242098581,27.273917314496195,10.826279333046232,67.5834296789323,2.354581547667838,122.53084674104105,455.0923569905659,1.274,1.0241522053390697,0.0,5.384283894638942,345.0001478400497,0.0801591729723476,2.63142523851192e-06,-0.2953647519477582,0.1724079581983447,0.0249984247125832,12.409568705578112,27.01095930200336,28.348575532519927,29.81706898664683
0.77,31.2221967042002,131.0104318840066,12.34131547734089,10.160672326513696,6.698466119528691,27.13239454183388,-5.151197183794335,-5.144700225611378,331.76876669606884,27.57663303374696,10.964708073537976,67.41010713377726,2.5752383925493407,122.76968804340343,465.2404159844895,1.274,1.0241065975906936,0.0,5.401068812972667,345.0001478400497,0.0810490763386797,2.8450223050569246e-06,-0.3080616881389333,0.1810211542098006,0.0263618472862611,12.150594068388877,26.61991816626295,28.62643037135683,28.092162722216198
0.78,31.222196222372656,131.0104328943218,12.57249098871098,9.964047318650454,6.546066722005016,22.273936991841847,-5.400687158716164,-5.525698708229347,286.8734378128874,27.84194768211143,11.089387674577893,67.22892958502518,2.803332369851305,123.01689726292204,474.2251038764184,1.274,1.0240588105546735,0.0,5.417939142811209,345.0001478400497,0.0818290625167985,3.068334362326687e-06,-0.3207935766004054,0.1896201982653604,0.027714850760799,11.90378085217298,26.262734840021626,28.86796590473604,23.576026745764217
0.79,31.222195735714983,131.0104339146757,12.80557873428432,9.785027655599214,6.405305170287857,31.65015047226041,-5.638087433074583,-5.887698495638642,373.6203323159581,28.04553598384328,11.190582670678928,67.039831801389,3.038418869340023,123.27203073232756,481.17502970165714,1.274,1.0240083170932772,0.0,5.434720569142113,345.0001478400497,0.082427636837386,3.30137034275936e-06,-0.3335295075479524,0.1981839938041308,0.0290252222019268,11.677958577836447,25.95856044020241,29.04958451019253,32.6831003485787
0.8,31.22219524537552,131.01043494288643,13.039975798374863,9.543324520777032,6.224645525983805,32.04900869142772,-5.913772858004559,-6.314821743360073,377.42502064505805,28.4109570412364,11.35684625647938,66.84276676818251,3.280024827251351,123.5346141174202,493.7846036254955,1.274,1.0239625010683884,0.0,5.451369709904282,345.0001478400497,0.0835018536844906,3.544125647555584e-06,-0.3462274474210291,0.2066841810563613,0.0305221504142315,11.378136797660371,25.510193175491803,29.38679981928628,33.196214259606386
0.81,31.222194743989828,131.01043599217596,13.279221910010923,9.312139605384449,6.0511289656557405,20.833136794501733,-6.183469943639832,-6.7331020813677975,273.9374926939922,28.736794602840185,11.50861338101004,66.63771274292918,3.5276436475713875,123.80413655593816,505.1641090069294,1.274,1.0239149950770308,0.0,5.467851713681382,345.0001478400497,0.0844597417751076,3.796480213690856e-06,-0.3589470671835099,0.2151589053204437,0.0320056407357292,11.090937301594089,25.0972690227802,29.685537719354446,22.750594561031555
0.82,31.222194237529223,131.01043705152807,13.52031996820668,9.132072654677136,5.910645398336334,26.745040027166244,-6.413627541900705,-7.0873721359447,328.725004432774,28.89618259642649,11.59448049797574,66.42461306441058,3.7808179936019193,124.0801405358756,510.7715864957141,1.274,1.0238644186635044,0.0,5.4844278156698,345.0001478400497,0.0849284268748732,4.058430830387527e-06,-0.3716538276070621,0.2235846205740236,0.0333216747100463,10.86434254078736,24.82213200471857,29.82297872897629,28.401806775173956
0.83,31.222193729931053,131.01043811393296,13.761406647893292,8.90034420884276,5.737536087289052,33.969902645498955,-6.678824805237314,-7.5013376127279985,395.6875032246518,29.198115618731787,11.738883142273144,66.20343225688146,4.039065776939516,124.36214129997364,521.4892702578352,1.274,1.0238188483711983,0.0,5.500888012455112,345.0001478400497,0.0858160680535717,4.330005355012204e-06,-0.3842583976272003,0.23190272197092,0.0348109498866793,10.576864199405737,24.42686781955935,30.097860175860447,35.42359457344579
0.84,31.222193211523702,131.0104391963499,14.006953209788396,8.640783066681314,5.547108988277699,20.916628751883447,-6.965826862006453,-7.952853863133283,275.45937482564227,29.578074188856387,11.916520141935624,65.97418929602614,4.301844337738404,124.64958726003452,535.1373653581118,1.274,1.0237739661568126,0.0,5.517108860054344,345.0001478400497,0.0869330436439302,4.611028376764389e-06,-0.3968081451711594,0.2401431217243172,0.0364147987299618,10.256694046901734,23.96996135193692,30.448051464210423,23.436637702194442
0.85,31.222192684248448,131.0104402950302,14.255913868346958,8.445951884475555,5.398009208420048,22.779538229776044,-7.192682854648074,-8.307169345204253,292.9609323393965,29.730622359404485,12.002010002483807,65.73687628893776,4.568656479882478,124.94197548707652,540.6585880943737,1.274,1.0237227741398531,0.0,5.533392331570838,345.0001478400497,0.0873816440654556,4.901380515346181e-06,-0.4093185698878031,0.2483147388323028,0.0377556982911345,10.013047472476014,23.689883202927515,30.57728585378031,25.29132481977324
0.86,31.22219215798825,131.01044139285216,14.503814678987062,8.218745754862338,5.228754398355414,28.511751076631647,-7.442347837482818,-8.701072645576817,346.2265619465616,29.97551458810213,12.12656336463967,65.49147748461344,4.839025476844739,125.23882447152222,549.5890362097,1.274,1.023674789281455,0.0,5.5496524456452,345.0001478400497,0.0881016562930655,5.201109422844177e-06,-0.4216763626524485,0.2563442385076439,0.0392150364928454,9.73138097335508,23.335872188491557,30.7957058482421,30.724862179894252
0.87,31.22219162199696,131.0104425081779,14.755414121806783,7.965859621180521,5.043587041947774,26.485989483560143,-7.712425861082701,-9.130545137621052,327.9640783669946,30.29656414755087,12.284281980708696,65.23804705346708,5.112407624090108,125.53957784790676,561.4111455866108,1.274,1.0236288969245204,0.0,5.565601407329626,345.0001478400497,0.089045512480469,5.51001189246585e-06,-0.4339042114867084,0.2642455702343017,0.0407834038695302,9.419580360608036,22.92388879159279,31.08778618766658,29.057804564283433
0.88,31.22219107750184,131.01044363857883,15.010026991044771,7.725095718332458,4.866397515755184,22.805505870645565,-7.965050915831212,-9.53353543119842,294.4828134710421,30.56023277248283,12.419330657027087,64.97662773002564,5.388292376631534,125.84371386797208,571.2115344517848,1.274,1.0235805388426191,0.0,5.581560499832872,345.0001478400497,0.0898207266294984,5.827901975414704e-06,-0.4460146443467234,0.2720257045728204,0.0422854914679999,9.122235697711163,22.55381672125042,31.323725973429895,25.96962517876892
0.89,31.22219052811929,131.01044477785257,15.266045010857558,7.4914452218140495,4.693935488463988,24.97887258146929,-8.202274113642476,-9.913601769122904,315.02813424808807,30.78021801675881,12.53709360585252,64.70725694624711,5.666194432394505,126.15073673507736,579.4505215267696,1.274,1.0235293752791452,0.0,5.5974841913993965,345.0001478400497,0.0904675548357328,6.154678994153877e-06,-0.4579661647914682,0.2796576573374585,0.0437300539140466,8.833403992630005,22.21333551882708,31.5167151823187,28.098058226741657
0.9,31.222189973252178,131.01044592691804,15.523690725295571,7.240696923559461,4.511127259934188,27.55859324676912,-8.45180160432019,-10.316200040511296,339.3781423542166,31.051389025990325,12.6780532421543,64.42999963739975,5.945619889295371,126.4601391038468,589.6907202862798,1.274,1.0234837388140003,0.0,5.613272703348607,345.0001478400497,0.0912648313268007,6.490204285674272e-06,-0.4697239870813265,0.2871188931716393,0.0452468086806829,8.52463882025634,21.83584689310985,31.759263352029503,30.615894489227372
0.91,31.222189409776178,131.01044709069595,15.784168300538004,6.979675070477575,4.32230652909173,20.803210611260507,-8.70730232472516,-10.731029152266691,277.7421810230785,31.350989251884048,12.832855398440453,64.1449445090066,6.226074168602568,126.77141046230214,601.1098757379978,1.274,1.023436404813438,0.0,5.628942061083523,345.0001478400497,0.0921456735025242,6.834247876788217e-06,-0.4812887419332788,0.2944090626181626,0.0468069421904942,8.204002551830419,21.439104830310164,32.02929178047323,24.97490084419603
0.92,31.22218883819632,131.0104482681222,16.047169549966107,6.740710855447604,4.147323560999585,24.779371337947577,-8.923647397802306,-11.0844151623446,315.0281342480675,31.5385505859866,12.940314288676207,63.852182717752335,6.507085941401807,127.08406342827496,608.3084603349669,1.274,1.0233859136578225,0.0,5.6445661793819335,345.0001478400497,0.0926972219418854,7.186588869177398e-06,-0.4926511502344712,0.3015215495869412,0.0481973966320903,7.909362705230096,21.115717330798766,32.1894419081147,28.574691359232855
0.93,31.22218826376958,131.0104494506962,16.310578593308367,6.477194355765413,3.957643507384701,29.492608978006285,-9.16505950529911,-11.481430436068376,359.16250706547066,31.81958322536788,13.090167218372,63.55181394852514,6.788201549875754,127.39762748176692,619.1820857457141,1.274,1.0233407575091376,0.0,5.660126168081744,345.0001478400497,0.0935235031357597,7.5471041949782755e-06,-0.5037523680350987,0.3084192962190718,0.0497213543716833,7.5861839530095105,20.73096337728399,32.44075418302499,32.94898397407009
0.94,31.22218767837621,131.0104506511124,16.577481415276058,6.200123708902163,3.7600847751525888,21.14593838488727,-9.41919387792132,-11.90200482833673,283.06875048378083,32.15202678412654,13.2646729766683,63.24397684312248,7.068958381992744,127.71161905540744,632.1716074481167,1.274,1.0232914783978162,0.0,5.675498947865598,345.0001478400497,0.0945008993954598,7.915465823713366e-06,-0.514605685803927,0.3151097993420424,0.0513219519134175,7.247380665231287,20.315061746395784,32.742235659141265,26.029399578574036
0.95,31.22218708343677,131.01045186681614,16.847196835161647,5.949337078080259,3.578732816238551,27.506396682402944,-9.619370771097929,-12.237201262344662,342.421873617488,32.338112265619486,13.375328725142667,62.92880509231082,7.348927987814076,128.02558941706403,639.4938258215174,1.274,1.0232418269359267,0.0,5.690866558264228,345.0001478400497,0.0950481291403734,8.291378088142509e-06,-0.5252069889082192,0.3215895179697274,0.0526810159168713,6.939442803143477,19.98928279218022,32.8998928531095,31.6051142572953
0.96,31.2221864864177,131.01045308619513,17.116917623635246,5.669198161104576,3.380173944893329,26.833402087180502,-9.859696077433364,-12.640969103563748,337.09533515678265,32.661423593403846,13.549493378857347,62.60643803459163,7.627705415235072,128.3391127988932,652.3279656053734,1.274,1.0231951201821403,0.0,5.70618828826227,345.0001478400497,0.0959986974435276,8.67471385709443e-06,-0.535488915456793,0.3278169638599635,0.0542479493722503,6.597580155790095,19.58182184629119,33.192072135890854,31.257625856563564
0.97,31.222185875318985,131.01045432742416,17.39095097382398,5.39406856307554,3.184948369790649,16.728558403162676,-10.080246256257189,-13.015447512167608,245.0218871929888,32.94432266984235,13.707247710707732,62.27705955893232,7.904877653308827,128.6517507600259,663.6598018733123,1.274,1.0231476260761452,0.0,5.721306464186609,345.0001478400497,0.0968304958959602,9.065038602939147e-06,-0.5454736715663607,0.3338046642200279,0.0557366261996648,6.26177921730146,19.199723741747167,33.44435557943631,23.47036226343346
0.98,31.222185257899653,131.01045557846405,17.666391733136674,5.140754577885213,3.002899722561805,24.734491811915003,-10.24211305390938,-13.296879557429016,319.593746642963,33.08122325248113,13.799206634796258,61.9408431986961,8.180071186914708,128.96310549897348,669.1692546955013,1.274,1.0230935628253934,0.0,5.736464703466809,345.0001478400497,0.0972331785323152,9.46209179906868e-06,-0.5551269793233191,0.3395310829188975,0.0569572098945525,5.951516574968566,18.900462491557164,33.55270172118949,29.891520051136993
0.99,31.22218463850796,131.0104568328439,17.94173152889009,4.856779482661056,2.803279644347756,27.025004020364538,-10.455887964490428,-13.6664804213693,341.66094855170127,33.38897071038983,13.972094196405475,61.59798682009285,8.452923010226568,129.27278719771945,681.6594131001377,1.274,1.0230490803133316,0.0,5.751500830164372,345.0001478400497,0.0981380226322987,9.8656971273893e-06,-0.5643891232679799,0.3449605065825983,0.0584446812184507,5.606054744713949,18.507210686345807,33.82913318812263,32.03824468559983
1.0,31.22218400377869,131.01045811008555,18.22145700265981,4.571917190064241,2.6035730549213905,23.933897952620384,-10.6603572023787,-14.024165754912609,314.2672081822764,33.69238889722788,14.145172426612712,61.24872839148304,8.723071351003107,129.5804032313596,694.0860506940925,1.274,1.022999484445133,0.0,5.766336131872654,345.0001478400497,0.0990301524726207,1.0275306947429556e-05,-0.5732865677198975,0.3501074204516225,0.0599039183902394,5.259907258972327,18.119260519259004,34.10121646597955,29.71787192936293
1.01,31.222183361189657,131.01045939890588,18.50290603708743,4.293380118172704,2.407985599789176,24.977727978543875,-10.835726764258183,-14.3374367732874,324.92031610370094,33.93967756074188,14.293568659264986,60.89329287797768,8.990195388245038,129.88560319240315,704.2930310051846,1.274,1.0229507481225095,0.0,5.781214849738832,345.0001478400497,0.0997573109992921,1.0690564347598112e-05,-0.5817960972227874,0.3549571142571661,0.0612376386917509,4.921447895997503,17.76336989901614,34.31781171542163,30.77112222048147
1.02,31.22218271149657,131.01046069814012,18.7858009820436,4.00869854046921,2.209382090489452,20.46958280041672,-11.0133202972932,-14.657794906538912,284.59063161543185,34.21932331037112,14.459342123875151,60.531922786322426,9.253991495997877,130.18805200616552,715.9274283492551,1.274,1.0229039803623294,0.0,5.795993603604438,345.0001478400497,0.1005795817622799,1.1111153888523204e-05,-0.5898830501065135,0.3594889071323234,0.0625987202643009,4.576359349005835,17.393564783406678,34.56628623658203,27.479956250257104
1.03,31.222182050806616,131.0104620131692,19.07131859962815,3.7311039325807775,2.0151171412124005,16.289927081409015,-11.1542667908329,-14.921305065166932,247.3046933904342,34.42777463069649,14.592521735721892,60.164885185375,9.514169431750942,130.48742547499003,724.6564472257694,1.274,1.022853416101322,0.0,5.810659873447476,345.0001478400497,0.1011926009695837,1.1536630085283244e-05,-0.5975337468462407,0.3636938765043209,0.0637951408251451,4.239822118133371,17.06156460046149,34.74424323850851,24.747216748686647
1.04,31.222181384593394,131.01046333609088,19.35766451915253,3.4559131275599952,1.8225294872188893,26.85276995764328,-11.26938755845034,-15.14562662260676,345.4656368807608,34.59760005388205,14.708314595268758,59.792458721084365,9.770460849440427,130.78341999088025,731.8031283431395,1.274,1.0228049544826707,0.0,5.825276292659762,345.0001478400497,0.1016920926867568,1.1966659909425746e-05,-0.6047135461189151,0.3675518438021523,0.0648783712437378,3.906522731783311,16.750201006854414,34.883834040970825,32.824691257224025
1.05,31.222180711811,131.01046466829715,19.64513323309333,3.160573670776385,1.6197434646129851,15.28916037652759,-11.44077753051606,-15.466501214589028,240.4562587980608,34.94771277148028,14.915157022687383,59.41494650062111,10.022611460990417,131.0757435124629,746.6685142665459,1.274,1.022755494436122,0.0,5.839752292262877,345.0001478400497,0.1027215057914915,1.2400849225532243e-05,-0.6113978821772679,0.3710487079633879,0.0662574876159606,3.55107491595743,16.357931721148983,35.20210759203203,24.573613396137457
1.06,31.222180021504176,131.01046602461705,19.936896389522435,2.8862917209192127,1.4283962252570723,22.54006184467047,-11.515365021347291,-15.63094370241668,308.1796836557233,35.07350656516895,15.012152109456496,59.03266979028131,10.270385336257384,131.36412049739312,752.0323594239621,1.274,1.0227013895379469,0.0,5.854106150114959,345.0001478400497,0.1030915897858671,1.2838488374663989e-05,-0.6175995381923256,0.3741892248396979,0.0671685938552671,3.220135001546396,16.072132929867013,35.29785527849227,29.748687711637935
1.07,31.22217933365573,131.01046737758193,20.226993631725843,2.5961317004075752,1.2296344536760286,26.803328436630544,-11.64088203449964,-15.88338125676978,348.5093681440431,35.367058711735936,15.19530064545438,58.64594487034453,10.513575556927124,131.64830438988324,764.6521938872878,1.274,1.0226540159946436,0.0,5.868497014955183,345.0001478400497,0.1039547681667397,1.327942052792998e-05,-0.6232637746998916,0.3769444025761808,0.0683500496790496,2.8724320294294685,15.715486731055131,35.56019441345421,33.25974067804693
1.08,31.222178627436328,131.01046875531614,20.521422059730813,2.304037816189224,1.030659252607102,17.135562324309884,-11.764675567181945,-16.13703769333892,261.0015785751465,35.689675329095216,15.395839822614011,58.25512454261767,10.751983108375736,131.92805317089605,778.6440424639286,1.274,1.0226061614050743,0.0,5.882632093000806,345.0001478400497,0.1049033871116003,1.3722906309761236e-05,-0.6283984750397089,0.3793162580930689,0.0695398010418754,2.523940587743972,15.35240828193432,35.85156217495937,26.314237075917617
1.09,31.222177910277548,131.0104701474524,20.81790068355017,2.0237253815953924,0.8379032629377628,15.431595357724513,-11.811661910409304,-16.266771279349474,246.54375332456465,35.84767146170053,15.513693423363756,57.8605594431728,10.985434546929612,132.20315001322032,785.5309574643038,1.274,1.0225512795791307,0.0,5.896807362285567,345.0001478400497,0.1053681408586993,1.4168393876561031e-05,-0.6329866274322276,0.3812938576899034,0.0703556278461812,2.190263525013552,15.063902477761644,35.97928430708643,25.34279661412741
1.1,31.222177190961595,131.01047154234126,21.11399438169837,1.7412911878425064,0.6447923208653952,33.473786176758686,-11.853570177739348,-16.391676714202088,413.1890617384087,36.02984021442405,15.645549637139789,57.462613318169566,11.213773038115953,132.47339298700413,793.5124130815179,1.274,1.0224981043155532,0.0,5.910911720629165,345.0001478400497,0.1059039488049855,1.4615612747874851e-05,-0.6369927186804574,0.3828599740859319,0.0711586680371733,1.856804816658082,14.770036071069468,36.13112181747561,39.11123307272308
1.11,31.22217646071015,131.01047295145463,21.412066177323087,1.444874869826148,0.4472056288857338,23.631542985650803,-11.98883809536845,-16.67706328392005,324.1593910379213,36.49236186593822,15.927292947009152,57.06167405085123,11.436855322886206,132.73859156869733,813.9928021198608,1.274,1.0224548851875197,0.0,5.9248324810647,345.0001478400497,0.1072638179565581,1.5063986788101933e-05,-0.640405637528161,0.3840080701265837,0.0724562230431963,1.5124859892223157,14.372433820969864,36.56260804860244,31.309846734461885
1.12,31.22217570501933,131.0104743931824,21.715773090267728,1.1614778542470148,0.2556375607577896,6.988341205780625,-12.017816338661696,-16.788932864670933,172.7328179403806,36.7186003142876,16.086670678062305,56.658138631754525,11.65455618247379,132.9985720351181,824.0929256234015,1.274,1.0223979224661404,0.0,5.9386843515172565,345.0001478400497,0.1079291817892172,1.551250349674624e-05,-0.643227559609809,0.3847326819066582,0.073224542241646,1.1892739030334678,14.0747031384278,36.75875563520208,21.79754777704692
1.13,31.222174950093656,131.01047583358618,22.018203646169084,0.8856391110061907,0.0670137574022762,28.12419854147013,-11.954566536372711,-16.74935808117451,367.5328077894322,36.74589354755842,16.1404832320945,56.25240536809384,11.866765753118887,133.2531744382999,825.2945168825255,1.274,1.0223460397860296,0.0,5.952635360551052,345.0001478400497,0.1080097750340547,1.5960985188223915e-05,-0.6454239775708179,0.385019708650316,0.0735270591781689,0.888170659814789,13.857054916539726,36.756420041555614,34.84857530522587
1.14,31.22217419461248,131.010477274601,22.319806218376808,0.5986816738520953,-0.1224412552248713,14.047257936974992,-12.02964725487644,-16.947134296562655,239.6953177322812,37.17460606567105,16.413520817975012,55.84489544901867,12.073387569671072,133.50225046867783,844.6397256086739,1.274,1.0223022138470996,0.0,5.966369343696012,345.0001478400497,0.1092702916165822,1.6409203616091935e-05,-0.6469767649061078,0.3848651929716607,0.0745616939231392,0.6110736960259365,13.500044653919035,37.15537305291435,25.084721036726584
1.15,31.22217340674172,131.01047875605707,22.628368728208464,0.3213869783204785,-0.3093134738389336,13.685891674104578,-11.967105644164231,-16.916751975211042,237.4125115347709,37.2877733151208,16.51669003649483,55.436042428616325,12.274343282962816,133.74566931382273,849.7648861696009,1.274,1.0222426194541194,0.0,5.979913210893365,345.0001478400497,0.109603314796895,1.6855861910963256e-05,-0.6478829520069723,0.3842563030882115,0.0748912082608449,0.4460531487354255,13.264028241188855,37.2391867042713,24.833278998245866
1.16,31.22217262764796,131.01048022613347,22.933688117512794,0.0444280894724051,-0.4941338175258292,41.1616248406859,-11.913524284801628,-16.905337488239415,490.043774385954,37.467226187624576,16.65769514590475,55.026284515085926,12.469561514306177,133.98330433385425,857.9386432865185,1.274,1.02219674531104,0.0,5.993614692045834,345.0001478400497,0.1101311762552115,1.7300924863750238e-05,-0.6481264054163209,0.3831938253000954,0.0752777026244472,0.4961270359688347,13.01256273066323,37.38960879125123,46.06519137050449
