Time,Latitude,Longitude,Altitude,Angle of Attack,Angle of Sideslip,X-Acceleration,Y-Acceleration,Z-Acceleration,Thrust,True Velocity,Ground Velocity,Pitch,Roll,Yaw,Dynamic Pressure,cp,parachute_deploy_gain,Wind Speed,Mach,omega_x,omega_y,omega_z,Cmq
0,31.2221860000000042,131.010383999999988,3.00000000364323682,0,0,0,0,0,2.2828121974499247,0,0,69.9999999962342088,0,113.699999993883324,0,15.2880000000000003,0,0,0,0,0,0,-0
0.01,31.2221859999997946,131.010384000000556,3.00000016469923247,0,0,0,0,0,34.2421869617492334,9.11367326775851009e-12,8.66229497295429822e-12,69.9999999962370651,-4.92863947922479589e-13,113.699999993882884,5.08594204168408172e-23,15.2880000000000003,0,0,2.67827100510624443e-14,-3.65918233213857746e-19,7.58941520739853104e-19,4.81114714040442593e-19,-1.83541113936281872e-32
0.02,31.2221859999996028,131.010384000001039,3.00000030885429547,0,0,0,0,0,25.8718762377664078,1.96992978605390895e-11,1.88456988716431921e-11,69.9999999962400494,-1.04152381447771591e-12,113.699999993882386,2.37621641206600858e-22,15.2880000000000003,0,0,5.78911013494094702e-14,-7.28448334638698292e-19,1.51788304147970621e-18,9.75781955236953991e-19,-7.93451985123442364e-32
0.03,31.222185999409362,131.010384001586402,3.00018176030779937,18.6493779029494604,-0.000129237623237530007,10.7928899806483045,-1.97644583900689674e-05,3.34983967390763571,180.342193598546658,0.0785672533977095078,0.0490694047558625918,69.9999999976775626,-4.2497891361524094e-12,113.699999994705607,0.00377978965327356543,15.2880000000000003,0,0,0.000230888677896110966,2.88330015245363835e-17,-7.25223402354589416e-10,1.08188208080271277e-11,1.51197624781400831e-13
0.04,31.2221859959356287,131.010384010943454,3.00162780953569674,9.74253989061216075,-4.88763086122285772e-05,51.6475445943311158,1.54548216767323456e-06,3.34965665682309899,548.635972453807767,0.346420694310776434,0.171860503977579737,70.0000000036447574,-2.28205307288861013e-11,113.699999999565534,0.0734838809649275282,15.2880000000000003,0,0,0.00101804013696402693,1.80009747884589399e-15,-1.58734069119923437e-08,2.61929145365345784e-11,1.45916869803439425e-11
0.05,31.222185985910329,131.010384038045004,3.00715844163023283,5.5769968489095687,-4.21135943534799539e-06,75.3242160169835273,4.73080294831520123e-05,3.34902689347595528,761.698429882464552,0.947854334293939504,0.409211128642743283,70.0000000010935537,-1.04766136577077691e-10,113.700000013612069,0.55013262299765131,15.2880000000000003,0,0,0.00278549703395658196,1.95473045844392346e-14,-1.13584749331540247e-07,4.14067569904437612e-11,2.85688606727574374e-10
0.06,31.222185966868647,131.010384089593572,3.01868664272593046,4.48500474963244322,2.31139019787050305e-05,56.3605563030587007,9.71465785775115924e-05,3.34799244711343214,590.487539073720654,1.60618980149218604,0.665693519146445256,69.9999999197690244,-2.82941102348924619e-10,113.700000040305838,1.57971028663545732,15.2880000000000003,0,0,0.00472017413217633904,1.01936766184118274e-13,-4.07864410983111553e-07,5.76522069423461223e-11,1.73837509686130208e-09
0.07,31.2221859390775336,131.010384164863126,3.03600551209402658,4.00448286551149391,4.63712119495135773e-05,85.8192455386477917,0.000147926970097503541,3.34656708333141317,855.293774977913927,2.27788210706903049,0.926660947343454056,69.9999996219982279,-5.49831570978999292e-10,113.700000079276109,3.1772067926123353,15.2880000000000003,0,0,0.00669410445039518576,3.35900025920073467e-13,-9.92070622953462368e-07,7.83315922772719921e-11,5.99658406989250883e-09
0.08,31.2221859009658012,131.01038426812616,3.06033476575187802,3.77263127792190334,7.06371256062416025e-05,17.6076228145981588,0.000196957592070898702,3.34480227118667583,241.217198863884818,2.92612482887636283,1.17954495655796454,69.9999989088305909,-9.15694670892462832e-10,113.700000132739973,5.24285298735243899,15.2880000000000003,0,0,0.00859912396431777512,8.49635706706491564e-13,-2.01744800413265681e-06,1.10032289818440005e-10,1.56647792516492608e-08
0.09,31.2221858556197738,131.010384390989856,3.0892797608365723,3.74258231141200604,9.5325675231994802e-05,53.4176180048964397,0.000237730218002333866,3.34289666486112669,563.093737704317618,3.46187703891102627,1.39384941462988121,69.9999975134546446,-1.31671842773002699e-09,113.70000019638816,7.33844512707370811,15.2880000000000003,0,0,0.0101735644468633635,1.80613395740032365e-12,-3.4856561047658452e-06,1.59232278560273843e-10,3.20202005890100843e-08
0.1,31.2221858028175774,131.010384534057465,3.12301320909491364,3.81071421019783685,0.000121971080758598364,50.732831688561788,0.000271545837515448313,3.34090447591365036,538.7437595981919,3.9029133825176725,1.57567038389986336,69.999995157830341,-1.72222432289554893e-09,113.700000270567642,9.32732681847184431,15.2880000000000003,0,0,0.0114696609641860067,3.37914451533694905e-12,-5.48904943388414521e-06,2.34452541412924053e-10,5.68476506314615152e-08
0.11,31.2221857431700727,131.010384695667796,3.16106164078641116,3.84323765504598036,0.000147145408783231387,40.0848474374385688,0.000307099758177995722,3.33859717034531034,442.865639305294906,4.36819921201157246,1.76578242121538631,69.9999915253729768,-2.07703942468805025e-09,113.700000354470319,11.6837607126815346,15.2880000000000003,0,0,0.0128370221364947634,5.76365694334259916e-12,-8.08162139954488366e-06,3.4437809457680147e-10,9.36754562129998513e-08
0.12,31.2221856770245907,131.01038487487628,3.20315617196047642,3.86558564807459826,0.000171348089099210797,43.7480799143332604,0.000342946594964391399,3.33600966231316054,475.585948135404465,4.83801864946757032,1.95742650583495204,69.9999862600106582,-2.3147200577597177e-09,113.700000447673773,14.3321420062794882,15.2880000000000003,0,0,0.0142177082532951912,9.17772063248746377e-12,-1.13223702306849879e-05,4.98555567062495836e-10,1.45354343598177095e-07
0.13,31.2221856047215205,131.010385070757366,3.24903338361815308,3.95285669440916232,0.000198169826234992146,48.2585391180499741,0.000371981107240517913,3.33344523512332414,515.915632623689476,5.21512035057569623,2.1172615234944101,69.9999789703044399,-2.35265113573284059e-09,113.700000549782459,16.6533950244453948,15.2880000000000003,0,0,0.0153259223232261182,1.38588880633063252e-11,-1.52681962163171846e-05,7.07166414280215559e-10,2.11287244421402401e-07
0.14,31.2221855263490333,131.010385283071088,3.29862557546706325,3.99981420118284792,0.000223008237377726162,44.9721767850953427,0.000403855591455553264,3.33052592490198407,486.239086056840392,5.63167615200940475,2.29059513099545553,69.9999692426645623,-2.0964169591742506e-09,113.700000660771011,19.4199179783547713,15.2880000000000003,0,0,0.0165500839355928395,2.00553635588333716e-11,-1.99811439493909854e-05,9.81252131659242702e-10,2.9859131057555361e-07
0.15,31.2221854420015994,131.010385511560628,3.35186028506811029,4.05975476911301225,0.000248539990764711958,43.4637160193537753,0.000433543226731567866,3.32747422849243879,472.54218587214001,6.01888316560526437,2.45383766868271946,69.99995661705006,-1.43188768134039915e-09,113.700000780625842,22.182048585914238,15.2880000000000003,0,0,0.0176879988684610287,2.80404916713566325e-11,-2.55291719775422389e-05,1.33309260321839681e-09,4.07727088477750495e-07
0.16,31.2221853515819241,131.010385756490507,3.40881389436676407,4.08854462484130732,0.000272210944932510383,34.4023069357135967,0.000465877824565354701,3.32404684464906053,391.12189082975641,6.44303061809316624,2.62971580822363071,69.9999405987561403,-2.27841984783363582e-10,113.700000909623355,25.4183784408083007,15.2880000000000003,0,0,0.0189344747787753703,3.81042963600432359e-11,-3.19913711614788564e-05,1.77662362644707755e-09,5.46937370926295155e-07
0.17,31.2221852554099399,131.010386016990765,3.46923909377793649,4.13347468842419552,0.00029684158695823977,43.4155809381403728,0.000495744973995866601,3.3205135250562221,471.78125980632376,6.83404379119085981,2.79420112365087148,69.9999206448319882,1.67575894446247236e-09,113.700001047478835,28.5969980778046526,15.2880000000000003,0,0,0.0200835795555658371,5.05622819343119236e-11,-3.94162603380559734e-05,2.32482468580976756e-09,7.14768170397066036e-07
0.18,31.2221851530022434,131.010386294375877,3.53351204963262022,4.16207877285686756,0.000320492787063832857,36.2151660219171347,0.000526966735016640565,3.31665933612355879,407.101567211914528,7.2444022294323478,2.96528531587496236,69.9998961790314524,4.45070668055043651e-09,113.700001195059045,32.1341903991183955,15.2880000000000003,0,0,0.0212895378539265934,6.5741708189353534e-11,-4.79243856484647045e-05,2.99669991322666987e-09,9.21230820748327094e-07
0.19,31.2221850444828668,131.010386588308563,3.60153760019172342,4.17456309251139679,0.000342914278589344943,40.9041800427263027,0.00055982867240863632,3.31244583927210501,448.953132831826849,7.67810673790947895,3.14433961722118216,69.9998665624008964,8.30674092292676784e-09,113.700001352409558,36.0967170721845179,15.2880000000000003,0,0,0.0225641073333706747,8.40032927522686365e-11,-5.75836346763551867e-05,3.80911503044151526e-09,1.17316671380156179e-06
0.2,31.2221849296486234,131.01038689934137,3.67347464118590317,4.20078915399145636,0.000366573034254704516,37.5214898208491761,0.000590466919182690893,3.30812712915434881,418.515630199161365,8.08216006412957277,3.31318683933006453,69.9998311045104487,1.34800080829191884e-08,113.700001520067786,39.9955165273270055,15.2880000000000003,0,0,0.0237515420632470921,1.05728805481567758e-10,-6.85028882131185225e-05,4.78351733027568889e-09,1.4690610466811608e-06
0.21,31.2221848088436893,131.01038722653837,3.74905730552401684,4.22722562033261262,0.000390310433246848657,36.0064697775761644,0.000620601272787201603,3.30359776763142721,404.818761014464428,8.48018829437500621,3.47992805775657654,69.9997890742529592,2.02433263776548733e-08,113.700001697833756,44.0315784885794201,15.2880000000000003,0,0,0.0249212734096428447,1.31320595517854955e-10,-8.07208291683553139e-05,5.93661589182972911e-09,1.81631626331753899e-06
0.22,31.2221846819136672,131.010387570319409,3.82840670130281646,4.2176244726165093,0.000410696285369717819,43.5935627685881499,0.000655758920494764063,3.29841875767922987,472.542185872136486,8.94831461811120121,3.67066782999472752,69.9997397083127737,2.88926538075102191e-08,113.700001886238866,49.0266756129506618,15.2880000000000003,0,0,0.0262970098082033268,1.61186003536399267e-10,-9.43348117723774896e-05,7.29106197993283208e-09,2.23980539128825791e-06
0.23,31.2221845484548304,131.01038793178239,3.91183756115468473,4.25320537954326383,0.0004356497720089569,36.207459360748949,0.000683686922722525747,3.29355466128287455,406.340642146102141,9.31799902525197865,3.82760028360492655,69.9996821549030983,3.9766623706965518e-08,113.70000208621326,53.1608354775167555,15.2880000000000003,0,0,0.0273834518362109196,1.95767624418301473e-10,-0.000109505708778552874,8.87784718088286285e-09,2.70740355927931971e-06
0.24,31.2221844093456014,131.010388308538637,3.99866964940866776,4.27135264557773553,0.00045883378920767232,37.3286080087975947,0.000713911697673520317,3.2882529474867046,416.232824001711379,9.7203332459195213,3.9956861712714935,69.9996155408946805,5.32509871046438109e-08,113.700002296918697,57.8502398901668755,15.2880000000000003,0,0,0.0285658473732890855,2.35534745143307651e-10,-0.00012617657385590063,1.07071802425012536e-08,3.25424194465518317e-06
0.25,31.2221842644570167,131.010388700938847,4.08900446593793809,4.29698686981540234,0.000482848983334858658,38.3649566400252979,0.000742483922667206905,3.28284626589867479,425.364080791506922,10.1009615935159527,4.1562806652626314,69.9995389781877293,6.97479781374676735e-08,113.700002518962805,62.4689963611702623,15.2880000000000003,0,0,0.0296844577155840929,2.80933085873043406e-10,-0.000144451636124542286,1.28055329635332884e-08,3.87142965072796435e-06
0.26,31.2221841140756986,131.010389108203611,4.18262110402873155,4.32755423691547136,0.000507438991606541483,41.7865661614553829,0.000769736419800412888,3.27732087646770287,455.80158342417883,10.4644497354123782,4.31094871887776954,69.9994515368878751,8.97024502886333285e-08,113.700002752408935,67.0452443356678742,15.2880000000000003,0,0,0.0307527002093570291,3.32431765373287754e-10,-0.00016436315770221847,1.51925047864838523e-08,4.56355359993810651e-06
0.27,31.2221839578137299,131.010389531387915,4.27982215321117465,4.33742811840656994,0.000529702335486379188,38.2242911032538473,0.000800211178185602123,3.27123004841987974,423.842199659872563,10.8736118498261902,4.48123226393084195,69.9993522521519935,1.13587393208351198e-07,113.700002998306658,72.3900346549699947,15.2880000000000003,0,0,0.0319551720828357214,3.90484337603431509e-10,-0.000186059811616844751,1.79019946498730075e-08,5.36790267753501075e-06
0.28,31.2221837957695953,131.010389970223883,4.38053283172365671,4.35979025650862262,0.000553527510562852902,44.1207307275094038,0.000828072271385077072,3.26514386100193477,476.346873201222195,11.2478718916014184,4.63949182586423614,69.9992400702920463,1.41938296327408329e-07,113.700003257081931,77.4582454645660761,15.2880000000000003,0,0,0.0330550782151640757,4.55595825375374429e-10,-0.000209619220926101062,2.09616181379585756e-08,6.25569396794615011e-06
0.29,31.2221836278828384,131.010390424876022,4.48480177698289584,4.38135974025744623,0.00057737648726709299,35.3536197607625553,0.000855659611391794222,3.2588361863853601,397.970310422111766,11.6195889013503368,4.79682445966682813,69.9991139044831527,1.7532937395312496e-07,113.700003529427192,82.6616578528940948,15.2880000000000003,0,0,0.0341475147840558241,5.28268525040872464e-10,-0.000235137545717689308,2.44023887909330158e-08,7.24907222782668121e-06
0.3,31.2221834544381096,131.010390894570321,4.59240982688131272,4.39617507281761988,0.000600356665334356751,33.1490797613948018,0.000884158719714270942,3.25217107922164672,378.185945710871067,12.0052186882677852,4.95887519756831807,69.998972627127344,2.14383684192303281e-07,113.700003815596887,88.2385269149682756,15.2880000000000003,0,0,0.0352808420099011907,6.09029939588318471e-10,-0.000262641159892275291,2.82471356422800846e-08,8.36561857411674722e-06
0.31,31.2221832755909574,131.01039137888381,4.7032380575360353,4.42235615181669761,0.000624899913490765827,34.9528590290802086,0.000910025197609511073,3.24555398289468222,394.16562209302117,12.3556398803864607,5.10879227158949156,69.9988150759387651,2.59766173767152649e-07,113.700004116072961,93.4639131761651498,15.2880000000000003,0,0,0.0363107024397255479,6.98403788157463991e-10,-0.000292187019282257228,3.25229566712151178e-08,9.57826248689966157e-06
0.32,31.2221830914257232,131.010391877587324,4.81722282885169673,4.45155794779377789,0.000649944303128982049,38.0379859115142835,0.000934821026682707218,3.23882361682650144,421.559393462426954,12.6924793110791878,5.25399282922068878,69.9986400687318024,3.12179641788393281e-07,113.700004431478234,98.6283237403037703,15.2880000000000003,0,0,0.0373006526995305274,7.96905013945712519e-10,-0.000323836613651358495,3.72580440687311147e-08,1.09050644159405278e-05
0.33,31.22218290196043,131.01039239063175,4.9343519698327194,4.48019701204722054,0.000675004219851668761,37.7093551175013246,0.000959261610436717115,3.23189933669563656,418.515630199168186,13.0256844327599097,5.39788776638052958,69.9984463826819052,3.72372687880250348e-07,113.700004762578004,103.87354288045799,15.2880000000000003,0,0,0.0382799263433428877,9.05047894999210997e-10,-0.000357667290238851605,4.24836225249657193e-08,1.23603484615852587e-05
0.34,31.222182707020778,131.010392918491164,5.05476263450916541,4.49049305198152204,0.000697378143373914754,29.5227085089536203,0.000987142430045659337,3.22427911658814059,345.465636880756449,13.4081741031825317,5.55863100914667463,69.9982327456812641,4.41143957445642244e-07,113.700005110463266,110.062177258613033,15.2880000000000003,0,0,0.0394040418267209702,1.02333461745717641e-09,-0.000393806243978271305,4.82396483202145133e-08,1.40087103268591529e-05
0.35,31.2221825067937928,131.010393460657156,5.17831168393457641,4.50711781535187139,0.000720712543856854714,32.3530371383660977,0.00101333646443235357,3.21661305844837253,370.576570052703289,13.7686530554979374,5.71176159517965232,69.9979978091806316,5.19362042776584697e-07,113.700005475786654,116.058400304168075,15.2880000000000003,0,0,0.0404634764462946869,1.15232390415689195e-09,-0.000432299813734132244,5.45552399130644805e-08,1.57912776608867467e-05
0.36,31.2221823012122108,131.010394017312592,5.30505329869157727,4.52767240178778962,0.000744729708600240731,36.5526511043957356,0.00103828652712813154,3.20885713174522058,407.862523277719447,14.1132764952183631,5.85938873702120233,69.9977401961163537,6.07939829707116331e-07,113.700005859608282,121.939407863977465,15.2880000000000003,0,0,0.0414763190843316643,1.29254043868676357e-09,-0.000473255972436325862,6.14699225552327593e-08,1.77198251922661022e-05
0.37,31.222182090341061,131.010394588280832,5.43493909097431604,4.55039311415752579,0.00076918150115683735,34.6835787828593496,0.00106234372950533948,3.20097384516078431,391.121890829766642,14.446930470491731,6.00318739776240751,69.9974584775585669,7.0785096329375243e-07,113.700006262864989,127.771540530283914,15.2880000000000003,0,0,0.042456928843506235,1.4445318520011827e-09,-0.000516746496826029863,6.90186481791334769e-08,1.98053803654614999e-05
0.38,31.2221818741223878,131.010395173719473,5.56801609611825477,4.56315131642791805,0.000792019287104061913,36.2353933787001239,0.00108827974821363053,3.19255015153205646,404.818761014460279,14.8084413239345949,6.1564787166299757,69.9971511865591651,8.20121521966083772e-07,113.700006686723384,134.244380272309172,15.2880000000000003,0,0,0.0435194095147296359,1.60882660749176723e-09,-0.000562873331420229127,7.72423853301427293e-08,2.21128406351508731e-05
0.39,31.2221816525004634,131.010395773780147,5.704329739781131,4.57922628245169783,0.000815489716137310881,30.9425419640016202,0.00111309493143926189,3.18402316666385765,357.640624933827439,15.1559126959619999,6.30488433186772657,69.9968167722787769,9.45855271408966431e-07,113.700007132429306,140.616382889747683,15.2880000000000003,0,0,0.0445406353688629561,1.78596578656278109e-09,-0.000611756345505213715,8.61868943159197994e-08,2.45968452142520012e-05
0.4,31.2221814256617982,131.010396387955836,5.84373750626454935,4.59349479979191955,0.000838670682925170751,29.5834243852937959,0.00113797512888990423,3.17521289611434332,345.465636880754005,15.505969085398343,6.45410901523083158,69.9964536498379317,1.08621525395706341e-06,113.700007600947828,147.185065961143067,15.2880000000000003,0,0,0.045569462889951777,1.97653506559195414e-09,-0.000663427505461186432,9.58835144134294998e-08,2.72901174189528038e-05
0.41,31.2221811937141673,131.010397015953487,5.98615797249314241,4.60939449845229365,0.000862163931524819621,33.360545626359837,0.00116210409424792778,3.16624854525325983,378.946870776686467,15.8471768437686258,6.60022848408685459,69.9960602026584695,1.24241947051318175e-06,113.700008093413757,153.73182724817184,15.2880000000000003,0,0,0.0465722905345462151,2.18109996727848554e-09,-0.000717942131686907965,1.06367950505874699e-07,3.01820283711074823e-05
0.42,31.2221809567080335,131.010397657635991,6.13155423418529733,4.63387609959193458,0.000887317919769279608,37.5676427387571721,0.001183742077125155,3.15743374731593907,416.232824001711379,16.155026338188506,6.73482947265292431,69.9956347739890248,1.41574639558456e-06,113.700008611107208,159.760443802515937,15.2880000000000003,0,0,0.0474770882933877245,2.400206535531791e-09,-0.00077537935552726017,1.17680930846389008e-07,3.32294321368729263e-05
0.43,31.222180714655078,131.010398312971745,6.27991949833728835,4.65367427313455995,0.000911660169575580258,33.0386483003103493,0.00120612360190941372,3.14823214930187856,375.903139513433644,16.4750454055619109,6.87353555569934649,69.9951756835756242,1.60752723178871754e-06,113.700009155418982,166.15023929888028,15.2880000000000003,0,0,0.0484176551665520677,2.63438237315801404e-09,-0.000835821567166909188,1.29864614855892046e-07,3.65287677570896608e-05
0.44,31.2221804673911407,131.010398982407111,6.43138341412837455,4.65757387742934892,0.000932929976641759203,30.4788052564327749,0.00123214974254881528,3.13809943757763454,353.075012538921555,16.8483715860516412,7.03046484016701978,69.9946811832270441,1.81916859536649675e-06,113.700009728069276,173.762989227436179,15.2880000000000003,0,0,0.0495148886868988364,2.88411342836306464e-09,-0.000899417740154189794,1.42975581697416844e-07,4.01983191819108926e-05
0.45,31.2221802146980103,131.010399666535704,6.58611776122768511,4.65827001030579346,0.000953562143933252499,35.4620561517945134,0.00125873275223327787,3.12754579585638304,397.209385356286873,17.2316459864824161,7.19073264961644831,69.9941493995125938,2.05218870761162579e-06,113.700010330973456,181.755888424112015,15.2880000000000003,0,0,0.0506413642318551335,3.14987863732273609e-09,-0.000966369542842942814,1.57083782729145849e-07,4.41725079750487196e-05
0.46,31.2221799565319174,131.010400365476642,6.74415901717088939,4.66907507286434065,0.00097630283571516251,41.3913707355688842,0.0012823814722795761,3.11722412848720953,449.71405889764344,17.5754687869478978,7.33738035579407555,69.9935783582983362,2.30821229426708146e-06,113.700010965912341,189.078525726536213,15.2880000000000003,0,0,0.0516519027755614896,3.43223060675433133e-09,-0.00103681314204437207,1.7224885851047691e-07,4.83373548649469587e-05
0.47,31.2221796928065203,131.010401079464799,6.90557672428163105,4.67806301106434042,0.000998761260684927557,28.0209900204918974,0.00130616618884544979,3.10657060381263461,331.007810630253402,17.9233234115620377,7.48533101007974988,69.9929660462147325,2.5889364060732201e-06,113.700011634803886,196.634049649816575,15.2880000000000003,0,0,0.0526742959306323727,3.73170463860384924e-09,-0.0011108841623615434,1.88532207060213475e-07,5.28148505664365441e-05
0.48,31.2221794239793269,131.010401807256216,7.07001851744381948,4.68642527483421745,0.00102109091231145262,27.6007969606275125,0.00132978852885184593,3.09563681785184297,327.203122301157407,18.2709832353803314,7.63313726727991071,69.9923104035261474,2.89614261094227829e-06,113.700012338884164,204.33305198470137,15.2880000000000003,0,0,0.0536961221459722679,4.04904859899578719e-09,-0.00118849531779471017,2.05948560519311644e-07,5.75998398329450787e-05
0.49,31.2221791502289392,131.010402548365278,7.23734841566291642,4.70156796398202914,0.00104489945272251677,34.6487244505178253,0.00135120419031512233,3.08484494341801163,389.60000969812296,18.589315545984995,7.7707981814672209,69.9916093757078812,3.23165731652504743e-06,113.700013079832303,211.511801733856089,15.2880000000000003,0,0,0.0546317638991248022,4.38486615800834454e-09,-0.00126967773493266863,2.2453662401782158e-07,6.26054017926546362e-05
0.5,31.2221788715876762,131.010403302704333,7.40754387012007864,4.72212438923579736,0.00106996435823571525,35.6033845714535389,0.00137072557486675028,3.0741588573465477,397.970310422105001,18.8826594549893159,7.8998011517407587,69.9908609011483378,3.5973597360057951e-06,113.700013859590555,218.236320199079358,15.2880000000000003,0,0,0.0554939729313439212,4.73968531279909998e-09,-0.00135450679800636423,2.44344941868023912e-07,6.78409867869358833e-05
0.51,31.2221785881337617,131.010404070060673,7.5805467220577798,4.73558879650721298,0.00109346949398930206,27.1956639286467201,0.00139183542187690463,3.06284319292573448,323.39843497208409,19.200774511812984,8.03722958125224807,69.9900628955037689,3.99519228958782199e-06,113.700014680103109,225.647740475438098,15.2880000000000003,0,0,0.0564289867670437692,5.11403675587933804e-09,-0.00144303978709531136,2.65418546512062939e-07,7.34915902759761199e-05
0.52,31.2221782998621009,131.010404850463146,7.75636774499504789,7.06124978847633766,2.54777688455079954,32.7324764055025668,-0.149246306308165627,2.90573816832957244,372.098451184341457,19.9342511863935172,8.17715739502166272,69.9892130391633316,5.492918540906312e-06,113.700016677738333,243.212568992400065,15.2880000000000003,0,1.25322153529023828,0.0585847110902378565,5.50837496002235688e-09,-0.00154336357268662887,1.23488970877372496e-05,8.1602118218408623e-05
0.53,31.2221780067585151,131.010405644233742,7.93511744472978897,7.03917760307019247,2.51224263364811851,34.3759084340230672,-0.153099255267939077,2.89002669300524273,386.55624643486243,20.2584349036026268,8.31478022979435494,69.988291568150018,6.27068909522067924e-05,113.700077978317239,251.183142049540891,15.2880000000000003,0,1.25798728180362418,0.0595375737000534214,5.95148837015998383e-09,-0.00169144435754421739,6.59680264797896906e-05,9.08844141583161144e-05
0.54,31.2221777087826986,131.01040645159685,8.11687102912203251,7.0179916331456571,2.4779295173552347,30.1734709841524733,-0.156998045187938695,2.8740145997234694,349.270324209843579,20.5807013930565184,8.45163189718865659,69.9872838594678086,0.000205238589323765923,113.700230086272256,259.233707980233646,15.2880000000000003,0,1.26274305159229661,0.0604848076449167674,6.46372403381183691e-09,-0.0018450091154624483,0.000120969378645803852,0.000100711001454452314
0.55,31.2221774061993962,131.010407271838318,8.30142808657813447,6.99954800145227107,2.44542354483917856,31.988942868672531,-0.160897376457384805,2.8578391816142954,365.250000591990727,20.8953763626125664,8.58575885717921139,69.9861867883230389,0.000435210992660310181,113.700475261851196,267.216842845082226,15.2880000000000003,0,1.26748100516887874,0.061409736584939513,7.04551408817340966e-09,-0.00200397160890963474,0.000177296532913370514,0.000111058625181981752
0.56,31.2221770990150418,131.010408104947885,8.48878879959531929,6.9851408790096059,2.41510473628200417,29.8476454503508819,-0.164761272244871332,2.84161539754303627,346.226561946578727,21.198099158103819,8.71565541124705057,69.9849972244667384,0.000754709412602066879,113.70081572578809,275.010615451896172,15.2880000000000003,0,1.27220126508977116,0.0622995448493536344,7.69699706751949273e-09,-0.00216845976487431251,0.00023496938993241995,0.000121913276956388592
0.57,31.2221767873026756,131.010408950734075,8.67890168111916793,6.96819247898852279,2.38466035001320265,29.5123754407898602,-0.168743840165377107,2.82486220082761808,343.182829683302316,21.5084023877275072,8.8480635420369147,69.9837119970504347,0.00116581544725744219,113.701253694992459,283.115728302900493,15.2880000000000003,0,1.27690360802296743,0.0632116371843620267,8.41831537246775087e-09,-0.00233853075873064831,0.0002939828644307623,0.000133396989541488824
0.58,31.2221764710474723,131.010409809244294,8.87178335900301995,6.94448179505535812,2.35266454212829457,38.9052908908105906,-0.172957970269984579,2.80721352532059454,426.12500585731533,21.8398265773691733,8.98765567213582273,69.9823278736879644,0.00167062677772043268,113.701791403853335,291.90263722031375,15.2880000000000003,0,1.28158765886653447,0.0641858085420470709,9.20948782005500712e-09,-0.00251431943723555993,0.000354358647071635732,0.000145631855848134105
0.59,31.2221761498811219,131.0104106814874,9.06772474964722797,6.92975352674480494,2.32441436275430879,31.5109848389257614,-0.177012043502801197,2.78991218403586538,360.68438819711065,22.1434051677686128,9.11752336345904091,69.9808414347685783,0.00227137382712102893,113.702431228794595,300.068418792848547,15.2880000000000003,0,1.28626036120338116,0.0650781498297895306,1.00701728820432794e-08,-0.00269631126146753584,0.000416236444099421141,0.000158340862679269903
0.6,31.2221758240058911,131.010411566920737,9.26657435614789549,6.90299891511090902,2.29285018303628263,27.9889382494301699,-0.181446001527400202,2.77122578775721218,329.48595949860578,22.485543182158942,9.26058894646488007,69.9792491833068482,0.00297031330692083513,113.703175573686934,309.406868686251073,15.2880000000000003,0,1.29091692623939291,0.0660838213334761504,1.10006273527437249e-08,-0.00288445144495020527,0.000479571082840743305,0.000172003347055727852
0.61,31.222175493382327,131.010412465658845,9.46836815826668499,6.87473992920482146,2.26150191409937307,32.8233096441046044,-0.186000830138615486,2.75197227889960638,372.09845118432969,22.8336728677682537,9.4056109886621293,69.9775475184521554,0.0037697522733058683,113.704026896624356,319.055560744582806,15.2880000000000003,0,1.29555786265008077,0.0671071088224869106,1.20008062816357158e-08,-0.00307892222076245605,0.000544397666778186442,0.000186438825964783256
0.62,31.2221751581218285,131.010413377406167,9.67302527333686868,6.86567338225323098,2.23706067729377933,40.849104004775775,-0.190097977795688933,2.73404471233948598,442.86563930529212,23.1186180917567192,9.52871521885370676,69.975732698108402,0.00467205406077667116,113.704987718509813,327.061915105339096,15.2880000000000003,0,1.30018289451347524,0.0679447065315550019,1.3070797876182504e-08,-0.00327980018814369575,0.000610715904871079606,0.0002010770889238735
0.63,31.2221748180598162,131.010414302616994,9.88067840960755994,6.8509415422464226,2.21135020939862281,23.0991363438783353,-0.194411706042428245,2.71524873196594951,286.112512747078938,23.4218330700156763,9.65801036420791625,69.9738011400830686,0.00567946835768003751,113.706060431606645,335.690721145224984,15.2880000000000003,0,1.3047927279161371,0.0688360046463104419,1.42102330893060364e-08,-0.00348735347911895361,0.000678586933766656239,0.000216601531716841775
0.64,31.222174473740516,131.010415239818428,10.0909110547972922,6.82705163065311726,2.18327304338482175,22.6746203319314112,-0.199055742915309974,2.69518667531976774,282.307824417967538,23.756261522353352,9.79797762213833856,69.9717490806938969,0.00679428566124603596,113.707247479381309,345.338503027615388,15.2880000000000003,0,1.30937422475917842,0.0698190445678801008,1.54198434258999992e-08,-0.00370116337498855663,0.000747849760567993,0.000233159039956682448
0.65,31.2221741251510352,131.01041618905208,10.303738311544647,6.81728688800102933,2.16023854078653788,40.1950130916692103,-0.20334958292591121,2.67612566611446612,436.778144778747503,24.0417278184890755,9.92093981665413338,69.9695728098588035,0.00801872907241577698,113.708551231933626,353.680636541495289,15.2880000000000003,0,1.31393946686263385,0.0706581923559173875,1.66993055499002521e-08,-0.00392141011440186576,0.000818538970633931251,0.000249997099563535
0.66,31.2221737718296986,131.01041715157919,10.5195228037032606,6.80421894775370806,2.13665848504257383,34.1655866104673436,-0.207801236475433082,2.65637371192430205,383.512515171600171,24.3379014401166991,10.0474834858361195,69.9672685462414421,0.00935504029827544624,113.709974080206308,362.440890199298224,15.2880000000000003,0,1.31848396349841734,0.0715288152669935617,1.80474701420602502e-08,-0.00414870246399984006,0.000890823105460993134,0.000267740116264147975
0.67,31.222173413951797,131.010418126929892,10.7381339814699022,6.78310786162524337,2.11107634429618374,23.470952949145218,-0.212569330738828471,2.63538151694035294,289.156244010342505,24.6623994773538548,10.1836949088790831,69.9648322795741961,0.010805613245863847,113.711518576669931,372.162381082876266,15.2880000000000003,0,1.32300861718087703,0.0724826900664656271,1.94644740986455302e-08,-0.0043829988364013292,0.000964662861116164622,0.000286626009210652047
0.68,31.2221730516769291,131.010419114676893,10.9594534507764987,6.7643945688843452,2.08674677959993238,29.3498061516138904,-0.217335756535280616,2.61422099949588604,340.899992485846269,24.9782777500043487,10.3168229808801541,69.962259921936365,0.012372837265824348,113.713187272216189,381.748699812212408,15.2880000000000003,0,1.32751694914230178,0.0734112382994838997,2.09503647614998076e-08,-0.00462429254506616615,0.00104003113965246328,0.000306272127228047119
0.69,31.2221726850824943,131.010420114615926,11.1834263551722941,6.75348084092383516,2.0652641608715343,36.1820546813098574,-0.221910459726469667,2.59354605599659971,401.014072685363431,25.2649501166735178,10.4397615464419786,69.9595474870624798,0.0140590379922536177,113.714982642153487,390.553141212232504,15.2880000000000003,0,1.33199925842371569,0.074253956927131326,2.2504993442832216e-08,-0.00487263711879092759,0.00111692002881266946,0.000326417066378174078
0.7,31.2221723140465244,131.010421127084385,11.4101520306290638,6.742019196805078,2.04403896638445204,30.3166195554145013,-0.226561863134396801,2.57244069867571623,349.270324209852845,25.5526569274026798,10.5629472247786733,69.9566908630947779,0.0158665311386157436,113.71690716038654,399.490004788001613,15.2880000000000003,0,1.33645991541950937,0.0750997223960802179,2.41276627356024618e-08,-0.00512831224755876634,0.00119539033159650064,0.000347449276627010794
0.71,31.2221719386219476,131.010422151944283,11.6395944458872638,6.7253461515179529,2.02167079713283293,24.8801056473103088,-0.231457103124580565,2.55031867210545826,301.331264063405797,25.8592862846773883,10.6925586452402239,69.9536858178002063,0.0177976854353767006,113.718963357606199,409.12619718120402,15.2880000000000003,0,1.34090302317410925,0.0760011083715712854,2.58181519228382851e-08,-0.00539139565902028821,0.00127544042978594042,0.000369648593061981667
0.72,31.2221715588140256,131.010423189187151,11.8717545134471401,6.70248119654649344,1.99789024418537742,30.5070370707106662,-0.236645401134306321,2.52699086492092384,350.79220534145287,26.18944739452715,10.8301900252313263,69.9505281188008894,0.019854890708767111,113.721153779051335,419.630656171506871,15.2880000000000003,0,1.3453255791308838,0.0769716619799413193,2.75760687672716299e-08,-0.00566204703185465945,0.00135709357741091875,0.000393152864110302592
0.73,31.2221711746233552,131.010424238817421,12.1066369006740242,6.69384566554579408,1.97872691851176219,38.6448231680170835,-0.241389392963572535,2.50504859714451644,422.320318528233997,26.4637135142608102,10.9484075599116615,69.9472132232911008,0.0220406509450539051,113.723481103533956,428.456085470667631,15.2880000000000003,0,1.34972228570828179,0.0777779453857622843,2.94009908009370733e-08,-0.0059404530391353955,0.00144038070974951242,0.000416794706147817203
0.74,31.2221707859943258,131.0104253009915,12.3442893664110365,6.68037259183671051,1.95851289741614121,24.1221256305457352,-0.246371270392232833,2.48209502889112743,294.482813471059444,26.7558369391403588,11.0726820768998948,69.9437367972770403,0.024357341109287025,113.725947861716733,437.957444037103755,15.2880000000000003,0,1.35410192070128077,0.0786367190182114262,3.12923722742318791e-08,-0.00622679636271833859,0.00152533005886821855,0.000441697695134090869
0.75,31.2221703932639052,131.010426374799465,12.5844562074705202,6.66375456853779546,1.93775454873300657,28.1958656437281761,-0.251539860277720073,2.45829773669988461,330.246885564414924,27.0597400759596312,11.2009248631054863,69.9400942776219807,0.0268073811607620165,113.728556643812098,447.952594672384691,15.2880000000000003,0,1.35845985197280017,0.0795301207571956076,3.32509758850815611e-08,-0.00652079634044531922,0.00161183408450656074,0.000467795640537238609
0.76,31.2221699963319601,131.010427460518514,12.8272195785279894,6.65199244942993673,1.91875490069695842,30.367500633942246,-0.256586238199046135,2.43475905919469326,349.270324209861712,27.3431224441159131,11.3219730642028367,69.936281222907013,0.0293931326436138729,113.731309967670242,457.373402012590361,15.2880000000000003,0,1.36279379738835127,0.08036321781850643,3.52758626330692551e-08,-0.00682275590254680098,0.00169995720270131774,0.000494572232737896427
0.77,31.2221695951475162,131.010428558292062,13.0726235004029245,6.641260988869222,1.90037819493261573,28.3842724741586636,-0.261652045072599593,2.41097354323397628,331.76876669607077,27.6210040913679933,11.4410139379450317,69.9322929531462023,0.0321170085913772482,113.734210418114429,466.705995706148769,15.2880000000000003,0,1.3671021845108593,0.0811801548410847618,3.7366343499989406e-08,-0.00713289833452229044,0.00178973904286590445,0.000522296421230886978
0.78,31.2221691897730373,131.010429667955322,13.3206243156847659,6.62596930102628345,1.88103321040178462,23.2820844835303653,-0.266966142185701749,2.38610809409525171,286.873437812889904,27.9166406553286244,11.5660870066855104,69.9281248716678761,0.0349813924008962676,113.737260537490101,476.73871919264144,15.2880000000000003,0,1.37139030475804713,0.0820492819375215759,3.9522229535095553e-08,-0.00745127327735125352,0.00188116865280300014,0.00055143567411532245
0.79,31.2221687802928365,131.010430789284158,13.5711615161750903,6.60804147534228914,1.86127774784195354,33.1648204548170824,-0.272461651937031257,2.36039342740596769,373.620332315953419,28.2225674403325826,11.6946169686098536,69.9237721349648069,0.0379887219435494777,113.740462938525056,487.233008506588703,15.2880000000000003,0,1.37565727103743507,0.0829486601547894109,4.17434163911215982e-08,-0.00777792501711042309,0.00197423408572292014,0.000581903585544253535
0.8,31.222168366503201,131.010431922836318,13.8243969799662807,6.5983938878380286,1.84415731182102727,33.6070082672978998,-0.277674806419698439,2.33553296620067519,377.42502064505743,28.4921994292977487,11.8104907033259163,69.9192298640120953,0.0411414750156139583,113.743820268882743,496.575230809655011,15.2880000000000003,0,1.37990638646536401,0.0837413720400285305,4.40283159573346696e-08,-0.00811334400679998222,0.00206904907465346212,0.000612782093655685613
0.81,31.2221679485017205,131.010433068351375,14.0802598207513512,6.58317319529228762,1.82577678480834882,21.8270002428013754,-0.283189981232193189,2.30937145320417203,273.937492693991885,28.7844139925724605,11.9340694302095738,69.9144931030392343,0.0444421113560700062,113.747335160610973,506.800711028221656,15.2880000000000003,0,1.38412881848461589,0.0846004635566091068,4.63770814338700435e-08,-0.00845751135504914722,0.00216558221448776489,0.000645311657602234685
0.82,31.2221675264662224,131.010434225351133,14.3386173302454534,6.56558067156305647,1.80704179761612793,28.0759027551003228,-0.288882739037023606,2.28235737114251469,328.725004432770049,29.0860214195820035,12.0607997036910213,69.909556837723386,0.0478930822056297459,113.751010237341404,517.464182925329169,15.2880000000000003,0,1.38832758626155983,0.0854871691482716328,4.87901420892157447e-08,-0.00881032731189328698,0.00226378063052662393,0.000679258554130840789
0.83,31.2221671003830608,131.010435393876918,14.5994844830198716,6.55797315944599557,1.79131937447818634,35.7158704595965446,-0.294189053011217172,2.2565990959355422,395.68750322465047,29.3422980887867446,12.1717482759508311,69.9044159683481752,0.0514968483526581783,113.754848134116642,526.609906966247422,15.2880000000000003,0,1.39250588296618294,0.0862406496419527713,5.12667703539219086e-08,-0.00917200926143747937,0.00236367991337081826,0.000713356270149947827
0.84,31.222166670154671,131.010436574197143,14.8629405669220453,6.54815119399817913,1.77524907221044526,22.0175723804557535,-0.29965230152320782,2.23007043253414805,275.459374825645227,29.6066134472828324,12.2853733434155767,69.8990654155554409,0.0552558000509838013,113.758851412008113,536.126475325672118,15.2880000000000003,0,1.3966639976712385,0.0870177638868978726,5.38059889529446053e-08,-0.00954283344167837499,0.0024653302375842001,0.000748864016152575173
0.85,31.2221662360589818,131.010437765561704,15.1287755869089384,6.52989639953747325,1.75716768189947614,24.0193474642678488,-0.305579833751792707,2.20159508369318324,292.960932339393764,29.9075896489022419,12.4115937160956964,69.8935000472338572,0.0591723086706372123,113.763022612856005,547.068270136444767,15.2880000000000003,0,1.40079854495986189,0.0879026365127450332,5.64090411443099319e-08,-0.00992249834299294316,0.00256862437180357082,0.00078655346087621095
0.86,31.222165797934462,131.010438968412359,15.3971181385223801,6.51763244189402169,1.74095384829505528,30.1020954342358031,-0.311288710140482594,2.17375174800128823,346.226561946558718,30.1800439861235468,12.5278444177841966,69.8877145535525557,0.0632488248321483176,113.767364363958407,557.066759780282496,15.2880000000000003,0,1.40491240806813278,0.0887036869116111792,5.90741802292477016e-08,-0.0103114772594955131,0.002673666013816192,0.000824812744454031261
0.87,31.2221653558052452,131.010440182687034,15.6679536441527514,6.50808634065611535,1.72569683618560687,28.0259723034644459,-0.316922609938971755,2.14600103829486955,327.964078366998024,30.438219744168439,12.6390529624475256,69.8817035461044753,0.0674877742155013255,113.771879270530732,566.623663939935227,15.2880000000000003,0,1.40900150578602856,0.0894627776601712305,6.18010568535555277e-08,-0.0107098910458467977,0.00278046202260599177,0.000863987801221350422
0.88,31.22216490970618,131.01044140829444,15.9412591664223537,6.49425384387711091,1.70953992187143089,24.2116998754451735,-0.322832444874392666,2.11699631001941846,294.482813471041823,30.7146241280259282,12.7564789641680942,69.8754617129555413,0.0718915306841696189,113.776569874568281,576.946074465471384,15.2880000000000003,0,1.41306684717926645,0.0902754525641053934,6.45895847228482799e-08,-0.0111178012804527895,0.00288900324147883586,0.000905015511702755263
0.89,31.2221644597151773,131.010442645026586,16.2169786659571749,6.4762493775573633,1.69253201466945447,26.563718972254069,-0.329026483664581537,2.08669075181251262,315.028134248086985,31.0093622985500197,12.8801665271039205,69.8689834943644144,0.0764625075942213794,113.781438773308139,588.056403083393434,15.2880000000000003,0,1.41711036773963572,0.0911420212158988996,6.74397521425147499e-08,-0.0115352624172291012,0.00299927892569867762,0.000947983383102116769
0.9,31.2221640057629024,131.010443893074296,16.495169346348046,6.46824435631742123,1.67835021929016204,29.3514592057555816,-0.334761440537936994,2.05796190209134755,339.378142354214447,31.2548230776225218,12.9866843713089501,69.8622632748176642,0.0812031563804298806,113.786488597113419,597.387044070303887,15.2880000000000003,0,1.42113362487177097,0.091863762368845886,7.03503563156528751e-08,-0.0119625927787073497,0.00311134753441629375,0.000990857433233362749
0.91,31.2221635479166437,131.010445152257859,16.775783038836046,6.45601065720934297,1.66328335615349232,22.3180240138277384,-0.340778330241115646,2.02793762999686544,277.742181023078899,31.5186090392771625,13.0994600296039643,69.8552955255427719,0.0861158052577394445,113.791721846304725,607.49693627885631,15.2880000000000003,0,1.42513541042815262,0.0926393718894142904,7.33215738296382911e-08,-0.0123998078819767231,0.00322518707153151857,0.00103571222683766177
0.92,31.2221630863668622,131.010446422064007,17.0586771640476265,6.43968947531294145,1.64738225154418272,26.5842744124256711,-0.347082770217536196,1.99657867125708299,315.028134248062145,31.8006536657063776,13.2184836897672842,69.8480745199050688,0.0912028067846235718,113.797141056657892,618.401166786931753,15.2880000000000003,0,1.42911381005262816,0.0934686546930674628,7.63546228657987006e-08,-0.0128467006564815852,0.00334071903448118854,0.0010826122973610422
0.93,31.2221626210295575,131.010447702722587,17.3439197289375855,6.43244958057673166,1.63399387787424355,31.6355097721783167,-0.352940858026567383,1.9667683016192623,359.162507065472823,32.0361780490478054,13.3212846992102083,69.8405945439249649,0.0964664894889759733,113.80274873275178,627.577993371451953,15.2880000000000003,0,1.43307089484707051,0.0941612122981571736,7.94478674740103626e-08,-0.0133036487747508429,0.00345801586937672777,0.00112939243974445602
0.94,31.2221621518021664,131.010448994512927,17.6315924961814794,6.41672415184245626,1.6186537183660028,22.943996453162935,-0.359338229961419897,1.93462057801009846,283.068750483778672,32.3117278899770355,13.437881892927523,69.8328498301647045,0.101909125170134507,113.808547325164866,638.402641920157407,15.2880000000000003,0,1.43700661690118237,0.0949714207668432148,8.26003133209988409e-08,-0.0137709343923708739,0.00357712355399808415,0.00117908468932244694
0.95,31.2221616789573524,131.010450296699361,17.9214900191101627,6.4020489444719475,1.60377644952117238,29.7374237977522036,-0.365740405943218883,1.90223502486711582,342.421873617487279,32.5803625420765144,13.5520025601077965,69.8248345298575686,0.107533036923746744,113.814539330489495,649.043856671435606,15.2880000000000003,0,1.44091937720095697,0.0957613115420270222,8.58137707462706121e-08,-0.014248246768957069,0.00369793821948092433,0.00123006102263324441
0.96,31.2221612022200929,131.010451610027474,18.2138260145949005,6.39183398557706983,1.5901982495825151,29.1357561830202343,-0.371939225258248907,1.87044695189825272,337.095335156783449,32.8243436842806915,13.6574755240594197,69.8165425811647253,0.113340541507061368,113.820727254961142,658.782611051638241,15.2880000000000003,0,1.44481227829066206,0.0964787474670788653,8.90849720745175491e-08,-0.0147363030982133516,0.00382061488547437,0.00128168623321896842
0.97,31.2221607216093808,131.010452934447216,18.5085889330007518,6.37923971065587292,1.57620844899402934,18.6081999106084552,-0.378338136947092618,1.83764362666064285,245.021887192993233,33.0782473767684877,13.7663061471666843,69.8079679468727932,0.119333952778531663,113.827113589677367,668.994752828943774,15.2880000000000003,0,1.44868493478395033,0.0972253556788731238,9.24137815012250456e-08,-0.0152352267630444932,0.00394515745813810419,0.00133529198248397195
0.98,31.2221602373962597,131.010454269227296,18.805574603429811,6.35863898907761182,1.56043679044945449,27.1477168425742832,-0.385298269965946738,1.80235193011954897,319.593746642958081,33.3718077929860257,13.8888440403597446,69.7991043860215115,0.12551557548085826,113.833700830299904,680.902312995874695,15.2880000000000003,0,1.45253469878007935,0.0980885328715164623,9.58029451285634945e-08,-0.0157445966091053179,0.00407143552710148311,0.00139214256390591206
0.99,31.2221597494418504,131.010455614744529,19.1048922722865093,6.35130975111095442,1.54808308797529026,29.6808626140469478,-0.391484589068445799,1.76996446684142494,341.660948551705417,33.5940597512419714,13.986518454364699,69.7899456615248823,0.131887717816544903,113.840491465799943,689.982122067133787,15.2880000000000003,0,1.45636452688507223,0.0987421234064638359,9.92498140678086988e-08,-0.016264965064457234,0.00419956005245710265,0.00144769001984084073
1,31.222159257744579,131.010456971003578,19.406545581463746,6.33619060936826894,1.53400028039532366,26.5515714950557218,-0.398223557578281095,1.73511092133634182,314.26720818227642,33.854931168835094,14.0975395295529609,69.7804855767337955,0.138452539913725914,113.847487837751942,700.719406020984138,15.2880000000000003,0,1.4601732496141453,0.0995092345096527664,1.02754603542358437e-07,-0.0167964039755200724,0.004329521622487815,0.00150655717959551246
1.01,31.2221587624737431,131.010458337548101,19.7104081984322974,6.32228395943216182,1.52037608677143932,27.7785611641349739,-0.404941616716472053,1.70011066973618274,324.920316103697928,34.1072631125502639,14.2055202837276404,69.7707176841926042,0.14521229108013442,113.85469238519407,711.182961250099765,15.2880000000000003,0,1.46396032378452223,0.100251253316783015,1.06318565816441979e-07,-0.0173387644596215834,0.00446125814465103774,0.00156675004749127654
1.02,31.2221582635573078,131.01045971457296,20.0165375221472992,6.31029221414427877,1.50736785063891188,23.1650221134791323,-0.411584964613941395,1.66518634847803471,284.590631615404163,34.34697585469209,14.3090357566536799,69.7606356941656287,0.152169101342666452,113.862107412626926,721.193560689801984,15.2880000000000003,0,1.46772668786527216,0.100956188132586916,1.09940372579933723e-07,-0.0178923603956754849,0.00459481944320707866,0.00162808873333554938
1.03,31.2221577610587175,131.010461101906969,20.3248874987079269,6.29297939053178634,1.49325203902300307,18.8978497324277264,-0.418647751299348503,1.62829764331822413,247.30469339049705,34.6133116067766338,14.4217527033320803,69.7502331716082153,0.159325067375368307,113.869735200451046,732.399894399488176,15.2880000000000003,0,1.47147165355777587,0.101739383747124171,1.13620602063510578e-07,-0.018457186107788473,0.00473017768076827109,0.0016924572600868471
1.04,31.2221572550352171,131.010462499396084,20.6354170976658935,6.28058005275289588,1.48045141712218742,30.1551143297605009,-0.425429629929758246,1.5923295972510072,345.465636880722968,34.8505195597141437,14.5242600422797956,69.7395034545628647,0.166682351815782837,113.877578102372894,742.450543947848246,15.2880000000000003,0,1.4751957619119167,0.10243697129316881,1.17359224255277338e-07,-0.019033330161898402,0.00486732819039215146,0.00175719578099603892
1.05,31.222156745219916,131.010463907759288,20.9483311031016619,6.26387693761044773,1.46679178845458669,18.122270042725841,-0.432571529158654655,1.5546246268182442,240.456258798199826,35.1090712460159367,14.6341315693191021,69.7284400248332616,0.174243007202579792,113.885638347064287,753.485059232672256,15.2880000000000003,0,1.47890108459556213,0.103197302875070451,1.21152527979370044e-07,-0.0196215533939894382,0.00500642378409070672,0.00182488620668180661
1.06,31.2221562318333454,131.010465326401828,21.2634641589492475,6.24352448422607154,1.45243887426991258,25.8942563065389351,-0.440045697135967528,1.51527740362316665,308.179683655939243,35.3859986252326166,14.7503534551268789,69.7170359769268657,0.18200920382470212,113.893918299179035,765.395193048456917,15.2880000000000003,0,1.48258603337402439,0.104011654930218425,1.25003355048463905e-07,-0.0202215091139537236,0.00514735539252301338,0.00189546136006861401
1.07,31.2221557147666928,131.010466755616733,21.5809010590839598,6.23133287682585735,1.4401243802878283,30.5276720386976343,-0.446980173538186032,1.47793865097708443,348.509368144030759,35.6145579253614883,14.849639638301392,69.7052842693302779,0.189983129876433204,113.902420342792112,775.290910163142144,15.2880000000000003,0,1.48625274678435804,0.104683844527274375,1.28909296453572162e-07,-0.0208337183660756119,0.00529021775709446595,0.00196540031443176357
1.08,31.2221551939245394,131.010468195659683,21.9007156745874134,6.21729756494544006,1.42752051863416818,20.4938830277680317,-0.454103605728095716,1.43955792850976216,261.001578574662346,35.8508075113635343,14.951536918533936,69.6931779213089015,0.198166853944101801,113.911146736894537,785.586696085098652,15.2880000000000003,0,1.48990145885319381,0.105378646333295925,1.32869192469394404e-07,-0.0214585289314713941,0.00543506266775538316,0.00203770927298830033
1.09,31.2221546695624994,131.010469645841425,22.222716066589129,6.19435151411811358,1.41302468740296705,18.8393947709282799,-0.46197088319347962,1.39776857355133255,246.543753324744074,36.1360349812452171,15.0704868459503825,69.6807098469059696,0.206562426699969937,113.920099723399332,798.111924243191311,15.2880000000000003,0,1.49352999641305284,0.106217420223979245,1.36887108573848458e-07,-0.0220954404591961924,0.00558174645183612695,0.00211481831487377731
1.1,31.2221541417505186,131.01047110597284,22.5468512166620556,6.17587094896074351,1.39969151193568542,37.9776585043176382,-0.469560741773542734,1.35688080214701934,413.189061738584087,36.3933535576879734,15.1796454599175217,69.6678728557832159,0.215171878070454181,113.929281524953993,809.493629910494974,15.2880000000000003,0,1.49713907426146076,0.106974167738650192,1.40963158749552565e-07,-0.0227445286686383287,0.00573025967254340261,0.00219237781315388854
1.11,31.2221536101117643,131.010472577065968,22.8734073042545454,6.16639194891792375,1.38851746727219738,27.7627124234289191,-0.476482766924694989,1.3185804736992417,324.159391037639693,36.5949346625130616,15.2692496302205782,69.6546596065720394,0.223997243398695672,113.93869437328938,818.460288291639472,15.2880000000000003,0,1.50073216320554792,0.10756708910394544,1.45090822167060786e-07,-0.0234069777855042821,0.00588084327007154864,0.00226865824117341262
1.12,31.2221530747022982,131.010474058967304,23.2023426174738461,6.13982788279539271,1.37364694235026752,10.374739428669475,-0.484851429999889394,1.27381641221386688,172.73281794065943,36.8949915021453663,15.3932412572899242,69.6410628128653002,0.233040437727968869,113.948340373986539,831.910810293781424,15.2880000000000003,0,1.50430768184151753,0.108449478227494525,1.49272046899765853e-07,-0.0240827197596949379,0.0060334505974810387,0.00235321703240025468
1.13,31.2221525360733985,131.010475550194741,23.5332435124072497,6.12239355555785725,1.36095069569610505,32.7608075772151253,-0.492534114488618169,1.23170903791190534,367.532807790070478,37.1384905608153062,15.4974162604566352,69.6270746798463023,0.242303588708589479,113.958221861553213,842.901121717585397,15.2880000000000003,0,1.50786323994535643,0.109165629244727655,1.53515039680382091e-07,-0.0247705672602109156,0.00618778746528026412,0.00243632618856928903
1.14,31.222151993603525,131.010477052414984,23.8665788002620225,6.11131721818898033,1.34978033732924318,18.0765874301070966,-0.499725244598730023,1.19145323562420247,239.695317731955441,37.3404070498322938,15.5869620388396104,69.6126878460964633,0.251788475898282849,113.968340803781842,852.064213136257422,15.2880000000000003,0,1.51140358365324934,0.109759559525691122,1.57808657745792135e-07,-0.025472379083898055,0.00634423980798756466,0.00251889395784296631
1.15,31.2221514477448672,131.010478564410789,24.202008652430532,6.08298397482290998,1.3349412573337649,17.8183386978691907,-0.508458826435006395,1.14422476648771188,237.412511535467729,37.6449408139201296,15.7124357686428517,69.597894886543159,0.261496826119256953,113.978699113658621,865.991190198962386,15.2880000000000003,0,1.51492438689192088,0.110655134452278855,1.62162201225964152e-07,-0.0261869470919006905,0.00650250881324192231,0.0026105909251394081
1.16,31.2221508986249567,131.010480085838765,24.5394389474119663,6.07322430751126774,1.32428455231306397,46.8738990961864346,-0.515619205645145184,1.10354652381159291,490.043774384589426,37.8325844434379235,15.7968957542121053,69.5826878766803247,0.271430562938387243,113.989298917597793,874.617535473147996,15.2880000000000003,0,1.51842715713780629,0.111207125554956252,1.665757797675039e-07,-0.0269142793372741281,0.00666256954901298538,0.00269638575324008352
1.17,31.2221503454247511,131.010481618890822,24.879483875058046,6.05432090355878483,1.31175227727629551,8.20044769051792599,-0.523634583522976649,1.05885548489906478,153.709379294867944,38.0734149812394165,15.8999434288269708,69.5670592944623678,0.281591282657181752,114.000141997313364,885.759134021408158,15.2880000000000003,0,1.52191654231107232,0.111915465208303741,1.71035080705937503e-07,-0.0276568063887351195,0.00682492237801243188,0.00278832205847547076
1.18,31.2221497892185091,131.010483160684458,25.2213387296441809,6.02330949222274636,1.29673770775167818,22.7346703632484299,-0.532825099853677098,1.00869131947828206,280.025018221967457,38.388220614502643,16.0289728970594112,69.5510012331565548,0.291980706340331964,114.011230268213779,900.437715434161191,15.2880000000000003,0,1.52538497307988097,0.112841260632181584,1.75561527869396681e-07,-0.0284114658493790431,0.00698886994141560865,0.00288799498343934521
1.19,31.2221492295191645,131.010484712522413,25.5653693266562101,6.01844883967063637,1.28743821786833035,39.8166001735028559,-0.539630425335145492,0.968723632417722191,428.407813052929214,38.534268855013984,16.0986707113295573,69.5345055475513902,0.302600590309046624,114.022565688861363,907.27220818012961,15.2880000000000003,0,1.52883262686284027,0.113271005729902369,1.80142343055922968e-07,-0.0291801640828267365,0.00715479772368556727,0.00297731861067861581
1.2,31.2221486659047578,131.010486275528535,25.9118896836669883,5.99223283205197355,1.27369166554721347,4.00224312330816456,-0.548491852365449839,0.919372475381356469,117.184374136023607,38.8130431391134678,16.214978420280854,69.5175646334856339,0.313452287543332098,114.034149790625293,920.416287480419101,15.2880000000000003,0,1.53226543841722807,0.114090905446937937,1.84771921887074325e-07,-0.0299640889178410252,0.00732292664274916509,0.00307931966464552878
1.21,31.2221480994548877,131.010487846811003,26.2600945710718001,5.96695915170129343,1.26026810639592868,31.9519158698303833,-0.557330249320661442,0.869787747492369534,359.923432132008998,39.0837340553208463,16.3284669098920254,69.5001701141599426,0.32453748207982358,114.04598445960923,933.268221106866918,15.2880000000000003,0,1.53567770818973104,0.114887052616841276,1.89471766996159784e-07,-0.0307601346264173951,0.00749256405159378844,0.00318306683949764677
1.22,31.222147529342358,131.010489428578325,26.6106007109840981,5.95962065973629951,1.25071805217437015,23.1090702123579064,-0.56443560948499516,0.827619469713751665,283.068750482576149,39.2339432111140809,16.3994814722555411,69.4823139474923011,0.335857567837906101,114.058071278454193,940.423936429573928,15.2880000000000003,0,1.53907643635389246,0.115329050230917191,1.94222003234845034e-07,-0.0315712456769166663,0.00766430588479411271,0.00327944635577271954
1.23,31.2221469558924305,131.010491019954713,26.9631643417340037,5.93231283858215352,1.23709069629941992,8.91446801971363634,-0.573572138864432368,0.776051876794312645,159.796873822227951,39.5117797931762809,16.5154530847745491,69.4639884271300616,0.34741365359543519,114.070411527319962,953.758086903802905,15.2880000000000003,0,1.54245765420599601,0.116146219187670152,1.99032421660397599e-07,-0.0323962873828335732,0.00783787909960929202,0.00338886276034322965
1.24,31.2221463795611847,131.010492619718804,27.3174468941749531,5.91173092603786277,1.22497180045982379,38.7275047218083799,-0.582073674029808807,0.726994565360162603,418.515630199805003,39.7424624725757667,16.6148168854692706,69.4451852455449625,0.359207072470904887,114.083006729363802,964.894460623901864,15.2880000000000003,0,1.54582016596006566,0.116824785864910852,2.03911454688214387e-07,-0.0332340232816081341,0.00801299682524411402,0.00349667330598076769
1.25,31.2221457995777776,131.010494229922784,27.674019450819916,5.9013175003767433,1.21504211558151409,18.6545586136347836,-0.589537050967381515,0.682304309989826274,244.260946125734876,39.9010754459806947,16.6886942130225044,69.4258963785311636,0.371238898466298761,114.095858136483713,972.578341908684365,15.2880000000000003,0,1.54916967887559087,0.117291507958047062,2.08839944149913468e-07,-0.0340872693645393882,0.00819021439933908559,0.00360063669633878345
1.26,31.2221452164474123,131.010495849212248,28.0325056709346505,5.87011304414116708,1.20094051596189511,10.939393496232471,-0.5992340929737765,0.627159577983360084,177.298446336408631,40.1965911630031556,16.8109466306202293,69.4061139311967281,0.383510032716742777,114.108966817914634,987.003936938847573,15.2880000000000003,0,1.55249458555777387,0.118160671475808013,2.13832436507071084e-07,-0.0349542273669079945,0.00836912611361458232,0.00371943064643231536
1.27,31.2221446303364516,131.010497477139921,28.392782747674115,5.85554606959676427,1.19033058373019274,37.2649323823899508,-0.607174664223425475,0.579644608549809037,405.579686079964688,40.3757190752881172,16.8920625410609588,69.385829185879274,0.396021704336687319,114.122334197578496,995.785836646132452,15.2880000000000003,0,1.5558015231874136,0.118687713007710152,2.18889420604207114e-07,-0.0358347558354240939,0.00854967496170906845,0.00382998631814487379
1.28,31.2221440406260164,131.0104991153475,28.7553055417764369,5.83698648594580405,1.17899691698208131,11.9994422319642258,-0.615566655626650472,0.529740694042227567,186.429688124688823,40.5780513714048467,16.9813570496491018,69.3650342352314766,0.408774606258765494,114.135961131635028,1005.7560542097433,15.2880000000000003,0,1.5590949877847784,0.11928297330340161,2.2399693784461901e-07,-0.0367310028661687465,0.00873226629829894178,0.00394531198621401492
1.29,31.2221434480723943,131.01050076181491,29.1195146450161033,5.80799612051442349,1.16566206651618387,19.8147114942865343,-0.625160598778872423,0.473970248586300102,254.153128984572163,40.8495959797650912,17.0952089488030019,69.3437208011114876,0.4217695177123304,114.1498485704617,1019.22628744170379,15.2880000000000003,0,1.56237031716166319,0.120081697648380267,2.29174624368558142e-07,-0.0376403543313006822,0.0089163372022591416,0.00406989918751987124
