Time,Latitude,Longitude,Altitude,Angle of Attack,Angle of Sideslip,X-Acceleration,Y-Acceleration,Z-Acceleration,Thrust,True Velocity,Ground Velocity,Pitch,Roll,Yaw,Dynamic Pressure,cp,parachute_deploy_gain,Wind Speed,Mach,omega_x,omega_y,omega_z,Cmq,Angle of Attack(total),Angle of Attack(gust),True Velocity(gust),Acceleration
0.0,31.222186000000004,131.010384,3.000000003643237,0.0,0.0,0.0,0.0,0.0,2.2828121974499247,0.0,0.0,69.99999999623421,0.0,113.69999999388332,0.0,15.288,0.0,0.0,0.0,0.0,0.0,0.0,-0.0,0.0,90.0,0.0,0.0
0.01,31.22218600000153,131.01038399999584,2.99999882256592,0.0,0.0,0.0,0.0,0.0,34.24218696174923,7.502283530665459e-11,7.190531319924593e-11,69.99999999623329,-4.83564628150269e-13,113.69999999388072,3.446445726795683e-21,15.288,0.0,0.0,2.204725565824978e-13,-3.659182332138578e-19,7.589415207398531e-19,4.811147140404426e-19,-1.5108918610345807e-31,0.0,89.9999999995224,7.502283530665459e-11,0.0
0.02,31.22218600000288,131.01038399999217,2.999997775701936,0.0,0.0,0.0,0.0,0.0,25.871876237766408,1.5320717031631675e-10,1.4674636035870463e-10,69.99999999623222,-9.67129256300373e-13,113.69999999387804,1.4372842949972735e-20,15.288,0.0,0.0,4.5023593667086093e-13,-7.284483346386986e-19,1.5178830414797062e-18,9.757819552369542e-19,-6.170906918166791e-31,0.0,89.99999999902465,1.5320717031631675e-10,0.0
0.03,31.22218599928065,131.01038400193067,3.000201659671132,18.81500467334555,-0.00012974450181,11.96616230539064,-1.8916256735984712e-05,3.349833086198469,180.34219359854663,0.0882870268161719,0.0553390044312322,69.99999999799445,-4.212591857125379e-12,113.69999999488518,0.0047728553458352,15.288,0.0,0.0,0.0002594525584132,3.2187251995663407e-17,-7.20264389268894e-10,1.2365134327422308e-11,1.6874092354518158e-13,18.815004673776716,89.46786891739345,0.0882666465974854,12.426199017587786
0.04,31.22218599548236,131.0103840121632,3.001799604587872,9.46752327608497,-4.6177622759613696e-05,55.21900012092241,3.931876292165237e-06,3.349616504302861,548.6359724538078,0.3767519978512604,0.1853356633749705,70.00000000507204,-2.4624598767003407e-11,113.70000000019972,0.086915163246288,15.288,0.0,0.0,0.0011071759353184,1.6174128009138757e-15,-1.3693172015529268e-08,2.7753303060112748e-11,1.3689612277852356e-11,9.467523276196548,87.63554493451223,0.3767447442872393,55.32050167054111
0.05,31.222185984749512,131.01038404118162,3.00777936418888,5.376730308971262,-2.257790939128127e-06,80.28807156553681,5.266841443842784e-05,3.348887800834877,761.6984298824644,1.018787885905993,0.4366201147110198,70.00000000894464,-1.1355399380652658e-10,113.70000001523856,0.635552918586145,15.288,0.0,0.0,0.0029939522895272,1.6418815498809788e-14,-9.32122351075408e-08,4.303264669380585e-11,2.5199270302492604e-10,5.3767303089717045,83.57022052969386,1.0187875312530217,80.35788377762394
0.06,31.22218596447235,131.01038409608267,3.0201664202003013,4.296730121134882,2.4863835723705905e-05,60.21296515808257,0.0001057204249726,3.347700952379021,590.4875390737208,1.721098934225416,0.7081674028809783,69.99999995523842,-3.0560354507026086e-10,113.70000004366592,1.8138247671743823,15.288,0.0,0.0,0.0050578622752421,8.328976953118383e-14,-3.2824985336199985e-07,5.923438275930214e-11,1.4991363363716091e-09,4.296730121206683,79.20467073327266,1.7211028398275985,60.305955550063224
0.07,31.22218593493329,131.01038417609837,3.038741944736831,3.8204913578752526,4.8016684030909405e-05,91.4060317508128,0.0001597686613101,3.346072557365335,855.2937749779139,2.4375792548422868,0.9844712334613328,69.99999973536046,-5.939103491363046e-10,113.7000000850886,3.6383156301599167,15.288,0.0,0.0,0.007163413150771,2.709313825263564e-13,-7.906546256197275e-07,7.920022733617308e-11,5.114174483651565e-09,3.820491358176508,74.87999294483174,2.437586797285377,91.46725557277466
0.08,31.222185894468456,131.01038428575305,3.0647976109320942,3.588632851766762,7.220043782492885e-05,19.18449428359557,0.0002119618497595,3.3440615022685813,241.2171988638848,3.1292508166901074,1.2522236515868983,69.99999919480445,-9.914748373602156e-10,113.7000001418522,5.996012698481753,15.288,0.0,0.0,0.0091960591623389,6.80386533246681e-13,-1.5973238302190878e-06,1.0839624626357699e-10,1.3263625118823921e-08,3.58863285249208,70.86684630658345,3.1292621579083604,19.473766155861934
0.09,31.22218584634549,131.01038441616095,3.0957981580345013,3.551302481506045,9.685468678862004e-05,57.102946699906326,0.0002554087225869,3.341892818148368,563.0937377043176,3.701810007254615,1.479132491047967,69.99999812344194,-1.4359264356978275e-09,113.7000002093888,8.390904013834115,15.288,0.0,0.0,0.010878666406854,1.440096519545733e-12,-2.748643691533636e-06,1.5214952332699618e-10,2.6999776649034504e-08,3.5513024828250237,67.68737872952666,3.701825221153239,57.20065357568538
0.1,31.222185790329306,131.01038456796124,3.1319266121977414,3.608446747536112,0.0001234669721807,54.26147302645416,0.0002914860332524,3.3396271157106168,538.7437595981919,4.174070299823608,1.6716491241860567,69.9999963052332,-1.902380107712657e-09,113.70000028805804,10.668380938744466,15.288,0.0,0.0,0.0122665227999911,2.687800116751415e-12,-4.315796035622946e-06,2.1749089204950437e-10,4.7802076800548326e-08,3.608446749645647,65.17160335282355,4.174089693970246,54.36414778470795
0.11,31.222185727066616,131.0103847393952,3.172681775073216,3.633547373470009,0.0001485939126744,42.987553988990406,0.0003293995000288,3.337005588796181,442.8656393052949,4.672024955140527,1.8729475711242067,69.99999349387662,-2.3433348587116544e-09,113.70000037699285,13.365573690709628,15.288,0.0,0.0,0.0137298902182575,4.5789425819531184e-12,-6.340230783164189e-06,3.1157625832417107e-10,7.860218435507205e-08,3.6335473765043056,62.62546922225161,4.672048296217748,43.116880735560244
0.12,31.22218565692512,131.0103849294629,3.2177790417108385,3.650108937861461,0.0001727442530266,46.86777100765684,0.000367618259785,3.334068179146888,475.58594813540446,5.17479364099247,2.0758708919414386,69.99998941286465,-2.702771525550512e-09,113.70000047573096,16.396890189902592,15.288,0.0,0.0,0.0152074069417046,7.288473386564583e-12,-8.86736416607888e-06,4.42271554299792e-10,1.217615295152289e-07,3.6501089419435786,60.16906436414164,5.174820775596283,46.986210423745625
0.13,31.222185580265183,131.0103851371844,3.2669395832841857,3.7280113734654137,0.0001995014041665,51.64515456841877,0.0003986198234033,3.3311573548369657,515.9156326236895,5.579364582999854,2.2451120211463422,69.99998375846928,-2.9114380666036422e-09,113.70000058383452,19.060875702782603,15.288,0.0,0.0,0.0163963474924215,1.100846422415094e-11,-1.1941028436408576e-05,6.179653149059831e-10,1.7678562106638216e-07,3.728011378795934,58.279338776943774,5.579395920607139,51.75247433579817
0.14,31.22218549718016,131.01038536230575,3.320091807147376,3.768719651034081,0.0002242721760019,48.1660778383537,0.0004326225136175,3.32784677779744,486.2390860568404,6.025734265159953,2.428648685938864,69.99997621008868,-2.890941335368725e-09,113.70000070125378,22.232643351545065,15.288,0.0,0.0,0.0177081261985351,1.5941871344608664e-11,-1.560901486259027e-05,8.477542742712431e-10,2.495765160917323e-07,3.7687196576976176,56.27980129251342,6.025769493750979,48.280903250602165
0.15,31.22218540777004,131.01038560455507,3.377159065217065,3.821894709649632,0.000249725644238,46.56959330999435,0.0004643042952466,3.324387732286376,472.54218587214,6.441023336496372,2.6014999612196745,69.99996641132823,-2.546763407193136e-09,113.70000082794672,25.402620271850456,15.288,0.0,0.0,0.0189285691155931,2.2314099732464315e-11,-1.992367942778425e-05,1.1417519574710292e-09,3.4051816697623295e-07,3.821894717796148,54.501255563441134,6.441062563308839,46.68809885900716
0.16,31.22218531193176,131.01038586421257,3.4382223512025254,3.8463320955387794,0.0002733212404609,36.974247749122085,0.0004987816203583,3.3205066466509234,391.1218908297564,6.895451966878468,2.7877331692857847,69.99995397923414,-1.77088415515292e-09,113.70000096417354,29.113317717489338,15.288,0.0,0.0,0.0202640360420561,3.0367358387834494e-11,-2.4945905791363795e-05,1.5114297685186711e-09,4.5643121540033697e-07,3.846332105235269,52.641145594326446,6.895494900078523,37.12304892183151
0.17,31.222185210004127,131.010386140357,3.503019838429153,3.8860314262554336,0.000297865039677,46.520531453299206,0.0005306403365217,3.31650761597812,471.78125980632376,7.314788342774694,2.9619016331667103,69.99993849340957,-4.3039914767238207e-10,113.70000110959404,32.761746921137856,15.288,0.0,0.0,0.0214963781445172,4.0366633128431416e-11,-3.0713078585132897e-05,1.96747427715988e-09,5.961228045584824e-07,3.886031437653654,51.00464968745696,7.314835131305714,46.63860064094784
0.18,31.22218510147516,131.01038643438045,3.571950002194137,3.9107265153396016,0.0003214293682635,38.895647526122765,0.0005639254295027,3.312149448254175,407.10156721191447,7.754626295791602,3.1430587898572058,69.9999195084231,1.6149322372810674e-09,113.70000126508234,36.81988229018681,15.288,0.0,0.0,0.0227889722876034,5.2593391349219385e-11,-3.731786027786564e-05,2.525509173087448e-09,7.6786585232224e-07,3.9107265285284982,49.36615848311875,7.754676785798701,39.036415444581515
0.19,31.222184986476247,131.0103867459258,3.644912152926752,3.920599115663931,0.0003437679584038,43.86258669386953,0.0005989384366483,3.307389681300437,448.9531328318269,8.219206165926856,3.332657190859447,69.99989653019398,4.538529095696477e-09,113.70000143063515,41.36350714675367,15.288,0.0,0.0,0.02415428010977,6.735860419174937e-11,-4.481243905342629e-05,3.199401151670645e-09,9.773118416308382e-07,3.92059913071168,47.71893898797248,8.21926016487149,43.987104227715655
0.2,31.222184864792144,131.01038707557822,3.722074668489528,3.943376465171875,0.000367328732016,40.28070981710589,0.0006315894240138,3.30251450988504,418.51563019916136,8.65238089736321,3.511445117640573,69.99986902534273,8.534090245934178e-09,113.7000016067622,45.83799876721736,15.288,0.0,0.0,0.025427299120469,8.499785987217288e-11,-5.328041996372527e-05,4.006766070954748e-09,1.2232205148646746e-06,3.9433764822533854,46.2587826635041,8.652438597225508,40.41586552155969
0.21,31.22218473678744,131.01038742234647,3.803156063113743,3.9664546506877016,0.000390962054969,38.67679184347145,0.0006636984664108,3.297405915846789,404.8187610144644,9.079179692250786,3.688002035198235,69.99983642883521,1.3827831253856693e-08,113.70000179318536,50.47126980736161,15.288,0.0,0.0,0.0266815841422463,1.0586558589671407e-10,-6.275155280099118e-05,4.961340042512481e-09,1.5117124669161171e-06,3.9664546699249135,44.88773728276958,9.079241104426773,38.817098210937615
0.22,31.2221846022986,131.01038778667507,3.8882846911135607,3.956175711337521,0.0004112685792646,46.713636108302936,0.0007011135033803,3.291572407481395,472.5421858721365,9.580256326712124,3.889976788904857,69.99979815126248,2.0662823443484168e-08,113.70000199039316,56.195522894218605,15.288,0.0,0.0,0.0281541581291438,1.3033127211465288e-10,-7.330053770532661e-05,6.0817207473359025e-09,1.8632831045819008e-06,3.956175732680424,43.35679625546934,9.580320928629488,46.8294591882524
0.23,31.222184460898035,131.01038816972698,3.977794004014759,3.9879066397329104,0.0004360962274406,38.89105719050748,0.0007308686121188,3.286096544282012,406.3406421461021,9.977039034039262,4.056142701351626,69.99975353557706,2.9316661139418326e-08,113.70000219928508,60.9462612310605,15.288,0.0,0.0,0.0293202403623685,1.5880617816859538e-10,-8.505067486192354e-05,7.393319440773217e-09,2.2514912291167663e-06,3.987906663538912,42.20670487756048,9.97710753587448,39.0296395118868
0.24,31.222184313516166,131.01038856897196,4.070963590490852,4.003523997322975,0.000459165577055,40.0792299321398,0.0007630441688766,3.280134925833028,416.2328240017114,10.408422364424831,4.234121060914368,69.99970190737699,4.010976417051318e-08,113.70000241888,66.32994780718496,15.288,0.0,0.0,0.030588009649109,1.91711512587616e-10,-9.795845222523724e-05,8.904557280909524e-09,2.7052895870113487e-06,4.003524023611085,41.011349410369874,10.408494489985014,40.21323112692186
0.25,31.22218416001652,131.01038898478134,4.167901030441617,4.0261356185860135,0.0004830526730531,41.17760020658354,0.0007934613160587,3.2740610008587527,425.36408079150686,10.816813039390448,4.4041629376391525,69.99964258149416,5.3372865854010094e-08,113.70000264972064,71.63651430352668,15.288,0.0,0.0,0.0317882126436337,2.2947426169209347e-10,-0.0001121037688082,1.0637152702866709e-08,3.217380562698304e-06,4.026135647516394,39.93186687113378,10.816888917126896,41.30755663120434
0.26,31.222184000702686,131.0103894163294,4.26837241014618,4.053359329950934,0.000507503069958,44.80261175215926,0.0008224724146494,3.2678597736729302,455.8015834241788,11.207047269494833,4.567925492611352,69.99957484039399,6.947299261165984e-08,113.70000289176392,76.89781807056055,15.288,0.0,0.0,0.0329350617559806,2.7254099134167665e-10,-0.0001275114371842,1.260720913253598e-08,3.7915697709142366e-06,4.053359361668992,38.945390435244384,11.207126987890645,44.921630958721536
0.27,31.22218383516388,131.01038986473338,4.372698316214008,4.0614460923241,0.0005296455772492,41.029837477288126,0.0008548809954683,3.2610328932384265,423.84219965987256,11.645685385842508,4.748226940060522,69.99949794024376,8.879821051920497e-08,113.70000314600205,83.0342688744587,15.288,0.0,0.0,0.0342241635563461,3.2137296827284217e-10,-0.0001442952656441,1.4842505534226832e-08,4.458527942364847e-06,4.061446126801262,37.8838346421185,11.645768582375233,41.15922617924542
0.28,31.222183663504484,131.01039032970942,4.48079961904222,4.081133040992532,0.0005533279247169,47.27661484082626,0.0008845140695959,3.254218495915602,476.3468732012221,12.047344998676092,4.915789434712848,69.99941106884992,1.1178948978424788e-07,113.70000341275257,88.85982357848233,15.288,0.0,0.0,0.0354045979054623,3.764736350660473e-10,-0.0001625146963723,1.7365685655384934e-08,5.194620655212288e-06,4.081133078439725,36.956255322213885,12.047431915223257,47.38848224631549
0.29,31.22218348566054,131.0103908114315,4.592727908358551,4.1001100265020245,0.0005770279952742,37.989969791857405,0.0009138463939581,3.247164755122801,397.97031042211177,12.446314684600782,5.082367374004485,69.99931338876085,1.3891902435864665e-07,113.70000369260468,94.8417675268915,15.288,0.0,0.0,0.0365771315767517,4.3836067907166327e-10,-0.0001822432988888,2.0202163500922312e-08,6.018074062137429e-06,4.100110067036654,36.07377590258778,12.446405323946324,38.12849176886316
0.3,31.222183301933686,131.01039130907952,4.708251093558373,4.112858061667493,0.0005998635114143,35.655053282557844,0.000944131403186,3.2397207148238625,378.1859457108711,12.860033399289696,5.253940723820665,69.99920403105713,1.707002607527005e-07,113.7000039856728,101.2505662360602,15.288,0.0,0.0,0.03779301412572,5.075709863465428e-10,-0.0002035013069687,2.3370674033523645e-08,6.94335970778e-06,4.112858105337573,35.19685285507256,12.860127625629724,35.80193592228613
0.31,31.222183112488807,131.0103918222051,4.827243246502713,4.136140889545823,0.0006242383343011,37.56633644061071,0.0009716215464757,3.232339252743767,394.1656220930212,13.2364445751808,5.4126574282679245,69.99908210036875,2.0768081583188525e-07,113.7000042923011,107.26326115439352,15.288,0.0,0.0,0.0388992619788015,5.846561731689753e-10,-0.0002263323252403,2.6893437641668458e-08,7.948283231812338e-06,4.1361409365698805,34.43286455705216,13.236542630309057,37.70514091683033
0.32,31.22218291741533,131.01039235056504,4.949637017503345,4.1622282001352975,0.0006491019906456,40.83513712643371,0.0009979686925508,3.224840963348891,421.55939346242695,13.59846554462374,5.566374262777002,69.99894668612772,2.504388718903276e-07,113.70000461297312,113.2095365840355,15.288,0.0,0.0,0.0399632243410653,6.701756367872645e-10,-0.00025078340164,3.0793566854276295e-08,9.047716714467492e-06,4.16222825066026,33.72644865222576,13.598567505326,40.96227562489027
0.33,31.222182716732533,131.01039289410716,5.075419569102976,4.187801887681037,0.0006739743721461,40.48743503284469,0.0010239291638211,3.217136801802925,418.5156301991682,13.956637761217308,5.718704299733134,69.99879684673242,2.995902922462564e-07,113.70000494831164,119.25032483364384,15.288,0.0,0.0,0.0410158804634189,7.647061680070125e-10,-0.0002769136723495,3.509664608790402e-08,1.0253455741189656e-05,4.187801941818244,33.053267359159875,13.956743628864118,40.61505097607
0.34,31.222182510255863,131.01039345333336,5.204736257784645,4.19642921746386,0.0006961879027693,31.814592723444047,0.0010535137542081,3.208669900766693,345.46563688075645,14.367047160772364,5.88887983533068,69.99863160305904,3.557915789971256e-07,113.70000529927128,126.36523219087664,15.288,0.0,0.0,0.042222056531773,8.688448410811866e-10,-0.0003048202762282,3.9835373705550826e-08,1.1618525957862828e-05,4.196429275109305,32.30947868183619,14.367156517712404,31.97598901989736
0.35,31.222182298183583,131.0103940277045,5.337435501771672,4.210915783240843,0.0007193441544952,34.813487415034444,0.0010813034848195,3.200164272309822,370.5765700527033,14.754132934586384,6.050986755458457,69.99844991734221,4.1975736284587617e-07,113.70000566632532,133.26448209504355,15.288,0.0,0.0,0.0433596939127697,9.832256819293898e-10,-0.0003345386312107,4.503361101379695e-08,1.309465610343774e-05,4.210915844572415,31.63649055965014,14.75424592890194,34.96026256388454
0.36,31.222182080444604,131.0103946174141,5.4735747500461605,4.22903876037745,0.0007431682866607,39.2632255716727,0.0011077666085529,3.1915717453569297,407.8625232777193,15.124417129017054,6.2072589919251575,69.99825073022951,4.922382611919288e-07,113.70000605036684,140.03566173682628,15.288,0.0,0.0,0.0444479595865755,1.1084921261805627e-09,-0.0003661511460057,5.0723697896912267e-08,1.4691545926915382e-05,4.229038825557203,31.017264542603208,15.124533865618538,39.39272792946638
0.37,31.22218185710795,131.01039522227452,5.613102797925907,4.249164960780052,0.0007674149135003,37.28328237034959,0.001133274451316,3.1828514669894137,391.1218908297666,15.483077353331511,6.359470679857624,69.99803294268581,5.740349991123437e-07,113.70000645214331,146.75405277514704,15.288,0.0,0.0,0.0455020695186381,1.245311285088233e-09,-0.0003997125883071,5.6934243389647934e-08,1.641828325195534e-05,4.2491650299519,30.439178816713017,15.483197898584232,37.418894813348615
0.38,31.2221816281124,131.0103958424523,5.756069531572451,4.260095806433531,0.0007900626414612,38.9278000801764,0.0011607546399008,3.1735466295306622,404.8187610144602,15.87126705947922,6.521735074464384,69.99779542676283,6.659911329739736e-07,113.70000687263192,154.20298254405043,15.288,0.0,0.0,0.0466429667223463,1.3943646956867835e-09,-0.0004353006984059,6.369875435270817e-08,1.8328108041903096e-05,4.260095879559656,29.83470194713067,15.87139116222873,39.05694584372078
0.39,31.22218139339905,131.0103964781077,5.9025231349944285,4.274091258047817,0.0008133283308351,33.320076729592266,0.0011870382950339,3.164143363712209,357.64062493382744,16.24457853509073,6.678818328235205,69.9975369905506,7.690136753559805e-07,113.70000731287368,161.54010621938565,15.288,0.0,0.0,0.0477401448128051,1.5563705124515804e-09,-0.0004730068442167,7.105463478762673e-08,2.0383860516746246e-05,4.274091335289374,29.274934656826048,16.244706292406182,33.46997636540994
0.4,31.22218115316572,131.01039712870306,6.0523126585892895,4.286421841403391,0.0008363022448449,31.88018820767003,0.0012133780841982,3.1544430614236454,345.465636880754,16.62063299903514,6.836764518435374,69.99725641601981,8.840594270905819e-07,113.70000777359816,169.10340080049767,15.288,0.0,0.0,0.0488453895716005,1.7320643186450851e-09,-0.0005128553637434,7.9027539265021e-08,2.2612406375611563e-05,4.286421922834417,28.730746964325096,16.620764365084565,32.03586915718869
0.41,31.22218090752676,131.01039779392735,6.205351877049411,4.30025870409831,0.0008595777771371,35.882550741685804,0.0012389121673015,3.1445895889870297,378.94687077668647,16.987310563534386,6.99141560549392,69.9969524610574,1.0121301778427253e-06,113.70000825570062,176.64448930727934,15.288,0.0,0.0,0.0499230826371405,1.922193031274436e-09,-0.0005548883906878,8.764667734700782e-08,2.5005077415911235e-05,4.300258789847355,28.21875643368965,16.987445585695873,36.020076248499606
0.42,31.222180656535848,131.0103984736348,6.36160173428776,4.322008670726048,0.0008844838439129,40.34064925656127,0.001261804338223,3.134918999355981,416.2328240017114,17.318628721060172,7.133856886815013,69.99662385300175,1.154276942054023e-06,113.70000876021427,183.59942989625057,15.288,0.0,0.0,0.0508968652507098,2.1275184665783874e-09,-0.0005991661829955,9.694534598491077e-08,2.752657757470936e-05,4.322008761057615,27.772396468009568,17.318767655457478,40.462275036947325
0.43,31.222180400205527,131.0103991677914,6.521055075967404,4.339436441324956,0.0009085827200945,35.541853595187746,0.0012854696362701,3.124839917627212,375.9031395134336,17.662848429084132,7.280642039343927,69.99626930133451,1.3115939750280808e-06,113.70000928827632,190.96736675963504,15.288,0.0,0.0,0.0519085689713619,2.3488101247838237e-09,-0.0006457514522491,1.0695800287133593e-07,3.0255957891170616e-05,4.339436536261635,27.322335771349252,17.662991148924057,35.67895714766603
0.44,31.22218013836212,131.0103998768696,6.683849332059896,4.342209064313268,0.0009296474314902,32.82948243168077,0.0013129688908547,3.113754688841357,353.0750125389216,18.063580761318697,7.446730341918701,69.99588746395321,1.4852372182848018e-06,113.7000098413532,199.7278270846888,15.288,0.0,0.0,0.0530863610987301,2.586862292117705e-09,-0.0006947575786514,1.1773083546077225e-07,3.329010177793299e-05,4.342209163639375,26.81344244367223,18.06372678999575,32.9768158972058
0.45,31.22217987077456,131.0104006014978,6.850166573233225,4.3420317510315165,0.0009500780330031,38.11022602597878,0.001341042003417,3.1022288449712887,397.2093853562869,18.47486275310604,7.616350301328129,69.99547690348253,1.6764536248320808e-06,113.70001042108892,208.92306716049887,15.288,0.0,0.0,0.0542951637545535,2.842521175226318e-09,-0.0007463379956615,1.2932090054593452e-07,3.657529369088674e-05,4.342031854775571,26.30944884471334,18.47501199101448,38.23628058998621
0.46,31.22217959739673,131.01040134180155,7.020045503401754,4.351169003849846,0.0009725797783515,44.3937050866137,0.0013660055515545,3.09098240974522,449.7140588976434,18.844323061800488,7.771531995684422,69.99503610583268,1.8865779683531e-06,113.70001102895836,217.3591612614144,15.288,0.0,0.0,0.0553810645782081,3.1166808800591503e-09,-0.000800596194505,1.417768495237597e-07,4.001824400409673e-05,4.351169112337076,25.873596578896564,18.844475834274814,44.50118229261506
0.47,31.22217931813738,131.01040209802923,7.193559875579052,4.358630093683735,0.0009947969928181,30.22514089990685,0.0013910994973101,3.079396422776949,331.0078106302534,19.2180591098146,7.9280875671397615,69.99456352718363,2.1170044481277104e-06,113.70001166656292,226.0625808853568,15.288,0.0,0.0,0.0564795377574197,3.4102493884459798e-09,-0.0008576351980594,1.551487523304888e-07,4.3718862242359527e-05,4.35863020698899,25.44665981168229,19.218215372160817,30.381603425148434
0.48,31.22217903348153,131.01040286886197,7.370336324605091,4.365514409145237,0.001016880998596,29.779838936311712,0.001416009414045,3.067527859335786,327.2031223011574,19.5915905767454,8.084483592791102,69.99405758812365,2.369198154608765e-06,113.70001233476164,234.93171707892955,15.288,0.0,0.0,0.057577416115756,3.7241711041759195e-09,-0.0009173883913609,1.6944871263079066e-07,4.767297940601472e-05,4.365514527349481,25.03354780044292,19.59175030803913,29.937410312943754
0.49,31.22217874361868,131.01040365378466,7.5502307795521535,4.3786401372577615,0.0010404145545081,37.2489281064929,0.0014385799934191,3.0558405437943126,389.60000969812296,19.93403005898306,8.23012235628909,69.99351671352461,2.644660619562788e-06,113.700013034871,243.21198709852868,15.288,0.0,0.0,0.0585839249886784,4.059374595909599e-09,-0.0009798792959512,1.8470833984680338e-07,5.180951737438081e-05,4.378640260624215,24.667474291142685,19.934193486919103,37.37406598941686
0.5,31.22217844858332,131.0104044527036,7.733219389747018,16.561307963356732,-13.034864065390348,38.830364358877546,1.1133396222983067,2.007864529422619,397.97031042210494,23.569272554498035,8.36606535597106,69.99293932307316,2.9449363413826395e-06,113.70001376847225,340.00044451084705,15.288,0.0,7.5154709336958545,0.0692676464106522,4.416640996685587e-09,-0.0010584230784109,3.2419929184031423e-05,6.616673502734706e-05,20.96210852143478,17.473370034412277,21.53937736662107,38.898177866402435
0.51,31.22217814824913,131.01040526474912,7.919297080236494,16.406346305831335,-12.865498767837328,29.92393302379976,1.1376757401195816,1.971681080666137,323.3984349720841,23.91282901838116,8.503360035461137,69.99225278955947,-0.0001329974415005,113.69986951545982,349.97843526918183,15.288,0.0,7.545301973703155,0.0702774707299215,4.791089645287181e-09,-0.0013736729369049,-0.0002327294893835,8.712459388092213e-05,20.739465441714813,17.318414545398106,21.908860998896586,30.010391533373355
0.52,31.22217784215856,131.01040608934392,8.10850817391799,16.2495435303054,-12.698600871426445,35.76499271203967,1.1630042134204728,1.934333521782725,372.0984511843415,24.26517485473748,8.643640357086003,69.99138337509302,-0.0006904148516457,113.69927672072087,360.3614518879017,15.288,0.0,7.575041176322316,0.0713131329718743,5.12806546889522e-09,-0.0016978145153995,-0.0005040030080735,0.0001092678110648,20.516855154473248,17.160063208366243,22.28677341386838,35.83613998000031
0.53,31.22217753017649,131.01040692685106,8.300965670209406,16.098849340813864,-12.53750963039698,37.51026549837733,1.1884648936615183,1.8966428292343729,386.5562464348624,24.614257652720152,8.782397821353529,69.990325843225,-0.0016791465798152,113.69822490743556,370.7976187979685,15.288,0.0,7.604692425860035,0.0723392124923343,5.4273954442522006e-09,-0.0020312423141333,-0.0007816751250663,0.0001326047335458,20.302474727835733,17.00713530604099,22.6605492100606,37.576983920797964
0.54,31.222177212197664,131.0104077775061,8.49674771299135,15.952847959086936,-12.381141713887052,33.05974212804813,1.2141446508921483,1.8584958780111984,349.2703242098436,24.96163921708405,8.920201845721513,69.98907480603117,-0.0031092565626761,113.69670335777064,381.3304545321977,15.288,0.0,7.63427678411784,0.0733602994279687,5.688918320794709e-09,-0.0023742717623374,-0.0010659500079101,0.0001571831234803,20.09457547160862,16.858396442843166,23.03191452726114,33.13419236581623
0.55,31.222176888490463,131.0104086405293,8.69564275356761,15.815102404706696,-12.232038726859631,34.98726036955596,1.2397451278801916,1.8202842727356667,365.2500005919907,25.30158933984158,9.05499148407565,69.9876248117175,-0.0049908364866737,113.69470132181507,391.78030351635925,15.288,0.0,7.663759217060867,0.0743595530135889,5.912518065159815e-09,-0.0027266286056731,-0.0013565679300403,0.000182964941195,19.897473291155688,16.717220627864695,23.394747495383584,35.056508539539024
0.56,31.22217655904945,131.0104095158873,8.897651840671939,15.688006677879011,-12.091881355750568,32.72102959176032,1.2650247897685845,1.7823294636610647,346.2265619465787,25.629684016813293,9.185171065704044,69.98597044709507,-0.0073337855817036,113.69220825270855,401.9990925760874,15.288,0.0,7.693138792512653,0.0753239713483977,6.098102054423487e-09,-0.003088482661218,-0.0016536181353766,0.000209929797281,19.714058889366225,16.585925147319323,23.74436391081769,32.79394400770694
0.57,31.22217622394004,131.01041040335497,9.102721233848444,15.558294531445608,-11.950933948645996,32.36885755894651,1.2910014999420565,1.7432813359986898,343.1828296833023,25.96554440245764,9.31788874146156,69.9841062647638,-0.0101479631019558,113.68921364372969,412.5958755744469,15.288,0.0,7.7224022820592335,0.0763112196775701,6.2456116772092e-09,-0.0034598582456433,-0.0019570758789834,0.0002382499692884,19.52811970198064,16.452271344433413,24.10187872513181,32.44146504645964
0.58,31.222175883134668,131.0104113029606,9.31086937856344,15.417613528261272,-11.803122862846262,42.32781804820808,1.3184189280627916,1.7021430892727325,426.1250058573153,26.32284299382468,9.458097148181762,69.98202674000675,-0.0134432780675655,113.68570693286432,424.02056814625377,15.288,0.0,7.751549294800074,0.0773614810431974,6.355005032589378e-09,-0.0038409372439822,-0.002267038785775,0.0002681256976991,19.32946612251981,16.308430336154597,24.481898358185745,42.38254004054551
0.59,31.22217553623081,131.01041221575045,9.522405463851497,15.29700015064118,-11.670975257749904,34.49339005018583,1.3446762525411688,1.6623783125589162,360.68438819711065,26.6522160130222,9.587862824320045,69.97972598079366,-0.0172302161722523,113.68167694508152,434.68951445383993,15.288,0.0,7.780610725512832,0.0783296783230839,6.426207987440877e-09,-0.0042326015172921,-0.0025841440756131,0.0002991577933051,19.15591668248532,16.183403814582178,24.831595057375555,34.55959509358397
0.6,31.222175183430647,131.01041314112655,9.737169746645936,15.155033072024976,-11.524427148682168,30.76299023925731,1.3733420012068736,1.6192179472714658,329.4859594986058,27.020670199731835,9.731489595739712,69.97719810197734,-0.021519377661942,113.67711237124836,446.7821281362317,15.288,0.0,7.809569325292729,0.0794127412049887,6.4591940129763925e-09,-0.0046346431526034,-0.0029081842104873,0.0003320955641361,18.95698589991955,16.038410072624103,25.222598974676107,30.836171997731583
0.61,31.222174824680167,131.0104140791875,9.95520117347228,15.01243253068642,-11.378504425291112,35.890138239009524,1.402700470650595,1.5749445250431011,372.0984511843297,27.395378545250207,9.877062641866948,69.97443694970137,-0.0263215423660323,113.672001716949,459.2499081316788,15.288,0.0,7.838429859803779,0.0805141930869483,6.4539493758949964e-09,-0.0050473280579607,-0.0032393168002116,0.000366674242501,18.75791311256852,15.89281091829436,25.61977250921856,35.95205198152868
0.62,31.222174460085217,131.01041502959689,10.176414825690223,14.909319673954927,-11.262058724792032,44.400517531038815,1.428940779184722,1.5346826907437767,442.86563930529206,27.70629870564477,9.999277019544245,69.9714362139184,-0.0316476817123783,113.6663332803896,469.7234752353596,15.288,0.0,7.867197223564148,0.0814281812936439,6.4104841452330885e-09,-0.0054707099855155,-0.003577535098185,0.0004019338135453,18.60749073330871,15.784600615777055,25.948628062478267,44.45000652121179
0.63,31.222174089460207,131.01041599281487,10.400952154227456,14.797071724299254,-11.139956666063844,25.587791741427434,1.4564913824051473,1.4924828665600391,286.11251274707894,28.035782467416272,10.127923698962649,69.9681898048791,-0.0375083341183208,113.66009581209248,480.9514521410727,15.288,0.0,7.895834243056465,0.082396735290408,6.3288412296231755e-09,-0.0059052180625582,-0.0039231192296519,0.000439007152695,18.44650997461239,15.667965041477858,26.296926226407606,25.672630532468965
0.64,31.222173713370143,131.0104169672583,10.62837241093713,14.669119890399989,-11.007530064435608,25.140142372328068,1.486120697968541,1.447296841547468,282.30782441796754,28.397036522849064,10.267775877733218,69.96469154442289,-0.0439140830989732,113.65327800971052,493.4150964391688,15.288,0.0,7.924360138647812,0.0834586695520511,6.2091336905555e-09,-0.0063499399814,-0.0042753266812432,0.0004781411605627,18.26700003488785,15.53653196648422,26.67859449126905,25.225581883822006
0.65,31.222173331790607,131.01041795295055,10.858692344014155,14.57009531512258,-10.896694683940918,43.71549647180221,1.5133345178941215,1.4051953279824685,436.7781447787475,28.70869115856479,10.389489040954157,69.96093521773186,-0.050875180007856,113.64586893035585,504.2937366788429,15.288,0.0,7.952712835305184,0.0843748393406084,6.051493293569702e-09,-0.0068051371511072,-0.004634310613233,0.0005180291056054,18.12316082236489,15.43284050224995,27.00734200532255,43.76424781769916
0.66,31.22217294422265,131.01041895120957,11.092297063882876,14.46645453231308,-10.783414157811976,37.32634147953136,1.5414744323339102,1.361664387387638,383.51251517160017,29.031284016930755,10.514873436290792,69.95691463320934,-0.0584019489664974,113.63785754144568,515.6791051595625,15.288,0.0,7.980967479891266,0.0853231645711325,5.856036055403148e-09,-0.0072718908639698,-0.0050008421817518,0.0005597675780791,17.974231383979156,15.32496412835962,27.34741140729102,37.38296459051906
0.67,31.22217255084089,131.01041996151577,11.32904891881134,14.349228528028227,-10.661323858555912,25.99111100236792,1.5715763647046324,1.315284951605544,289.1562440103425,29.382763816808488,10.650391939549444,69.95262316549467,-0.0665053616230656,113.62923211901968,528.2292673794105,15.288,0.0,8.00912995508227,0.0863563970314819,5.6229166342566925e-09,-0.0077500240780896,-0.0053747383264727,0.0006037817278096,17.809334348821945,15.204249914242824,27.71773426134915,26.071779339190275
0.68,31.222172151803505,131.01042098339497,11.568823118658552,14.2381704019669,-10.544444227051608,32.22549284115848,1.6015357572789048,1.2689061841522316,340.8999924858462,29.72554408494041,10.782530129984767,69.9480541557261,-0.0751962912490215,113.6199810395382,540.6133888963325,15.288,0.0,8.03710403856164,0.0873640698642494,5.352319608614691e-09,-0.0082394286991081,-0.0057558687539179,0.0006493833998896,17.652407717898217,15.0896597051527,28.078560469002472,32.290206387410706
0.69,31.222171747182152,131.0104220166105,11.811562197564676,14.143463709345433,-10.439961725585151,39.47081982686363,1.6301379490878116,1.2241999532691965,401.0140726853634,30.03867490831457,10.903753755265164,69.9432009799546,-0.0844853799808897,113.61009292070676,552.0502240233739,15.288,0.0,8.064972454011244,0.0882846104545213,5.0444660006489315e-09,-0.0087401126755737,-0.0061441909265012,0.0006960844773833,17.51578261544088,14.990989977806136,28.40782894827213,39.52343144342824
0.7,31.22217133683831,131.01042306150157,12.057372124516927,14.049192420953268,-10.336542367026368,33.25455835554059,1.6591250833116091,1.1787874275973715,349.27032420985284,30.35290460742,11.02512714215179,69.93805698353253,-0.0943830642637125,113.59955659798536,563.6471448498176,15.288,0.0,8.09272359269744,0.0892083888171539,4.699612159788535e-09,-0.0092525113339711,-0.0065399814956481,0.0007445841346068,17.38014186515207,14.892981921477515,28.73803743833133,33.316780865857815
0.71,31.22217092081833,131.01042411790257,12.306215362300028,13.946537437746937,-10.227940900389836,27.492640961137205,1.6895666770388775,1.13118906014545,301.33126406340574,30.68645195047768,11.153208414269688,69.93261545425024,-0.1049000005888389,113.58836065770292,576.0892529412916,15.288,0.0,8.120298009901406,0.0901889508686897,4.318024507395877e-09,-0.00977667532606,-0.0069432282941626,0.0007953923090426,17.234792242960253,14.787135833885882,29.08836989554041,27.56772626213399
0.72,31.222170499118235,131.01042518578524,12.558093515470029,13.833832629395152,-10.113044636947798,33.459902149198186,1.7217931734877896,1.0809431372600429,350.79220534145287,31.044101733492127,11.28969250656724,69.92686935867764,-0.1160469666461404,113.57649356377516,589.5818569718665,15.288,0.0,8.147766678327558,0.0912403599741601,3.900010072775282e-09,-0.0103128086992053,-0.0073540330709021,0.0008487681462246,17.077744301548723,14.671728803848817,29.463783946515843,33.52160589279959
0.73,31.222170071728897,131.0104262651348,12.81301217904252,13.749013837449956,-10.018455249017036,42.08950228909976,1.7510194454579135,1.0346462013681912,422.320318528234,31.34474999452468,11.405472649191893,69.92081152728647,-0.1278350930981676,113.56394338947564,601.0421144459924,15.288,0.0,8.175130641838978,0.0921242470629013,3.445869972778473e-09,-0.0108611625769498,-0.0077725307602333,0.0009025338637365,16.9548505140269,14.58358697298912,29.77906157437751,42.13861370292705
0.74,31.22216963858289,131.01042735609957,13.07102258743554,13.656433213405714,-9.91908567533054,26.69348291515564,1.7816435065833904,0.9862260000637288,294.48281347105944,31.663639039275207,11.527571845364273,69.91443488723105,-0.1402749967632311,113.5506987535896,613.318655003082,15.288,0.0,8.202313644056701,0.0930617534797297,2.955971425556411e-09,-0.0114219783854555,-0.0081988479982122,0.0009587685520225,16.822974666962065,14.48819509313616,30.113323893599507,26.77104640183978
0.75,31.222169200027004,131.0104284576946,13.33185426786653,13.559339276081667,-9.817245772985553,31.01394217844284,1.813354498194779,0.9361085535725588,330.24688556441487,31.994621105030443,11.65378972021157,69.90773228725226,-0.1533773023311721,113.53674825798517,626.1921041760666,15.288,0.0,8.229365181582484,0.0940348107261259,2.4307176199778343e-09,-0.0119946436507563,-0.0086324832234901,0.0010173375245382,16.6860572374071,14.38862615041324,30.460066251698468,31.081009687717525
0.76,31.22216875594724,131.01042957019726,13.595594880597195,13.472420152845809,-9.723157639962585,33.317711557503486,1.844152543777692,0.8870669093842104,349.27032420986166,32.30465319806578,11.772275536699688,69.9006965166443,-0.167152443505471,113.52208070585388,638.3705021004232,15.288,0.0,8.256296512864981,0.0949463029502502,1.8705405537319103e-09,-0.0125796214151098,-0.0090737260004807,0.001077264620351,16.561816284355782,14.29921572272045,30.78466331732761,33.380498644200145
0.77,31.222168306281823,131.0104306937431,13.862291638675456,13.388526688205328,-9.631788109495956,31.21602222816774,1.8749466158029264,0.8378388341477397,331.7687666960708,32.60906299657567,11.888532769566908,69.89332035796497,-0.1816109090830083,113.50668482618948,650.4413779981505,15.288,0.0,8.283075886970106,0.0958412793139904,1.2758880502037303e-09,-0.0131772246011418,-0.0095227536859864,0.0011390450152866,16.44159688919664,14.213035936000468,31.10322116831161,31.283501122374062
0.78,31.22216785108888,131.01043182814053,14.131898802096174,13.297428571672569,-9.536034298063598,25.80696118159004,1.907201166671584,0.7863765673874861,286.8734378128899,32.931671540770694,12.011100962509625,69.88559633656928,-0.1967630961938575,113.49054945191588,663.3577807088419,15.288,0.0,8.309694931254974,0.0967897523272349,6.472695925993793e-10,-0.0137874474691221,-0.0099795098706263,0.0012035524494563,16.31306162786445,14.120061379186064,31.440660754842625,25.889284459482163
0.79,31.22216739044949,131.0104329731346,14.404352741214442,13.2027033717812,-9.438401474699289,36.28666752052764,1.9404906421024224,0.7332671125552899,373.6203323159534,33.26487321013992,12.137252843478718,69.87751706029589,-0.2126194861723014,113.47366330247732,676.8316498422007,15.288,0.0,8.336184915717128,0.0977693686896349,-1.4810522352661422e-11,-0.0144102759983181,-0.0104439327891021,0.0012706156005703,16.180532531587886,14.023744270353465,31.78898878894956,36.345913447535715
0.8,31.222166924141728,131.01043412930264,14.67982556863526,13.124052168770312,-9.352455443885052,36.75633030927999,1.971828868223649,0.6826949101374226,377.42502064505743,33.56087865764938,12.249868921982168,69.86907474849652,-0.2291907548741514,113.45601489496292,688.9125078867788,15.288,0.0,8.362565581658366,0.098639670035224,-7.098032439759133e-10,-0.0150464956794325,-0.0109165379695973,0.0013384840800062,16.06771120155014,13.943469132554013,32.09831350124947,36.815513024142184
0.81,31.22216645226123,131.01043529635183,14.958242628400535,13.036390994409526,-9.26088042383876,24.265638676071184,2.0049674801777133,0.6293951170979043,273.9374926939919,33.88007005046723,12.370578466317316,69.86026159588003,-0.2464873843637828,113.43759294456189,702.0602943795888,15.288,0.0,8.388804879750754,0.0995781267391021,-1.4371171529177851e-09,-0.0156959747310245,-0.0113971760843621,0.0014095013659033,15.944395115880354,13.85458095211923,32.43170011756651,24.356462246550475
0.82,31.222165974987945,131.01043647375766,15.239463714660497,12.945489614892349,-9.167648718135965,30.89218901571849,2.039087513347368,0.5745036751982366,328.72500443277005,34.20892184727743,12.494556205469468,69.85106987746526,-0.2645197793179787,113.41838622903305,715.7359923745513,15.288,0.0,8.414869715881839,0.1005449858492146,-2.196151360414074e-09,-0.0163584378925503,-0.0118855955226017,0.0014832091561781,15.81752208309852,13.762746126354765,32.77500774463691,30.964742442700594
0.83,31.222165492300768,131.010437661549,15.523505155032652,12.873421861836464,-9.087850781919917,38.994109196509086,2.0705956974945687,0.5230950384671432,395.68750322465047,34.49121369016235,12.601685123449595,69.84149159482435,-0.2832982765947966,113.3983836025528,727.5773826206948,15.288,0.0,8.440808813830838,0.1013750074260358,-2.986245256693956e-09,-0.0170341692180128,-0.012381946605869,0.0015571798261126,15.71360034303632,13.689772255945124,33.06967549214697,39.05254853387966
0.84,31.222165004091536,131.01043885999832,15.8104514266646,12.798303474622696,-9.006480787353913,24.468339997160527,2.1029633677047084,0.4702755692242832,275.4593748256452,34.781762458848625,12.71157316854912,69.83151891158325,-0.3028328279921549,113.37757431416648,739.866626970272,15.288,0.0,8.466623726166242,0.1022293061332675,-3.8067000557576636e-09,-0.0177235587573879,-0.0128864538340764,0.0016338037205433,15.606326895711629,13.614051464812835,33.37284681606369,24.56304696599269
0.85,31.222164510645985,131.0104400682926,16.100080341778547,12.709150336006635,-8.91608072728759,26.590957738247592,2.138147916184165,0.4132580557518629,292.96093233939376,35.11003310443043,12.83477893354716,69.82114392921187,-0.3231332113169786,113.3559477897128,753.877300008167,15.288,0.0,8.492293811164524,0.1031944846405489,-4.656791241546476e-09,-0.01842598092745,-0.0133986173253248,0.0017145381097091,15.482532116596396,13.524658713148678,33.715144140706585,26.67998298667741
0.86,31.22216401178901,131.0104412868893,16.392528617829306,12.631512461165396,-8.834021722958703,33.041314980541074,2.171798788096583,0.3582063739574622,346.2265619465587,35.408970891013254,12.947312592458497,69.81035845981597,-0.3442094969125331,113.33349313437076,766.747909384111,15.288,0.0,8.517832644073945,0.1040734581193412,-5.535753593074452e-09,-0.0191421691492839,-0.0139189045200852,0.001796294512659,15.3728530128934,13.44694098575784,34.026817396695186,33.11455144533366
0.87,31.222163507540685,131.01044251570949,16.687781175192274,12.559472666275768,-8.756222844193553,30.83938950234876,2.204826452135887,0.3038312383337831,327.964078366998,35.693185114837995,13.054410753428051,69.79915429929557,-0.3660715134767222,113.31019970042144,779.0839990750561,15.288,0.0,8.54320119451197,0.1049091653258887,-6.442788169655033e-09,-0.0198722358656435,-0.0144473392759356,0.0018797184824753,15.27016401677889,13.37507903068653,34.32310854154043,30.91959763617574
0.88,31.222162997932703,131.01044375464366,16.985814061510354,12.480742683254473,-8.674382515947094,26.7938584049758,2.239459326323606,0.2469591518551607,294.4828134710418,35.996176471856835,13.168050845043965,69.78752320625148,-0.3887288832957285,113.28605704966466,792.3443946485756,15.288,0.0,8.56843699753132,0.1058000712259036,-7.377059345150706e-09,-0.0206161906577253,-0.0149838725918683,0.0019665868801742,15.159753966401604,13.296812270668717,34.63880691012915,26.88841786202444
0.89,31.222162483041856,131.0104450034578,17.286568213344278,12.395574971592568,-8.58869625665513,29.28744530176672,2.2757392064316395,0.1875152509549017,315.028134248087,36.3180810007303,13.288288649225915,69.77545681821245,-0.4121911735123296,113.2610547918446,806.5559266433044,15.288,0.0,8.593537865913463,0.106746576235616,-8.337698017987322e-09,-0.0213740310543517,-0.0155284471972529,0.0020570513253737,15.041934922833557,13.212359183425145,34.97401855973603,29.376327258679023
0.9,31.222161962791063,131.01044626234386,17.59010459795163,12.328626020308535,-8.515715330618162,32.24319499579401,2.308979291438809,0.1322097686901015,339.37814235421445,36.58917363771009,13.39019267566824,69.76294651285492,-0.4364681478602357,113.23518231625424,818.6179111433842,15.288,0.0,8.618513047569484,0.1075437435659297,-9.323792830569985e-09,-0.0221462055240075,-0.016081321050746,0.0021472126917508,14.94617432797929,13.14636655671447,35.2564475442355,32.326034219001045
0.91,31.222161437246964,131.01044753109937,17.896372444985914,12.255074524993567,-8.43874387930813,24.78289473238224,2.3438472698526955,0.0743573718041274,277.7421810230789,36.879157170441296,13.498691877665486,69.7499838208074,-0.4615689090739231,113.2084297076678,831.6206032123126,15.288,0.0,8.643355085898358,0.1083964444456382,-1.0334389116346593e-08,-0.0229326427111536,-0.0166423870701484,0.0022410185733309,14.842789003602569,13.07403811342188,35.55838962733065,24.893593962292325
0.92,31.222160906604334,131.0104488091648,18.20522092005932,12.175218381867584,-8.358003235965274,29.30625961232414,2.3803756188590963,0.0138952520999566,315.02813424806214,37.187988784841146,13.613790484208112,69.73656026090691,-0.487502497786951,113.18078709688804,845.5820716039617,15.288,0.0,8.668052263996962,0.1093045535023388,-1.1368527395324124e-08,-0.0237328930531352,-0.0172112757862542,0.0023385725903551,14.732143152597503,12.995640185410965,35.879767947982465,29.402775951087186
0.93,31.22216037077224,131.01045009677614,18.51672235246017,12.111725050523408,-8.288592741176862,34.66228236444687,2.413960762981632,-0.0425441569909131,359.1625070654728,37.448773495409725,13.711561734056556,69.72266714112861,-0.5142778228662788,113.15224475131978,857.4574688324742,15.288,0.0,8.692616944794239,0.1100714501437486,-1.2425157342287464e-08,-0.0245475009989291,-0.0177883091296533,0.0024357312803106,14.641272620778176,12.933930896970589,36.151340791970185,34.74626361615236
0.94,31.22215982964173,131.0104513942242,18.83096362641137,12.034351424726456,-8.210364643129429,25.442487177967443,2.450766338411648,-0.1038540278601782,283.0687504837787,37.75089070302499,13.823967258243016,69.70829585652825,-0.5419033860557203,113.12279335722232,871.3220190446538,15.288,0.0,8.717043119182998,0.1109598427342941,-1.3503194304310456e-08,-0.0253768474148866,-0.0183736932861341,0.0025382608575963,14.534102276487795,12.858543648309908,36.465618891407736,25.560461558931838
0.95,31.22215928349304,131.0104527007112,19.147727225900496,11.959472194583432,-8.13420426772134,32.64594611067703,2.4874492912749657,-0.1652192797065563,342.4218736174873,38.045854714593005,13.933692941302535,69.69343748737953,-0.5703879418296302,113.09242331787848,884.9643194824009,15.288,0.0,8.741308090422509,0.1118272196012121,-1.4601566034006468e-08,-0.0262203092246725,-0.0189669399848988,0.0026430374870261,14.430150651550557,12.785926656211412,36.77242466045679,32.74099110974315
0.96,31.222158732038626,131.01045401702845,19.467239840675013,11.892866089495024,-8.063917266677747,32.00596625729254,2.52271217549763,-0.2247501772577449,337.09533515678345,38.315316804220565,14.034150703655568,69.67808309634009,-0.5997399461981219,113.06112534218153,897.5167963287802,15.288,0.0,8.765451255254726,0.1126196487405816,-1.5719077319406143e-08,-0.0270789920292803,-0.0195687520274762,0.0027488418642111,14.336289978919526,12.721919862657218,37.0528172858384,32.10601914634591
0.97,31.222158175296496,131.0104553431147,19.78948940010844,11.8228580735885,-7.991772911823048,20.83774197166357,2.559066202979949,-0.2860910406727431,245.02188719299323,38.595025918703286,14.138134301935,69.66222353239857,-0.6299679021492027,113.02889007463324,910.640529465362,15.288,0.0,8.789470188227565,0.1134422061372358,-1.6854542415759618e-08,-0.0279529998616643,-0.0201791397380073,0.0028581904169609,14.238615166928223,12.654755568530268,37.34374775430728,20.996241530150506
0.98,31.22215761354549,131.01045667817723,20.11425969579989,11.7399787167494,-7.911564516113297,29.892833053534304,2.5987528077117856,-0.352523413659982,319.5937466429581,38.91577989026234,14.256696551600102,69.64584961977488,-0.6610800078020131,112.99570847017304,925.8107755515802,15.288,0.0,8.81334897749999,0.1143854161947326,-1.800678202803585e-08,-0.0288415318819576,-0.0207974957662279,0.0029734587262778,14.125877245015785,12.574823784304485,37.67697969122811,30.007653305102707
0.99,31.222157046640223,131.01045802261316,20.44166664641441,11.680115633358565,-7.846839094854009,32.57730862253463,2.63348779219026,-0.4119672241434292,341.6609485517054,39.16269967146204,14.348704485774997,69.62895194713089,-0.6930845298484127,112.96157139649968,937.5670626006528,15.288,0.0,8.837105135147489,0.1151116144590952,-1.917448642406932e-08,-0.0297454029036183,-0.0214243159836388,0.0030860053422564,14.040712769799995,12.518468922698933,37.93397053316091,32.686174631382805
1.0,31.22215647457893,131.0104593764224,20.7717142039088,11.607745245709951,-7.774287530194407,29.2553271097486,2.671488940031192,-0.4764166454401395,314.2672081822764,39.44959662864036,14.454906508926948,69.61152139516796,-0.7259888501294633,112.92647064983652,951.3240238132364,15.288,0.0,8.86073157144864,0.1159553275991142,-2.0356341144244384e-08,-0.0306646321582205,-0.0220595522226943,0.0032045773193852,13.940915359448333,12.449714081653044,38.23215813630755,29.38091200550372
1.01,31.222155897535345,131.0104607391079,21.104268594946493,11.538010230074176,-7.703822044023733,30.553844608290337,2.709212341350133,-0.5407007781009691,324.9203161036979,39.72763732380964,14.557834732258495,69.59354847822678,-0.7598006356159565,112.8903977065807,964.750324734773,15.288,0.0,8.884224938041097,0.1167730187672744,-2.1551015295540602e-08,-0.0315988723597839,-0.0227029079252192,0.0033253769222314,13.844463494116493,12.38390401691652,38.52116670583086,30.678487726573408
1.02,31.222155315435256,131.0104621108744,21.43939070266212,11.472043094140275,-7.636159606678195,25.656846636620337,2.746329877391682,-0.6043352814656899,284.59063161540416,39.99258017630276,14.65596400462648,69.57502379597263,-0.794527027174242,112.8533445888903,977.6295665727956,15.288,0.0,8.907590722723214,0.1175522203275479,-2.275708270722929e-08,-0.0325485440364868,-0.0233546061865848,0.0034480501026081,13.752689544554478,12.32220819346891,38.796642858857226,25.810488725766792
1.03,31.22215472834453,131.01046349153344,21.77703175424732,11.397803797224435,-7.563480307695406,21.12677848473996,2.7858728856568327,-0.6717832934750987,247.30469339049705,40.28511871030889,14.763890245404715,69.55593794477294,-0.8301747918037578,112.81530370144957,991.9520753652724,15.288,0.0,8.930824717931019,0.1184125448423415,-2.3973107274582743e-08,-0.0335135394026438,-0.0240145125253124,0.0035761311467943,13.651325645752015,12.252359828211151,39.10049754720038,21.320252101504366
1.04,31.222154136322057,131.01046488091418,22.11714830454456,11.332270920834684,-7.496782094929176,33.064450563082886,2.823537501923444,-0.7367122464311257,345.46563688072297,40.547429998358176,14.86089070846428,69.5362811994503,-0.866750871832346,112.77626724521244,1004.879236502143,15.288,0.0,8.953930050755423,0.1191840300890302,-2.5197599575500085e-08,-0.0344939006220569,-0.0246825934726336,0.0037045882567953,13.560475753746635,12.191671523584816,39.37319541323348,33.19296612231817
1.05,31.22215353909585,131.0104662797898,22.459957286126407,11.260180768355644,-7.426192132582835,20.29612613250755,2.8632420106188645,-0.804903180966854,240.45625879819983,40.83187604352919,14.965726235581675,69.51604388544476,-0.9042617262269336,112.73622792036905,1018.9938800112571,15.288,0.0,8.976918974260483,0.1200205874681201,-2.6428947414645866e-08,-0.0354907610047666,-0.0253595436982413,0.0038382623069144,13.462071833379762,12.12457158094074,39.668635811951255,20.51289252954734
1.06,31.222152936892847,131.0104676875147,22.80528349447388,11.182661855846138,-7.352460033411699,28.536308744098395,2.9048189546246004,-0.8761278741351,308.17968365593924,41.13540170269991,15.07733297326444,69.49521591785022,-0.942714117561512,112.69517808469108,1034.1653613891103,15.288,0.0,8.999781929866886,0.1209132372964245,-2.766562577527389e-08,-0.0365034527014639,-0.0260448519758953,0.0039769972160947,13.357457734612224,12.052182034278784,39.98364709605474,28.697151251465524
1.07,31.22215232960289,131.01046910440203,23.15321672748753,11.119071089853136,-7.288006538226794,33.4472016457824,2.942933314204512,-0.9424787348146768,348.5093681440308,41.38868445292738,15.170813403772774,69.47378697248693,-0.9821148020770788,112.65311008492856,1046.9049006205466,15.288,0.0,9.022531577852396,0.1216582132791418,-2.8905953948192976e-08,-0.0375327085697783,-0.0267389404530234,0.0041141736175672,13.269498769453254,11.994359130827393,40.24697165883451,33.58964752108991
1.08,31.222151717131407,131.01047053072728,23.503835138527915,11.05295958162796,-7.222250712293789,22.79831642011875,2.9820351933294225,-1.010549938232602,261.00157857466235,41.64993193144255,15.267058098426988,69.4517468603837,-1.022469878317408,112.610016951313,1060.1271415255587,15.288,0.0,9.045169228133132,0.1224266104981914,-3.014822540625125e-08,-0.0385789785258437,-0.02744203904529,0.0042554106872995,13.178751133356291,11.934260467704688,40.51846534096949,23.014712178599442
1.09,31.22215109974132,131.01047196574302,23.85693532792156,10.972867739779035,-7.147898985255979,21.037927812824893,3.02549675978604,-1.0853817283051714,246.54375332474407,41.962082219411975,15.381538551933104,69.42908525830875,-1.0637852418904068,112.5658919112102,1076.0406854730406,15.288,0.0,9.067681847325137,0.1233446425427262,-3.1390796340244976e-08,-0.0396413539235769,-0.0281534795312242,0.0044052163167644,13.071704863062644,11.860064720801743,40.84220305748778,21.282060304332514
1.1,31.222150477505828,131.01047340924265,24.2124631517516,10.900575087956696,-7.078851089467311,41.33600512843447,3.0671079937277206,-1.1577347591421103,413.1890617385841,42.245222956753686,15.485541865564766,69.40579171016016,-1.1060665747367973,112.5207284009533,1090.573683327484,15.288,0.0,9.090073619913811,0.1241774133969988,-3.263188967657547e-08,-0.0407198478681976,-0.0288732046096354,0.0045554433654853,12.974051354467464,11.79417642923163,41.1361063311084,41.46580303329088
1.11,31.222149850045792,131.01047486232324,24.570721565130327,10.843317853296483,-7.019650566140271,30.49387338073952,3.104497936181049,-1.22404305978501,324.1593910376397,42.4703653598481,15.568586801716238,69.38185555196586,-1.1493194619529878,112.47451994097494,1102.1909719760529,15.288,0.0,9.112365156844806,0.124839711316708,-3.38695295127621e-08,-0.0418162321340472,-0.0296023086954337,0.0047028686401385,12.894291556534824,11.744132390452169,41.37047763787972,30.675927086374006
1.12,31.2221492174232,131.01047632482084,24.931666188843444,10.75900169308364,-6.943626458525117,12.04078047105438,3.150464214344592,-1.3034701828629356,172.73281794065943,42.79796005469269,15.68844771537418,69.35726624502308,-1.1935488243536512,112.4272607402748,1119.2212205748187,15.288,0.0,9.134546962121648,0.1258031734863846,-3.510187364037492e-08,-0.0429302867679223,-0.0303405741341753,0.0048652342373312,12.782858887243652,11.66642821301004,41.70992562388062,12.514186095611779
1.13,31.2221485801975,131.0104777951231,25.294858834422644,10.689886708665952,-6.877525562353454,35.78462318026227,3.1921257738470814,-1.3767335539949397,367.5328077900705,43.06669806506565,15.787096823843278,69.33201247479468,-1.2387604032551398,112.37894410933752,1133.2814953521904,15.288,0.0,9.1566047290198,0.1265936387566863,-3.632715967547736e-08,-0.0440600215743699,-0.0310866326169105,0.0050244441761761,12.689499419016975,11.604741260411805,41.98897130646964,35.95308496343698
1.14,31.222147937746623,131.01047927504518,25.660795713141752,10.631395211302976,-6.818397571876963,20.19942190820445,3.2306489656383945,-1.4455516346253003,239.69531773195544,43.29211135267676,15.870047174677692,69.30608365461514,-1.2849582674539464,112.329565126245,1145.1355942941248,15.288,0.0,9.178566673130332,0.1272567618311408,-3.754315163746303e-08,-0.0452082511722999,-0.0318422447640644,0.0051821854713346,12.60879952550396,11.554423285909785,42.223606137935015,20.507153817465703
1.15,31.222147290532007,131.01048076326614,26.029116711416943,10.545822580734688,-6.742559774310872,19.918466156193738,3.27828216800178,-1.528383218912478,237.41251153546767,43.62440524863534,15.991535112364032,69.2794691341653,-1.332146120917137,112.2791192359784,1162.7411777269112,15.288,0.0,9.20040695739458,0.1282340696944309,-3.874801816897678e-08,-0.0463729694740693,-0.032606035585149,0.0053563079576808,12.496458117104687,11.476273085836157,42.56772928739959,20.24421851424073
1.16,31.22214663868488,131.0104822594112,26.399721968904664,10.490266716169534,-6.68580804348484,50.73914158203178,3.31630824113211,-1.5970135132064236,490.0437743845894,43.834896807956206,16.06904560058443,69.2521575071152,-1.3803284187421987,112.22760105890116,1173.9471096916664,15.288,0.0,9.222123136900327,0.1288533491852358,-3.993965460250417e-08,-0.0475540734168188,-0.033377869542869,0.0055190377458892,12.41952810817197,11.429693928421976,42.787074249119904,50.872476261658726
1.17,31.22214598139164,131.010483765878,26.77326141141024,10.420599565658788,-6.620505150584754,9.699896705435687,3.359259273791773,-1.6733726020881738,153.70937929486794,44.10078341049228,16.16648022076948,69.22413803986775,-1.4295080408768468,112.17500687837122,1188.1891414023344,15.288,0.0,9.243738949162228,0.1296354734085596,-4.111558899601474e-08,-0.0487552383706432,-0.0341600392313507,0.005692560524631,12.326199904268003,11.368788190557089,43.06314952678242,10.400615117871514
1.18,31.222145319733585,131.01048527952335,27.14888280040817,10.332282019625568,-6.543892676213037,25.11286040266521,3.409076293757334,-1.7604542177417684,280.02501822196746,44.44381792840392,16.291856441068056,69.19539943241423,-1.4796882850445623,112.1213325053358,1206.7019635043005,15.288,0.0,9.265222052341214,0.1306443866865713,-4.227409415372615e-08,-0.049971589328094,-0.0349493360000525,0.0058797507997591,12.211182548750443,11.288681381197636,43.418138978439934,25.40426652814785
1.19,31.222144653228543,131.01048680177237,27.52697311651228,10.285610887223571,-6.493414743573844,43.229921058413645,3.444495693819665,-1.8259809564738143,428.4078130529292,44.61082747556419,16.353515988155426,69.16593004617206,-1.5308724864484091,112.06657368942452,1215.7438578795686,15.288,0.0,9.286609271872011,0.1311358775144272,-4.341259926473756e-08,-0.0512059597788805,-0.0357475045044482,0.0060474100024541,12.145119394318368,11.252531542747915,43.59302631870602,43.40535487419522
1.2,31.22214398146628,131.0104883338652,27.9078642956716,10.205780376072436,-6.42265676499012,5.221221153505549,3.491973770678438,-1.9101411293490929,117.1843741360236,44.91627893079939,16.465253239874066,69.13571912963737,-1.5830620702943372,112.01072819984093,1232.4042176250891,15.288,0.0,9.307903061253445,0.1320343357312907,-4.452866859248301e-08,-0.0524600692861925,-0.0365555610683791,0.0062377126381212,12.040386776860872,11.182000059017232,43.90952188260277,6.565338550520531
1.21,31.222143305525915,131.01048987263775,28.29070370901524,10.127899266071976,-6.353395907856881,34.86877889551678,3.5391582499224223,-1.9941879085926373,359.92343213200894,45.21331572929533,16.574022159151163,69.10475476378926,-1.6362597915019663,111.9537923567472,1248.7122671707605,15.288,0.0,9.329068855335697,0.1329080690578755,-4.562039198220925e-08,-0.0537290187387243,-0.0373703123406696,0.0064306078735781,11.938104585340064,11.113815601477096,44.217370601900015,35.10461747686774
1.22,31.222142624593964,131.01049142051752,28.676143672139403,10.078384762625408,-6.301847967788417,25.47761072688468,3.575878761426712,-2.062559869306992,283.0687504825761,45.384543452264325,16.637113541877223,69.07302558920148,-1.6904670103134116,111.8957639511271,1258.141607420588,15.288,0.0,9.350148304210554,0.1334119866620211,-4.6684876029460326e-08,-0.0550172040269259,-0.0381944726166062,0.0066094780965941,11.869134735363522,11.075907583394324,44.39664612785963,25.809876219803293
