Time,Latitude,Longitude,Altitude,Angle of Attack,Angle of Sideslip,X-Acceleration,Y-Acceleration,Z-Acceleration,Thrust,True Velocity,Ground Velocity,Pitch,Roll,Yaw,Dynamic Pressure,cp,parachute_deploy_gain,Wind Speed,Mach,omega_x,omega_y,omega_z,Cmq,Angle of Attack(total),Angle of Attack(gust),True Velocity(gust),Acceleration
0.0,31.222186000000004,131.010384,3.000000003643237,0.0,0.0,0.0,0.0,0.0,2.2828121974499247,0.0,0.0,69.99999999623421,0.0,113.69999999388332,0.0,15.288,0.0,0.0,0.0,0.0,0.0,0.0,-0.0,0.0,90.0,0.0,0.0
0.01,31.22218600000153,131.01038399999584,2.99999882256592,0.0,0.0,0.0,0.0,0.0,34.24218696174923,7.502283530665459e-11,7.190531319924593e-11,69.99999999623329,-4.83564628150269e-13,113.69999999388072,3.446445726795683e-21,15.288,0.0,0.0,2.204725565824978e-13,-3.659182332138578e-19,7.589415207398531e-19,4.811147140404426e-19,-1.5108918610345807e-31,0.0,89.9999999995224,7.502283530665459e-11,0.0
0.02,31.22218600000288,131.01038399999217,2.999997775701936,0.0,0.0,0.0,0.0,0.0,25.871876237766408,1.5320717031631675e-10,1.4674636035870463e-10,69.99999999623222,-9.67129256300373e-13,113.69999999387804,1.4372842949972735e-20,15.288,0.0,0.0,4.5023593667086093e-13,-7.284483346386986e-19,1.5178830414797062e-18,9.757819552369542e-19,-6.170906918166791e-31,0.0,89.99999999902465,1.5320717031631675e-10,0.0
0.03,31.22218599928065,131.01038400193067,3.000201659671132,18.81500467334555,-0.00012974450181,11.96616230539064,-1.8916256735984712e-05,3.349833086198469,180.34219359854663,0.0882870268161719,0.0553390044312322,69.99999999799445,-4.212591857125379e-12,113.69999999488518,0.0047728553458352,15.288,0.0,0.0,0.0002594525584132,3.2187251995663407e-17,-7.20264389268894e-10,1.2365134327422308e-11,1.6874092354518158e-13,18.815004673776716,89.46786891739345,0.0882666465974854,12.426199017587786
0.04,31.22218599548236,131.0103840121632,3.001799604587872,9.46752327608497,-4.6177622759613696e-05,55.21900012092241,3.931876292165237e-06,3.349616504302861,548.6359724538078,0.3767519978512604,0.1853356633749705,70.00000000507204,-2.4624598767003407e-11,113.70000000019972,0.086915163246288,15.288,0.0,0.0,0.0011071759353184,1.6174128009138757e-15,-1.3693172015529268e-08,2.7753303060112748e-11,1.3689612277852356e-11,9.467523276196548,87.63554493451223,0.3767447442872393,55.32050167054111
0.05,31.222185984749512,131.01038404118162,3.00777936418888,5.376730308971262,-2.257790939128127e-06,80.28807156553681,5.266841443842784e-05,3.348887800834877,761.6984298824644,1.018787885905993,0.4366201147110198,70.00000000894464,-1.1355399380652658e-10,113.70000001523856,0.635552918586145,15.288,0.0,0.0,0.0029939522895272,1.6418815498809788e-14,-9.32122351075408e-08,4.303264669380585e-11,2.5199270302492604e-10,5.3767303089717045,83.57022052969386,1.0187875312530217,80.35788377762394
0.06,31.22218596447235,131.01038409608267,3.0201664202003013,4.296730121134882,2.4863835723705905e-05,60.21296515808257,0.0001057204249726,3.347700952379021,590.4875390737208,1.721098934225416,0.7081674028809783,69.99999995523842,-3.0560354507026086e-10,113.70000004366592,1.8138247671743823,15.288,0.0,0.0,0.0050578622752421,8.328976953118383e-14,-3.2824985336199985e-07,5.923438275930214e-11,1.4991363363716091e-09,4.296730121206683,79.20467073327266,1.7211028398275985,60.305955550063224
0.07,31.22218593493329,131.01038417609837,3.038741944736831,3.8204913578752526,4.8016684030909405e-05,91.4060317508128,0.0001597686613101,3.346072557365335,855.2937749779139,2.4375792548422868,0.9844712334613328,69.99999973536046,-5.939103491363046e-10,113.7000000850886,3.6383156301599167,15.288,0.0,0.0,0.007163413150771,2.709313825263564e-13,-7.906546256197275e-07,7.920022733617308e-11,5.114174483651565e-09,3.820491358176508,74.87999294483174,2.437586797285377,91.46725557277466
0.08,31.222185894468456,131.01038428575305,3.0647976109320942,3.588632851766762,7.220043782492885e-05,19.18449428359557,0.0002119618497595,3.3440615022685813,241.2171988638848,3.1292508166901074,1.2522236515868983,69.99999919480445,-9.914748373602156e-10,113.7000001418522,5.996012698481753,15.288,0.0,0.0,0.0091960591623389,6.80386533246681e-13,-1.5973238302190878e-06,1.0839624626357699e-10,1.3263625118823921e-08,3.58863285249208,70.86684630658345,3.1292621579083604,19.473766155861934
0.09,31.22218584634549,131.01038441616095,3.0957981580345013,3.551302481506045,9.685468678862004e-05,57.102946699906326,0.0002554087225869,3.341892818148368,563.0937377043176,3.701810007254615,1.479132491047967,69.99999812344194,-1.4359264356978275e-09,113.7000002093888,8.390904013834115,15.288,0.0,0.0,0.010878666406854,1.440096519545733e-12,-2.748643691533636e-06,1.5214952332699618e-10,2.6999776649034504e-08,3.5513024828250237,67.68737872952666,3.701825221153239,57.20065357568538
0.1,31.222185790329306,131.01038456796124,3.1319266121977414,3.608446747536112,0.0001234669721807,54.26147302645416,0.0002914860332524,3.3396271157106168,538.7437595981919,4.174070299823608,1.6716491241860567,69.9999963052332,-1.902380107712657e-09,113.70000028805804,10.668380938744466,15.288,0.0,0.0,0.0122665227999911,2.687800116751415e-12,-4.315796035622946e-06,2.1749089204950437e-10,4.7802076800548326e-08,3.608446749645647,65.17160335282355,4.174089693970246,54.36414778470795
0.11,31.222185727066616,131.0103847393952,3.172681775073216,3.633547373470009,0.0001485939126744,42.987553988990406,0.0003293995000288,3.337005588796181,442.8656393052949,4.672024955140527,1.8729475711242067,69.99999349387662,-2.3433348587116544e-09,113.70000037699285,13.365573690709628,15.288,0.0,0.0,0.0137298902182575,4.5789425819531184e-12,-6.340230783164189e-06,3.1157625832417107e-10,7.860218435507205e-08,3.6335473765043056,62.62546922225161,4.672048296217748,43.116880735560244
0.12,31.22218565692512,131.0103849294629,3.2177790417108385,3.650108937861461,0.0001727442530266,46.86777100765684,0.000367618259785,3.334068179146888,475.58594813540446,5.17479364099247,2.0758708919414386,69.99998941286465,-2.702771525550512e-09,113.70000047573096,16.396890189902592,15.288,0.0,0.0,0.0152074069417046,7.288473386564583e-12,-8.86736416607888e-06,4.42271554299792e-10,1.217615295152289e-07,3.6501089419435786,60.16906436414164,5.174820775596283,46.986210423745625
0.13,31.222185580265183,131.0103851371844,3.2669395832841857,3.7280113734654137,0.0001995014041665,51.64515456841877,0.0003986198234033,3.3311573548369657,515.9156326236895,5.579364582999854,2.2451120211463422,69.99998375846928,-2.9114380666036422e-09,113.70000058383452,19.060875702782603,15.288,0.0,0.0,0.0163963474924215,1.100846422415094e-11,-1.1941028436408576e-05,6.179653149059831e-10,1.7678562106638216e-07,3.728011378795934,58.279338776943774,5.579395920607139,51.75247433579817
0.14,31.22218549718016,131.01038536230575,3.320091807147376,3.768719651034081,0.0002242721760019,48.1660778383537,0.0004326225136175,3.32784677779744,486.2390860568404,6.025734265159953,2.428648685938864,69.99997621008868,-2.890941335368725e-09,113.70000070125378,22.232643351545065,15.288,0.0,0.0,0.0177081261985351,1.5941871344608664e-11,-1.560901486259027e-05,8.477542742712431e-10,2.495765160917323e-07,3.7687196576976176,56.27980129251342,6.025769493750979,48.280903250602165
0.15,31.22218540777004,131.01038560455507,3.377159065217065,3.821894709649632,0.000249725644238,46.56959330999435,0.0004643042952466,3.324387732286376,472.54218587214,6.441023336496372,2.6014999612196745,69.99996641132823,-2.546763407193136e-09,113.70000082794672,25.402620271850456,15.288,0.0,0.0,0.0189285691155931,2.2314099732464315e-11,-1.992367942778425e-05,1.1417519574710292e-09,3.4051816697623295e-07,3.821894717796148,54.501255563441134,6.441062563308839,46.68809885900716
0.16,31.22218531193176,131.01038586421257,3.4382223512025254,3.8463320955387794,0.0002733212404609,36.974247749122085,0.0004987816203583,3.3205066466509234,391.1218908297564,6.895451966878468,2.7877331692857847,69.99995397923414,-1.77088415515292e-09,113.70000096417354,29.113317717489338,15.288,0.0,0.0,0.0202640360420561,3.0367358387834494e-11,-2.4945905791363795e-05,1.5114297685186711e-09,4.5643121540033697e-07,3.846332105235269,52.641145594326446,6.895494900078523,37.12304892183151
0.17,31.222185210004127,131.010386140357,3.503019838429153,3.8860314262554336,0.000297865039677,46.520531453299206,0.0005306403365217,3.31650761597812,471.78125980632376,7.314788342774694,2.9619016331667103,69.99993849340957,-4.3039914767238207e-10,113.70000110959404,32.761746921137856,15.288,0.0,0.0,0.0214963781445172,4.0366633128431416e-11,-3.0713078585132897e-05,1.96747427715988e-09,5.961228045584824e-07,3.886031437653654,51.00464968745696,7.314835131305714,46.63860064094784
0.18,31.22218510147516,131.01038643438045,3.571950002194137,3.9107265153396016,0.0003214293682635,38.895647526122765,0.0005639254295027,3.312149448254175,407.10156721191447,7.754626295791602,3.1430587898572058,69.9999195084231,1.6149322372810674e-09,113.70000126508234,36.81988229018681,15.288,0.0,0.0,0.0227889722876034,5.2593391349219385e-11,-3.731786027786564e-05,2.525509173087448e-09,7.6786585232224e-07,3.9107265285284982,49.36615848311875,7.754676785798701,39.036415444581515
0.19,31.222184986476247,131.0103867459258,3.644912152926752,3.920599115663931,0.0003437679584038,43.86258669386953,0.0005989384366483,3.307389681300437,448.9531328318269,8.219206165926856,3.332657190859447,69.99989653019398,4.538529095696477e-09,113.70000143063515,41.36350714675367,15.288,0.0,0.0,0.02415428010977,6.735860419174937e-11,-4.481243905342629e-05,3.199401151670645e-09,9.773118416308382e-07,3.92059913071168,47.71893898797248,8.21926016487149,43.987104227715655
0.2,31.222184864792144,131.01038707557822,3.722074668489528,3.943376465171875,0.000367328732016,40.28070981710589,0.0006315894240138,3.30251450988504,418.51563019916136,8.65238089736321,3.511445117640573,69.99986902534273,8.534090245934178e-09,113.7000016067622,45.83799876721736,15.288,0.0,0.0,0.025427299120469,8.499785987217288e-11,-5.328041996372527e-05,4.006766070954748e-09,1.2232205148646746e-06,3.9433764822533854,46.2587826635041,8.652438597225508,40.41586552155969
0.21,31.22218473678744,131.01038742234647,3.803156063113743,3.9664546506877016,0.000390962054969,38.67679184347145,0.0006636984664108,3.297405915846789,404.8187610144644,9.079179692250786,3.688002035198235,69.99983642883521,1.3827831253856693e-08,113.70000179318536,50.47126980736161,15.288,0.0,0.0,0.0266815841422463,1.0586558589671407e-10,-6.275155280099118e-05,4.961340042512481e-09,1.5117124669161171e-06,3.9664546699249135,44.88773728276958,9.079241104426773,38.817098210937615
0.22,31.2221846022986,131.01038778667507,3.8882846911135607,3.956175711337521,0.0004112685792646,46.713636108302936,0.0007011135033803,3.291572407481395,472.5421858721365,9.580256326712124,3.889976788904857,69.99979815126248,2.0662823443484168e-08,113.70000199039316,56.195522894218605,15.288,0.0,0.0,0.0281541581291438,1.3033127211465288e-10,-7.330053770532661e-05,6.0817207473359025e-09,1.8632831045819008e-06,3.956175732680424,43.35679625546934,9.580320928629488,46.8294591882524
0.23,31.222184460898035,131.01038816972698,3.977794004014759,3.9879066397329104,0.0004360962274406,38.89105719050748,0.0007308686121188,3.286096544282012,406.3406421461021,9.977039034039262,4.056142701351626,69.99975353557706,2.9316661139418326e-08,113.70000219928508,60.9462612310605,15.288,0.0,0.0,0.0293202403623685,1.5880617816859538e-10,-8.505067486192354e-05,7.393319440773217e-09,2.2514912291167663e-06,3.987906663538912,42.20670487756048,9.97710753587448,39.0296395118868
0.24,31.222184313516166,131.01038856897196,4.070963590490852,4.003523997322975,0.000459165577055,40.0792299321398,0.0007630441688766,3.280134925833028,416.2328240017114,10.408422364424831,4.234121060914368,69.99970190737699,4.010976417051318e-08,113.70000241888,66.32994780718496,15.288,0.0,0.0,0.030588009649109,1.91711512587616e-10,-9.795845222523724e-05,8.904557280909524e-09,2.7052895870113487e-06,4.003524023611085,41.011349410369874,10.408494489985014,40.21323112692186
0.25,31.22218416001652,131.01038898478134,4.167901030441617,4.0261356185860135,0.0004830526730531,41.17760020658354,0.0007934613160587,3.2740610008587527,425.36408079150686,10.816813039390448,4.4041629376391525,69.99964258149416,5.3372865854010094e-08,113.70000264972064,71.63651430352668,15.288,0.0,0.0,0.0317882126436337,2.2947426169209347e-10,-0.0001121037688082,1.0637152702866709e-08,3.217380562698304e-06,4.026135647516394,39.93186687113378,10.816888917126896,41.30755663120434
0.26,31.222184000702686,131.0103894163294,4.26837241014618,4.053359329950934,0.000507503069958,44.80261175215926,0.0008224724146494,3.2678597736729302,455.8015834241788,11.207047269494833,4.567925492611352,69.99957484039399,6.947299261165984e-08,113.70000289176392,76.89781807056055,15.288,0.0,0.0,0.0329350617559806,2.7254099134167665e-10,-0.0001275114371842,1.260720913253598e-08,3.7915697709142366e-06,4.053359361668992,38.945390435244384,11.207126987890645,44.921630958721536
0.27,31.22218383516388,131.01038986473338,4.372698316214008,4.0614460923241,0.0005296455772492,41.029837477288126,0.0008548809954683,3.2610328932384265,423.84219965987256,11.645685385842508,4.748226940060522,69.99949794024376,8.879821051920497e-08,113.70000314600205,83.0342688744587,15.288,0.0,0.0,0.0342241635563461,3.2137296827284217e-10,-0.0001442952656441,1.4842505534226832e-08,4.458527942364847e-06,4.061446126801262,37.8838346421185,11.645768582375233,41.15922617924542
0.28,31.222183663504484,131.01039032970942,4.48079961904222,4.081133040992532,0.0005533279247169,47.27661484082626,0.0008845140695959,3.254218495915602,476.3468732012221,12.047344998676092,4.915789434712848,69.99941106884992,1.1178948978424788e-07,113.70000341275257,88.85982357848233,15.288,0.0,0.0,0.0354045979054623,3.764736350660473e-10,-0.0001625146963723,1.7365685655384934e-08,5.194620655212288e-06,4.081133078439725,36.956255322213885,12.047431915223257,47.38848224631549
0.29,31.22218348566054,131.0103908114315,4.592727908358551,4.1001100265020245,0.0005770279952742,37.989969791857405,0.0009138463939581,3.247164755122801,397.97031042211177,12.446314684600782,5.082367374004485,69.99931338876085,1.3891902435864665e-07,113.70000369260468,94.8417675268915,15.288,0.0,0.0,0.0365771315767517,4.3836067907166327e-10,-0.0001822432988888,2.0202163500922312e-08,6.018074062137429e-06,4.100110067036654,36.07377590258778,12.446405323946324,38.12849176886316
0.3,31.222183301933686,131.01039130907952,4.708251093558373,4.112858061667493,0.0005998635114143,35.655053282557844,0.000944131403186,3.2397207148238625,378.1859457108711,12.860033399289696,5.253940723820665,69.99920403105713,1.707002607527005e-07,113.7000039856728,101.2505662360602,15.288,0.0,0.0,0.03779301412572,5.075709863465428e-10,-0.0002035013069687,2.3370674033523645e-08,6.94335970778e-06,4.112858105337573,35.19685285507256,12.860127625629724,35.80193592228613
0.31,31.222183112488807,131.0103918222051,4.827243246502713,4.136140889545823,0.0006242383343011,37.56633644061071,0.0009716215464757,3.232339252743767,394.1656220930212,13.2364445751808,5.4126574282679245,69.99908210036875,2.0768081583188525e-07,113.7000042923011,107.26326115439352,15.288,0.0,0.0,0.0388992619788015,5.846561731689753e-10,-0.0002263323252403,2.6893437641668458e-08,7.948283231812338e-06,4.1361409365698805,34.43286455705216,13.236542630309057,37.70514091683033
0.32,31.22218291741533,131.01039235056504,4.949637017503345,4.1622282001352975,0.0006491019906456,40.83513712643371,0.0009979686925508,3.224840963348891,421.55939346242695,13.59846554462374,5.566374262777002,69.99894668612772,2.504388718903276e-07,113.70000461297312,113.2095365840355,15.288,0.0,0.0,0.0399632243410653,6.701756367872645e-10,-0.00025078340164,3.0793566854276295e-08,9.047716714467492e-06,4.16222825066026,33.72644865222576,13.598567505326,40.96227562489027
0.33,31.222182716732533,131.01039289410716,5.075419569102976,4.187801887681037,0.0006739743721461,40.48743503284469,0.0010239291638211,3.217136801802925,418.5156301991682,13.956637761217308,5.718704299733134,69.99879684673242,2.995902922462564e-07,113.70000494831164,119.25032483364384,15.288,0.0,0.0,0.0410158804634189,7.647061680070125e-10,-0.0002769136723495,3.509664608790402e-08,1.0253455741189656e-05,4.187801941818244,33.053267359159875,13.956743628864118,40.61505097607
0.34,31.222182510255863,131.01039345333336,5.204736257784645,4.19642921746386,0.0006961879027693,31.814592723444047,0.0010535137542081,3.208669900766693,345.46563688075645,14.367047160772364,5.88887983533068,69.99863160305904,3.557915789971256e-07,113.70000529927128,126.36523219087664,15.288,0.0,0.0,0.042222056531773,8.688448410811866e-10,-0.0003048202762282,3.9835373705550826e-08,1.1618525957862828e-05,4.196429275109305,32.30947868183619,14.367156517712404,31.97598901989736
0.35,31.222182298183583,131.0103940277045,5.337435501771672,4.210915783240843,0.0007193441544952,34.813487415034444,0.0010813034848195,3.200164272309822,370.5765700527033,14.754132934586384,6.050986755458457,69.99844991734221,4.1975736284587617e-07,113.70000566632532,133.26448209504355,15.288,0.0,0.0,0.0433596939127697,9.832256819293898e-10,-0.0003345386312107,4.503361101379695e-08,1.309465610343774e-05,4.210915844572415,31.63649055965014,14.75424592890194,34.96026256388454
0.36,31.222182080444604,131.0103946174141,5.4735747500461605,4.22903876037745,0.0007431682866607,39.2632255716727,0.0011077666085529,3.1915717453569297,407.8625232777193,15.124417129017054,6.2072589919251575,69.99825073022951,4.922382611919288e-07,113.70000605036684,140.03566173682628,15.288,0.0,0.0,0.0444479595865755,1.1084921261805627e-09,-0.0003661511460057,5.0723697896912267e-08,1.4691545926915382e-05,4.229038825557203,31.017264542603208,15.124533865618538,39.39272792946638
0.37,31.22218185710795,131.01039522227452,5.613102797925907,4.249164960780052,0.0007674149135003,37.28328237034959,0.001133274451316,3.1828514669894137,391.1218908297666,15.483077353331511,6.359470679857624,69.99803294268581,5.740349991123437e-07,113.70000645214331,146.75405277514704,15.288,0.0,0.0,0.0455020695186381,1.245311285088233e-09,-0.0003997125883071,5.6934243389647934e-08,1.641828325195534e-05,4.2491650299519,30.439178816713017,15.483197898584232,37.418894813348615
0.38,31.2221816281124,131.0103958424523,5.756069531572451,4.260095806433531,0.0007900626414612,38.9278000801764,0.0011607546399008,3.1735466295306622,404.8187610144602,15.87126705947922,6.521735074464384,69.99779542676283,6.659911329739736e-07,113.70000687263192,154.20298254405043,15.288,0.0,0.0,0.0466429667223463,1.3943646956867835e-09,-0.0004353006984059,6.369875435270817e-08,1.8328108041903096e-05,4.260095879559656,29.83470194713067,15.87139116222873,39.05694584372078
0.39,31.22218139339905,131.0103964781077,5.9025231349944285,4.274091258047817,0.0008133283308351,33.320076729592266,0.0011870382950339,3.164143363712209,357.64062493382744,16.24457853509073,6.678818328235205,69.9975369905506,7.690136753559805e-07,113.70000731287368,161.54010621938565,15.288,0.0,0.0,0.0477401448128051,1.5563705124515804e-09,-0.0004730068442167,7.105463478762673e-08,2.0383860516746246e-05,4.274091335289374,29.274934656826048,16.244706292406182,33.46997636540994
0.4,31.22218115316572,131.01039712870306,6.0523126585892895,4.286421841403391,0.0008363022448449,31.88018820767003,0.0012133780841982,3.1544430614236454,345.465636880754,16.62063299903514,6.836764518435374,69.99725641601981,8.840594270905819e-07,113.70000777359816,169.10340080049767,15.288,0.0,0.0,0.0488453895716005,1.7320643186450851e-09,-0.0005128553637434,7.9027539265021e-08,2.2612406375611563e-05,4.286421922834417,28.730746964325096,16.620764365084565,32.03586915718869
0.41,31.22218090752676,131.01039779392735,6.205351877049411,4.30025870409831,0.0008595777771371,35.882550741685804,0.0012389121673015,3.1445895889870297,378.94687077668647,16.987310563534386,6.99141560549392,69.9969524610574,1.0121301778427253e-06,113.70000825570062,176.64448930727934,15.288,0.0,0.0,0.0499230826371405,1.922193031274436e-09,-0.0005548883906878,8.764667734700782e-08,2.5005077415911235e-05,4.300258789847355,28.21875643368965,16.987445585695873,36.020076248499606
0.42,31.222180656535848,131.0103984736348,6.36160173428776,4.322008670726048,0.0008844838439129,40.34064925656127,0.001261804338223,3.134918999355981,416.2328240017114,17.318628721060172,7.133856886815013,69.99662385300175,1.154276942054023e-06,113.70000876021427,183.59942989625057,15.288,0.0,0.0,0.0508968652507098,2.1275184665783874e-09,-0.0005991661829955,9.694534598491077e-08,2.752657757470936e-05,4.322008761057615,27.772396468009568,17.318767655457478,40.462275036947325
0.43,31.222180400205527,131.0103991677914,6.521055075967404,4.339436441324956,0.0009085827200945,35.541853595187746,0.0012854696362701,3.124839917627212,375.9031395134336,17.662848429084132,7.280642039343927,69.99626930133451,1.3115939750280808e-06,113.70000928827632,190.96736675963504,15.288,0.0,0.0,0.0519085689713619,2.3488101247838237e-09,-0.0006457514522491,1.0695800287133593e-07,3.0255957891170616e-05,4.339436536261635,27.322335771349252,17.662991148924057,35.67895714766603
0.44,31.22218013836212,131.0103998768696,6.683849332059896,4.342209064313268,0.0009296474314902,32.82948243168077,0.0013129688908547,3.113754688841357,353.0750125389216,18.063580761318697,7.446730341918701,69.99588746395321,1.4852372182848018e-06,113.7000098413532,199.7278270846888,15.288,0.0,0.0,0.0530863610987301,2.586862292117705e-09,-0.0006947575786514,1.1773083546077225e-07,3.329010177793299e-05,4.342209163639375,26.81344244367223,18.06372678999575,32.9768158972058
0.45,31.22217987077456,131.0104006014978,6.850166573233225,4.3420317510315165,0.0009500780330031,38.11022602597878,0.001341042003417,3.1022288449712887,397.2093853562869,18.47486275310604,7.616350301328129,69.99547690348253,1.6764536248320808e-06,113.70001042108892,208.92306716049887,15.288,0.0,0.0,0.0542951637545535,2.842521175226318e-09,-0.0007463379956615,1.2932090054593452e-07,3.657529369088674e-05,4.342031854775571,26.30944884471334,18.47501199101448,38.23628058998621
0.46,31.22217959739673,131.01040134180155,7.020045503401754,4.351169003849846,0.0009725797783515,44.3937050866137,0.0013660055515545,3.09098240974522,449.7140588976434,18.844323061800488,7.771531995684422,69.99503610583268,1.8865779683531e-06,113.70001102895836,217.3591612614144,15.288,0.0,0.0,0.0553810645782081,3.1166808800591503e-09,-0.000800596194505,1.417768495237597e-07,4.001824400409673e-05,4.351169112337076,25.873596578896564,18.844475834274814,44.50118229261506
0.47,31.22217931813738,131.01040209802923,7.193559875579052,4.358630093683735,0.0009947969928181,30.22514089990685,0.0013910994973101,3.079396422776949,331.0078106302534,19.2180591098146,7.9280875671397615,69.99456352718363,2.1170044481277104e-06,113.70001166656292,226.0625808853568,15.288,0.0,0.0,0.0564795377574197,3.4102493884459798e-09,-0.0008576351980594,1.551487523304888e-07,4.3718862242359527e-05,4.35863020698899,25.44665981168229,19.218215372160817,30.381603425148434
0.48,31.22217903348153,131.01040286886197,7.370336324605091,4.365514409145237,0.001016880998596,29.779838936311712,0.001416009414045,3.067527859335786,327.2031223011574,19.5915905767454,8.084483592791102,69.99405758812365,2.369198154608765e-06,113.70001233476164,234.93171707892955,15.288,0.0,0.0,0.057577416115756,3.7241711041759195e-09,-0.0009173883913609,1.6944871263079066e-07,4.767297940601472e-05,4.365514527349481,25.03354780044292,19.59175030803913,29.937410312943754
0.49,31.22217874361868,131.01040365378466,7.5502307795521535,4.3786401372577615,0.0010404145545081,37.2489281064929,0.0014385799934191,3.0558405437943126,389.60000969812296,19.93403005898306,8.23012235628909,69.99351671352461,2.644660619562788e-06,113.700013034871,243.21198709852868,15.288,0.0,0.0,0.0585839249886784,4.059374595909599e-09,-0.0009798792959512,1.8470833984680338e-07,5.180951737438081e-05,4.378640260624215,24.667474291142685,19.934193486919103,37.37406598941686
0.5,31.22217844858332,131.0104044527036,7.733219389747018,19.950137591156484,16.40438179133698,39.23971141641509,-1.5611300906528396,1.61842391882955,397.97031042210494,25.08088349521885,8.365996061088087,69.99293932307316,2.9449363413826395e-06,113.70001376847225,385.01069106145405,15.288,0.0,10.020627911594472,0.0737101141155937,4.416566661548473e-09,-0.0010631047813644,4.472187932587112e-05,7.072177102974683e-05,25.614233457294294,40.47398567530415,27.62261688575529,39.30408853013282
0.51,31.22217814955387,131.01040526526972,7.919330444314196,19.754230876336173,16.206572635220997,30.33506323964945,-1.594395825881883,1.573544358317409,323.3984349720841,25.42347626930483,8.500925633256937,69.99222627745291,0.0003357684732417,113.70036838928743,395.593578555231,15.288,0.0,10.060408481544444,0.0747171155979911,4.976630431381266e-09,-0.0014711765846483,0.0004169028340854,9.92033189022089e-05,25.344375104475503,40.01862292328685,27.935387640384967,30.417662659229975
0.52,31.222177847094663,131.0104060913124,8.108626792310654,19.556605601767888,16.00752313826579,36.1777361500161,-1.6286008053163448,1.5272338578864824,372.0984511843415,25.774439922666087,8.638886963899868,69.99127661123991,0.0012599924420694,113.70135240616176,406.58368379541326,15.288,0.0,10.100077406523,0.0757487252798992,5.899085781530389e-09,-0.0018903112203402,0.0007973962056021,0.0001292233869472,25.072324525787195,39.56092990444586,28.25631205714088,36.24656365477883
0.53,31.222177541106497,131.01040693120672,8.301222089233885,19.36624457510036,15.814907595224716,37.92458821542225,-1.6630017870118403,1.480531652431473,386.5562464348624,26.12239239100065,8.77528066945055,69.99008380513719,0.0027889299317733,113.70297999646962,417.627740782455,15.288,0.0,10.139639074150992,0.0767714926083926,7.1916408880325904e-09,-0.0023209935908527,0.0011865589869836,0.0001608042153325,24.809613527528853,39.11791752802348,28.57516773762271,37.989892606149866
0.54,31.22217723152326,131.01040778520155,8.497194844745604,19.18152759001497,15.62750491927065,33.475606477150926,-1.6977122929486963,1.433295337258573,349.2703242098436,26.468837991549087,8.91067525481075,69.98864115397542,0.0049361804988637,113.7052656457203,428.7706211063775,15.288,0.0,10.179121109030287,0.077789838779334,8.862163418593622e-09,-0.002763607471043,0.0015846641288398,0.0001940053027239,24.55427809369636,38.6867759166803,28.893277405913764,33.549259180591534
0.55,31.222176918651847,131.01040865253034,8.696333878910625,19.00652138125928,15.448308598657515,35.404637854671726,-1.7323420192076593,1.386013292074732,365.2500005919907,26.808207835025616,9.043013622763322,69.98694187764151,0.0077153681583678,113.708223868502,439.8276498664089,15.288,0.0,10.218476324114592,0.078787397126514,1.0918545147077116e-08,-0.0032177925909425,0.0019913673737009,0.0002287809670848,24.31126332685245,38.27468534901615,29.20552788422091,35.47408100765649
0.56,31.222176602524097,131.01040953317224,8.898640594308393,18.84395944513956,15.279326641426662,33.13989508047379,-1.766573489850822,1.3390849126261124,346.2265619465787,27.13619177740364,9.170700318383258,69.98497924957391,0.0111398485297864,113.71186889798132,450.6468372572938,15.288,0.0,10.257703038906584,0.0797515003854228,1.3368468552698442e-08,-0.0036837490341037,0.0024067882154044,0.0002651090543363,24.08390373941979,37.8865065113416,29.50791680394612,33.21395153008864
0.57,31.222176283241826,131.01041042691463,9.104061595378525,18.67866366953961,15.10922058529961,32.789143827568964,-1.801736186460972,1.2908278596178142,343.1828296833023,27.47180148317369,9.30088492054594,69.98274650490539,0.015222909490818,113.71621489921358,461.85350125205656,15.288,0.0,10.296783212241928,0.0807380225550805,1.6219567884952376e-08,-0.0041614936728645,0.0028308948209017,0.0003031889977745,23.85369535421267,37.49557145110902,29.81774038847085,32.86396876206178
0.58,31.222175960813512,131.01041133379795,9.312615675462444,18.501070583939768,14.930862650571628,42.749432440922206,-1.8388047044407905,1.2400040648862056,426.1250058573153,27.82832140483623,9.438520440058792,69.98023674867328,0.0199778975902935,113.72127610702628,473.90935882891966,15.288,0.0,10.335713222024788,0.0817860062357663,1.9479491869719685e-08,-0.0046512416243614,0.0032638179713671,0.0003432608500443,23.60896365108659,37.08496593648525,30.147201095889372,42.80692451978978
0.59,31.22217563487387,131.0104122548812,9.524612360529671,18.346678990925973,14.77066316870462,34.91632950471472,-1.8743758012327496,1.190921687557549,360.68438819711065,28.157829090326125,9.565668237600098,69.97744278636894,0.0254188983701648,113.72706753940092,485.18879242839085,15.288,0.0,10.374538660151584,0.082754610301665,2.3156265812009946e-08,-0.0051540864553549,0.0037064059481948,0.0003848667468913,23.392997735054166,36.71727620220061,30.452385276974884,34.98687818585638
0.6,31.22217530566227,131.01041318957897,9.73989223748789,18.16810266764606,14.593357773876155,31.187125191865707,-1.91312283223134,1.1376526817964367,329.4859594986058,28.525412139901974,9.706636219958732,69.97435714790662,0.0315601312359622,113.733604372357,497.9288628731568,15.288,0.0,10.413234258770649,0.0838351241794364,2.7258103126262008e-08,-0.0056697524529809,0.0041583844170895,0.0004288906405021,23.14799156982153,36.30883151358164,30.793026681317503,31.266452794148364
0.61,31.222174973161863,131.01041413800243,9.958494592774956,17.98903325027017,14.41655854893438,36.31540241885296,-1.9528015513426449,1.083036991889038,372.0984511843297,28.89920267435969,9.849509322165831,69.97097232082935,0.0384160358559018,113.74090201044864,511.0531278335649,15.288,0.0,10.451805984321377,0.084933890100831,3.1793294076713114e-08,-0.0061985582509041,0.0046199632587167,0.0004750266495136,22.90282730995581,35.90138230061772,31.139930860586414,36.38399175280192
0.62,31.22217463751604,131.01041509982787,10.18033483175402,17.855360520855555,14.274301957938684,44.82696492995096,-1.9884098527101035,1.033433784785183,442.86563930529206,29.211028822228723,9.968982442704784,69.96728044896327,0.0460013185441808,113.7489761590991,522.1301646712598,15.288,0.0,10.490255554490432,0.0858505526548553,3.677032670773366e-08,-0.0067405556688916,0.0050911324289854,0.0005221252890147,22.71351063235257,35.57625068772396,31.430108146568976,44.88294268384085
0.63,31.22217429857337,131.01041607552716,10.405554717421651,17.711462368531738,14.125246573291626,26.015316934585968,-2.025754920451506,0.9814566747225114,286.11251274707894,29.5409798853094,10.094846529973736,69.96327398041146,0.0543300428216334,113.75784183710417,533.9806000858201,15.288,0.0,10.52854413413908,0.0868204919568394,4.2197191408991416e-08,-0.0072962674685781,0.0055722668879495,0.0005715423632367,22.512151028936614,35.2350007776959,31.73736102164134,26.112519131808142
0.64,31.22217395693509,131.0104170635292,10.633713813702723,17.549819759937154,13.963836004073416,25.568628885359367,-2.0658501428159006,0.925809786210572,282.30782441796754,29.901959674042885,10.23188385252337,69.95894521264734,0.0634163150933323,113.76751411724152,547.0984357887276,15.288,0.0,10.566691117802767,0.0878816322882395,4.808220596818168e-08,-0.0078645370216322,0.0060623769635796,0.0006235712458705,22.2895616186202,34.86412164994191,32.073744412808864,25.668650990070535
0.65,31.222173612609897,131.01041806386877,10.864829164951209,17.421453162347436,13.827805970414945,44.14495773965865,-2.102786575327523,0.8740195492107101,436.7781447787475,30.214664451288748,10.350746700723576,69.95428650553582,0.0732738164624931,113.77800763005853,558.5886189962957,15.288,0.0,10.604600775546764,0.0888009007874157,5.4433188132547496e-08,-0.008445676582836,0.0065616645596329,0.000676637170833,22.10799383934124,34.5542475613729,32.365706989843815,44.20365273809426
0.66,31.222173265128625,131.01041907787368,11.099286148911364,17.288022902868924,13.688777762317036,37.75668597434296,-2.1409591137445694,0.8204866789158413,383.51251517160017,30.53809122336688,10.473241713381046,69.94929022586705,0.0839162417571692,113.7893370190351,570.59837454181,15.288,0.0,10.6423968711282,0.0897516894901598,6.125772065085896e-08,-0.0090410232238468,0.0070711590322522,0.0007320712050767,21.92066553642312,34.23726305808329,32.667921864892755,37.82623745605886
0.67,31.222172914700376,131.01042010503613,11.336947410004989,17.13924408104843,13.53915433464668,26.42221512537992,-2.181727282817425,0.7634629293504989,289.1562440103425,30.88975553331204,10.60583629456602,69.9439480881402,0.0953581656004715,113.80151788313049,583.8022775816102,15.288,0.0,10.680060053837316,0.0907854770698687,6.856429922673108e-08,-0.0096503404283377,0.0075906163652219,0.000790389287849,21.715012049568,33.89481680008761,32.99674373085243,26.523126921857045
0.68,31.22217256151731,131.01042114489334,11.577688437341973,16.99772055435134,13.395593426024847,32.65729504628213,-2.222328419811729,0.7064714357124723,340.8999924858462,31.23299604643312,10.73501668627386,69.93825193602449,0.1076139685180042,113.81456560984972,596.8347410333562,15.288,0.0,10.717491595809692,0.0917945156456482,7.636130569281658e-08,-0.0102734773853445,0.0081198609748055,0.0008507559908363,21.51859780072825,33.56712246927535,33.318053832766104,32.74044540373426
0.69,31.222172205683208,131.01042219721953,11.821452039339285,16.875079178580098,13.266655848405026,39.9032909156233,-2.2611588165387007,0.6515778313926203,401.0140726853634,31.54735087555473,10.853248239908517,69.93219349872359,0.1206977245272977,113.82849528074348,608.8950292277045,15.288,0.0,10.754787448662196,0.0927186669244365,8.465691892237398e-08,-0.0109104287667334,0.0086588348035266,0.0009125747512102,21.34562307199032,33.274813484700815,33.61270095350925,39.972615860872025
0.7,31.22217184708841,131.01042326236347,12.068344423465003,16.753093437836046,13.138864579530654,33.68760902569535,-2.300506129343421,0.5958454556900739,349.27032420985284,31.862807618603064,10.971596126541336,69.925764596739,0.1346231991866165,113.84332165230254,621.1184394686553,15.288,0.0,10.791911068868451,0.0936460651615009,9.345896938280441e-08,-0.0115617219413991,0.0092079066722229,0.0009766973279431,21.17382539863205,32.985468961684816,33.90861487727767,33.77132455392184
0.71,31.222171485809685,131.01042434016986,12.318328307885407,16.621718647789006,13.004817152988688,27.926157215069864,-2.341789708366845,0.5374420222111423,301.33126406340574,32.19718356539632,11.096621897739391,69.91895690524132,0.1494043666059568,113.8590597057486,634.2079495813667,15.288,0.0,10.828822762015047,0.094629076317068,1.0277559635630449e-07,-0.0122274040822204,0.0097670592536409,0.0010437468083807,20.990934300281975,32.6811743422444,34.22248033038402,28.029325353391044
0.72,31.22217112187296,131.01042543062053,12.571405536627928,16.47903994618827,12.86314477640537,33.89376732165406,-2.385445702151832,0.4758026539605226,350.79220534145287,32.55518859468062,11.230022449306023,69.9117617296595,0.1650554060632894,113.87572466300058,648.3742978459675,15.288,0.0,10.865597928855244,0.0956815435670372,1.1261504445736513e-07,-0.012907713789945,0.0103364276987116,0.001114043117811,20.794623227056537,32.35840504992265,34.55879613112617,33.98093881307365
0.73,31.22217075529964,131.01042653371087,12.827581936223163,16.368360076244162,12.745588920355356,42.52370971850019,-2.425151284598107,0.4190713179395757,422.320318528234,32.857485685189125,11.342681518571416,69.90417022885435,0.1815908622876778,113.8933321320319,660.4551488255207,15.288,0.0,10.902211432131836,0.0965702909489932,1.2298578211658034e-07,-0.013602946389144,0.010916189057919,0.001184920156624,20.63771298055197,32.09442107627346,34.843086788805074,42.59486903074096
0.74,31.222170386049047,131.0104276495982,13.086908955699188,16.24899361371265,12.622262257026314,27.127907960093008,-2.466719130878072,0.3597490389494041,294.48281347105944,33.17765772938943,11.461630954652271,69.8961735983756,0.1990246046493958,113.91189702414052,673.3723897975964,15.288,0.0,10.938611998861711,0.0975115827404394,1.338958802187039e-07,-0.0143133857001095,0.0115065119395335,0.0012589226719793,20.47054583616709,31.81665835587049,35.14435948301818,27.242200956107464
0.75,31.222170014500414,131.0104287773084,13.349116366716627,16.124633151514164,12.49588952288532,31.44848066659686,-2.5097380813660486,0.2983657770053396,330.24688556441487,33.50970890825732,11.584675722754175,69.88776307417123,0.2173704315788116,113.93143417269484,686.9011363806765,15.288,0.0,10.974841080292464,0.0984877969962721,1.4535391242550196e-07,-0.0150382548714242,0.0121067245346911,0.0013358820632712,20.29763075526549,31.53160231119186,35.457035061462655,31.54987707759356
0.76,31.22216964056466,131.0104299171271,13.614292015311236,16.012041825307175,12.378712297222556,33.75229871236419,-2.5515638909321776,0.2383389251102395,349.27032420986166,33.82128706628252,11.69995875439346,69.87892971742306,0.2366418944152418,113.95195817238957,699.7165177303391,15.288,0.0,11.010913487237852,0.0994038482836644,1.573677171628125e-07,-0.0157781122977676,0.0127172110214205,0.0014146015715735,20.13940592605935,31.269173257424875,35.75063901767791,33.849445373615694
0.77,31.22216926420474,131.0104310691982,13.88248330726206,15.903012970747213,12.264682673240788,31.65059600957736,-2.5933786748065035,0.1781322299863431,331.7687666960708,34.12735910154501,11.812985509964808,69.86966456948736,0.2568525161596025,113.97348358952968,712.4199033749622,15.288,0.0,11.046752441387705,0.1003037254203555,1.699452380792669e-07,-0.0165333290962826,0.0133382061021624,0.0014956871769041,19.985839477795764,31.014754418335272,36.039211924133376,31.75716567648592
0.78,31.22216888550457,131.01043223333863,14.15364468137786,15.785937238041893,12.145349916646923,26.24148430871264,-2.6371259442856254,0.1152249534304835,286.8734378128899,34.45130441781834,11.932302650477716,69.85995850781171,0.2780157123438031,113.99602489312755,725.9901200484948,15.288,0.0,11.082412910847433,0.1012561429182143,1.8309462216041975e-07,-0.0173038743768331,0.0139696269100576,0.0015802124963232,19.822784829849045,30.74753145515133,36.34483617834059,26.37391151801964
0.79,31.22216850457155,131.01043340930235,14.427712712674492,15.664869110698971,12.023677952692951,36.72103735528486,-2.682255192707464,0.0503256345020841,373.6203323159534,34.78567505178255,12.055184211941938,69.8498022683618,0.3001448931741984,114.01959655789236,740.1313686298441,15.288,0.0,11.117904292786584,0.1022392108374929,1.968241026013789e-07,-0.0180897118856089,0.0146113867676598,0.0016679657296018,19.655184116382863,30.474701964961746,36.660518157210525,36.818902890180205
0.8,31.222168121203502,131.01043459767322,14.704859656765572,15.562266964342236,11.91597198932695,37.190480470009774,-2.724815043107379,-0.0114250306043152,377.42502064505743,35.08360543566055,12.164496703507012,69.83918630209197,0.3232537238898922,114.04421334387618,752.8436937282335,15.288,0.0,11.153252725004291,0.1031151858857815,2.1114148491876026e-07,-0.0188917951628164,0.0152641706139378,0.0017567943446887,19.510396534927345,30.236418100643835,36.94189798805401,37.290167405639885
0.81,31.222167735521047,131.01043579816687,14.98501103351776,15.449484116177375,11.80138737192888,24.699431748742768,-2.769756021357375,-0.0764825079322655,273.9374926939919,35.40427658518678,12.281886280422633,69.8281010342648,0.347355561009312,114.06988969565376,766.6482451856475,15.288,0.0,11.18837267893217,0.1040580081569845,2.260551957154444e-07,-0.0197099437162958,0.0159277771602962,0.0018495790737791,19.353499956767003,29.98147176978473,37.24495437371127,24.854362327419857
0.82,31.22216734773117,131.0104370102677,15.26802681589084,15.333175621867632,11.684772997654656,31.325450188024973,-2.81603321676704,-0.1434880912267773,328.72500443277005,35.734474661850655,12.402528374829611,69.81653680728935,0.3724635640582417,114.0966398621566,780.9939972528578,15.288,0.0,11.223302817400311,0.1050288408133825,2.415737582318196e-07,-0.020543800413352,0.0166018674570252,0.0019457551077387,19.19260729988073,29.72169199851612,37.55721809966018,31.45209788539857
0.83,31.22216695783444,131.01043823401184,15.55392347650016,15.238445337897543,11.58426954021117,39.4267309798972,-2.8588699829835087,-0.2061993679959714,395.68750322465047,36.018993801650105,12.506288360043827,69.80448382598435,0.3985908005117759,114.1244780094123,793.4583248427606,15.288,0.0,11.25806756931438,0.1058654256154999,2.5770520529930864e-07,-0.0213937047650301,0.0172866436368896,0.0020423287016192,19.05827494970355,29.501976902142147,37.82627455717144,39.53078258168122
0.84,31.22216656573892,131.01043946967715,15.842785583799296,15.140355989496628,11.481815848801268,24.900192018794275,-2.902853744916768,-0.2706107237872114,275.4593748256452,36.31162981093,12.612789402198382,69.79193238976754,0.4257497520495512,114.1534176948218,806.3812192490171,15.288,0.0,11.29266883833792,0.1067258762057469,2.744571832934519e-07,-0.0222601220927743,0.0179824048223585,0.0021422458107311,18.92013360626696,29.277694384017167,38.10314211284065,25.07028824327778
0.85,31.22216617175819,131.01044071645967,16.134391117884924,15.0264092433999,11.368410306185911,27.021882864082453,-2.950584328343703,-0.34013985162754,292.96093233939376,36.64133790678447,12.732606651004032,69.77887274252375,0.4539526160047313,114.1834721880819,821.0685236004404,15.288,0.0,11.327078947027264,0.1076952970787987,2.918382945638391e-07,-0.0231422624645909,0.0186884793949157,0.0022472996967482,18.76297603939111,29.02643059709751,38.41538949891958,27.18462426662406
0.86,31.22216577573104,131.01044197482145,16.428876865638408,14.925633342289064,11.264952366602678,33.471217764417545,-2.9962742922402543,-0.4072098883622655,346.2265619465587,36.94222227653393,12.841724692968624,69.76529476996396,0.4832119221873707,114.21465513029808,834.5848733620815,15.288,0.0,11.361262198133511,0.1085800096125075,3.0985601930523765e-07,-0.024041011311219,0.0194054874580833,0.0023536794886317,18.622104715427717,28.800170628209543,38.70033869727,33.607527403255666
0.87,31.22216537769596,131.01044324468947,16.72622784172342,14.831374849250816,11.166630414321752,31.26816847199148,-3.0411562041943294,-0.4734272379956211,327.964078366998,37.228665876764026,12.945385172157346,69.75118833797461,0.5135398175478479,114.2469797713882,847.5532993922448,15.288,0.0,11.395271283160616,0.1094222873361787,3.285183487356155e-07,-0.0249564877158877,0.0201334566721797,0.002462181750235,18.48942154720781,28.586960471736152,38.97163288631816,31.419279495253036
0.88,31.22216497770228,131.0104445259601,17.02642017514567,14.729614591789812,11.063370972151478,27.221366817329702,-3.08817673182182,-0.5426706154192678,294.4828134710418,37.53358143228324,13.055581135529314,69.73654326622605,0.5449481120953927,114.28045901977154,861.4688229414704,15.288,0.0,11.42910482779764,0.1103188670998195,3.478333148004799e-07,-0.0258886850208959,0.0208723185178302,0.0025749965279237,18.34787958256376,28.361670528954225,39.26063273900095,27.40135285578841
0.89,31.22216457584601,131.01044581840554,17.32939488979482,14.620645587727047,10.955401689325972,29.71353549782762,-3.1373929339370488,-0.6150282707334815,315.028134248087,37.85711920027801,13.172371964449768,69.72134922469685,0.5774484787667497,114.31510565589925,876.3589770036965,15.288,0.0,11.462759770769845,0.1112701911055554,3.6780900169483297e-07,-0.0268375808387455,0.0216219920327296,0.0026923092342726,18.197838896692183,28.124794091784693,39.56752286337745,29.885041174078744
0.9,31.22216417206308,131.0104471222219,17.635212995507942,14.532476295936911,10.862743769471312,32.66779483174623,-3.1825755355271808,-0.6822816675013343,339.37814235421445,38.13068904519224,13.27079163143453,69.70559556230765,0.6110527869722606,114.35093268877904,889.0444304468217,15.288,0.0,11.496248295533972,0.1120746582698132,3.8845311441845014e-07,-0.0278037060326987,0.0223828162061089,0.0028093030995134,18.073315316201835,27.926503227473944,39.826801058843685,32.8295463642465
0.91,31.22216376643622,131.0104484372119,17.943823780432208,14.436901413997507,10.765207591449244,25.205847716647543,-3.229926391802176,-0.7526174544987096,277.7421810230789,38.42285125156262,13.37580451974771,69.68927186082422,0.6457719693145068,114.38795214795284,902.6938126770086,15.288,0.0,11.529560323181393,0.1129337818601448,4.097736257756224e-07,-0.028786953472038,0.0231546444513403,0.0029308505944229,17.94004056221768,27.716244091237563,40.10391439681998,25.42309219280972
0.92,31.222163359183103,131.01044976282347,18.25507649651905,14.334265227793784,10.663053492202256,29.72741186261199,-3.2794903055398934,-0.8261088602444446,315.02813424806214,38.73357855460564,13.487420557700348,69.67236755693104,0.6816167770802252,114.42617588937848,917.325676537012,15.288,0.0,11.562679540987212,0.1138474821972789,4.317790654935098e-07,-0.0297867507678647,0.0239369773516855,0.0030570754439549,17.79843543099394,27.4945974373646,40.39887510958106,29.919166575332085
0.93,31.22216295022092,131.01045109929504,18.56904348083426,14.2502494660344,10.574537183835815,35.081541204019146,-3.325131487136354,-0.8946311941031775,359.1625070654728,38.99699053820294,13.5816730572434,69.65487195386065,0.7185977463564217,114.46561556050608,929.8168122593904,15.288,0.0,11.595582272399133,0.1146221206533903,4.544764961368517e-07,-0.0308037450650119,0.024730238807026,0.0031828554819048,17.679649341041568,27.307610807478728,40.64862109385994,35.25012620728472
0.94,31.22216253944421,131.0104524469184,18.885811572683235,14.150586194633572,10.475296810100865,25.85966460519772,-3.375063028038245,-0.9690737337965684,283.0687504837787,39.30111380741928,13.690576553840044,69.63677442003443,0.75672479094889,114.50628216628876,944.3472342967387,15.288,0.0,11.628311613484806,0.1155164295464738,4.778730555560139e-07,-0.0318383837315725,0.025534701026257,0.0033153162694422,17.542115026577513,27.09382370781776,40.93741799364961,26.096980818441068
0.95,31.2221621271608,131.0104538049048,19.2051633583028,14.053861989283265,10.3785367935974,33.06091344652562,-3.424842267029334,-1.0435497634283517,342.4218736174873,39.598216326692615,13.796792897592308,69.61806393627458,0.7960080863112037,114.54818701191958,958.6496601506836,15.288,0.0,11.660854550796182,0.1163901123015562,5.019776574533331e-07,-0.0328898806861887,0.0263497038044308,0.0034505926646189,17.408372924554318,26.886519222138155,41.21957247513247,33.254210839853656
0.96,31.2221617130748,131.01045517404245,19.52732541092354,13.966594766604077,10.288853512077814,32.41860329738496,-3.4727326596769905,-1.115744409528387,337.09533515678345,39.87019926704889,13.89371660949984,69.59872946055073,0.8364573380668393,114.59134092472335,971.8339114094492,15.288,0.0,11.693235443120969,0.117189971413252,5.267963410104218e-07,-0.0339595693498915,0.0271761815749547,0.0035871779001569,17.28631523650979,26.697400222709447,41.47769650189154,32.623160445704826
0.97,31.22216129721312,131.01045655427288,19.85228563787082,13.875552049484384,10.19687066306274,21.2478858649296,-3.522076795837078,-1.1901099203496317,245.02188719299323,40.152283444838325,13.994167157688963,69.57875968784674,0.8780822368793632,114.63575473874896,985.6033684566733,15.288,0.0,11.725450938047452,0.1180195306152747,5.523369378069068e-07,-0.0350475549127809,0.0280141428654888,0.0037281789796322,17.159900738924648,26.50271920016399,41.7455623189705,21.570675471745517
0.98,31.222160879881155,131.010457944812,20.179827906148404,13.770021609385555,10.095047590425752,30.300293239089207,-3.575862409342212,-1.2706497990275711,319.5937466429581,40.47484413106184,14.109228671830792,69.55814328262743,0.920891989744591,114.68143879542524,1001.4710269942152,15.288,0.0,11.75747971455308,0.1189680723295192,5.786087515136451e-07,-0.0361528350370382,0.0288627691611186,0.003876525650749,17.016161859636092,26.283210122779188,42.05237879264573,30.537012186150605
0.99,31.22216046093132,131.0104593460559,20.510068036799503,13.690612161762903,10.011982601807832,32.982005034745335,-3.623049466318324,-1.3426147386028628,341.6609485517054,40.7246112532606,14.197674371720373,69.53686861904791,0.9648958161869624,114.72840347464997,1013.8370052764664,15.288,0.0,11.789344995823622,0.1197026611346738,6.056182666400688e-07,-0.0372763818491442,0.0297227145569047,0.0040215367479065,16.90425281545816,26.111755354903547,42.28929844557052,33.207555734857536
1.0,31.22216004036484,131.01046075800528,20.84300989808965,13.597125857326247,9.9193658057748,29.65705999864196,-3.6745882970536514,-1.420645553481213,314.2672081822764,41.01380557587144,14.300346022543204,69.5149244298736,1.0101016809812948,114.7766578419998,1028.2542021445029,15.288,0.0,11.821037222495498,0.1205531486790031,6.333729964307379e-07,-0.0384181970854924,0.0305939103179589,0.0041740197801035,16.775514727385303,25.91619341626857,42.564164066562256,29.91758748135482
1.01,31.22215961837428,131.01046218016896,21.178519736401697,13.506691069215856,9.829239177599945,30.952463416391893,-3.7257551955644703,-1.4984291013425577,324.9203161036979,41.29427114403118,14.399738705725492,69.49229899801462,1.0565178446321954,114.8262113039571,1042.331760727954,15.288,0.0,11.852551825125165,0.1213779893381236,6.618813710378488e-07,-0.0395778317283092,0.0314759511269392,0.0043292758807052,16.650670702094033,25.727244521904375,42.83068229637389,31.21188128088572
1.02,31.222159194882245,131.0104636127504,21.51665830643182,13.420580489371684,9.74247735874676,26.052199916074585,-3.776111066022071,-1.575374538648278,284.59063161540416,41.56181554470142,14.494321872881423,69.46898071076706,1.1041517879629248,114.87707246126456,1055.8476977195348,15.288,0.0,11.883896011228966,0.1221648599931485,6.911500901077862e-07,-0.0407557752291863,0.0323691279488359,0.004486865210042,16.53125170589577,25.547193628371115,43.084796480220895,26.371536553395448
1.03,31.222158769961304,131.01046505556306,21.85737676560324,13.325196256006842,9.649569857913685,21.518672916951925,-3.8296989394421113,-1.656921468816793,247.30469339049705,41.856601982312,14.598733514664213,69.44495795155427,1.1530104124261331,114.92924932253028,1070.8434390881196,15.288,0.0,11.915064071311416,0.1230318145134648,7.211867840478391e-07,-0.0419518721295737,0.0332732540309316,0.0046511511807612,16.40082401049068,25.35159299984884,43.36519751448762,21.91951794240353
1.04,31.222158343678025,131.01046650843836,22.20063159799437,13.239704776846803,9.56389587874043,33.45275151067507,-3.8807771068953065,-1.735349918038764,345.46563688072297,42.12155511048036,14.692194402665942,69.42021870974361,1.2031007662152131,114.98275008043504,1084.4075143222224,15.288,0.0,11.946060073410813,0.1238110879346881,7.519989747281278e-07,-0.0431661480053322,0.0341882751553036,0.0048159116943916,16.28253792209777,25.174868383236205,43.61688173078807,33.721780112064266
1.05,31.22215791573293,131.01046797214002,22.54663944367239,13.1468791717257,9.47344253935039,20.68063277694551,-3.93457169853795,-1.8177024431675115,240.45625879819983,42.40836835559104,14.793516858093684,69.394751036773,1.2544291722989207,115.03758218167124,1099.1891127780968,15.288,0.0,11.976900244930206,0.1246546266191461,7.83591757525413e-07,-0.0443999593839028,0.0351151138302538,0.0049871281203458,16.155590054995802,24.98606790614025,43.88968222423193,21.129918804333016
1.06,31.222157486374808,131.0104694460294,22.895225097957187,13.048000746402217,9.379118721742811,28.91683186996301,-3.990861261445592,-1.903697295423496,308.17968365593924,42.71403968677424,14.901641377526255,69.36854248267448,1.3070022653521096,115.09375343399,1115.0543688543405,15.288,0.0,12.007571757546597,0.1255536069834251,8.159744477407139e-07,-0.0456524658349484,0.0360530772868179,0.0051646005232599,16.021532531158115,24.787452369309943,44.18073726950818,29.25293493645412
1.07,31.222157055481794,131.01047093041544,23.246478150763863,12.964880414801412,9.296051543044848,33.82360968513547,-4.042521269015419,-1.9837052014690737,348.5093681440308,42.97008526273305,14.991587261363394,69.34158030505613,1.3608265823816097,115.15127157114529,1128.4245554894608,15.288,0.0,12.038091387678383,0.1263067277533811,8.491533303445503e-07,-0.0469245312658877,0.0370027196382914,0.0053401487423478,15.90667008252328,24.61826868905507,44.42390757941808,34.12204033567113
1.08,31.22215662294403,131.01047242556825,23.600476514659817,12.878973891671588,9.211357461930394,23.17041571054692,-4.0954913527990975,-2.065754347333002,261.00157857466235,43.23399861251737,15.084311701633508,69.31385192844654,1.4159077004811609,115.21014333160574,1142.2893788141473,15.288,0.0,12.068460790020964,0.1270829851429216,8.831350783289999e-07,-0.0482166755873172,0.037964340426816,0.0055207120530453,15.788627467170302,24.445156397263613,44.67469035017356,23.620087947421723
1.09,31.222156189049382,131.01047393074833,23.957016793791865,12.777391282964697,9.116146954654647,21.405485417712303,-4.154276198837475,-2.155971975086074,246.54375332474407,43.54823085235713,15.195350258198248,69.28534461520462,1.4722508361687194,115.27037509885884,1158.914748187401,15.288,0.0,12.098662516891984,0.1280071614731954,9.179295978614376e-07,-0.0495277660914913,0.0389370369976983,0.0057118502272083,15.651878822721336,24.244856537009333,44.97415783570723,21.911207905121938
1.1,31.22215575387627,131.0104754457505,24.31604471382639,12.684647451906285,9.027357021884008,41.698866300493926,-4.210581105493673,-2.243115300130024,413.1890617385841,43.83380407020957,15.295888985294004,69.25604546692466,1.5298608322549716,115.33197288879472,1174.1235623249397,15.288,0.0,12.128702059723295,0.1288471072096734,9.535443857869502e-07,-0.0508577888350116,0.0399207207095509,0.0059034951899112,15.525961747683192,24.061500960710497,45.24595841982924,41.97089479915916
1.11,31.2221553169922,131.01047697165376,24.677862744472367,12.608858688056047,8.950532022270721,30.851892860936537,-4.2612336348454525,-2.322851268018215,324.1593910376397,44.06203020439367,15.375394596515102,69.22594133277948,1.5887423115741823,115.39494251513838,1186.3405995674484,15.288,0.0,12.158606792301333,0.129518494484576,9.89982784047455e-07,-0.0522088651096072,0.0409168443905286,0.0060916682006259,15.420629244630383,23.90977586339168,45.46226512085669,31.231283086142632
1.12,31.22215487845479,131.01047850829227,25.042426308488487,12.502714395122366,8.85315185409041,12.393663224461935,-4.323335810802339,-2.4184722203676,172.73281794065943,44.3915826573762,15.491876807852003,69.19501921844984,1.64889892638453,115.45928878597702,1204.1107532273,15.288,0.0,12.188363985911288,0.130487736978715,1.0272531142220957e-06,-0.0535806993067075,0.0419251100916857,0.0062982701019409,15.278945682653184,23.704350459654545,45.77670538189994,13.34702695490782
1.13,31.222154438894783,131.0104800540773,25.4092974777698,12.41370459928323,8.767832555530326,36.13223632082404,-4.379673041302093,-2.5065385281803234,367.5328077900705,44.66293626773621,15.587081515592644,69.16326518576348,1.7103353115120088,115.5250175934624,1218.8335917768404,15.288,0.0,12.217954511923455,0.1312859163983935,1.0653685095503664e-06,-0.0549708430451425,0.0429436722799822,0.0065009472056786,15.15804827780713,23.53081655833515,46.03481520742447,36.48291069645947
1.14,31.222153997591395,131.0104816107905,25.778971671939622,12.336662072734253,8.690980351974167,20.54159497270611,-4.431799240085007,-2.5891427400040814,239.69531773195544,44.891422169590825,15.66652773171015,69.13066618774877,1.7730538094298487,115.5921324136197,1231.292342834776,15.288,0.0,12.247415875559923,0.1319580972062075,1.1043286444623435e-06,-0.0563826768997229,0.0439748742430733,0.0067017867369778,15.051701298373969,23.379941602857567,46.2513690338501,21.17313459682432
1.15,31.22215355505777,131.01048317712792,26.151088908523217,12.229289259469462,8.593700808423733,20.25489887789105,-4.496091349291137,-2.68869626158066,237.41251153546767,45.225683559735415,15.784708689227916,69.09720910541033,1.8370561859782133,115.6606361379973,1249.6523372150432,15.288,0.0,12.276713594470124,0.1329412150737329,1.1441463359053052e-06,-0.0578137403853943,0.0450168691373697,0.0069228071249469,14.909078615466452,23.17525856667415,46.57052329317471,20.921397027010425
1.16,31.22215311143841,131.01048475271892,26.52554921565812,12.155630671597564,8.519685673102616,51.0697495991,-4.547525168367206,-2.770946321599334,490.0437743845894,45.439404012037215,15.858727271553848,69.0628799015979,1.902345098765441,115.73053264829744,1261.445690886724,15.288,0.0,12.30585949259854,0.1335700123097265,1.1848291518005948e-06,-0.0592638715599931,0.0460694573162765,0.007129729423217,14.8071099506109,23.032491282349586,46.77274688657711,51.34664013145254
1.17,31.22215266577216,131.01048633991147,26.903001401368392,12.066208457007887,8.435210673293952,10.024397937976088,-4.605531760199037,-2.862512388527529,153.70937929486794,45.70796255057601,15.95277562256824,69.02766536387793,1.9689210455169472,115.80182355132078,1276.3544108089725,15.288,0.0,12.334890299868832,0.1343600177021833,1.2263740741400224e-06,-0.0607374864482941,0.0471356955360624,0.0073499322150662,14.686376354167187,22.86227269825213,47.028181105220575,11.397080941520722
1.18,31.222152219300355,131.01048793561543,27.282594011519706,11.955959849034226,8.336893131684596,25.43098665762114,-4.672707118703274,-2.967010960466375,280.02501822196746,46.05293461488771,16.0749429529336,68.99155159792268,2.0367849712656567,115.87451096593212,1295.645948035567,15.288,0.0,12.363745842781508,0.1353746540573395,1.2688024040261395e-06,-0.0622286541080013,0.0482112810405289,0.0075869380417207,14.540825084482483,22.655266010804265,47.35787461401429,26.0263794684703
1.19,31.22215177144953,131.01048954122513,27.664713247017755,11.892361865421943,8.270446429130276,43.54161712119993,-4.720601340977385,-3.0452970952308966,428.4078130529292,46.22358429028666,16.13307744609656,68.95452430148578,2.105937778197352,115.94859700465148,1305.217888186537,15.288,0.0,12.392474475048044,0.1358768723551846,1.3121127503030654e-06,-0.0637407592056118,0.0492985257360574,0.0077998046996085,14.45137030612378,22.533747842592817,47.51819628666407,43.90250941515564
1.2,31.222151321710044,131.01049115794717,28.04969019948997,11.791680152679351,8.179169478619054,5.526114019339926,-4.784593688178793,-3.1460861653837844,117.1843741360236,46.531340079953374,16.241577877401213,68.91657026067574,2.1763777737969514,116.0240810373651,1322.607067414417,15.288,0.0,12.421038183666983,0.1367821324090939,1.3563072739389371e-06,-0.0652758476469477,0.0503987822223631,0.0080405340783465,14.317614270913417,22.346059020384445,47.81176180058254,7.957897402940356
1.21,31.22215087134217,131.01049278267757,28.43667314277699,11.693230499881688,8.089682583478975,35.16667268651688,-4.848172084060352,-3.2466544956627,359.92343213200894,46.83078353821164,16.34713418511497,68.87767485021223,2.2481049059899307,116.1009642268953,1339.6348037914825,15.288,0.0,12.449428666135752,0.137662968662202,1.4014078666709005e-06,-0.0668279654337367,0.0515077642750596,0.0082843861732536,14.18669397781535,22.163294691603344,48.09729011732014,35.64744599282649
1.22,31.22215041936093,131.01049441778616,28.82631309473649,11.626495491738936,8.021789631209003,25.768382247020924,-4.897720206480118,-3.3281534192883244,283.0687504825761,47.0055565615735,16.406763388541165,68.83782413263724,2.321117211353713,116.17924572880862,1349.6020096591335,15.288,0.0,12.477702069886856,0.1381773360812586,1.447407198241036e-06,-0.0684023751631376,0.0526290805439644,0.0085108864669801,14.093888580419735,22.03911400626139,48.26150377726917,26.440003631464716
1.23,31.222149966133976,131.01049606233434,29.218351544700063,11.525538043647373,7.931148945561498,10.689872279493835,-4.9631193347101865,-3.431924750749532,159.79687382222795,47.31239871253812,16.51511640532484,68.79700486679454,2.395410828682248,116.258922699773,1367.2278487356557,15.288,0.0,12.505826824186029,0.1390799433502152,1.4943176893668476e-06,-0.06999681533554,0.053761052104638,0.0087657949616335,13.960276578478144,21.85371481823061,48.55424587284418,12.275342373118237
