Time,Latitude,Longitude,Altitude,Angle of Attack,Angle of Sideslip,X-Acceleration,Y-Acceleration,Z-Acceleration,Thrust,True Velocity,Ground Velocity,Pitch,Roll,Yaw,Dynamic Pressure,cp,parachute_deploy_gain,Wind Speed,Mach,omega_x,omega_y,omega_z,Cmq
0,31.2221860000000042,131.010383999999988,3.00000000364323682,0,0,0,0,0,2.2828121974499247,0,0,69.9999999962342088,0,113.699999993883324,0,15.2880000000000003,0,0,0,0,0,0,-0
0.01,31.2221859999997946,131.010384000000556,3.00000016469923247,0,0,0,0,0,34.2421869617492334,9.11367326775851009e-12,8.66229497295429822e-12,69.9999999962370651,-4.92863947922479589e-13,113.699999993882884,5.08594204168408172e-23,15.2880000000000003,0,0,2.67827100510624443e-14,-3.65918233213857746e-19,7.58941520739853104e-19,4.81114714040442593e-19,-1.83541113936281872e-32
0.02,31.2221859999996028,131.010384000001039,3.00000030885429547,0,0,0,0,0,25.8718762377664078,1.96992978605390895e-11,1.88456988716431921e-11,69.9999999962400494,-1.04152381447771591e-12,113.699999993882386,2.37621641206600858e-22,15.2880000000000003,0,0,5.78911013494094702e-14,-7.28448334638698292e-19,1.51788304147970621e-18,9.75781955236953991e-19,-7.93451985123442364e-32
0.03,31.222185999409362,131.010384001586402,3.00018176030779937,18.6493779029494604,-0.000129237623237530007,10.7928899806483045,-1.97644583900689674e-05,3.34983967390763571,180.342193598546658,0.0785672533977095078,0.0490694047558625918,69.9999999976775626,-4.2497891361524094e-12,113.699999994705607,0.00377978965327356543,15.2880000000000003,0,0,0.000230888677896110966,2.88330015245363835e-17,-7.25223402354589416e-10,1.08188208080271277e-11,1.51197624781400831e-13
0.04,31.2221859959356287,131.010384010943454,3.00162780953569674,9.74253989061216075,-4.88763086122285772e-05,51.6475445943311158,1.54548216767323456e-06,3.34965665682309899,548.635972453807767,0.346420694310776434,0.171860503977579737,70.0000000036447574,-2.28205307288861013e-11,113.699999999565534,0.0734838809649275282,15.2880000000000003,0,0,0.00101804013696402693,1.80009747884589399e-15,-1.58734069119923437e-08,2.61929145365345784e-11,1.45916869803439425e-11
0.05,31.222185985910329,131.010384038045004,3.00715844163023283,5.5769968489095687,-4.21135943534799539e-06,75.3242160169835273,4.73080294831520123e-05,3.34902689347595528,761.698429882464552,0.947854334293939504,0.409211128642743283,70.0000000010935537,-1.04766136577077691e-10,113.700000013612069,0.55013262299765131,15.2880000000000003,0,0,0.00278549703395658196,1.95473045844392346e-14,-1.13584749331540247e-07,4.14067569904437612e-11,2.85688606727574374e-10
0.06,31.222185966868647,131.010384089593572,3.01868664272593046,4.48500474963244322,2.31139019787050305e-05,56.3605563030587007,9.71465785775115924e-05,3.34799244711343214,590.487539073720654,1.60618980149218604,0.665693519146445256,69.9999999197690244,-2.82941102348924619e-10,113.700000040305838,1.57971028663545732,15.2880000000000003,0,0,0.00472017413217633904,1.01936766184118274e-13,-4.07864410983111553e-07,5.76522069423461223e-11,1.73837509686130208e-09
0.07,31.2221859390775336,131.010384164863126,3.03600551209402658,4.00448286551149391,4.63712119495135773e-05,85.8192455386477917,0.000147926970097503541,3.34656708333141317,855.293774977913927,2.27788210706903049,0.926660947343454056,69.9999996219982279,-5.49831570978999292e-10,113.700000079276109,3.1772067926123353,15.2880000000000003,0,0,0.00669410445039518576,3.35900025920073467e-13,-9.92070622953462368e-07,7.83315922772719921e-11,5.99658406989250883e-09
0.08,31.2221859009658012,131.01038426812616,3.06033476575187802,3.77263127792190334,7.06371256062416025e-05,17.6076228145981588,0.000196957592070898702,3.34480227118667583,241.217198863884818,2.92612482887636283,1.17954495655796454,69.9999989088305909,-9.15694670892462832e-10,113.700000132739973,5.24285298735243899,15.2880000000000003,0,0,0.00859912396431777512,8.49635706706491564e-13,-2.01744800413265681e-06,1.10032289818440005e-10,1.56647792516492608e-08
0.09,31.2221858556197738,131.010384390989856,3.0892797608365723,3.74258231141200604,9.5325675231994802e-05,53.4176180048964397,0.000237730218002333866,3.34289666486112669,563.093737704317618,3.46187703891102627,1.39384941462988121,69.9999975134546446,-1.31671842773002699e-09,113.70000019638816,7.33844512707370811,15.2880000000000003,0,0,0.0101735644468633635,1.80613395740032365e-12,-3.4856561047658452e-06,1.59232278560273843e-10,3.20202005890100843e-08
0.1,31.2221858028175774,131.010384534057465,3.12301320909491364,3.81071421019783685,0.000121971080758598364,50.732831688561788,0.000271545837515448313,3.34090447591365036,538.7437595981919,3.9029133825176725,1.57567038389986336,69.999995157830341,-1.72222432289554893e-09,113.700000270567642,9.32732681847184431,15.2880000000000003,0,0,0.0114696609641860067,3.37914451533694905e-12,-5.48904943388414521e-06,2.34452541412924053e-10,5.68476506314615152e-08
0.11,31.2221857431700727,131.010384695667796,3.16106164078641116,3.84323765504598036,0.000147145408783231387,40.0848474374385688,0.000307099758177995722,3.33859717034531034,442.865639305294906,4.36819921201157246,1.76578242121538631,69.9999915253729768,-2.07703942468805025e-09,113.700000354470319,11.6837607126815346,15.2880000000000003,0,0,0.0128370221364947634,5.76365694334259916e-12,-8.08162139954488366e-06,3.4437809457680147e-10,9.36754562129998513e-08
0.12,31.2221856770245907,131.01038487487628,3.20315617196047642,3.86558564807459826,0.000171348089099210797,43.7480799143332604,0.000342946594964391399,3.33600966231316054,475.585948135404465,4.83801864946757032,1.95742650583495204,69.9999862600106582,-2.3147200577597177e-09,113.700000447673773,14.3321420062794882,15.2880000000000003,0,0,0.0142177082532951912,9.17772063248746377e-12,-1.13223702306849879e-05,4.98555567062495836e-10,1.45354343598177095e-07
0.13,31.2221856047215205,131.010385070757366,3.24903338361815308,3.95285669440916232,0.000198169826234992146,48.2585391180499741,0.000371981107240517913,3.33344523512332414,515.915632623689476,5.21512035057569623,2.1172615234944101,69.9999789703044399,-2.35265113573284059e-09,113.700000549782459,16.6533950244453948,15.2880000000000003,0,0,0.0153259223232261182,1.38588880633063252e-11,-1.52681962163171846e-05,7.07166414280215559e-10,2.11287244421402401e-07
0.14,31.2221855263490333,131.010385283071088,3.29862557546706325,3.99981420118284792,0.000223008237377726162,44.9721767850953427,0.000403855591455553264,3.33052592490198407,486.239086056840392,5.63167615200940475,2.29059513099545553,69.9999692426645623,-2.0964169591742506e-09,113.700000660771011,19.4199179783547713,15.2880000000000003,0,0,0.0165500839355928395,2.00553635588333716e-11,-1.99811439493909854e-05,9.81252131659242702e-10,2.9859131057555361e-07
0.15,31.2221854420015994,131.010385511560628,3.35186028506811029,4.05975476911301225,0.000248539990764711958,43.4637160193537753,0.000433543226731567866,3.32747422849243879,472.54218587214001,6.01888316560526437,2.45383766868271946,69.99995661705006,-1.43188768134039915e-09,113.700000780625842,22.182048585914238,15.2880000000000003,0,0,0.0176879988684610287,2.80404916713566325e-11,-2.55291719775422389e-05,1.33309260321839681e-09,4.07727088477750495e-07
0.16,31.2221853515819241,131.010385756490507,3.40881389436676407,4.08854462484130732,0.000272210944932510383,34.4023069357135967,0.000465877824565354701,3.32404684464906053,391.12189082975641,6.44303061809316624,2.62971580822363071,69.9999405987561403,-2.27841984783363582e-10,113.700000909623355,25.4183784408083007,15.2880000000000003,0,0,0.0189344747787753703,3.81042963600432359e-11,-3.19913711614788564e-05,1.77662362644707755e-09,5.46937370926295155e-07
0.17,31.2221852554099399,131.010386016990765,3.46923909377793649,4.13347468842419552,0.00029684158695823977,43.4155809381403728,0.000495744973995866601,3.3205135250562221,471.78125980632376,6.83404379119085981,2.79420112365087148,69.9999206448319882,1.67575894446247236e-09,113.700001047478835,28.5969980778046526,15.2880000000000003,0,0,0.0200835795555658371,5.05622819343119236e-11,-3.94162603380559734e-05,2.32482468580976756e-09,7.14768170397066036e-07
0.18,31.2221851530022434,131.010386294375877,3.53351204963262022,4.16207877285686756,0.000320492787063832857,36.2151660219171347,0.000526966735016640565,3.31665933612355879,407.101567211914528,7.2444022294323478,2.96528531587496236,69.9998961790314524,4.45070668055043651e-09,113.700001195059045,32.1341903991183955,15.2880000000000003,0,0,0.0212895378539265934,6.5741708189353534e-11,-4.79243856484647045e-05,2.99669991322666987e-09,9.21230820748327094e-07
0.19,31.2221850444828668,131.010386588308563,3.60153760019172342,4.17456309251139679,0.000342914278589344943,40.9041800427263027,0.00055982867240863632,3.31244583927210501,448.953132831826849,7.67810673790947895,3.14433961722118216,69.9998665624008964,8.30674092292676784e-09,113.700001352409558,36.0967170721845179,15.2880000000000003,0,0,0.0225641073333706747,8.40032927522686365e-11,-5.75836346763551867e-05,3.80911503044151526e-09,1.17316671380156179e-06
0.2,31.2221849296486234,131.01038689934137,3.67347464118590317,4.20078915399145636,0.000366573034254704516,37.5214898208491761,0.000590466919182690893,3.30812712915434881,418.515630199161365,8.08216006412957277,3.31318683933006453,69.9998311045104487,1.34800080829191884e-08,113.700001520067786,39.9955165273270055,15.2880000000000003,0,0,0.0237515420632470921,1.05728805481567758e-10,-6.85028882131185225e-05,4.78351733027568889e-09,1.4690610466811608e-06
0.21,31.2221848088436893,131.01038722653837,3.74905730552401684,4.22722562033261262,0.000390310433246848657,36.0064697775761644,0.000620601272787201603,3.30359776763142721,404.818761014464428,8.48018829437500621,3.47992805775657654,69.9997890742529592,2.02433263776548733e-08,113.700001697833756,44.0315784885794201,15.2880000000000003,0,0,0.0249212734096428447,1.31320595517854955e-10,-8.07208291683553139e-05,5.93661589182972911e-09,1.81631626331753899e-06
0.22,31.2221846819136672,131.010387570319409,3.82840670130281646,4.2176244726165093,0.000410696285369717819,43.5935627685881499,0.000655758920494764063,3.29841875767922987,472.542185872136486,8.94831461811120121,3.67066782999472752,69.9997397083127737,2.88926538075102191e-08,113.700001886238866,49.0266756129506618,15.2880000000000003,0,0,0.0262970098082033268,1.61186003536399267e-10,-9.43348117723774896e-05,7.29106197993283208e-09,2.23980539128825791e-06
0.23,31.2221845484548304,131.01038793178239,3.91183756115468473,4.25320537954326383,0.0004356497720089569,36.207459360748949,0.000683686922722525747,3.29355466128287455,406.340642146102141,9.31799902525197865,3.82760028360492655,69.9996821549030983,3.9766623706965518e-08,113.70000208621326,53.1608354775167555,15.2880000000000003,0,0,0.0273834518362109196,1.95767624418301473e-10,-0.000109505708778552874,8.87784718088286285e-09,2.70740355927931971e-06
0.24,31.2221844093456014,131.010388308538637,3.99866964940866776,4.27135264557773553,0.00045883378920767232,37.3286080087975947,0.000713911697673520317,3.2882529474867046,416.232824001711379,9.7203332459195213,3.9956861712714935,69.9996155408946805,5.32509871046438109e-08,113.700002296918697,57.8502398901668755,15.2880000000000003,0,0,0.0285658473732890855,2.35534745143307651e-10,-0.00012617657385590063,1.07071802425012536e-08,3.25424194465518317e-06
0.25,31.2221842644570167,131.010388700938847,4.08900446593793809,4.29698686981540234,0.000482848983334858658,38.3649566400252979,0.000742483922667206905,3.28284626589867479,425.364080791506922,10.1009615935159527,4.1562806652626314,69.9995389781877293,6.97479781374676735e-08,113.700002518962805,62.4689963611702623,15.2880000000000003,0,0,0.0296844577155840929,2.80933085873043406e-10,-0.000144451636124542286,1.28055329635332884e-08,3.87142965072796435e-06
0.26,31.2221841140756986,131.010389108203611,4.18262110402873155,4.32755423691547136,0.000507438991606541483,41.7865661614553829,0.000769736419800412888,3.27732087646770287,455.80158342417883,10.4644497354123782,4.31094871887776954,69.9994515368878751,8.97024502886333285e-08,113.700002752408935,67.0452443356678742,15.2880000000000003,0,0,0.0307527002093570291,3.32431765373287754e-10,-0.00016436315770221847,1.51925047864838523e-08,4.56355359993810651e-06
0.27,31.2221839578137299,131.010389531387915,4.27982215321117465,4.33742811840656994,0.000529702335486379188,38.2242911032538473,0.000800211178185602123,3.27123004841987974,423.842199659872563,10.8736118498261902,4.48123226393084195,69.9993522521519935,1.13587393208351198e-07,113.700002998306658,72.3900346549699947,15.2880000000000003,0,0,0.0319551720828357214,3.90484337603431509e-10,-0.000186059811616844751,1.79019946498730075e-08,5.36790267753501075e-06
0.28,31.2221837957695953,131.010389970223883,4.38053283172365671,4.35979025650862262,0.000553527510562852902,44.1207307275094038,0.000828072271385077072,3.26514386100193477,476.346873201222195,11.2478718916014184,4.63949182586423614,69.9992400702920463,1.41938296327408329e-07,113.700003257081931,77.4582454645660761,15.2880000000000003,0,0,0.0330550782151640757,4.55595825375374429e-10,-0.000209619220926101062,2.09616181379585756e-08,6.25569396794615011e-06
0.29,31.2221836278828384,131.010390424876022,4.48480177698289584,4.38135974025744623,0.00057737648726709299,35.3536197607625553,0.000855659611391794222,3.2588361863853601,397.970310422111766,11.6195889013503368,4.79682445966682813,69.9991139044831527,1.7532937395312496e-07,113.700003529427192,82.6616578528940948,15.2880000000000003,0,0,0.0341475147840558241,5.28268525040872464e-10,-0.000235137545717689308,2.44023887909330158e-08,7.24907222782668121e-06
0.3,31.2221834544381096,131.010390894570321,4.59240982688131272,4.39617507281761988,0.000600356665334356751,33.1490797613948018,0.000884158719714270942,3.25217107922164672,378.185945710871067,12.0052186882677852,4.95887519756831807,69.998972627127344,2.14383684192303281e-07,113.700003815596887,88.2385269149682756,15.2880000000000003,0,0,0.0352808420099011907,6.09029939588318471e-10,-0.000262641159892275291,2.82471356422800846e-08,8.36561857411674722e-06
0.31,31.2221832755909574,131.01039137888381,4.7032380575360353,4.42235615181669761,0.000624899913490765827,34.9528590290802086,0.000910025197609511073,3.24555398289468222,394.16562209302117,12.3556398803864607,5.10879227158949156,69.9988150759387651,2.59766173767152649e-07,113.700004116072961,93.4639131761651498,15.2880000000000003,0,0,0.0363107024397255479,6.98403788157463991e-10,-0.000292187019282257228,3.25229566712151178e-08,9.57826248689966157e-06
0.32,31.2221830914257232,131.010391877587324,4.81722282885169673,4.45155794779377789,0.000649944303128982049,38.0379859115142835,0.000934821026682707218,3.23882361682650144,421.559393462426954,12.6924793110791878,5.25399282922068878,69.9986400687318024,3.12179641788393281e-07,113.700004431478234,98.6283237403037703,15.2880000000000003,0,0,0.0373006526995305274,7.96905013945712519e-10,-0.000323836613651358495,3.72580440687311147e-08,1.09050644159405278e-05
0.33,31.22218290196043,131.01039239063175,4.9343519698327194,4.48019701204722054,0.000675004219851668761,37.7093551175013246,0.000959261610436717115,3.23189933669563656,418.515630199168186,13.0256844327599097,5.39788776638052958,69.9984463826819052,3.72372687880250348e-07,113.700004762578004,103.87354288045799,15.2880000000000003,0,0,0.0382799263433428877,9.05047894999210997e-10,-0.000357667290238851605,4.24836225249657193e-08,1.23603484615852587e-05
0.34,31.222182707020778,131.010392918491164,5.05476263450916541,4.49049305198152204,0.000697378143373914754,29.5227085089536203,0.000987142430045659337,3.22427911658814059,345.465636880756449,13.4081741031825317,5.55863100914667463,69.9982327456812641,4.41143957445642244e-07,113.700005110463266,110.062177258613033,15.2880000000000003,0,0,0.0394040418267209702,1.02333461745717641e-09,-0.000393806243978271305,4.82396483202145133e-08,1.40087103268591529e-05
0.35,31.2221825067937928,131.010393460657156,5.17831168393457641,4.50711781535187139,0.000720712543856854714,32.3530371383660977,0.00101333646443235357,3.21661305844837253,370.576570052703289,13.7686530554979374,5.71176159517965232,69.9979978091806316,5.19362042776584697e-07,113.700005475786654,116.058400304168075,15.2880000000000003,0,0,0.0404634764462946869,1.15232390415689195e-09,-0.000432299813734132244,5.45552399130644805e-08,1.57912776608867467e-05
0.36,31.2221823012122108,131.010394017312592,5.30505329869157727,4.52767240178778962,0.000744729708600240731,36.5526511043957356,0.00103828652712813154,3.20885713174522058,407.862523277719447,14.1132764952183631,5.85938873702120233,69.9977401961163537,6.07939829707116331e-07,113.700005859608282,121.939407863977465,15.2880000000000003,0,0,0.0414763190843316643,1.29254043868676357e-09,-0.000473255972436325862,6.14699225552327593e-08,1.77198251922661022e-05
0.37,31.222182090341061,131.010394588280832,5.43493909097431604,4.55039311415752579,0.00076918150115683735,34.6835787828593496,0.00106234372950533948,3.20097384516078431,391.121890829766642,14.446930470491731,6.00318739776240751,69.9974584775585669,7.0785096329375243e-07,113.700006262864989,127.771540530283914,15.2880000000000003,0,0,0.042456928843506235,1.4445318520011827e-09,-0.000516746496826029863,6.90186481791334769e-08,1.98053803654614999e-05
0.38,31.2221818741223878,131.010395173719473,5.56801609611825477,4.56315131642791805,0.000792019287104061913,36.2353933787001239,0.00108827974821363053,3.19255015153205646,404.818761014460279,14.8084413239345949,6.1564787166299757,69.9971511865591651,8.20121521966083772e-07,113.700006686723384,134.244380272309172,15.2880000000000003,0,0,0.0435194095147296359,1.60882660749176723e-09,-0.000562873331420229127,7.72423853301427293e-08,2.21128406351508731e-05
0.39,31.2221816525004634,131.010395773780147,5.704329739781131,4.57922628245169783,0.000815489716137310881,30.9425419640016202,0.00111309493143926189,3.18402316666385765,357.640624933827439,15.1559126959619999,6.30488433186772657,69.9968167722787769,9.45855271408966431e-07,113.700007132429306,140.616382889747683,15.2880000000000003,0,0,0.0445406353688629561,1.78596578656278109e-09,-0.000611756345505213715,8.61868943159197994e-08,2.45968452142520012e-05
0.4,31.2221814256617982,131.010396387955836,5.84373750626454935,4.59349479979191955,0.000838670682925170751,29.5834243852937959,0.00113797512888990423,3.17521289611434332,345.465636880754005,15.505969085398343,6.45410901523083158,69.9964536498379317,1.08621525395706341e-06,113.700007600947828,147.185065961143067,15.2880000000000003,0,0,0.045569462889951777,1.97653506559195414e-09,-0.000663427505461186432,9.58835144134294998e-08,2.72901174189528038e-05
0.41,31.2221811937141673,131.010397015953487,5.98615797249314241,4.60939449845229365,0.000862163931524819621,33.360545626359837,0.00116210409424792778,3.16624854525325983,378.946870776686467,15.8471768437686258,6.60022848408685459,69.9960602026584695,1.24241947051318175e-06,113.700008093413757,153.73182724817184,15.2880000000000003,0,0,0.0465722905345462151,2.18109996727848554e-09,-0.000717942131686907965,1.06367950505874699e-07,3.01820283711074823e-05
0.42,31.2221809567080335,131.010397657635991,6.13155423418529733,4.63387609959193458,0.000887317919769279608,37.5676427387571721,0.001183742077125155,3.15743374731593907,416.232824001711379,16.155026338188506,6.73482947265292431,69.9956347739890248,1.41574639558456e-06,113.700008611107208,159.760443802515937,15.2880000000000003,0,0,0.0474770882933877245,2.400206535531791e-09,-0.00077537935552726017,1.17680930846389008e-07,3.32294321368729263e-05
0.43,31.222180714655078,131.010398312971745,6.27991949833728835,4.65367427313455995,0.000911660169575580258,33.0386483003103493,0.00120612360190941372,3.14823214930187856,375.903139513433644,16.4750454055619109,6.87353555569934649,69.9951756835756242,1.60752723178871754e-06,113.700009155418982,166.15023929888028,15.2880000000000003,0,0,0.0484176551665520677,2.63438237315801404e-09,-0.000835821567166909188,1.29864614855892046e-07,3.65287677570896608e-05
0.44,31.2221804673911407,131.010398982407111,6.43138341412837455,4.65757387742934892,0.000932929976641759203,30.4788052564327749,0.00123214974254881528,3.13809943757763454,353.075012538921555,16.8483715860516412,7.03046484016701978,69.9946811832270441,1.81916859536649675e-06,113.700009728069276,173.762989227436179,15.2880000000000003,0,0,0.0495148886868988364,2.88411342836306464e-09,-0.000899417740154189794,1.42975581697416844e-07,4.01983191819108926e-05
0.45,31.2221802146980103,131.010399666535704,6.58611776122768511,4.65827001030579346,0.000953562143933252499,35.4620561517945134,0.00125873275223327787,3.12754579585638304,397.209385356286873,17.2316459864824161,7.19073264961644831,69.9941493995125938,2.05218870761162579e-06,113.700010330973456,181.755888424112015,15.2880000000000003,0,0,0.0506413642318551335,3.14987863732273609e-09,-0.000966369542842942814,1.57083782729145849e-07,4.41725079750487196e-05
0.46,31.2221799565319174,131.010400365476642,6.74415901717088939,4.66907507286434065,0.00097630283571516251,41.3913707355688842,0.0012823814722795761,3.11722412848720953,449.71405889764344,17.5754687869478978,7.33738035579407555,69.9935783582983362,2.30821229426708146e-06,113.700010965912341,189.078525726536213,15.2880000000000003,0,0,0.0516519027755614896,3.43223060675433133e-09,-0.00103681314204437207,1.7224885851047691e-07,4.83373548649469587e-05
0.47,31.2221796928065203,131.010401079464799,6.90557672428163105,4.67806301106434042,0.000998761260684927557,28.0209900204918974,0.00130616618884544979,3.10657060381263461,331.007810630253402,17.9233234115620377,7.48533101007974988,69.9929660462147325,2.5889364060732201e-06,113.700011634803886,196.634049649816575,15.2880000000000003,0,0,0.0526742959306323727,3.73170463860384924e-09,-0.0011108841623615434,1.88532207060213475e-07,5.28148505664365441e-05
0.48,31.2221794239793269,131.010401807256216,7.07001851744381948,4.68642527483421745,0.00102109091231145262,27.6007969606275125,0.00132978852885184593,3.09563681785184297,327.203122301157407,18.2709832353803314,7.63313726727991071,69.9923104035261474,2.89614261094227829e-06,113.700012338884164,204.33305198470137,15.2880000000000003,0,0,0.0536961221459722679,4.04904859899578719e-09,-0.00118849531779471017,2.05948560519311644e-07,5.75998398329450787e-05
0.49,31.2221791502289392,131.010402548365278,7.23734841566291642,4.70156796398202914,0.00104489945272251677,34.6487244505178253,0.00135120419031512233,3.08484494341801163,389.60000969812296,18.589315545984995,7.7707981814672209,69.9916093757078812,3.23165731652504743e-06,113.700013079832303,211.511801733856089,15.2880000000000003,0,0,0.0546317638991248022,4.38486615800834454e-09,-0.00126967773493266863,2.2453662401782158e-07,6.26054017926546362e-05
0.5,31.2221788715876762,131.010403302704333,7.40754387012007864,4.72212438923579736,0.00106996435823571525,35.6033845714535389,0.00137072557486675028,3.0741588573465477,397.970310422105001,18.8826594549893159,7.8998011517407587,69.9908609011483378,3.5973597360057951e-06,113.700013859590555,218.236320199079358,15.2880000000000003,0,0,0.0554939729313439212,4.73968531279909998e-09,-0.00135450679800636423,2.44344941868023912e-07,6.78409867869358833e-05
0.51,31.2221785881337617,131.010404070060673,7.5805467220577798,4.73558879650721298,0.00109346949398930206,27.1956639286467201,0.00139183542187690463,3.06284319292573448,323.39843497208409,19.200774511812984,8.03722958125224807,69.9900628955037689,3.99519228958782199e-06,113.700014680103109,225.647740475438098,15.2880000000000003,0,0,0.0564289867670437692,5.11403675587933804e-09,-0.00144303978709531136,2.65418546512062939e-07,7.34915902759761199e-05
0.52,31.2221782998839075,131.01040485046758,7.75636900758130832,-8.0784046683412658,-13.7362070730232286,32.9146865298151141,0.69295240709688144,3.7108031887152535,372.098451184341457,18.6581602188293836,8.17817847127967212,69.9892123481260029,1.00885073862370502e-05,113.700021568590088,213.070732253315271,15.2880000000000003,0,6.26610767645119093,0.0548344111695145756,5.51014741947343143e-09,-0.00152713840738703224,1.19534974085651072e-05,7.55754041084967542e-05
0.53,31.2221780061970406,131.010405644537002,7.93511578447988786,-7.87401903352138266,-13.5414394104811233,34.5566100554614906,0.711303525614762622,3.71680231153147256,386.55624643486243,18.9633966362897617,8.32406138394698303,69.9883737907777999,-0.000144825517952254041,113.69985711129857,220.095400018996713,15.2880000000000003,0,6.28993628663505877,0.055731581940444426,5.83494027194428832e-09,-0.00138833827488741733,-0.000234574515149918716,6.98292265876734679e-05
0.54,31.2221777066429986,131.010406452636829,8.11685583535230926,-7.6769262807162697,-13.3533565183096101,30.3526043301405792,0.72988247450555388,3.72275737168685206,349.270324209843579,19.2671638918170949,8.46932859683673023,69.9876153554687335,-0.000692165473525540296,113.699275017772308,227.199155507303686,15.2880000000000003,0,6.31371353627929999,0.0566244405087712732,5.9574590893860923e-09,-0.00124727125504649943,-0.000487649909562864147,6.37377799837255733e-05
0.55,31.2221774014548608,131.010407274061492,8.30138765802320933,-7.48888982521383983,-13.1753277049156399,32.1664390525136739,0.748463425364976342,3.72854793092144465,365.250000591990727,19.5639181142149141,8.61201664201185935,69.9869382821381834,-0.00164201952678303537,113.698264547574027,234.247576849375179,15.2880000000000003,0,6.33740024679140834,0.057496693841082927,5.87885565475252357e-09,-0.001104163253077462,-0.000747002402584739391,5.72927486467484959e-05
0.56,31.2221770906212157,131.010408108807724,8.48871080868327788,-7.31092589713410312,-13.0095486500015607,30.0234276947648802,0.766866856686701626,3.73408447671496813,346.226561946578727,19.8493707571368887,8.75061936307053756,69.9863437332857217,-0.00300432161008845405,113.696815125297803,241.12881407203318,15.2880000000000003,0,6.36099708907945782,0.0583357381907027225,5.60044054950532399e-09,-0.000959027486501038014,-0.00101273258860081579,5.04871108808220814e-05
0.57,31.2221767741976635,131.010408956690839,8.67877318192634561,-7.13512180772818372,-12.8428578595017573,29.6863890067028073,0.785860876274216191,3.73976496820716431,343.182829683302316,20.1425276368059301,8.89187490325198127,69.9858328284190776,-0.00478901857181147483,113.694916162267205,248.299378812891831,15.2880000000000003,0,6.38450293386455314,0.0591974301091995753,5.12382422394977747e-09,-0.000811946349545972267,-0.00128481919271704759,4.33746612894289049e-05
0.58,31.2221764521521088,131.01040981776481,8.87159079322043453,-6.95683094999478158,-12.667139587737088,39.0774972606112172,0.806008039893092998,3.74586591446977435,426.12500585731533,20.4566201509163932,9.04045415626603699,69.9854066636612657,-0.00700616809721699499,113.69255695258542,256.098725906591767,15.2880000000000003,0,6.40791591052117937,0.0601206560372732554,4.45073911167605057e-09,-0.000662930033369264434,-0.00156337126830834519,3.5965684442733303e-05
0.59,31.2221761240981799,131.010410693045628,9.06745392570498865,-6.79326489410809842,-12.5126213684445666,31.6812833688645519,0.825354996639220073,3.75139834770654446,360.68438819711065,20.7438322725020221,9.17946365272974418,69.9850664239202871,-0.00966650842922751538,113.68972606721708,263.335537862571755,15.2880000000000003,0,6.43127073972029972,0.0609648882058323877,3.58263792385869642e-09,-0.000511678532805082283,-0.00184907351985899322,2.81491169135008068e-05
0.6,31.2221757902202448,131.010411581997403,9.26621045120497477,-6.62153378168275708,-12.3390543434050279,28.1573086377126458,0.84659454544470214,3.75770565014642344,329.48595949860578,21.0690394742037448,9.3318126833086108,69.9848132767059781,-0.0127809440070969626,113.686411900146766,271.651853678185375,15.2880000000000003,0,6.45454347781012494,0.0619207916520371077,2.52149678603940091e-09,-0.000358386892077712895,-0.00214170896817446159,2.00247522263766063e-05
0.61,31.2221754504609343,131.010412484741607,9.46789572020101744,-6.45307331508569693,-12.1665871982693972,32.9896913834860044,0.868434332011580823,3.76412936560898093,372.09845118432969,21.4004439677714835,9.48626106356115351,69.9846483946752613,-0.0163606639728674993,113.682602543456255,280.259507744449877,15.2880000000000003,0,6.47773666888136113,0.0628949150168427035,1.26923956739709298e-09,-0.000203036929062648915,-0.00244145297672423251,1.15228446216185839e-05
0.62,31.2221751049134646,131.010413400989734,9.67242820782278834,-6.30852102106600388,-12.0333982504792392,41.013346951217116,0.887988877373934726,3.76927104072527941,442.86563930529212,21.6702599819498403,9.6189399556757671,69.9845729519154816,-0.0204171368006504234,113.67828579253684,287.365417309386999,15.2880000000000003,0,6.50084893326975877,0.0636880387562442224,-1.72089058413392232e-10,-4.57022604351801597e-05,-0.00274830914272761748,2.6263654667978333e-06
0.63,31.2221747533967644,131.010414331202327,9.87994002783755221,-6.16208463036197074,-11.8928650716907587,23.2611886014202121,0.908621692363532629,3.77477467722198101,286.112512747078938,21.9582090923297102,9.75795373536386812,69.9845879950633361,-0.0249614334081812266,113.67344986714663,295.047159243258875,15.2880000000000003,0,6.52388380467864337,0.0645344609021391569,-1.79999349393710276e-09,0.000113694153933990161,-0.00306257865850951281,-6.62033175966978163e-06
0.64,31.2221743964377652,131.010415273913225,10.090014042663757,-6.0105276400162273,-11.7387348976140338,22.8344469317383982,0.930900028337449337,3.78088895912109146,282.307824417967538,22.2770345933606038,9.90775633120861698,69.9846945434630072,-0.0300047592689198471,113.668082843752174,303.671198042221647,15.2880000000000003,0,6.54677580896862832,0.0654716338221375538,-3.61198863582372245e-09,0.000274673986806841229,-0.00338347999701079424,-1.62259768775710849e-05
0.65,31.2221740340076153,131.010416229170062,10.3026647753734615,-5.87620883768093982,-11.6132800593612995,40.3524792316409986,0.951428778841762912,3.78601050559705943,436.778144778747503,22.5480525920149226,10.0406880029724306,69.9848934829945506,-0.0355580690376200784,113.662173070315362,311.098598288144728,15.2880000000000003,0,6.56958456062776541,0.0662683077535406867,-5.60532292936204136e-09,0.000437255632771301557,-0.0037111871417448393,-2.61439693673544903e-05
0.66,31.2221736656301623,131.010417198239622,10.518254304057665,-5.74209836823105402,-11.4846401332797203,34.3206258006303813,0.972742981576422028,3.79133743955196101,383.512515171600171,22.8297933721750859,10.1773393176237175,69.9851857842426881,-0.0416324821154639493,113.655708712732036,318.915000225733081,15.2880000000000003,0,6.59228978619067085,0.0670965018635979044,-7.7767866027990656e-09,0.000601776991110267146,-0.00404652581499181149,-3.64297040021381403e-05
0.67,31.2221732914640171,131.010418180658462,10.7366514774785848,-5.60401036220117454,-11.3445067771474228,23.623522713653319,0.995632530217669509,3.79722033811165138,289.156244010342505,23.139594856633984,10.3237801562863023,69.9855723990497154,-0.0482398946858579453,113.648677118749632,327.622242630219887,15.2880000000000003,0,6.61489290078812786,0.0680071724466875527,-1.01236768955357821e-08,0.000768063636457657012,-0.00438930808701206224,-4.712614662979611e-05
0.68,31.2221729116523861,131.010419176005428,10.957737301129395,-5.47149228540611876,-11.2114552844386601,29.499818516348693,1.01851043869108771,3.80292296018757447,340.899992485846269,23.4411518756094353,10.4672629960181016,69.986054259325428,-0.0553922091801830746,113.641065627833541,336.209944145720328,15.2880000000000003,0,6.63741295396705766,0.0688936190981878915,-1.26432101636615192e-08,0.000935975289598119922,-0.0047394065342886418,-5.81758968284953217e-05
0.69,31.2221725262571574,131.010420184082221,11.1814563449647277,-5.3488602713174096,-11.0945903804315531,36.3293878566132094,1.0404315961110544,3.80802270731130932,401.014072685363431,23.7141790207641208,10.6006880338573257,69.9866321788048253,-0.0631011814652716607,113.632861739606312,344.080067931581027,15.2880000000000003,0,6.65980393307324015,0.0696962226445283078,-1.53323801061609917e-08,0.00110541882020170922,-0.00509678732850575404,-6.95064925382694285e-05
0.7,31.2221721351423831,131.010421205231609,11.4079074021828379,-5.22856703386735244,-10.9791396694774708,30.4611903400371027,1.06273329233407288,3.81312727329822554,349.270324209852845,23.9884072778565383,10.7344842044508706,69.9873070105992525,-0.0713784935642293034,113.624053025231589,352.076234386938779,15.2880000000000003,0,6.68208304586848456,0.0705023625053499553,-1.8187678399814454e-08,0.00127645917792022757,-0.00546175161042933548,-8.11875293032742455e-05
0.71,31.2221717383462796,131.010422239321031,11.6370538987522369,-5.1067307942598017,-10.8571245516602506,25.0218572448880288,1.08624755688189789,3.81859802600578879,301.331264063405797,24.2814617056485886,10.8748152210927671,69.9880794951702825,-0.0802361300455184945,113.614626743523488,360.723121753527664,15.2880000000000003,0,6.70427300988660324,0.0713638392530277083,-2.12058827690125905e-08,0.00144901390813684055,-0.0058342957581358516,-9.32865014068636752e-05
0.72,31.2221713358596347,131.010423286347589,11.8688961845198833,-4.98272305067509169,-10.7270231665530194,30.6459177042171795,1.1112196745022318,3.82452475476000275,350.79220534145287,24.5979145226634621,11.0232663839246658,69.9889503645108988,-0.0896863641192991029,113.604569847493735,370.178536235788954,15.2880000000000003,0,6.72636225742082061,0.072294091298402835,-2.43836736632561198e-08,0.00162305800570480504,-0.00621453787551242386,-0.000105850785433285805
0.73,31.2221709276681452,131.010424346321287,12.1034383671823491,-4.87282436358474502,-10.6232118014076917,38.780666768086391,1.13397730482974524,3.82931778696799308,422.320318528233997,24.8594341384508191,11.1524566937336935,69.9899204815531135,-0.0997419728760550878,113.59386874690442,378.083177165905624,15.2880000000000003,0,6.74831781357227456,0.0730628995030218331,-2.77177496680918107e-08,0.0017985838220674281,-0.00660263562865705776,-0.000118542449134377318
0.74,31.2221705137032615,131.01042541940339,12.340727702583056,-4.76156183996780769,-10.5133788626696631,24.2548677841839044,1.15791858548776161,3.8344490095189685,294.482813471059444,25.1387298821252188,11.2878088353341255,69.9909904337202988,-0.110415301738389676,113.582510323793002,386.617619935738844,15.2880000000000003,0,6.77018667191342072,0.0738839589760423299,-3.12044485138134183e-08,0.001975570886562035,-0.00699873095235553546,-0.000131667329407086133
0.75,31.2221700942861986,131.010426504689946,12.5805078910836361,-4.65033655374554833,-10.4004152979489088,28.3254364054749175,1.18278755443626205,3.83979498559625076,330.246885564414924,25.4298250642273125,11.4272190254193919,69.9921608812477984,-0.12171886702355289,113.570481270906626,395.614066564361735,15.2880000000000003,0,6.79194568370808316,0.0747397041666126583,-3.48414028057122613e-08,0.00215370239221419771,-0.00740230302850578784,-0.000145198169374054469
0.76,31.2221696693047122,131.010427602462642,12.8228606012641873,-4.5451256490308678,-10.2974637024637481,30.49378042839394,1.20704836071532684,3.84470934268097908,349.270324209861712,25.7008191448899481,11.5595562510990888,69.9934324198790279,-0.13366513718593398,113.557768333785077,404.081347228779407,15.2880000000000003,0,6.81358837782187265,0.0755363777382354606,-3.86245957496753013e-08,0.00233304166012872436,-0.00781367281305477696,-0.000158961308775839531
0.77,31.2221692386958907,131.010428712869327,13.067829368844718,-4.44282402128235976,-10.1980371946978785,28.5071594973092211,1.23140521404504977,3.84948851621419808,331.76876669607077,25.9665292640757919,11.6899969952594471,69.9948054955681016,-0.146266742877317751,113.544358095905608,412.470093886839265,15.2880000000000003,0,6.83509750515532755,0.0763175279708871585,-4.25501503584262619e-08,0.00251359245724803353,-0.00823303944719539285,-0.000173029647533505982
0.78,31.2221688025095752,131.01042983574996,13.3153700314330905,-4.33939307622043291,-10.0930748785268332,23.4015116071419165,1.25699687177447461,3.85459542409304134,286.873437812889904,26.2499379202778975,11.826549493802661,69.9962806185954491,-0.159536440210223979,113.530237000246672,421.512922147761572,15.2880000000000003,0,6.85650405221305181,0.0771507021986684027,-4.66147511571647871e-08,0.00269524868278149966,-0.00866035447020159499,-0.000187554959622241222
0.79,31.2221683608172711,131.010430970885125,13.5654215688919635,-4.23629709594951009,-9.98576064058591761,33.2807104521536132,1.28348987550657379,3.85988142486866126,373.620332315953419,26.5436801536470597,11.9666367598593375,69.9978582362902841,-0.173487187127579212,113.515391279087368,430.988988347761335,15.2880000000000003,0,6.87780360455142059,0.0780142545993153524,-5.08152089558526552e-08,0.00287790437729962528,-0.00909556514119429921,-0.000202501617430393357
0.8,31.2221679134056487,131.010432118836093,13.8181454358587956,-4.14100368139580688,-9.89345412568552796,33.7192132526110697,1.30857885769267401,3.86442595398734356,377.42502064505743,26.8016594243200714,12.0942152358207284,69.9995387865578635,-0.188132355923157302,113.4998067265511,439.396639644866184,15.2880000000000003,0,6.89901270889720664,0.078772703399345112,-5.5146621056105066e-08,0.00306171247034566158,-0.00953923517254538084,-0.000217523683114955645
0.81,31.2221674603600903,131.010433279347012,14.0734702559627554,-4.04384368398976424,-9.79397172375800551,21.9354534023544794,1.33517195385354959,3.86938284494659568,273.937492693991885,27.0821258387196053,12.2295612759830075,70.0013225950312545,-0.20348528507922109,113.483469177313467,448.62990285622584,15.2880000000000003,0,6.92009432447565587,0.0795972509683871982,-5.96060783271339209e-08,0.00324652072164814069,-0.00999121587643386766,-0.000233061610401819405
0.82,31.2221670018450901,131.010434451944519,14.3312627871133991,-3.94707231171741713,-9.69245531361918644,28.1805212332280561,1.36264666886551122,3.87449315169539954,328.725004432770049,27.3720386523304526,12.3681247825614751,70.0032100507558681,-0.219559409097188574,113.466364356431114,458.275090159048261,15.2880000000000003,0,6.94104985917221295,0.0804495695813957912,-6.41911212032222997e-08,0.00343213817707635482,-0.0104512548132944007,-0.000249018130897015009
0.83,31.222166537836376,131.01043563667389,14.5915375525946889,-3.85859860925100939,-9.60810006446665277,35.816490410823576,1.38820218490028902,3.87867734759213656,395.68750322465047,27.617186487398893,12.4910644266854405,70.0052013827183259,-0.236368298948120781,113.44847785473884,466.508941390101654,15.2880000000000003,0,6.96190192980653944,0.0811703256234348608,-6.88978500967200695e-08,0.00361855335433736158,-0.0109195340414346004,-0.000264888203592791459
0.84,31.2221660682285673,131.010436833806295,14.8543734625368096,-3.77037483418966479,-9.52176234140932287,22.1141037539997747,1.41453992671928352,3.88298299515956735,275.459374825645227,27.8704117409407957,12.6167557901404468,70.007296707758826,-0.253925292800781299,113.429795513658306,475.091121387274882,15.2880000000000003,0,6.98265201152425519,0.0819148288675958375,-7.37219388002627427e-08,0.00380577652296127528,-0.0113963050103164931,-0.000281140821958119659
0.85,31.2221655932856912,131.010438042596746,15.1195599741767364,-3.67864031564433791,-9.42396819205643865,24.1117455033406358,1.44318494978094081,3.887970027740832,292.960932339393764,28.1600982955148638,12.7550406531894662,70.0094961564045946,-0.272243770465461443,113.410303125716268,485.006341711194864,15.2880000000000003,0,7.00328319529484666,0.0827665036304801316,-7.86620897328230465e-08,0.00399351330831606947,-0.0118810484128591652,-0.000298068090148924099
0.86,31.2221651128395763,131.01043926348936,15.3872253401388477,-3.59226482919111101,-9.3368169432108612,30.1902164667123785,1.47074621545377182,3.89235757016671702,346.226561946558718,28.4216363934885123,12.8834859423079973,70.0117998325228115,-0.291337633098803672,113.389985933677877,494.044511362512594,15.2880000000000003,0,7.0238099354732606,0.0835354532923144044,-8.37130534734536818e-08,0.00418187872922171425,-0.0123742809175350771,-0.000315018117732537069
0.87,31.2221646269052826,131.010440496425275,15.6573545703049675,-3.50904419110307852,-9.25513673895150291,28.1096911635944586,1.49794047326661239,3.89642121851101342,327.964078366998024,28.6691284117123004,13.0069945978844643,70.0142077375295742,-0.311220737595591213,113.368829231143124,502.673086972065448,15.2880000000000003,0,7.04422200295502421,0.0842631262815160265,-8.8871425801303447e-08,0.00437079638290376396,-0.0128760433399014076,-0.000332107602080496784
0.88,31.222164135508983,131.010441741316328,15.9299243277144367,-3.42482622122017943,-9.16832372920147876,24.2909381051579523,1.52650613208650388,3.90079348960881322,294.482813471041823,28.9348167019856497,13.1367468413726947,70.0167198117054994,-0.331906947784436412,113.34681830563531,512.01980111865123,15.2880000000000003,0,7.06450474358402403,0.0850442879483637865,-9.4134226773135186e-08,0.00456015918893733045,-0.0133862976724397915,-0.000349697979155414731
0.89,31.2221636387190244,131.010442997957853,16.2048781346393547,-3.33981718655878757,-9.07667272855912977,26.6383995775406817,1.55648509059869267,3.90547506929615684,315.028134248086985,29.218817791382083,13.2727717645195202,70.0193359624197029,-0.353410307149495007,113.323938254323167,522.106497472851061,15.2880000000000003,0,7.08467745528814863,0.0858792812899170921,-9.94986156991615512e-08,0.00474985855655117844,-0.0139049988068222705,-0.000367810593081999517
0.9,31.2221631364597414,131.010444266542947,16.4822728716424827,-3.26182252977198139,-9.00112805384827475,29.4214028110328201,1.58419055119538132,3.909147008394525,339.378142354214447,29.4540167218540319,13.3918193275740389,70.0220560013170257,-0.375745300107803049,113.300173713793839,530.531659810507335,15.2880000000000003,0,7.10474796243673445,0.0865708435624824996,-1.04960089593666983e-07,0.00493991150594500807,-0.0144324432849333838,-0.000385596464943035446
0.91,31.2221626287904286,131.010445546894573,16.7620599733689168,-3.18287534730636423,-8.92055430387150849,22.3831503378257288,1.613299396121747,3.91312180080524774,277.742181023078899,29.707508920439107,13.5171341319611802,70.0248797409156225,-0.398925978976878426,113.275509772020953,539.688358895352167,15.2880000000000003,0,7.12471025104078137,0.087316180013828959,-1.10516142542186154e-07,0.0051301848021130898,-0.0149685299606995351,-0.000403884254038660467
0.92,31.2221621158898763,131.010446838503782,17.0440963733809454,-3.10315022240895866,-8.83524173823875358,26.6445046711981668,1.64383874016324727,3.91739135557771689,315.028134248062145,29.9792433053471186,13.6486840646898209,70.0278067668702562,-0.422966525653696745,113.249931394309186,549.591678038711052,15.2880000000000003,0,7.14455477143469153,0.0881151409315388684,-1.16165868899964996e-07,0.00532045133370742922,-0.0155128819272371734,-0.00042268326573720842
0.93,31.2221615976701869,131.010448141601529,17.3284498102884861,-3.02942855405026501,-8.76425362739985125,31.6906657606558184,1.67217105022154788,3.92069781741659629,359.162507065472823,30.2048654814892856,13.7642067785620856,70.030836770748337,-0.447881299646859521,113.223423347060091,557.879966209980239,15.2880000000000003,0,7.16429192214626642,0.088778575591643108,-1.21904187929787743e-07,0.00551074764493319699,-0.0160658652235485568,-0.000441084180128120977
0.94,31.2221610740274045,131.010449456467313,17.6152018470207281,-2.95266552840277274,-8.68216573274063208,22.9940275658491444,1.70318261289418516,3.92471729817133097,283.068750483778672,30.4703527230711657,13.8934423245922414,70.0339692251615986,-0.473684452174202686,113.195970629687267,567.714461036053763,15.2880000000000003,0,7.1839214977779573,0.0895591892840220671,-1.27726918243705021e-07,0.00570105549382417167,-0.0166277124390359042,-0.000460314697346276126
0.95,31.2221605452197615,131.010450782370867,17.9041464583857,-2.87771290794989287,-8.6027301633068376,29.7822112406419386,1.73422399785508707,3.9285334946000221,342.421873617487279,30.7290715038227518,14.020253458606394,70.0372035767027228,-0.500390693282243837,113.167557649945365,577.380108344161386,15.2880000000000003,0,7.20343552478661309,0.0903199161769159958,-1.33634277742551873e-07,0.00589110976219579981,-0.0171979239486989809,-0.000479685501560062728
0.96,31.2221600109771842,131.010452120055334,18.1954973513975808,-2.80612131684366028,-8.53071152122712562,29.1751502152340585,1.76426512885932296,3.93180833440824085,337.095335156783449,30.9633747438501317,14.1385535594081375,70.0405393134229257,-0.528014715680185764,113.138168827462721,586.202096367499848,15.2880000000000003,0,7.22284956957345514,0.0910088872930980702,-1.3961867661050481e-07,0.00608107123862748275,-0.017777271339281045,-0.000498914662292155946
0.97,31.2221594713142707,131.010453469472083,18.4892426881985337,-2.73455462914821457,-8.45636866368560014,18.6421018682593953,1.79530527534426465,3.93520501810389156,245.021887192993233,31.2076320148617654,14.2602154407552053,70.0439757487423691,-0.556571536304078407,113.107788249059766,595.470388190611629,15.2880000000000003,0,7.24216173651367789,0.0917271228320581944,-1.45677375307317025e-07,0.00627084534838986095,-0.0183657829767384269,-0.000518528392462292787
0.98,31.2221589264878965,131.010454829894968,18.7851777303079643,-2.66051712215640235,-8.37189732422227273,27.1760763028787196,1.82913171159988375,3.93928610051709738,319.593746642958081,31.491429798400425,14.3954344656534357,70.0475120916433838,-0.586076139170573218,113.076400039930888,606.332645418326479,15.2880000000000003,0,7.26135879926830352,0.0925615853714019526,-1.51812170257807042e-07,0.00646012725722493273,-0.0189628271815837357,-0.000539022313256729154
0.99,31.2221583763606603,131.01045620169981,19.0834116128722648,-2.59357190500910972,-8.30691330257772265,29.7034559824583617,1.85913633470776896,3.94191833633717836,341.660948551705417,31.7043824497884863,14.5061276094145715,70.0511476450966057,-0.616543924758986894,113.043987874869785,614.543104241676701,15.2880000000000003,0,7.28045559541406195,0.0931878227512774188,-1.58016523202139246e-07,0.00664899694398359171,-0.0195689631348434125,-0.000558516853789355408
1,31.2221578209296382,131.010457584891384,19.3839477710861381,-2.52425177701036718,-8.23210408333252452,26.5683429324778082,1.89188589792217998,3.9452094741793382,314.26720818227642,31.9558425887428079,14.6300187077681016,70.0548814275215364,-0.647989603759482224,113.01053617431792,624.31211675231043,15.2880000000000003,0,7.29944630341171674,0.0939272511711948949,-1.64288347141923371e-07,0.00683733590489956061,-0.0201841525522945542,-0.000578875947841395611
1.01,31.2221572603539421,131.010458979016931,19.6866594271242832,-2.45652174867555839,-8.15992960588603466,27.7893515229999117,1.92454605313601701,3.94824731535404228,324.920316103697928,32.1988927837461105,14.750920310956964,70.058712469591498,-0.680428540833572293,112.976028662989762,633.826607719394474,15.2880000000000003,0,7.31832823514197006,0.0946419676450064307,-1.70627275812198348e-07,0.00702495218273503468,-0.0208081027357537585,-0.000599266498025294932
1.02,31.2221566945634379,131.010460384270203,19.9916038607332034,-2.39060233286874269,-8.09128782259220536,23.1696367910249172,1.9568551741167215,3.95095289308508058,284.590631615404163,32.4294636251770285,14.8674347984931661,70.0626396811808831,-0.713875845250436236,112.940449340488158,642.917729178989475,15.2880000000000003,0,7.33710612453121236,0.0953200108069947732,-1.7702891050649797e-07,0.00721182111811109403,-0.0214410748322327246,-0.000619594680370688287
1.03,31.2221561236179497,131.010461800480869,20.2987347447085149,-2.32353846122544461,-8.01636137209408162,18.896200957662181,1.99125162041387194,3.9540684498655021,247.30469339049705,32.6866227796818123,14.9930123282286409,70.0666618700901438,-0.748346549013298001,112.903782291272449,653.135307675396575,15.2880000000000003,0,7.35577655688030774,0.0960762123767216342,-1.83491902066447698e-07,0.00739779962201446255,-0.0220829441046759209,-0.000640593861147170239
1.04,31.2221555475704591,131.010463227496132,20.608010764364515,-2.25941044114925393,-7.94895231501340493,30.1470503743787042,2.02426895937284135,3.95653259209189567,345.465636880722968,32.9148596510059264,15.1085394697435671,70.0707778031542148,-0.783856231614206034,112.866011020294962,662.268614715051285,15.2880000000000003,0,7.37434227424882227,0.0967474095959049429,-1.90013968306515534e-07,0.00758278140851255909,-0.0227337013742556146,-0.000661177096612358944
1.05,31.2221549661693381,131.010464666028611,20.9196369633520867,-2.19459409129942129,-7.87667701015428179,18.1076917975429552,2.05908071965984218,3.95929980713844865,240.456258798199826,33.164430251480141,15.2313157105559061,70.0749861304003048,-0.820420282937553091,112.827119237547478,672.329614720552399,15.2880000000000003,0,7.39281368981312603,0.0974813210294749044,-1.96586955889876887e-07,0.00776687294884192622,-0.0233941107997521214,-0.000682343407076608718
1.06,31.2221543796229071,131.010466115487759,21.2334474627711991,-2.12942195827634428,-7.80047860888663092,25.8730645057183573,2.09554830917599677,3.96230783490736593,308.179683655939243,33.4323897659329035,15.3603121878477946,70.0792854703341845,-0.858054810113570432,112.787089892324275,683.21739085281024,15.2880000000000003,0,7.41118287677542398,0.0982692913889542247,-2.03213258187518315e-07,0.0079498154268438561,-0.0240636480406283271,-0.000704037244985096793
1.07,31.222153787828713,131.01046757616362,21.5495270784655339,-2.06817872424305094,-7.73592273965864496,30.499688724500281,2.12935991354635679,3.96429641678757472,348.509368144030759,33.6522370045193639,15.4726743219217013,70.0836743717982529,-0.89677629144722415,112.745905542541053,692.211424550855668,15.2880000000000003,0,7.42946058256915798,0.0989158508369732681,-2.09886827786459146e-07,0.0081316302452305346,-0.0247427957874470569,-0.000724852338617176513
1.08,31.2221531906997036,131.010469048308096,21.8679497382807178,-2.00714370993374658,-7.66974876423774088,20.4589919714569746,2.16412090390948997,3.96632010772957422,261.001578574662346,33.8798153936651119,15.5876012085194251,70.0881512444556307,-0.936600845885368072,112.703549131280866,701.583994685348216,15.2880000000000003,0,7.44764801331006598,0.099585142203915275,-2.16603665788468058e-07,0.00831226927632089732,-0.0254318221340837647,-0.000745942478715088926
1.09,31.2221525884772326,131.010470531236962,22.1885229387605527,-1.94396313789659114,-7.59282175195769415,18.7975782597741095,2.20256801189318896,3.96913532118079271,246.543753324744074,34.1562849530029951,15.7192090648007934,70.0927144058599652,-0.977544759001734431,112.660003426838571,713.059033171391434,15.2880000000000003,0,7.4657343075099929,0.100398150327231261,-2.23368289194216934e-07,0.00849143187866280638,-0.0261300306156604101,-0.000768215182084713887
1.1,31.2221519812279489,131.010472024761981,22.5111953981247979,-1.88323182988202564,-7.52254953321149156,37.9288081786783735,2.23965237317855781,3.97130138740797767,413.189061738584087,34.4050167699720433,15.8411829225927363,70.0973620773382748,-1.01962446889526048,112.615251038466909,723.459655882566267,15.2880000000000003,0,7.48372307754528432,0.101129634791779208,-2.30178841842722124e-07,0.00866899778507746951,-0.0268373877317363667,-0.00078996624342996273
1.11,31.2221513686045746,131.010473529883058,22.8362539709554255,-1.8262486800886919,-7.46461678024436814,27.7066196289616542,2.27345551815188163,3.97230951632134266,324.159391037639693,34.5982457584085594,15.944021998477508,70.1020923934675153,-1.06285670595440518,112.569274268090922,731.585970365162098,15.2880000000000003,0,7.50163175568565865,0.101697982475397269,-2.37022685911540898e-07,0.00884514883876968278,-0.027555097051789549,-0.000810519620492045002
1.12,31.2221507506651861,131.010475046445436,23.1636568510128242,-1.76471866518207565,-7.38564560596360309,10.3114252924152758,2.31442061919785447,3.97501174144855307,172.73281794065943,34.8897344396553635,16.0804480551180831,70.1069033475158818,-1.10725785878797423,112.522055783399225,743.941660943503507,15.2880000000000003,0,7.51945244688482273,0.102555162356390089,-2.43901005860890882e-07,0.00901969807494745063,-0.0282829397164251657,-0.000833451465073043688
1.13,31.2221501279202229,131.010476572982384,23.4929890672864623,-1.70688831603434044,-7.31909870054710776,32.6900709037740214,2.35201507205046267,3.97652363512584284,367.532807790070478,35.1249006857545965,16.1974474365184449,70.1117929266265918,-1.15284570261284292,112.473576779645782,753.980343716551147,15.2880000000000003,0,7.53717319074773417,0.103246795596016835,-2.50825131200893342e-07,0.00919218635161200316,-0.0290194848245960459,-0.000855088049947189013
1.14,31.2221494998032192,131.010478111138582,23.8247208457693063,-1.65170410215775432,-7.26128765525853481,17.9982384300711473,2.38720256206318293,3.97713607601892027,239.695317731955441,35.3186524678673379,16.30016284792109,70.1167588803385087,-1.19963649883042622,112.423820066435553,762.297027444115656,15.2880000000000003,0,7.55481782214572561,0.103816701880099269,-2.57775022554377681e-07,0.00936293909769023679,-0.0297666543881953856,-0.000875748490407024537
1.15,31.22214886673639,131.010479659708011,24.1585113349670948,-1.59235110627114063,-7.18258797392795323,17.7324093601879014,2.43002386114616442,3.97947234998297228,237.412511535467729,35.6148376970607075,16.4378305700554463,70.1217988433172934,-1.24764653123640934,112.372768430757247,775.111160557599419,15.2880000000000003,0,7.57236467397555568,0.10468771192548508,-2.64763956317107642e-07,0.00953148844434390484,-0.0305229853494694732,-0.000898960986252757277
1.16,31.2221482288387833,131.01048121834998,24.4942660188036356,-1.53896961717580805,-7.12777314802156248,46.7800963844190605,2.46509939462017735,3.97952113485021863,490.043774384589426,35.7944743579446438,16.5354944651915687,70.1269104251454536,-1.29689340815731668,112.320403254265116,782.924751289443066,15.2880000000000003,0,7.58982133242011603,0.1052161419430096,-2.71790165369934324e-07,0.00969769774286639505,-0.0312883791566348698,-0.000919220657755139199
1.17,31.2221475853742447,131.010482789223545,24.8326012962425757,-1.48381309054533572,-7.06229776163218936,8.09871662246955637,2.50441810296183576,3.98038555526478266,153.709379294867944,36.0272331617770973,16.6512324127617894,70.1320910124749872,-1.3473933371468334,112.266707412077949,793.114246139826491,15.2880000000000003,0,7.60720955250962927,0.105900729635546018,-2.78828584909919335e-07,0.00986196606306317773,-0.0320653216319344778,-0.00094083928310779942
1.18,31.2221469373250073,131.01048436948156,25.1727096710718854,-1.42629325636290449,-6.98265814876688662,22.6250051636214948,2.54955028896939151,3.98240010589301141,280.025018221967457,36.3338923495744623,16.7920929491231945,70.1373379345144201,-1.39916349692868369,112.211662746543141,806.64712886455743,15.2880000000000003,0,7.6244652888611677,0.106802552990273816,-2.85912202941460277e-07,0.010023433454237422,-0.0328503842649837952,-0.000964351314113799868
1.19,31.2221462842547695,131.010485960406299,25.5149582592353852,-1.37609095476647614,-6.93569915425878136,39.6986249333742833,2.58294275997189837,3.98121366614555017,428.407813052929214,36.4721857230053388,16.8753085856714087,70.1426484224841431,-1.45222156898382604,112.155250570123926,812.772583990847465,15.2880000000000003,0,7.64164531589127005,0.107209476927536837,-2.93018371764337365e-07,0.0101823801509010169,-0.0336455001733797082,-0.000983339896951193832
1.2,31.2221456257971681,131.010487563099417,25.8596625030260867,-1.32133614000294797,-6.86339985313604828,3.87602442452860929,2.62650592913859082,3.98223139799675918,117.184374136023607,36.7430122503347576,17.003682985755475,70.1480194648613775,-1.5065834415142334,112.09745410424425,824.860675100401636,15.2880000000000003,0,7.65875177738996005,0.108005987849362217,-3.0013636023456001e-07,0.0103388724709584622,-0.0344517728041870558,-0.00100583355106090787
1.21,31.2221449629269081,131.010489174709392,26.2060140284430041,-1.26758671692567604,-6.79297427230426543,31.8173298575702361,2.66997822366920667,3.98290366578490751,359.923432132008998,37.0058417611401396,17.1291796874390769,70.1534480463363508,-1.5622670820391289,112.038254359737039,836.675804336345891,15.2880000000000003,0,7.67575559430426058,0.108778999691611894,-3.07299156572424351e-07,0.0104921193670919604,-0.0352657995906174582,-0.00102800977273415344
1.22,31.2221442949134236,131.010490797406391,26.5546321623793311,-1.21852970554002971,-6.74470650892159362,22.9658081246066743,2.70492859084185433,3.98126107430135523,283.068750482576149,37.1484341275282048,17.213543888466539,70.1589309431988397,-1.61928925943516488,111.977633626643566,843.107816460332515,15.2880000000000003,0,7.69269193692056952,0.10919858083909742,-3.14472851686429573e-07,0.0106425518028250374,-0.0360905559721118943,-0.00104673193469217041
1.23,31.2221436220605355,131.010492430322529,26.9052723737933555,-1.16573723936898022,-6.67318879576546831,8.76260006213673748,2.74992519521353795,3.98166627519303828,159.796873822227951,37.4185152695218122,17.3412603318926308,70.1644647342168497,-1.67766557181412379,111.915575440012432,855.382902506358164,15.2880000000000003,0,7.70954090806407599,0.109992925134051983,-3.21671728552717548e-07,0.0107897715381844676,-0.0369247031310246665,-0.0010688908544068457
1.24,31.2221429447795451,131.010494072253181,27.2575946650522063,-1.11505536546692152,-6.61032101802836269,38.566847701316064,2.79181609706810807,3.98102856900165092,418.515630199805003,37.6415718358044558,17.4528045816456547,70.1700459452857217,-1.73741314866756413,111.852061708482111,865.582097073980549,15.2880000000000003,0,7.72629652154521107,0.110649047023233485,-3.28907612883914897e-07,0.0109334073964376232,-0.0377668473770628316,-0.00108953991166082218
1.25,31.2221422624030005,131.010495725209609,27.6121729083523455,-1.06695266381482656,-6.55997518642377919,18.4848747506573936,2.82861054765478537,3.97893161810282114,244.260946125734876,37.7927008705700018,17.539734523874241,70.1756709089175246,-1.79854808266016519,111.787075446279715,872.516868250651328,15.2880000000000003,0,7.74295811176163529,0.111093741994346906,-3.36148040295352593e-07,0.0110737920206115566,-0.0386197663136497379,-0.00110792244955627383
1.26,31.2221415753901113,131.010497387854684,27.9686293056395243,-1.0154544974424522,-6.48584063785854603,10.760772002153228,2.87645566136534114,3.97897222362249803,177.298446336408631,38.0806275747469556,17.6731040066439604,70.1813357933953483,-1.86108589251289458,111.720600277398475,885.831856747108759,15.2880000000000003,0,7.75951794681147966,0.111940568850800046,-3.43414904866943123e-07,0.011210440985626919,-0.0394814641228061688,-0.00113010030546384496
1.27,31.2221408838940704,131.010499059745712,28.3268405262603089,-0.96766074403377178,-6.43171658075653596,37.0770846040187436,2.91567040873001915,3.9767835614068332,405.579686079964688,38.2523505577909759,17.7667887754871749,70.1870367204410286,-1.92504420805324528,111.652617583535473,893.808355602206234,15.2880000000000003,0,7.77599583905875935,0.112445814712644379,-3.50707157929190384e-07,0.0113431864700398628,-0.0403516900540709308,-0.00114859904957016366
1.28,31.22214018739351,131.010500742485647,28.6872640595751776,-0.919696286404108054,-6.37349691747097236,11.802278189202827,2.95714463741542755,3.97476760970513521,186.429688124688823,38.4472975078659971,17.8682554302519705,70.192769555254003,-1.99043813462783525,111.583111432010782,902.910608303781714,15.2880000000000003,0,7.79240677289107886,0.113019336450218791,-3.58001026428913681e-07,0.0114721821689921632,-0.0412324769590743864,-0.00116754081037619161
