Time,Latitude,Longitude,Altitude,Angle of Attack,Angle of Sideslip,X-Acceleration,Y-Acceleration,Z-Acceleration,Thrust,True Velocity,Ground Velocity,Pitch,Roll,Yaw,Dynamic Pressure,cp,cg,parachute_deploy_gain,Wind Speed,Wind Direction,Mach,omega_x,omega_y,omega_z,Cmq,Angle of Attack(total),Angle of Attack(gust),True Velocity(gust),Acceleration
0.0,31.222216000000007,131.010392,3.000000004412624,0.0,0.0,0.0,0.0,0.0,2.2828121974499247,0.0,0.0,69.99999999623412,0.0,119.9999999935444,0.0,1.274,1.0271675151847728,0.0,0.0,0.0,0.0,0.0,0.0,0.0,-0.0,0.0,90.0,0.0,0.0
0.01,31.22221599999084,131.01039200000497,3.000002745347096,0.0,0.0,0.0,0.0,0.0,34.242186961749226,3.465174813755316e-14,2.8705476994166025e-14,69.9999999962611,-2.1713911667908447e-11,119.99999999352175,7.352495975525499e-28,1.274,1.0271659134330349,0.0,0.0,0.0,1.0183245502395064e-16,-3.3305335486039093e-18,7.169286865560398e-18,5.624298769768554e-18,-7.715917190115602e-34,0.0,89.99999999999979,3.465174813755316e-14,0.0
0.02,31.222215999994315,131.0103920000094,3.0000030495639742,0.0,0.0,0.0,0.0,0.0,25.871876237766216,3.8197434737535036e-11,2.4171837235633357e-11,69.99999999628672,-1.1921727947863515e-11,119.99999999353136,8.93414285188691e-22,1.274,1.027164492361118,0.0,0.0,0.0,1.1225230367947217e-13,-6.657678965418802e-18,1.4338573731120796e-17,1.1241821275959074e-17,-1.7010872994127372e-30,0.0,89.99999999975682,3.8197434737535036e-11,0.0
0.03,31.222215999994315,131.0103920000094,3.0000030495639742,0.0,0.0,9.81877837424427,-2.5122800045972096e-05,3.3498614629347925,180.34219359854663,1.2659015405517447e-10,1.1364406173918436e-10,69.99999999631459,-1.6431898037347223e-11,119.99999999352724,9.812605835254651e-21,1.274,1.0271551940870716,0.0,0.0,0.0,3.720154642239108e-13,-9.991600645811728e-18,2.150108433310316e-17,1.6859343782149594e-17,-8.453698244545225e-30,0.0,89.99999999919412,1.2659015405517447e-10,10.374487003414373
0.04,31.222215999994315,131.0103920000094,3.0000030495639742,18.83801224594347,-0.0001111777826462,48.68248476615645,-1.016330065874988e-05,3.3497854396877287,548.635972453808,0.1556173050466994,0.0975908358443652,69.99999999633813,-2.0932768807056278e-11,119.99999999352085,0.0148286043323172,1.274,1.027133720825283,0.0,0.0,0.0,0.0004573186944143,-1.3322134194415637e-17,-1.04744143520903e-11,1.336824254131964e-11,5.0626055458604615e-15,18.83801224625964,89.06236267790787,0.1555998412814392,48.79759610369246
0.05,31.22221599164764,131.01039201704114,3.002326315126219,5.772385609593056,-4.395076213712875e-06,71.20344550265034,4.905512691849684e-05,3.349217396035405,761.6984298824663,0.8326471944351852,0.3620326097059287,70.00000001316391,-1.0866255162484559e-10,120.00000000231074,0.4245281043148827,1.274,1.027093426565204,0.0,0.0,0.0,0.0024469331205246,-5.0245994431125096e-18,-7.32924164976824e-07,2.217344936947165e-11,1.895424184525467e-09,5.772385609594774,84.74112356985832,0.8326465040582279,71.28217104309611
0.06,31.22221596664444,131.01039206837547,3.015081730143309,4.056581213689704,3.169093567502233e-05,53.16249142470188,0.0001203825427859,3.3481235983850643,590.4875390737236,1.657216205300742,0.6755452977614796,69.99999964391398,-3.9285905645317736e-10,120.0000000287861,1.6816755551786196,1.274,1.027050317124926,0.0,0.0,0.0,0.0048701272653724,3.095757869075056e-13,-7.483541766772344e-06,3.074135420506017e-11,3.8518749565858254e-08,4.056581213813337,79.59316473687034,1.657221183301277,53.26781792157489
0.07,31.22221592883117,131.0103921460222,3.034593611434361,4.115662018628709,6.450869598349036e-05,81.18203554989698,0.0001593212642178,3.347059402768047,855.2937749779172,2.099899704220947,0.8579771146174259,69.99999543281565,-8.233801910783518e-10,120.00000006883089,2.700101932075157,1.274,1.027003201295312,0.0,0.0,0.0,0.006171060252819,3.4704292086287e-12,-2.6327204536316785e-05,1.9541142932033486e-10,1.7170712165327165e-07,4.115662019133419,76.90111966094352,2.099909837223217,81.2510043180746
0.08,31.22221588914193,131.01039222747755,3.0542761843835606,3.459696193892355,8.037433511260004e-05,16.298214211652088,0.0002413456836072,3.344878926597744,241.2171988638792,3.051964775152957,1.2149999716613011,69.99998042886442,-1.0128995578004475e-09,120.00000011111383,5.703497661025892,1.274,1.0269597189470347,0.0,0.0,0.0,0.0089689344021769,1.458982438104473e-11,-5.702803872814215e-05,7.043261397829576e-10,5.405702492731987e-07,3.459696194824858,71.30331929508368,3.051977400323993,16.63790856991177
0.09,31.2222158241468,131.01039236098703,3.0886872184095737,4.313676956300389,0.0001337561018991,50.35975918308536,0.0002293282821279,3.344215841840564,563.0937377043203,2.893161298572128,1.191209213966114,69.99994788602814,-7.098432023887522e-10,120.00000018106356,5.125380275808925,1.274,1.026918932011013,0.0,0.0,0.0,0.0085022553945842,3.8672912027154325e-11,-0.0001115933708951,2.016054215232918e-09,1.0027525988343615e-06,4.313676958370176,72.2316578138625,2.893182308931483,50.47067588835877
0.1,31.2222157788302,131.01039245392113,3.109877853389092,4.035124630954496,0.0001457499816535,47.804664812504015,0.0002878217657545,3.341734392237128,538.7437595981891,3.5677148583138303,1.4531247507621967,69.99988403958329,1.9248461973355822e-09,120.0000002323013,7.7939962029572305,1.274,1.0268846934974103,0.0,0.0,0.0,0.0104845969583028,8.579678749070606e-11,-0.0001726817043215,3.984565639703107e-09,1.913455350430327e-06,4.0351246335824245,68.43243098813296,3.567737752667411,47.92132267234452
0.11,31.222215703308,131.01039260899836,3.148841432727305,4.043401107254707,0.0001752764476999,37.67622367577205,0.0003286462930162,3.3392563999062723,442.86563930529127,4.034183355956686,1.6436552022667772,69.99978525353545,7.302513231814865e-09,120.00000031883242,9.96528118825134,1.274,1.026848594915519,0.0,0.0,0.0,0.0118554331868328,1.5870341853361987e-10,-0.0002596204409236,7.232030302688121e-09,3.252930323390323e-06,4.04340111104746,65.92012987243639,4.034210888316708,37.82391391539392
0.12,31.222215627491828,131.01039276462643,3.186995101203875,4.17874459224363,0.0002066711490009,41.15991989399172,0.0003576945202315,3.336766085769504,475.58594813540793,4.361857560629481,1.7865750500940407,69.99963665601238,1.781774420198147e-08,120.00000041104812,11.649831899889556,1.274,1.0268114448194128,0.0,0.0,0.0,0.0128183893919737,2.682972478760441e-10,-0.0003710216542429,1.2215991071490164e-08,5.026311388647148e-06,4.178744597345269,64.21681651392016,4.361890024457652,41.29495143136631
0.13,31.22221554594398,131.01039293200228,3.2277173449026786,4.202734874672792,0.0002327160860324,45.44886120763352,0.0003953741266062,3.333578629398489,515.9156326236897,4.792165672014363,1.9646716520715424,69.99942424225341,3.613383418913551e-08,120.00000051758742,14.061726603124043,1.274,1.026779572895131,0.0,0.0,0.0,0.0140829618979635,4.248908088871395e-10,-0.0005056103199642,1.908859219307828e-08,7.5253154423526356e-06,4.202734881104192,62.048594618540655,4.792202226971676,45.570952718869485
0.14,31.222215454191247,131.01039312033683,3.2737880595608355,4.184830647080848,0.000257138757548,42.32232525579263,0.0004369426767266,3.329727443445437,486.2390860568421,5.269261304374574,2.158791628597544,69.99913473613935,6.515851355725497e-08,120.00000064630268,17.000925061330125,1.274,1.0267449573927567,0.0,0.0,0.0,0.0154850332441425,6.382432869666793e-10,-0.0006690086306358,2.8426433029675884e-08,1.0948547100483978e-05,4.184830654966803,59.74181173116622,5.269301695636157,42.45310707234106
0.15,31.222215353826755,131.0103933263496,3.3242182719560263,4.21963947489699,0.0002846467688673,40.886944113003565,0.0004726792395108,3.325585650885676,472.5421858721398,5.6781946837482895,2.329510773545807,69.99875162806286,1.0876776246115984e-07,120.00000079954532,19.742017654108928,1.274,1.0267115958081523,0.0,0.0,0.0,0.0166867950518804,9.204756288136623e-10,-0.000865746478554,4.08948221429571e-08,1.526771148078443e-05,4.219639484480408,57.84996018384879,5.678239395958187,41.02196629910223
0.16,31.222215247130432,131.01039354534575,3.3775922280208457,4.253495568077899,0.0003118339050386,32.26872905470846,0.0005078415214353,3.32090791922544,391.1218908297597,6.081244877834229,2.4981889727471702,69.99825581174558,1.7187028096464329e-07,120.0000009800088,22.644030778355887,1.274,1.026675762255412,0.0,0.0,0.0,0.0178712695992133,1.2856146928958252e-09,-0.0010961187242953,5.6923362293832417e-08,2.0702404729358337e-05,4.253495579487569,56.06022383757386,6.081293860589489,32.43916312841722
0.17,31.22221513260033,131.01039378041813,3.4348437275053194,4.364838523348639,0.0003448792023946,40.840448242802736,0.0005326487904353,3.3162727284953744,471.78125980632416,6.362544479165355,2.6250789114832647,69.99762801982864,2.5997588617291615e-07,120.00000119506798,24.78723182122683,1.274,1.0266409836796937,0.0,0.0,0.0,0.0186979513961862,1.747791994374917e-09,-0.0013624931601664,7.706724512977917e-08,2.6923621797558364e-05,4.364838536947241,54.85936171416122,6.362598652663785,40.97486885600156
0.18,31.222215014088988,131.01039402363364,3.4935801365785646,4.353948305387995,0.0003681615230806,33.992183768165326,0.0005718025428208,3.310131992647221,407.1015672119096,6.81502088160835,2.810667639293692,69.99684761766231,3.794979223522764e-07,120.00000144728236,28.437950785509614,1.274,1.0266048342046536,0.0,0.0,0.0,0.020027681385988,2.3221419748804155e-09,-0.0016616990447559,1.0147209890543081e-07,3.517105786247627e-05,4.353948320923495,52.99157233768714,6.815078712285162,34.152972512863755
0.19,31.22221488419521,131.01039429023237,3.558399965607869,4.432620772533925,0.0003996774584738,38.45149959021069,0.0005986099513107,3.304145139297767,448.95313283182486,7.1223367465208405,2.946425726785696,69.99589577323147,5.440084577183829e-07,120.00000176148238,31.060341085698347,1.274,1.026566130444714,0.0,0.0,0.0,0.0209308229359413,3.022391489754689e-09,-0.0020041563310821,1.3135864879722746e-07,4.433199397898183e-05,4.432620790516937,51.77883352025967,7.122399527709208,38.59320142454953
0.2,31.222214751373183,131.01039456280608,3.624052454705669,4.443889400961181,0.0004246617145652,35.23432408779927,0.0006337972852267,3.2968110145188256,418.5156301991588,7.530482904611057,3.1167566004785483,69.99474776398331,7.478025600151903e-07,120.00000211715036,34.72195181863731,1.274,1.026529240027363,0.0,0.0,0.0,0.0221302820454282,3.866698391504749e-09,-0.0023849544920781,1.668144671071589e-07,5.57780533277244e-05,4.443889421210987,50.22448880200342,7.530549610317194,35.38822625098952
0.21,31.222214608673173,131.01039485566503,3.6948551453492566,4.493351735844891,0.0004538195602194,33.79371564104691,0.0006629296043866,3.2891790438445727,404.8187610144608,7.868284042829251,3.2629204975089228,69.99338155599101,1.0150082652278477e-06,120.00000255293388,37.906665490338085,1.274,1.0264923657015164,0.0,0.0,0.0,0.0231230169900677,4.871073773182836e-09,-0.0028117605859743,2.089322918608601e-07,6.870935089180403e-05,4.493351758715364,48.992529909481824,7.868355328639073,33.95340801819282
0.22,31.22221446109996,131.01039515850383,3.767700382407304,4.5412639153933885,0.000482649303782,41.008966751568416,0.0006914639179131,3.2808061382386606,472.5421858721387,8.20057841132235,3.4071691679735228,69.9917708347139,1.3454961520984431e-06,120.00000305929996,41.175744234065135,1.274,1.0264494137127138,0.0,0.0,0.0,0.0240995709751246,6.054779813287368e-09,-0.0032829112061357,2.580881224843564e-07,8.3609968899004e-05,4.54126394098788,47.82515604752711,8.2006542256977,41.13999323561041
0.23,31.22221430675399,131.0103954752338,3.843768625625224,4.52371495179584,0.0005047555656171,33.98493478127787,0.0007294889663961,3.2705214710765107,406.340642146096,8.647938096586296,3.5908865300848416,69.98989017772566,1.7539876018835507e-06,120.00000365514876,45.79040229326471,1.274,1.0264133390858623,0.0,0.0,0.0,0.0254142776666487,7.436335125872812e-09,-0.0038001790077148,3.1489825108822685e-07,0.0001020628978177,4.523714979897577,46.31461705147579,8.648017383405135,34.14194053232237
0.24,31.222214142622448,131.0103958120587,3.92493179063287,4.57837522350066,0.0005351929930195,35.051650311058864,0.0007555049947555,3.26053011385611,416.2328240017099,8.954297884844461,3.72617527247482,69.98771316795013,2.25257161141768e-06,120.0000043564586,49.09180568115741,1.274,1.0263750048312463,0.0,0.0,0.0,0.0263146218848643,9.034877387788232e-09,-0.0043732521010013,3.809642748985157e-07,0.00012161410144,4.578375254714954,45.32798984252032,8.954381952763216,35.20297212911011
0.25,31.22221397517227,131.0103961556623,4.0071748888306855,4.6034117733065,0.0005618935542827,36.03738579534623,0.000785606492708,3.249069743648399,425.3640807915084,9.311611941121669,3.8789349536029696,69.98520781816889,2.8559738498748624e-06,120.00000517181904,53.08749562138344,1.274,1.0263373768840591,0.0,0.0,0.0,0.0273647110956883,1.0873791100894836e-08,-0.0049950711786164,4.5609738277273444e-07,0.0001444478241125,4.603411807525074,44.2165428352526,9.311700203154778,36.183554686886296
0.26,31.22221379934012,131.01039651647062,4.09364247475714,4.621386912291471,0.0005881033207375,39.29107511182762,0.0008162761165496,3.236407051295005,455.80158342417656,9.67833954512075,4.034902068846398,69.98234620927953,3.5784678110229355e-06,120.00000612171208,57.350948423913096,1.274,1.0263006300381676,0.0,0.0,0.0,0.0284424679130479,1.2973286442992724e-08,-0.0056712051373577,5.414206381221602e-07,0.0001704578711045,4.621386949630312,43.12063533194282,9.678431924174348,39.42414126789902
0.27,31.222213616776543,131.01039689108487,4.183310605341074,4.617158109135719,0.0006115457810536,35.90419462403674,0.0008503454714941,3.221982799915672,423.8421996598744,10.088790784535757,4.205862468567124,69.97909721779352,4.436165972465058e-06,120.000007221354,62.31798301949865,1.274,1.026260090595354,0.0,0.0,0.0,0.0296487219805601,1.5355910600537293e-08,-0.0064045199323113,6.379142666348734e-07,0.0002006609239367,4.617158149547818,41.94410287616451,10.08888684592241,36.048472443180565
0.28,31.22221342607797,131.0103972823952,4.277051150896916,4.642105655370123,0.0006389739579882,41.51133203546672,0.0008785747638736,3.2071101123224945,476.3468732012228,10.432377224420517,4.35383399240675,69.97542808435722,5.446665372087172e-06,120.00000849080963,66.63429581008447,1.274,1.0262212716723291,0.0,0.0,0.0,0.0306584788590473,1.8045308789081613e-08,-0.0072006835403936,7.469524967369969e-07,0.0002332868227611,4.642105699250441,41.0023231023774,10.432477594215127,41.63503624837164
0.29,31.22221323001776,131.01039768469093,4.373143569786686,4.62134615173668,0.0006600657405645,33.17552944492765,0.0009148746278066,3.1894209319791806,397.9703104221098,10.876662296046485,4.536381530986506,69.9713027936179,6.629751536885327e-06,120.00000994797426,72.43000748232016,1.274,1.026183007522519,0.0,0.0,0.0,0.0319641703260467,2.1067646517035105e-08,-0.0080566154554079,8.688043379161898e-07,0.000272130659453,4.621346198772975,39.83162628795024,10.876765978930557,33.32848872465723
0.3,31.22221302403368,131.01039810736614,4.4744193758467325,4.664362353358112,0.0006905183788532,31.08096762732793,0.0009381960428197,3.172549142946348,378.1859457108735,11.168362145070317,4.66647911311536,69.96668711012893,8.005507138509574e-06,120.00001161892672,76.36634300732833,1.274,1.0261430389738484,0.0,0.0,0.0,0.0328214509167604,2.4447409007156216e-08,-0.0089829108229115,1.0056222251461646e-06,0.0003115527202986,4.664362404357781,39.09908960432563,11.168470611443622,31.242464973103964
0.31,31.22221281503337,131.01039853619727,4.576593712520673,4.700143580504286,0.0007196683316923,32.79732593144512,0.0009620705970519,3.154230688182399,394.1656220930229,11.470279728974068,4.800072153432283,69.96154070456518,9.597499105113692e-06,120.00001352112182,80.55022837857167,1.274,1.0261054058068628,0.0,0.0,0.0,0.0337087616009043,2.8214060606649844e-08,-0.0099686353219717,1.1565909895184251e-06,0.0003550834484269,4.700143635477137,38.36463422765983,11.47039277421126,32.94865339301887
0.32,31.222212598991007,131.01039897947376,4.68216432480395,4.718667719113184,0.0007464384342556,35.7316568886908,0.0009885845337584,3.133859770838664,421.5593934624264,11.808280530415894,4.946054328851105,69.95582953472353,1.14278227255889e-05,120.00001568218067,85.36654007972253,1.274,1.026068246703101,0.0,0.0,0.0,0.0347021168382987,3.2392058795580455e-08,-0.0110163301561155,1.3226102501723267e-06,0.0004039614423012,4.718667778018562,37.5686120062341,11.808397780690962,35.8688218659563
0.33,31.222212376029034,131.0103994369436,4.791055524254013,4.72141404831576,0.0007708346814671,35.42013590291081,0.0010176135371143,3.1111955852784385,418.5156301991632,12.181577273013426,5.104163223586657,69.94951809396906,1.351997394754887e-05,120.00001812674968,90.84831229869296,1.274,1.0260310883392356,0.0,0.0,0.0,0.0357992034445943,3.700677535501642e-08,-0.0121310534481307,1.5051409581878843e-06,0.0004588955105349,4.721414111097893,36.7208578211118,12.181698355442045,35.55651229220977
0.34,31.222212145785647,131.0103999093516,4.903491659547144,4.73024573449122,0.0007962944975467,27.63851074646407,0.0010446307681611,3.0871492806781062,345.4656368807584,12.53557620048282,5.2556261014174765,69.94256797855994,1.5899658158227497e-05,120.000020882338,96.20413272674828,1.274,1.0259901535019136,0.0,0.0,0.0,0.0368395817555172,4.208561016221623e-08,-0.0133180771902383,1.7057647550599631e-06,0.0005184333231541,4.730245801363397,35.94841996438923,12.535701282129995,27.810389570354005
0.35,31.222211909310875,131.01040039453565,5.018822212845608,4.780248518778662,0.0008286678570753,30.332092807652543,0.0010618579815451,3.063967690608957,370.5765700527057,12.774786382148209,5.367579971644358,69.93493776125636,1.8594985713558667e-05,120.00002397748868,99.9096898192772,1.274,1.025950003202184,0.0,0.0,0.0,0.0375426220587071,4.7658312175989686e-08,-0.0145774693288123,1.9252724355785177e-06,0.0005782798420984,4.780248590437683,35.44790728185619,12.774916548990808,30.486451961956565
0.36,31.22221166933814,131.0104008868675,5.135354490370708,4.798132156899578,0.0008554457330409,34.32674769697476,0.0010851169437774,3.0374319611165923,407.8625232777224,13.09301701329486,5.506730645516068,69.92658597246795,2.163521613217148e-05,120.0000274401514,104.94818266210537,1.274,1.0259105142325406,0.0,0.0,0.0,0.0384778908056978,5.3755109608570216e-08,-0.0158991451700967,2.162609490834569e-06,0.0006464142451675,4.798132232978766,34.796094028187134,13.09315138639638,34.46087058603792
0.37,31.222211421355144,131.01040139563804,5.255882891363927,4.797392186816851,0.0008791822061288,32.551601855236584,0.00111162791192,3.0078619428913056,391.1218908297639,13.457513730739372,5.661815946371007,69.91747693543164,2.5047738471809164e-05,120.0000313040604,110.87154396328836,1.274,1.025872170958032,0.0,0.0,0.0,0.0395491312153729,6.040098808671168e-08,-0.0172926678053148,2.420031948898497e-06,0.0007226353721561,4.797392267189059,34.07332166419882,13.457651832357364,32.69027405888565
0.38,31.22221116634284,131.01040191882743,5.379799334000849,4.811698494594017,0.0009057112478668,34.02947987649063,0.0011338447913587,2.9774881690446744,404.81876101445977,13.77554886562956,5.800899861213392,69.90756948297444,2.886339581486796e-05,120.00003560072224,116.17243393848278,1.274,1.02583050512925,0.0,0.0,0.0,0.0404838339452728,6.762496638941508e-08,-0.0187646375218858,2.69955777313946e-06,0.0008026686661094,4.8116985796350695,33.46655348088405,13.775691134419684,34.15949264475229
0.39,31.222210906095896,131.01040245274032,5.505993307722699,4.813508003664984,0.000929862892873,29.00025983045028,0.0011579891265804,2.9442136901860865,357.6406249338268,14.124492165837273,5.950648592462506,69.8968186645841,3.311602501056718e-05,120.00004036395212,122.13093644173792,1.274,1.02579027384009,0.0,0.0,0.0,0.0415093739609825,7.545934774906889e-08,-0.020311592409804,3.0013532510753577e-06,0.0008908380763632,4.813508093268025,32.821616487639595,14.124638228358922,29.149330452482886
0.4,31.222210638473225,131.0104030017851,5.635788650457906,4.841647069358873,0.0009592124397379,27.71178845184976,0.0011749448424961,2.91135549588368,345.4656368807565,14.390874239274588,6.07193451174791,69.8851815212744,3.783947407715338e-05,120.00004563180136,126.77947425345651,1.274,1.0257493418632293,0.0,0.0,0.0,0.0422922854866381,8.39343718693383e-08,-0.021938519432511,3.3271332720311508e-06,0.0009803271643914,4.841647164150728,32.348088166612904,14.391024912012275,27.864299944624147
0.41,31.22221036681104,131.01040355909262,5.767123077463226,4.86553909860892,0.0009876699832274,31.306062598221665,0.0011918093836199,2.876450850006428,378.9468707766882,14.663028799871563,6.195223154320929,69.87261222561014,4.307011032901644e-05,120.0000514391194,131.6183642808765,1.274,1.025708445186429,0.0,0.0,0.0,0.0430921644173401,9.308325447883581e-08,-0.0236371933433427,3.6760977501392174e-06,0.0010761942383903,4.865539198612839,31.87689439156756,14.663183942709727,31.437931330109585
0.42,31.22221008906472,131.01040412887247,5.901259531771367,4.867510642114694,0.0010118258958528,35.308283402190774,0.0012128114559048,2.8374461227958245,416.23282400171047,14.9952917972178,6.33928625560071,69.85906967380902,4.884273094936628e-05,120.00005782486392,137.64909586091787,1.274,1.0256701057426505,0.0,0.0,0.0,0.0440686959134695,1.0293499639582845e-07,-0.0254093547296826,4.049238334851429e-06,0.0011830797791891,4.867510747027452,31.315270489291198,14.995450734457847,35.422111438762386
0.43,31.222209804115888,131.01040471342728,6.038886819939341,4.854590670645608,0.0010330089741511,31.00586934514032,0.0012363751872706,2.794478603999558,375.90313951343126,15.369430568701889,6.497852263156962,69.8445117629242,5.519340856908871e-05,120.00006482835984,144.60167924299955,1.274,1.0256308158337524,0.0,0.0,0.0,0.0451682983415116,1.135186446762958e-07,-0.0272634397889413,4.449073329427772e-06,0.0013010625065656,4.854590780289497,30.70250814963406,15.369592833372094,31.13154422839874
0.44,31.22220951192321,131.01040531284193,6.180028459770617,4.866912332640401,0.0010595850174406,28.57707721036899,0.0012525768202179,2.752165534925872,353.07501253892326,15.659290812546615,6.627318538707029,69.82889155423543,6.216182865383864e-05,120.00007249162944,150.1053167542629,1.274,1.025586171750536,0.0,0.0,0.0,0.0460202245100907,1.2486676023179565e-07,-0.0292060158163984,4.8779154055816594e-06,0.001420032405556,4.866912447705031,30.24619499837236,15.659457251771938,28.709297424144207
0.45,31.222209215425703,131.01040592106523,6.322872201489905,4.881836476567178,0.0010866574689855,33.31904824532484,0.0012669045761511,2.7082028218433374,397.2093853562887,15.934249290371609,6.751662050993672,69.81215834018458,6.97909417564726e-05,120.00008085697964,155.42080512416243,1.274,1.0255397023523487,0.0,0.0,0.0,0.0468283602442113,1.3701614206272197e-07,-0.0312276295846745,5.334643585560923e-06,0.0015449645531859,4.8818365972149325,29.82567893138932,15.934419982127675,33.428929688274074
0.46,31.22220891307435,131.0104065412864,6.468371919199588,4.869610441729251,0.0011078049156487,38.95909776354321,0.0012868374716666,2.6582856015412624,449.7140588976424,16.292139278621757,6.904766425053949,69.79426683863348,7.812149592850748e-05,120.00008996920153,162.4785746623087,1.274,1.02549635315424,0.0,0.0,0.0,0.0478802236363867,1.499987870203256e-07,-0.0333272350234362,5.819761874615242e-06,0.0016858511402973,4.869610567434908,29.29014635640275,16.292313292210977,39.04968351401366
0.47,31.22220860266524,131.01040717804253,6.6178810515614845,4.838450928223533,0.0011247917292402,26.253747818137555,0.0013104398935566,2.6026193242279367,331.0078106302504,16.710658191447514,7.078951441335346,69.77517236812905,8.719457259907165e-05,120.0000998741591,170.9309671061642,1.274,1.025453319323251,0.0,0.0,0.0,0.0491102725711187,1.6384464803343264e-07,-0.0355167087264168,6.3368207228363735e-06,0.0018427306558807,4.838451058652396,28.68386015667837,16.710834873319172,26.382435512333956
0.48,31.222208284201663,131.0104078313267,6.771393590864176,4.869339340099417,0.0011561785713505,25.860860976019296,0.0013165328518772,2.5543454292827983,327.20312230115803,16.911139899671,7.177575416403102,69.75482343794755,9.70562828082882e-05,120.00011062072316,175.0543877818846,1.274,1.0254092882449153,0.0,0.0,0.0,0.0496995461609974,1.7858865391586845e-07,-0.0378054080201581,6.88909442277235e-06,0.0019849793891693,4.869339477030596,28.40887970825325,16.911321511776286,25.986704537635287
0.49,31.22220796480208,131.01040848648364,6.924537656029012,4.881367714530694,0.0011829003785372,32.565703383222065,0.0013261973190012,2.5011623511055703,389.6000096981238,17.169005224738054,7.296160258358563,69.73316318155707,0.0001077573203115,120.000122255028,180.4309832312717,1.274,1.025367445590036,0.0,0.0,0.0,0.05045746454003,1.942747077649401e-07,-0.0401641298712614,7.47069711110948e-06,0.002140948887153,4.881367857509675,28.058569663954906,17.169191034294997,32.66161128464712
0.5,31.222207637929923,131.01040915697027,7.081324512896956,4.862566137860805,0.001202418260511,33.47759680712428,0.0013425340759632,2.4399894027711366,397.970310422106,17.52898693231981,7.450304424940405,69.71015149227495,0.0001193385310595,120.0001348274002,188.0736471953394,1.274,1.0253278572281015,0.0,0.0,0.0,0.0515154948878309,2.109295159784217e-07,-0.0426011733481599,8.084173008518589e-06,0.0023184335011768,4.862566286171007,27.57768313050809,17.529175807738486,33.56639745442473
0.51,31.22220730314019,131.01040984370235,7.24202048914867,4.8479762258125,0.001223054804074,25.49162310288008,0.0013562860883156,2.3767006597692686,323.39843497208153,17.86914397471067,7.597652147346554,69.68574349602717,0.0001318441288964,120.00014838524436,195.4407439266201,1.274,1.025286455263166,0.0,0.0,0.0,0.0525152689856776,2.2858192086249162e-07,-0.0451315948093539,8.734206149830708e-06,0.002503767471626,4.847976379721193,27.13799345359824,17.86933609171003,25.602178740977283
0.52,31.222206962738102,131.01041054193402,7.405210501673173,4.865306299521403,0.0012516517170965,30.733671928447727,0.0013599291289974,2.317711624364424,372.098451184342,18.08534843773428,7.701914987606457,69.65988568649581,0.0001453248538387,120.00016298000436,200.19561780583155,1.274,1.0252426840672306,0.0,0.0,0.0,0.0531507657929359,2.4726951523704535e-07,-0.0477531686556663,9.421346966092632e-06,0.0026812161964639,4.865306460134566,26.8699055233151,18.085545046726228,30.820940596104087
0.53,31.222206619320115,131.01041124632013,7.569307468221277,4.848802699234936,0.0012715119568563,32.301199055744725,0.0013711327835325,2.2490252325653923,386.55624643486095,18.41963113311156,7.8474319110539055,69.6325258319474,0.0001598315062727,120.0001786629144,207.6614205945027,1.274,1.0251993415311351,0.0,0.0,0.0,0.0541332845214831,2.67031759303889e-07,-0.0504479325599339,1.0141887756417996e-05,0.0028848299490111,4.848802865552398,26.45837260670532,18.419830861742675,32.37940050117613
0.54,31.22220626697288,131.01041196903336,7.737918664599091,4.831496690588052,0.0012913635058467,28.31291960103712,0.0013809098107221,2.177242866245296,349.2703242098436,18.75116898748492,7.992112829440902,69.60362200959217,0.0001754082864028,120.00019548734956,215.20067397992847,1.274,1.0251561018460285,0.0,0.0,0.0,0.0551077428911958,2.878941684235108e-07,-0.0532336286085667,1.090122304443916e-05,0.003098869611663,4.831496862756785,26.061835558272342,18.751371834390056,28.396510432451375
0.55,31.222205908994248,131.01041270328463,7.909026079894722,9.733191319765169,9.297818225662493,30.185670857136675,-0.5263022773373187,1.815646682234368,365.2500005919912,20.15488583947672,8.113323699629928,69.57312211246325,0.0001921068626005,120.00021350480982,248.62252994758688,1.274,1.025112921033824,0.0,3.7596053489187766,0.0,0.0592332356177263,3.0989272306468813e-07,-0.0561100530405476,1.1700476995263424e-05,0.0035107731766435,13.429437566264813,34.42032336603195,21.608982020748854,30.244806034379348
0.56,31.222205546564343,131.01041344664463,8.081909946161325,14.058447974333692,-0.0201457040325841,28.18804977929319,-0.1202106988828553,1.3464558973208167,346.22656194657776,21.21318933316031,8.247294810559758,69.54097415464405,0.0002099796112633,120.00023276987916,275.4130553369177,1.274,1.0250709539098009,0.0,3.773321678167647,300.0001285565649,0.0623436075287266,3.3302698971832e-07,-0.0625881051614596,0.0063968696062511,0.0041216614094554,14.05846211784547,26.729598291446717,21.210024853436007,28.22044550419902
0.57,31.222205178420328,131.01041420495483,8.258296221886255,13.93907934886022,-0.0163109296385569,27.889575337773795,-0.121194315231877,1.1143523109932365,343.1828296833045,21.48944937959689,8.36440885660883,69.50511423405666,0.0100165048196521,120.01070091644786,282.62840449749893,1.274,1.0250279191823897,0.0,3.786930847216913,300.0001285565649,0.0631556360004433,3.622719006037821e-07,-0.0730790140610287,0.0063783905670905,0.0048751182233788,13.93908870301896,26.45021722867569,21.48688726479521,27.91209203295985
0.58,31.222204804776528,131.01041497121489,8.436613941807378,13.816759090649644,-0.0195312647601151,36.83740637983216,-0.1217940290508315,0.8731319523246099,426.12500585731766,21.771293545667746,8.484925522320639,69.46324285368954,0.0197539735490815,120.02109796989012,290.08566104831255,1.274,1.024981594484354,0.0,3.800559440921576,300.0001285565649,0.0639840803761399,3.9589339710760073e-07,-0.0837564148071112,0.0063625097581059,0.0056605947099432,13.816772626632584,26.16364126556665,21.76822558183288,36.847953837147884
0.59,31.222204425855697,131.01041574972592,8.617618403212523,13.607384895065255,-0.0225680846973003,29.82923920619187,-0.1231582141133046,0.6050121771063603,360.68438819710633,22.18480927539064,8.653094776403728,69.41525317414893,0.0294180953169007,120.03141972517392,301.2046316307799,1.274,1.0249386802161349,0.0,3.8140976640173534,300.0001285565649,0.0651995029731704,4.339653389456589e-07,-0.0946227175038918,0.0063436427864273,0.0065163336999106,13.607403256645188,25.738256069519142,22.181264289027776,29.83562835437465
0.6,31.222204037509712,131.0104165473328,8.803533198146308,13.48729654161292,-0.0256636499446968,26.50445538446929,-0.1235102708427357,0.3461840939473944,329.4859594986072,22.45260334800767,8.768722205222636,69.36103698146212,0.038996041926213,120.0416528549484,308.51472852008453,1.274,1.024891335813742,0.0,3.82760140535556,300.0001285565649,0.0659866682124666,4.765539951955637e-07,-0.1057416335734972,0.0063215588879376,0.0073698248545274,13.487320505346077,25.47482372149768,22.44857211143594,26.507003856362733
0.61,31.22220364702965,131.01041734926903,8.989990887415955,13.3719806800559,-0.0287182328033379,31.12166934006418,-0.1236896117826746,0.0816779135924736,372.0984511843332,22.7059088178488,8.879243064935059,69.30044953820585,0.0484746430077529,120.05178364153336,315.50954128337946,1.274,1.0248423929069768,0.0,3.8412288735235833,300.0001285565649,0.0667312560590215,5.237655619925785e-07,-0.1170330081841741,0.0062963115771029,0.0082486699993331,13.372010956319814,25.2283449566142,22.70139776857773,31.122022314012995
0.62,31.222203250867263,131.01041816282796,9.17912300859174,13.202479225309052,-0.0316122184779177,38.7694690826737,-0.1243065226362979,-0.2049111481412499,442.86563930529206,23.04254388756337,9.020256308757707,69.23339205629905,0.0578410043592722,120.06179865687912,324.9284042316112,1.274,1.0247996097896497,0.0,3.8546585479039694,300.0001285565649,0.0677207501161741,5.756671600196195e-07,-0.1284845654156467,0.0062678377657349,0.0091898869240398,13.202516399426964,24.89892901437486,23.03757825214861,38.77020987359489
0.63,31.22220284709784,131.01041899195377,9.372066922849784,12.979525509295591,-0.0343183110324737,21.92131232550169,-0.1253778696088017,-0.5185593287592604,286.11251274707456,23.468342990327848,9.19401463564268,69.15977278011152,0.0670823560051665,120.07168458192612,337.04170135759193,1.274,1.024756158874558,0.0,3.868038963656564,300.00012855656485,0.0689723000366065,6.323153233767641e-07,-0.1401334447515505,0.0062359378729806,0.0102081011085324,12.979570099853383,24.487140202692444,23.462952282959016,21.92780329763616
0.64,31.222202434831686,131.01041983846193,9.569332047055047,12.91348815304231,-0.0373485536580754,21.542831475700584,-0.124593215420577,-0.7891997338881414,282.3078244179702,23.61061273693156,9.26466082571114,69.07947867481693,0.0761858076871531,120.08142794260644,341.1340530377207,1.274,1.024708534665538,0.0,3.8814562768470577,300.0001285565649,0.0693905782114454,6.937808749922364e-07,-0.1520199199830673,0.0062003642909481,0.0111408998263004,12.913541245277548,24.35401788256367,23.604746040257314,21.5576424425245
0.65,31.222202024202605,131.01042068155135,9.764894605024027,12.798960599521047,-0.040220171052261,38.21454113038983,-0.1241940265497702,-1.079448952118908,436.7781447787504,23.82932739696888,9.363478287414988,68.99237361041025,0.0851382756072291,120.0910150180027,347.4769262868693,1.274,1.0246641738210605,0.0,3.894939536841356,300.0001285565649,0.070033525725111,7.601785366524891e-07,-0.1639896041969965,0.0061614945576621,0.0121292084019193,12.799022739763153,24.14624365032165,23.823009627792548,38.22998545648059
0.66,31.222201606114258,131.01042153988618,9.96414213690016,12.546965421818191,-0.0426322432546528,32.503073404527655,-0.1251825248746075,-1.4306844542289463,383.5125151715984,24.29351694669878,9.55287896300232,68.89840995462585,0.0939278954732081,120.10043338016048,361.1394040139369,1.274,1.0246195561629028,0.0,3.908079741032005,300.0001285565649,0.0713979224002739,8.315340004105164e-07,-0.176075766697459,0.0061191494639469,0.0132765741962823,12.547036688334323,23.711416040964323,24.286820290205966,32.53478614363738
0.67,31.22220117642932,131.010422421932,10.16946731764094,12.3805028133613,-0.0452423724712073,22.36153016676855,-0.1250487777324971,-1.7577674298466983,289.15624401033847,24.592796817385462,9.682102614819524,68.79752100521401,0.1025429006462192,120.10967066227394,370.0849073997946,1.274,1.024572383541697,0.0,3.92124473649654,300.00012855656485,0.0722776644431479,9.07870700161754e-07,-0.1883982264411258,0.0060727750139316,0.0143804413804645,12.380584187654827,23.433361041285607,24.58569016287465,22.430858542051887
0.68,31.22220074510295,131.01042330727492,10.37501092139476,12.27124788806638,-0.0480074557131193,27.970181288968284,-0.1240864639224338,-2.063588370970632,340.89999248584934,24.771405538524125,9.767090311890245,68.68957138271875,0.1109708280932075,120.11871369591393,375.47260660560113,1.274,1.0245245285832842,0.0,3.9345806498222498,300.0001285565649,0.0728027601856961,9.892982718186654e-07,-0.2008626460125094,0.0060225993591506,0.0154428958048835,12.271340354604922,23.263257696350248,24.7638645458972,28.046476351817986
0.69,31.22220031066333,131.0104241989354,10.581645002848337,12.089967243131564,-0.0504711023317857,34.48097307364189,-0.1237944438462362,-2.4079442711946184,401.0140726853658,25.08154519197745,9.901362502016376,68.57447978361984,0.1192002510678272,120.12755039271032,384.9257091243939,1.274,1.024479631064582,0.0,3.9477036427987486,300.0001285565649,0.0737144274495863,1.0758860350305715e-06,-0.2133983486927222,0.0059688225742123,0.0166117596178807,12.090071023476872,22.97746349267026,25.073617210787543,34.56517068933297
0.7,31.22219986740581,131.01042510858733,10.792653114966292,11.871926353591512,-0.0527320724457222,28.924086290379392,-0.1237679592385539,-2.7797738796664446,349.270324209851,25.4596914534404,10.061671642957704,68.45220540890453,0.1272207846899977,120.13616973862504,396.6119669857248,1.274,1.0244351749185203,0.0,3.9606907199071086,300.0001285565649,0.0748259739094712,1.1676475089598251e-06,-0.2260641908942773,0.005911091404152,0.0178626712690402,11.872041783428177,22.63665878480345,25.451408320039555,29.057619122411303
0.71,31.2221994168464,131.010426033114,11.007116553719332,11.704390580028274,-0.0551488660159686,23.7761603824554,-0.1229517647298006,-3.1303228473885225,301.3312640634036,25.724490974413435,10.180212136122504,68.32267372461706,0.1350219320757503,120.14456053976431,404.89664443517376,1.274,1.0243880468141104,0.0,3.973745239838229,300.0001285565649,0.0756044020096445,1.2646261807311752e-06,-0.2388849807737674,0.0058491611625708,0.0190716464285782,11.704518692491526,22.39332099813427,25.71582821213458,23.981656339743814
0.72,31.2221989631722,131.01042696394492,11.222622943778871,11.553916854636906,-0.0576036443665633,29.140532497855567,-0.1217383250285502,-3.473152845003474,350.7922053414578,25.940836631040685,10.281077040561282,68.18579597909964,0.1425933488025456,120.15271170850096,411.72720829794616,1.274,1.024337302174265,0.0,3.9867729653357538,300.0001285565649,0.0762404282905315,1.3668995045516811e-06,-0.2517921734904576,0.0057832466413282,0.0202707477403198,11.554058497521767,22.189394904157137,25.931788273266896,29.347031283642863
0.73,31.22219850493067,131.0104279040499,11.439996077764828,11.35111089110194,-0.0597704872401524,36.88609250981419,-0.1209800753658727,-3.853141284911572,422.3203185282354,26.26113257409432,10.421938671913829,68.04152270611434,0.149925861414134,120.16061336510975,421.94850181041807,1.274,1.024292465384646,0.0,3.999662554441232,300.0001285565649,0.0771819711645986,1.4745100541472197e-06,-0.2647508554739979,0.0057134323685023,0.0215767148726177,11.351266189769474,21.902212985274915,26.25174384961644,37.086994412902975
0.74,31.22219803843447,131.01042886095766,11.66128502846636,11.106722031140135,-0.0616724062542048,23.097702915585344,-0.1205498382287331,-4.269999749380171,294.4828134710563,26.669085921001617,10.59708985937109,67.88982444861821,0.1570112187710282,120.1682565646208,435.1505905853656,1.274,1.0242470321640116,0.0,4.012464914997168,300.0001285565649,0.0783811495389287,1.5874633283719057e-06,-0.2778022391470342,0.005639383216058,0.0229915971905796,11.106891104230929,21.549882702208247,26.65939844395141,23.489387180168055
0.75,31.22219756345503,131.010429835123,11.88656573255636,10.960687899659668,-0.0640430626131684,26.981705942681536,-0.1186622240833139,-4.616856357914649,330.24688556441737,26.83624877962164,10.680979113494123,67.73064813098338,0.1638412326529565,120.1756323625296,440.6132361905682,1.274,1.0241984712898409,0.0,4.025294794549455,300.0001285565649,0.0788726460669775,1.7057819435067992e-06,-0.2909777907364437,0.0055607699867387,0.0242324611823677,10.960872711262256,21.38321717564492,26.82618892096548,27.374110011658416
0.76,31.222197089070534,131.01043080800304,12.11077696454778,10.757073792880544,-0.066062673466348,29.053594061722755,-0.1173122057059964,-5.0094918877759484,349.2703242098581,27.128287126103416,10.813564798871626,67.56392263131315,0.1704078240266914,120.18273185550504,450.2454336056512,1.274,1.0241522053390697,0.0,4.038129745576068,300.0001285565649,0.0797311583621591,1.829560289078224e-06,-0.3041443484062448,0.0054782841039092,0.0256040488903075,10.75727425805628,21.122047016474838,27.11791002792077,29.482538883730353
0.77,31.222196605070828,131.0104318004414,12.339553156472336,10.544042678182274,-0.067980532912923,27.17534183165341,-0.1158693282257204,-5.412629199542892,331.76876669606884,27.4317548533615,10.951582806975736,67.38965316158817,0.176705136557807,120.18954849417167,460.3649075089437,1.274,1.0241065975906936,0.0,4.050711662520081,300.0001285565649,0.0806232706613648,1.958772415175536e-06,-0.3173517754610793,0.0053915052389853,0.0270141623654795,10.544259341674117,20.853541848833427,27.421076498727583,27.709369971548963
0.78,31.2221961155725,131.0104328040242,12.570575378484964,10.341412319488365,-0.069915645296168,22.33255342671381,-0.1140773870333969,-5.807977609205062,286.8734378128874,27.697518799066064,11.075861957031917,67.20781633637613,0.1827272635656137,120.19607558986648,469.3179075926616,1.274,1.0240588105546735,0.0,4.0633574681418265,300.0001285565649,0.0814045760829598,2.093433392926451e-06,-0.3305914429414212,0.005300362791626,0.0284131786132781,10.341646085712346,20.613220728406624,27.686536477909893,23.075713642621903
0.79,31.222195621166176,131.01043381754334,12.80350380334946,10.157005150425094,-0.071930629563424,31.725618695654664,-0.1118291098467149,-6.183727920252442,373.6203323159581,27.901161138267195,11.176633555501558,67.01839372156864,0.188468971156664,120.20230711481952,476.23382053859217,1.274,1.0240083170932772,0.0,4.07593645360185,300.0001285565649,0.0820033079465233,2.233565558384257e-06,-0.3438312412045844,0.0052049590637385,0.0297676976194469,10.15725717544727,20.41642008957432,27.88986230436497,32.32283834015186
0.8,31.222195122941496,131.01043483877407,13.03773567842887,9.907602774408604,-0.0734648678056943,32.14262210637654,-0.1102260665758884,-6.626669338027044,377.42502064505805,28.26740885217369,11.342712258339631,66.82138527907959,0.1939260374909888,120.20823806597411,488.807557330362,1.274,1.0239625010683884,0.0,4.088417515708345,300.0001285565649,0.0830799530946144,2.3791852949892136e-06,-0.3570275283931494,0.0051055085123949,0.0313152272885275,9.907872421523882,20.10792265173831,28.255869020885928,32.81879114432198
0.81,31.22219461417217,131.010435881418,13.27681027049968,9.669049330343528,-0.0750212450658001,20.94621186874356,-0.1082459881408221,-7.060523788253607,273.9374926939922,28.59378005444676,11.494307147269978,66.61681599054955,0.1990954501252583,120.21386469016738,500.14863107787465,1.274,1.0239149950770308,0.0,4.1007717912728925,300.0001285565649,0.0840394082722269,2.530235004384067e-06,-0.3702422914664525,0.0050014017959884,0.0328484960824708,9.66933759934094,19.829199569474035,28.58199574819592,22.104445367589236
0.82,31.22219410041244,131.01043693414837,13.517731051205516,9.483495997284876,-0.0769303785060248,26.87883287979162,-0.105322610632516,-7.428341839034711,328.725004432774,28.7528529683326,11.579818816447688,66.40467529799504,0.2039738141500017,120.2191827318216,505.71726339613264,1.274,1.0238644186635044,0.0,4.113196516063244,300.0001285565649,0.0845071659998683,2.686732058607575e-06,-0.3834397174532698,0.0048927649297274,0.0342078583387703,9.483805168198932,19.66128771934526,28.7407687763659,27.88660991066557
0.83,31.222193585238006,131.0104379896838,13.758635106061895,9.244309435536538,-0.0783913930020743,34.12576759107165,-0.1029080065650385,-7.8578068875408515,395.6875032246518,29.055050855194768,11.724133940242371,66.1849731657658,0.2085587674215605,120.22418898782476,516.3915471899899,1.274,1.0238188483711983,0.0,4.125534225394931,300.0001285565649,0.0853955842932086,2.848717748598688e-06,-0.3965271511961524,0.0047802592141055,0.03574640471727,9.244638918535577,19.40030330397313,29.042737167818512,35.01890536295411
0.84,31.22219305995448,131.01043906572124,14.00399312319234,8.976169717378836,-0.0795651008510738,21.095989110574607,-0.1006515916896149,-8.326103306121993,275.45937482564227,29.43551278184381,11.901884671353772,65.95777266770614,0.2128499219354835,120.22888235086975,529.9914011723332,1.274,1.0237739661568126,0.0,4.137692364135296,300.0001285565649,0.0865140379169615,3.016105301303189e-06,-0.4095538784564669,0.0046633316673033,0.0374033252756467,8.976519454874204,19.0923712700141,29.423014729044915,22.679834293058835
0.85,31.222192526424816,131.01044015845605,14.25275966998238,8.775217674166017,-0.0812618862703019,22.983694429323915,-0.0972341004285932,-8.694103003286031,292.9609323393965,29.58759628023543,11.987141778804189,65.72310861819254,0.2168465852160307,120.2332612997457,535.4693348654048,1.274,1.0237227741398531,0.0,4.149897389683648,300.0001285565649,0.0869612712324026,3.188842878644651e-06,-0.4225361229924529,0.0045416595541001,0.0387874043102466,8.775590977805162,18.9272564891648,29.57483169726866,24.57330037098331
0.86,31.222191993461564,131.01044124995835,14.50046157329144,8.540609720768934,-0.0826313551096725,28.74206446783704,-0.0940647636610255,-9.103052569377065,346.2265619465616,29.83231979962888,12.111691326077532,65.48100652189136,0.2205482034501491,120.23732438554596,544.3509152618714,1.274,1.023674789281455,0.0,4.162086810668549,300.0001285565649,0.0876807862048556,3.366987954110293e-06,-0.4353564288316629,0.0044162330052286,0.0402938575667617,8.541006480346939,18.70542348540183,29.81934010121988,30.149306528242164
0.87,31.22219145157011,131.01044235953864,14.751856851974296,8.279253840322902,-0.0837084178731113,26.743870307126688,-0.0910310067882942,-9.548836328448688,327.9640783669946,30.15340393655211,12.2696351340345,65.23155921349077,0.2239566322930153,120.24107275432245,556.1182041387051,1.274,1.0236288969245204,0.0,4.174040981549404,300.0001285565649,0.0886247425853329,3.5504414867130813e-06,-0.4480385514406037,0.0042867001230913,0.0419129379030931,8.279674052372886,18.43950875135829,30.1402550536981,28.397590758303966
0.88,31.22219090194856,131.01044348474957,15.006260683024005,8.030455785582758,-0.0848564945124093,23.092316992953844,-0.0875880551550252,-9.967386851157062,294.4828134710421,30.416842294215808,12.404854235869792,64.97484589482481,0.2270737084750307,120.24450745746616,565.8639957971345,1.274,1.0235805388426191,0.0,4.186002720158246,300.0001285565649,0.0893992784965016,3.7391153175121753e-06,-0.460595705373778,0.0041527632888749,0.0434630073828319,8.03090116591744,18.209419264367213,30.40351307210013,25.1517708404615
0.89,31.22219034779985,131.0104446190767,15.262065169365847,7.789019301504102,-0.0860387427410221,25.295937385034744,-0.0838169114270473,-10.362389139738095,315.02813424808807,30.636408972650333,12.522748052927064,64.71093819167892,0.2299013485104008,120.2476295689526,574.0488584044183,1.274,1.0235293752791452,0.0,4.197937900592885,300.0001285565649,0.0900448750148437,3.932976624278392e-06,-0.4729850710142156,0.0040147269631478,0.0449531765396303,7.789491555026137,18.0055835200051,30.62289404362369,27.33625033075315
0.9,31.22218978863128,131.01044576351978,15.51949303997268,7.529746411537659,-0.0869922442707166,27.907251360971145,-0.0800701200241533,-10.780820832126969,339.3781423542166,30.907251453364648,12.664034470720356,64.43993226860954,0.2324425252469833,120.25044127189184,584.2290863925424,1.274,1.0234837388140003,0.0,4.209771710580428,300.0001285565649,0.0908411844220645,4.131970767244345e-06,-0.48517081915799,0.0038728551781284,0.0465178265515901,7.530246015610449,17.774330176631352,30.893586748838707,29.91733924604542
0.91,31.22218922182632,131.01044692338863,15.779748756304723,7.2597269405454385,-0.0877781760217301,21.184790948646626,-0.0762421237228649,-11.212067618575956,277.7421810230785,31.20653128333809,12.819315006630555,64.16194482056979,0.2347011246195958,120.25294570688112,595.5833457549617,1.274,1.023436404813438,0.0,4.221516181070906,300.0001285565649,0.0917210833855428,4.335986888045807e-06,-0.4971539090257977,0.0037269809195976,0.0481271183932191,7.260254746360482,17.529883798815924,31.192743125084974,23.968972457800714
0.92,31.222188647900417,131.0104480976302,16.04252453636777,7.01264066791762,-0.0887843276349505,25.195072077138164,-0.0718772541361914,-11.580027594570865,315.0281342480675,31.39345354243928,12.927005497000849,63.87709198535874,0.2366812012789925,120.2551461473888,602.7244063215439,1.274,1.0233859136578225,0.0,4.2332267645247805,300.0001285565649,0.0922707519515202,4.544920721665846e-06,-0.5089250406032005,0.0035770380820198,0.0495604746338663,7.0131998683560015,17.347828324225596,31.379507338447944,27.72893547186534
0.93,31.222188071331825,131.0104492771503,16.30570458835824,6.739931031879942,-0.0894398448737515,29.943665320542152,-0.0676546645217932,-11.99328490738384,359.16250706547066,31.67400029253831,13.07743496754111,63.58549521973314,0.2383871147535416,120.25704615266748,613.529493640182,1.274,1.0233407575091376,0.0,4.244889313621799,300.0001285565649,0.0930956034777596,4.758731167724535e-06,-0.5204234824424884,0.0034236638463394,0.0511318335548012,6.74052170591786,17.118195191607878,31.659951120264427,32.25626377700851
0.94,31.222187485353643,131.01045047568104,16.572375686374954,6.453037223821924,-0.0898610480730579,21.633569784963928,-0.0633983781724646,-12.431133186086305,283.06875048378083,32.00599807563849,13.25275845243242,63.287310795822414,0.2398245401336462,120.25865071724328,626.4425362243248,1.274,1.0232914783978162,0.0,4.256411524341669,300.0001285565649,0.09407168793007,4.977249970560127e-06,-0.5316634123241276,0.0032664949834784,0.0527823342005071,6.4536602209780645,16.865493570314257,31.991882741001767,24.950920489742966
0.95,31.222186891264816,131.0104516905787,16.841857182573122,6.193513013721393,-0.0905950966324719,28.031623884597163,-0.0585580638865171,-12.781022518625727,342.421873617488,32.19132251511233,13.36382720999828,62.98268684550405,0.2409988926858918,120.2599645006252,633.7017231124963,1.274,1.0232418269359267,0.0,4.267929961855289,300.0001285565649,0.0946166792341329,5.200329661878675e-06,-0.5426409608695892,0.0031053646328145,0.0541826940916539,6.194172981893745,16.689981293805253,32.1770918765405,30.807951948741778
0.96,31.22218629526643,131.0104529092613,17.1113413207045,5.903324898857243,-0.090856274297375,27.39731858860452,-0.0539263967426236,-13.202059364229664,337.09533515678265,32.514044361417355,13.53894091617466,62.67177370643652,0.2419156192837264,120.2609921567222,646.4545514522138,1.274,1.0231951201821403,0.0,4.279414115311795,300.0001285565649,0.095565513303576,5.4279295938702444e-06,-0.5532866088709365,0.0029411369153502,0.0557980621365636,5.904021552552344,16.449312922351623,32.499772697205294,30.41233870254645
0.97,31.222185687560703,131.01045415159928,17.385137381647162,5.618314395636849,-0.0911349195241332,17.3321145799002,-0.0490101637424224,-13.593141508001828,245.0218871929888,32.79624595198656,13.697579664841372,62.35476157547547,0.2425816064016539,120.26173994481712,657.7075981154842,1.274,1.0231476260761452,0.0,4.290745706874344,300.0001285565649,0.0963952600443415,5.6598183772061454e-06,-0.563623859773063,0.0027732228375795,0.0573323901370815,5.619051128460677,16.232541873665486,32.781930518339834,22.02675858730697
0.98,31.222185074581816,131.01045540453796,17.660339676940662,5.356052897225983,-0.091718131690907,25.378396551756666,-0.0436183663111288,-13.88839201786084,319.593746642963,32.93222420813865,13.789948388486216,62.03182715030831,0.2430030696543376,120.26221333031164,663.1552893593956,1.274,1.0230935628253934,0.0,4.3021075360559164,300.0001285565649,0.0967952301157044,5.89587369590529e-06,-0.5736175718625629,0.0026019620631824,0.0585893358017671,5.356835851084485,16.08837360474559,32.917817163855624,28.930128705933456
0.99,31.22218445984026,131.01045666096078,17.935439053487315,5.061723972442123,-0.0917349616351723,27.710054221067736,-0.0384630605081677,-14.275108053318052,341.66094855170127,33.239208659791274,13.963964621202257,61.70316726633984,0.2431868222317933,120.26241843709656,675.5585393721573,1.274,1.0230490803133316,0.0,4.313377945416794,300.0001285565649,0.0976978298739029,6.136026919949824e-06,-0.5832061798167945,0.0024282712630166,0.060122410278065,5.062553009325996,15.867576415149085,33.22479897187017,31.170936692301105
1.0,31.222183832672844,131.01045794248012,18.21492600223133,4.766420290860864,-0.0916673434569027,24.660731809706537,-0.0331245068116857,-14.649880896259267,314.2672081822764,33.54181590996576,14.138231710469247,61.369014057202975,0.243140933541454,120.26236281971468,687.8965335363371,1.274,1.022999484445133,0.0,4.324497866711257,300.0001285565649,0.0985875744555902,6.3799791652422925e-06,-0.5924176525875877,0.0022513998274552,0.061626356833702,4.767299644227685,15.653901608864851,33.52741684346966,28.68399903949597
1.01,31.222183199169965,131.01045923674556,18.49613737088307,4.477696452189191,-0.0916551541750235,25.746813532398345,-0.0275296639382294,-14.979136932236308,324.92031610370094,33.78820050041937,14.287655930363648,61.02958359834974,0.2428724944451738,120.26205290237364,698.0208167385632,1.274,1.0229507481225095,0.0,4.335650633233033,300.0001285565649,0.0993120739572368,6.627550366994223e-06,-0.6012283560571963,0.0020715257975014,0.0630006050865968,4.47863250065054,15.47034070228704,33.77380334860874,29.787139980017766
1.02,31.222182559955524,131.01046054249207,18.77879562463013,4.182509971942428,-0.0914586097684429,21.28125144840584,-0.0218441339715729,-15.316120735787496,284.59063161543185,34.06693309471206,14.45465630119901,60.68510551529738,0.2423888229587715,120.2614953725782,709.56557042759,1.274,1.0229039803623294,0.0,4.346728661831428,300.0001285565649,0.1001316589655052,6.878586819626824e-06,-0.6096027648118398,0.0018891245613506,0.0644033381661918,4.183508035075626,15.27744974161983,34.0525668159852,26.219757717600753
1.03,31.222181912029097,131.01046186579663,19.06407961228392,3.8947078042840326,-0.0913517111405874,17.144369919116333,-0.0159286171843431,-15.59475383337306,247.3046933904342,34.27440093954812,14.588818172033708,60.3358297923458,0.241697769414493,120.2606975373524,718.2147256023276,1.274,1.022853416101322,0.0,4.357722561851009,300.0001285565649,0.1007417857137432,7.1328545727006e-06,-0.6175272044562198,0.0017042017482021,0.0656360565654853,3.895777349715695,15.12026042709913,34.26005145239709,23.17597939177221
1.04,31.222181259725463,131.01046319787517,19.350193356602144,3.609396873797872,-0.0912444219596117,27.74993440683284,-0.0098739899824893,-15.833293463687648,345.4656368807608,34.44320319288588,14.705477522403356,59.982014232328126,0.2408070912336703,120.25966660400567,725.2866653691644,1.274,1.0228049544826707,0.0,4.368679382515961,300.00012855656485,0.101238268284093,7.3901895318436925e-06,-0.6249660809743882,0.001517338714901,0.0667520426584388,3.610548479242016,14.984047499840422,34.428870558658595,31.949211868001647
1.05,31.222180602257,131.01046454032263,19.63743220402722,3.3029405741441127,-0.0905652995737591,16.229047476504,-0.0038878068539775,-16.1720560660887,240.4562587980608,34.792341423462155,14.914067581271093,59.62393703906281,0.2397250813824267,120.25841042409051,740.0447075724321,1.274,1.022755494436122,0.0,4.3795311280480655,300.0001285565649,0.1022648152637564,7.650389721218153e-06,-0.6318943005738089,0.0013289542707961,0.0681743007699998,3.30418059768128,14.778300011568197,34.77811546539552,22.91107580438726
1.06,31.22217993128828,131.01046591001764,19.9289745975937,3.0185299630425666,-0.0903657054621821,23.522163045465035,0.0023989378597167,-16.349545192709055,308.1796836557233,34.91707047553448,15.011828453820543,59.26189080662529,0.2384602998888422,120.25693719888687,745.3394047784304,1.274,1.0227013895379469,0.0,4.390291532861904,300.0001285565649,0.1026317678710235,7.913058091400495e-06,-0.6383256681898463,0.0011382631855093,0.0691131272839196,3.019881047683421,14.67030710754382,34.90287586959849,28.646112966697235
1.07,31.22217926216808,131.0104672758751,20.218849614814943,2.7174390267191004,-0.0896349216183715,27.827260224919915,0.0086515823656905,-16.61841273971112,348.5093681440431,35.2095763834816,15.196589089259486,58.89616017281989,0.2370202241095529,120.2552538838958,757.8582659660776,1.274,1.0226540159946436,0.0,4.401080202379462,300.0001285565649,0.1034918691900749,8.178138835531622e-06,-0.6442036027972619,0.0009467226120534,0.0703318910430889,2.7189158239804523,14.500274994281313,35.195496568661746,32.411851666677116
1.08,31.22217857907248,131.0104686699378,20.51306756090219,2.4142780092765648,-0.0887345701229437,18.200706855858463,0.015018158382002,-16.888964076179985,261.0015785751465,35.53113955749518,15.39893349311462,58.52706225128261,0.2354136680308469,120.25336906467368,771.7424547309374,1.274,1.0226061614050743,0.0,4.411677139700869,300.0001285565649,0.1044373898546494,8.445215936664564e-06,-0.6495367988800381,0.0007536388538262,0.0715597755556846,2.415907173170164,14.325872658767334,35.517201169386176,24.829479719971427
1.09,31.22217788776169,131.01047008053834,20.809344282479376,2.123474627531023,-0.0881443057451595,16.536937965886526,0.0215162520662403,-17.031815866477793,246.54375332456465,35.6880434471251,15.51783378342274,58.15490913158609,0.2336484230143966,120.25129016048804,778.5513077565873,1.274,1.0225512795791307,0.0,4.422304802130779,300.0001285565649,0.1048989312975319,8.713988913999001e-06,-0.6543079840609866,0.0005590923624733,0.0724016848540257,2.1253024149078783,14.22199173082386,35.674197777417284,23.739282464857418
1.1,31.222177194835822,131.01047149431457,21.10523842180885,1.830417465236,-0.0873911929759921,34.618221395536764,0.0280447244746744,-17.17006030888728,413.1890617384087,35.86911504172968,15.650896892699016,57.780022796687234,0.2317321008584375,120.24902442825592,786.4493210154183,1.274,1.0224981043155532,0.0,4.432879731104824,300.0001285565649,0.1054315124665449,8.984329938476806e-06,-0.6584804719353863,0.0003642282081617,0.0732309947053129,1.832501765154404,14.114771477664474,35.85538767056022,38.64237324631856
1.11,31.222176493757114,131.01047292450215,21.40312024532243,1.5225860451001296,-0.0858682382537023,24.8140871236753,0.034707127770145,-17.474605575347272,324.1593910379213,36.33054364822328,15.935294223787928,57.40274627177533,0.2296731433600731,120.2465801763451,806.790518237394,1.274,1.0224548851875197,0.0,4.443317178120219,300.0001285565649,0.1067881668243665,9.25592131207376e-06,-0.6620430295318117,0.000169164995749,0.074572217859118,1.525004879776515,13.90955846654375,36.31705550194874,30.349661684770464
1.12,31.22217577391716,131.01047439257334,21.706661412493897,1.2284498348844577,-0.0848143975284379,8.207354198480362,0.0414169797540003,-17.600115671601248,172.7328179403806,36.5556783364593,16.09616299839897,57.023429025181805,0.2274797375209945,120.2439654883487,816.796794547396,1.274,1.0223979224661404,0.0,4.45370341876298,300.0001285565649,0.107450284410831,9.528176167059516e-06,-0.6649985029307461,-2.7347498409886e-05,0.075367098943351,1.2313737761348422,13.800012391944383,36.542355726915154,19.419743818064877
1.13,31.22217505472699,131.0104758592339,22.008927778629623,0.9422959305353444,-0.0841182579210822,29.37774620818471,0.0480112374839034,-17.56934437546338,367.5328077894322,36.581859037488144,16.150480874423163,56.642418836751446,0.2251585639588892,120.2411866942698,817.9434244523187,1.274,1.0223460397860296,0.0,4.464164959469407,300.0001285565649,0.1075276056702666,9.801021296056432e-06,-0.6673110369263701,-0.0002237593069746,0.0756811555968276,0.9460427390207572,13.7691289003292,36.568645777178986,34.23063159123802
1.14,31.222174335131765,131.0104773266212,22.310367765795768,0.6442836580717523,-0.0824080470929355,15.333797109125747,0.0548984227364557,-17.784295552861607,239.6953177322812,37.00946013365484,16.426120301796377,56.26008406644541,0.2227174122034041,120.2382515375494,837.1526322697893,1.274,1.0223022138470996,0.0,4.474463877549879,300.0001285565649,0.1087848533891599,1.007434938194023e-05,-0.668961720285406,-0.0004187290382504,0.0767529572533832,0.6495323179368301,13.600498452288312,36.99651551235071,23.482110551059613
1.15,31.22217359202935,131.01047884149554,22.618804513486705,0.3565072402769045,-0.0813092389270834,15.002962207283524,0.0615545076209747,-17.763562094193222,237.4125115347709,37.12152954629998,16.53029184857106,55.87680395023093,0.2201648471534977,120.23516880550268,842.2053691940166,1.274,1.0222426194541194,0.0,4.484620352837874,300.0001285565649,0.1091146477184381,1.034739365845842e-05,-0.6699481546842788,-0.0006141062590325,0.0770966117376995,0.3656617554306959,13.55149978445586,37.10875752520276,23.2515978424031
1.16,31.22217285540212,131.0104803431692,22.923991330970203,0.0690291071646875,-0.0799652996793081,42.506923952987925,0.0682372660048914,-17.762644862831213,490.043774385954,37.299872703657805,16.672665805833734,55.49295899582049,0.2175074152629897,120.23194489237012,850.2923059588337,1.274,1.02219674531104,0.0,4.494896337420684,300.0001285565649,0.1096392453753673,1.0620163527084689e-05,-0.6702532121333983,-0.000807941670373,0.077500009734178,0.1056383627991386,13.485668975259076,37.287311787834895,46.06902205161984
