Time,Latitude,Longitude,Altitude,Angle of Attack,Angle of Sideslip,X-Acceleration,Y-Acceleration,Z-Acceleration,Thrust,True Velocity,Ground Velocity,Pitch,Roll,Yaw,Dynamic Pressure,cp,parachute_deploy_gain,Wind Speed,Mach,omega_x,omega_y,omega_z,Cmq,Angle of Attack(total),Angle of Attack(gust),True Velocity(gust),Acceleration
0.0,31.222186000000004,131.010384,3.000000003643237,0.0,0.0,0.0,0.0,0.0,2.2828121974499247,0.0,0.0,69.99999999623421,0.0,113.69999999388332,0.0,15.288,0.0,0.0,0.0,0.0,0.0,0.0,-0.0,0.0,90.0,0.0,0.0
0.01,31.22218600000153,131.01038399999584,2.99999882256592,0.0,0.0,0.0,0.0,0.0,34.24218696174923,7.502283530665459e-11,7.190531319924593e-11,69.99999999623329,-4.83564628150269e-13,113.69999999388072,3.446445726795683e-21,15.288,0.0,0.0,2.204725565824978e-13,-3.659182332138578e-19,7.589415207398531e-19,4.811147140404426e-19,-1.5108918610345807e-31,0.0,89.9999999995224,7.502283530665459e-11,0.0
0.02,31.22218600000288,131.01038399999217,2.999997775701936,0.0,0.0,0.0,0.0,0.0,25.871876237766408,1.5320717031631675e-10,1.4674636035870463e-10,69.99999999623222,-9.67129256300373e-13,113.69999999387804,1.4372842949972735e-20,15.288,0.0,0.0,4.5023593667086093e-13,-7.284483346386986e-19,1.5178830414797062e-18,9.757819552369542e-19,-6.170906918166791e-31,0.0,89.99999999902465,1.5320717031631675e-10,0.0
0.03,31.22218599928065,131.01038400193067,3.000201659671132,18.81500467334555,-0.00012974450181,11.96616230539064,-1.8916256735984712e-05,3.349833086198469,180.34219359854663,0.0882870268161719,0.0553390044312322,69.99999999799445,-4.212591857125379e-12,113.69999999488518,0.0047728553458352,15.288,0.0,0.0,0.0002594525584132,3.2187251995663407e-17,-7.20264389268894e-10,1.2365134327422308e-11,1.6874092354518158e-13,18.815004673776716,89.46786891739345,0.0882666465974854,12.426199017587786
0.04,31.22218599548236,131.0103840121632,3.001799604587872,9.46752327608497,-4.6177622759613696e-05,55.21900012092241,3.931876292165237e-06,3.349616504302861,548.6359724538078,0.3767519978512604,0.1853356633749705,70.00000000507204,-2.4624598767003407e-11,113.70000000019972,0.086915163246288,15.288,0.0,0.0,0.0011071759353184,1.6174128009138757e-15,-1.3693172015529268e-08,2.7753303060112748e-11,1.3689612277852356e-11,9.467523276196548,87.63554493451223,0.3767447442872393,55.32050167054111
0.05,31.222185984749512,131.01038404118162,3.00777936418888,5.376730308971262,-2.257790939128127e-06,80.28807156553681,5.266841443842784e-05,3.348887800834877,761.6984298824644,1.018787885905993,0.4366201147110198,70.00000000894464,-1.1355399380652658e-10,113.70000001523856,0.635552918586145,15.288,0.0,0.0,0.0029939522895272,1.6418815498809788e-14,-9.32122351075408e-08,4.303264669380585e-11,2.5199270302492604e-10,5.3767303089717045,83.57022052969386,1.0187875312530217,80.35788377762394
0.06,31.22218596447235,131.01038409608267,3.0201664202003013,4.296730121134882,2.4863835723705905e-05,60.21296515808257,0.0001057204249726,3.347700952379021,590.4875390737208,1.721098934225416,0.7081674028809783,69.99999995523842,-3.0560354507026086e-10,113.70000004366592,1.8138247671743823,15.288,0.0,0.0,0.0050578622752421,8.328976953118383e-14,-3.2824985336199985e-07,5.923438275930214e-11,1.4991363363716091e-09,4.296730121206683,79.20467073327266,1.7211028398275985,60.305955550063224
0.07,31.22218593493329,131.01038417609837,3.038741944736831,3.8204913578752526,4.8016684030909405e-05,91.4060317508128,0.0001597686613101,3.346072557365335,855.2937749779139,2.4375792548422868,0.9844712334613328,69.99999973536046,-5.939103491363046e-10,113.7000000850886,3.6383156301599167,15.288,0.0,0.0,0.007163413150771,2.709313825263564e-13,-7.906546256197275e-07,7.920022733617308e-11,5.114174483651565e-09,3.820491358176508,74.87999294483174,2.437586797285377,91.46725557277466
0.08,31.222185894468456,131.01038428575305,3.0647976109320942,3.588632851766762,7.220043782492885e-05,19.18449428359557,0.0002119618497595,3.3440615022685813,241.2171988638848,3.1292508166901074,1.2522236515868983,69.99999919480445,-9.914748373602156e-10,113.7000001418522,5.996012698481753,15.288,0.0,0.0,0.0091960591623389,6.80386533246681e-13,-1.5973238302190878e-06,1.0839624626357699e-10,1.3263625118823921e-08,3.58863285249208,70.86684630658345,3.1292621579083604,19.473766155861934
0.09,31.22218584634549,131.01038441616095,3.0957981580345013,3.551302481506045,9.685468678862004e-05,57.102946699906326,0.0002554087225869,3.341892818148368,563.0937377043176,3.701810007254615,1.479132491047967,69.99999812344194,-1.4359264356978275e-09,113.7000002093888,8.390904013834115,15.288,0.0,0.0,0.010878666406854,1.440096519545733e-12,-2.748643691533636e-06,1.5214952332699618e-10,2.6999776649034504e-08,3.5513024828250237,67.68737872952666,3.701825221153239,57.20065357568538
0.1,31.222185790329306,131.01038456796124,3.1319266121977414,3.608446747536112,0.0001234669721807,54.26147302645416,0.0002914860332524,3.3396271157106168,538.7437595981919,4.174070299823608,1.6716491241860567,69.9999963052332,-1.902380107712657e-09,113.70000028805804,10.668380938744466,15.288,0.0,0.0,0.0122665227999911,2.687800116751415e-12,-4.315796035622946e-06,2.1749089204950437e-10,4.7802076800548326e-08,3.608446749645647,65.17160335282355,4.174089693970246,54.36414778470795
0.11,31.222185727066616,131.0103847393952,3.172681775073216,3.633547373470009,0.0001485939126744,42.987553988990406,0.0003293995000288,3.337005588796181,442.8656393052949,4.672024955140527,1.8729475711242067,69.99999349387662,-2.3433348587116544e-09,113.70000037699285,13.365573690709628,15.288,0.0,0.0,0.0137298902182575,4.5789425819531184e-12,-6.340230783164189e-06,3.1157625832417107e-10,7.860218435507205e-08,3.6335473765043056,62.62546922225161,4.672048296217748,43.116880735560244
0.12,31.22218565692512,131.0103849294629,3.2177790417108385,3.650108937861461,0.0001727442530266,46.86777100765684,0.000367618259785,3.334068179146888,475.58594813540446,5.17479364099247,2.0758708919414386,69.99998941286465,-2.702771525550512e-09,113.70000047573096,16.396890189902592,15.288,0.0,0.0,0.0152074069417046,7.288473386564583e-12,-8.86736416607888e-06,4.42271554299792e-10,1.217615295152289e-07,3.6501089419435786,60.16906436414164,5.174820775596283,46.986210423745625
0.13,31.222185580265183,131.0103851371844,3.2669395832841857,3.7280113734654137,0.0001995014041665,51.64515456841877,0.0003986198234033,3.3311573548369657,515.9156326236895,5.579364582999854,2.2451120211463422,69.99998375846928,-2.9114380666036422e-09,113.70000058383452,19.060875702782603,15.288,0.0,0.0,0.0163963474924215,1.100846422415094e-11,-1.1941028436408576e-05,6.179653149059831e-10,1.7678562106638216e-07,3.728011378795934,58.279338776943774,5.579395920607139,51.75247433579817
0.14,31.22218549718016,131.01038536230575,3.320091807147376,3.768719651034081,0.0002242721760019,48.1660778383537,0.0004326225136175,3.32784677779744,486.2390860568404,6.025734265159953,2.428648685938864,69.99997621008868,-2.890941335368725e-09,113.70000070125378,22.232643351545065,15.288,0.0,0.0,0.0177081261985351,1.5941871344608664e-11,-1.560901486259027e-05,8.477542742712431e-10,2.495765160917323e-07,3.7687196576976176,56.27980129251342,6.025769493750979,48.280903250602165
0.15,31.22218540777004,131.01038560455507,3.377159065217065,3.821894709649632,0.000249725644238,46.56959330999435,0.0004643042952466,3.324387732286376,472.54218587214,6.441023336496372,2.6014999612196745,69.99996641132823,-2.546763407193136e-09,113.70000082794672,25.402620271850456,15.288,0.0,0.0,0.0189285691155931,2.2314099732464315e-11,-1.992367942778425e-05,1.1417519574710292e-09,3.4051816697623295e-07,3.821894717796148,54.501255563441134,6.441062563308839,46.68809885900716
0.16,31.22218531193176,131.01038586421257,3.4382223512025254,3.8463320955387794,0.0002733212404609,36.974247749122085,0.0004987816203583,3.3205066466509234,391.1218908297564,6.895451966878468,2.7877331692857847,69.99995397923414,-1.77088415515292e-09,113.70000096417354,29.113317717489338,15.288,0.0,0.0,0.0202640360420561,3.0367358387834494e-11,-2.4945905791363795e-05,1.5114297685186711e-09,4.5643121540033697e-07,3.846332105235269,52.641145594326446,6.895494900078523,37.12304892183151
0.17,31.222185210004127,131.010386140357,3.503019838429153,3.8860314262554336,0.000297865039677,46.520531453299206,0.0005306403365217,3.31650761597812,471.78125980632376,7.314788342774694,2.9619016331667103,69.99993849340957,-4.3039914767238207e-10,113.70000110959404,32.761746921137856,15.288,0.0,0.0,0.0214963781445172,4.0366633128431416e-11,-3.0713078585132897e-05,1.96747427715988e-09,5.961228045584824e-07,3.886031437653654,51.00464968745696,7.314835131305714,46.63860064094784
0.18,31.22218510147516,131.01038643438045,3.571950002194137,3.9107265153396016,0.0003214293682635,38.895647526122765,0.0005639254295027,3.312149448254175,407.10156721191447,7.754626295791602,3.1430587898572058,69.9999195084231,1.6149322372810674e-09,113.70000126508234,36.81988229018681,15.288,0.0,0.0,0.0227889722876034,5.2593391349219385e-11,-3.731786027786564e-05,2.525509173087448e-09,7.6786585232224e-07,3.9107265285284982,49.36615848311875,7.754676785798701,39.036415444581515
0.19,31.222184986476247,131.0103867459258,3.644912152926752,3.920599115663931,0.0003437679584038,43.86258669386953,0.0005989384366483,3.307389681300437,448.9531328318269,8.219206165926856,3.332657190859447,69.99989653019398,4.538529095696477e-09,113.70000143063515,41.36350714675367,15.288,0.0,0.0,0.02415428010977,6.735860419174937e-11,-4.481243905342629e-05,3.199401151670645e-09,9.773118416308382e-07,3.92059913071168,47.71893898797248,8.21926016487149,43.987104227715655
0.2,31.222184864792144,131.01038707557822,3.722074668489528,3.943376465171875,0.000367328732016,40.28070981710589,0.0006315894240138,3.30251450988504,418.51563019916136,8.65238089736321,3.511445117640573,69.99986902534273,8.534090245934178e-09,113.7000016067622,45.83799876721736,15.288,0.0,0.0,0.025427299120469,8.499785987217288e-11,-5.328041996372527e-05,4.006766070954748e-09,1.2232205148646746e-06,3.9433764822533854,46.2587826635041,8.652438597225508,40.41586552155969
0.21,31.22218473678744,131.01038742234647,3.803156063113743,3.9664546506877016,0.000390962054969,38.67679184347145,0.0006636984664108,3.297405915846789,404.8187610144644,9.079179692250786,3.688002035198235,69.99983642883521,1.3827831253856693e-08,113.70000179318536,50.47126980736161,15.288,0.0,0.0,0.0266815841422463,1.0586558589671407e-10,-6.275155280099118e-05,4.961340042512481e-09,1.5117124669161171e-06,3.9664546699249135,44.88773728276958,9.079241104426773,38.817098210937615
0.22,31.2221846022986,131.01038778667507,3.8882846911135607,3.956175711337521,0.0004112685792646,46.713636108302936,0.0007011135033803,3.291572407481395,472.5421858721365,9.580256326712124,3.889976788904857,69.99979815126248,2.0662823443484168e-08,113.70000199039316,56.195522894218605,15.288,0.0,0.0,0.0281541581291438,1.3033127211465288e-10,-7.330053770532661e-05,6.0817207473359025e-09,1.8632831045819008e-06,3.956175732680424,43.35679625546934,9.580320928629488,46.8294591882524
0.23,31.222184460898035,131.01038816972698,3.977794004014759,3.9879066397329104,0.0004360962274406,38.89105719050748,0.0007308686121188,3.286096544282012,406.3406421461021,9.977039034039262,4.056142701351626,69.99975353557706,2.9316661139418326e-08,113.70000219928508,60.9462612310605,15.288,0.0,0.0,0.0293202403623685,1.5880617816859538e-10,-8.505067486192354e-05,7.393319440773217e-09,2.2514912291167663e-06,3.987906663538912,42.20670487756048,9.97710753587448,39.0296395118868
0.24,31.222184313516166,131.01038856897196,4.070963590490852,4.003523997322975,0.000459165577055,40.0792299321398,0.0007630441688766,3.280134925833028,416.2328240017114,10.408422364424831,4.234121060914368,69.99970190737699,4.010976417051318e-08,113.70000241888,66.32994780718496,15.288,0.0,0.0,0.030588009649109,1.91711512587616e-10,-9.795845222523724e-05,8.904557280909524e-09,2.7052895870113487e-06,4.003524023611085,41.011349410369874,10.408494489985014,40.21323112692186
0.25,31.22218416001652,131.01038898478134,4.167901030441617,4.0261356185860135,0.0004830526730531,41.17760020658354,0.0007934613160587,3.2740610008587527,425.36408079150686,10.816813039390448,4.4041629376391525,69.99964258149416,5.3372865854010094e-08,113.70000264972064,71.63651430352668,15.288,0.0,0.0,0.0317882126436337,2.2947426169209347e-10,-0.0001121037688082,1.0637152702866709e-08,3.217380562698304e-06,4.026135647516394,39.93186687113378,10.816888917126896,41.30755663120434
0.26,31.222184000702686,131.0103894163294,4.26837241014618,4.053359329950934,0.000507503069958,44.80261175215926,0.0008224724146494,3.2678597736729302,455.8015834241788,11.207047269494833,4.567925492611352,69.99957484039399,6.947299261165984e-08,113.70000289176392,76.89781807056055,15.288,0.0,0.0,0.0329350617559806,2.7254099134167665e-10,-0.0001275114371842,1.260720913253598e-08,3.7915697709142366e-06,4.053359361668992,38.945390435244384,11.207126987890645,44.921630958721536
0.27,31.22218383516388,131.01038986473338,4.372698316214008,4.0614460923241,0.0005296455772492,41.029837477288126,0.0008548809954683,3.2610328932384265,423.84219965987256,11.645685385842508,4.748226940060522,69.99949794024376,8.879821051920497e-08,113.70000314600205,83.0342688744587,15.288,0.0,0.0,0.0342241635563461,3.2137296827284217e-10,-0.0001442952656441,1.4842505534226832e-08,4.458527942364847e-06,4.061446126801262,37.8838346421185,11.645768582375233,41.15922617924542
0.28,31.222183663504484,131.01039032970942,4.48079961904222,4.081133040992532,0.0005533279247169,47.27661484082626,0.0008845140695959,3.254218495915602,476.3468732012221,12.047344998676092,4.915789434712848,69.99941106884992,1.1178948978424788e-07,113.70000341275257,88.85982357848233,15.288,0.0,0.0,0.0354045979054623,3.764736350660473e-10,-0.0001625146963723,1.7365685655384934e-08,5.194620655212288e-06,4.081133078439725,36.956255322213885,12.047431915223257,47.38848224631549
0.29,31.22218348566054,131.0103908114315,4.592727908358551,4.1001100265020245,0.0005770279952742,37.989969791857405,0.0009138463939581,3.247164755122801,397.97031042211177,12.446314684600782,5.082367374004485,69.99931338876085,1.3891902435864665e-07,113.70000369260468,94.8417675268915,15.288,0.0,0.0,0.0365771315767517,4.3836067907166327e-10,-0.0001822432988888,2.0202163500922312e-08,6.018074062137429e-06,4.100110067036654,36.07377590258778,12.446405323946324,38.12849176886316
0.3,31.222183301933686,131.01039130907952,4.708251093558373,4.112858061667493,0.0005998635114143,35.655053282557844,0.000944131403186,3.2397207148238625,378.1859457108711,12.860033399289696,5.253940723820665,69.99920403105713,1.707002607527005e-07,113.7000039856728,101.2505662360602,15.288,0.0,0.0,0.03779301412572,5.075709863465428e-10,-0.0002035013069687,2.3370674033523645e-08,6.94335970778e-06,4.112858105337573,35.19685285507256,12.860127625629724,35.80193592228613
0.31,31.222183112488807,131.0103918222051,4.827243246502713,4.136140889545823,0.0006242383343011,37.56633644061071,0.0009716215464757,3.232339252743767,394.1656220930212,13.2364445751808,5.4126574282679245,69.99908210036875,2.0768081583188525e-07,113.7000042923011,107.26326115439352,15.288,0.0,0.0,0.0388992619788015,5.846561731689753e-10,-0.0002263323252403,2.6893437641668458e-08,7.948283231812338e-06,4.1361409365698805,34.43286455705216,13.236542630309057,37.70514091683033
0.32,31.22218291741533,131.01039235056504,4.949637017503345,4.1622282001352975,0.0006491019906456,40.83513712643371,0.0009979686925508,3.224840963348891,421.55939346242695,13.59846554462374,5.566374262777002,69.99894668612772,2.504388718903276e-07,113.70000461297312,113.2095365840355,15.288,0.0,0.0,0.0399632243410653,6.701756367872645e-10,-0.00025078340164,3.0793566854276295e-08,9.047716714467492e-06,4.16222825066026,33.72644865222576,13.598567505326,40.96227562489027
0.33,31.222182716732533,131.01039289410716,5.075419569102976,4.187801887681037,0.0006739743721461,40.48743503284469,0.0010239291638211,3.217136801802925,418.5156301991682,13.956637761217308,5.718704299733134,69.99879684673242,2.995902922462564e-07,113.70000494831164,119.25032483364384,15.288,0.0,0.0,0.0410158804634189,7.647061680070125e-10,-0.0002769136723495,3.509664608790402e-08,1.0253455741189656e-05,4.187801941818244,33.053267359159875,13.956743628864118,40.61505097607
0.34,31.222182510255863,131.01039345333336,5.204736257784645,4.19642921746386,0.0006961879027693,31.814592723444047,0.0010535137542081,3.208669900766693,345.46563688075645,14.367047160772364,5.88887983533068,69.99863160305904,3.557915789971256e-07,113.70000529927128,126.36523219087664,15.288,0.0,0.0,0.042222056531773,8.688448410811866e-10,-0.0003048202762282,3.9835373705550826e-08,1.1618525957862828e-05,4.196429275109305,32.30947868183619,14.367156517712404,31.97598901989736
0.35,31.222182298183583,131.0103940277045,5.337435501771672,4.210915783240843,0.0007193441544952,34.813487415034444,0.0010813034848195,3.200164272309822,370.5765700527033,14.754132934586384,6.050986755458457,69.99844991734221,4.1975736284587617e-07,113.70000566632532,133.26448209504355,15.288,0.0,0.0,0.0433596939127697,9.832256819293898e-10,-0.0003345386312107,4.503361101379695e-08,1.309465610343774e-05,4.210915844572415,31.63649055965014,14.75424592890194,34.96026256388454
0.36,31.222182080444604,131.0103946174141,5.4735747500461605,4.22903876037745,0.0007431682866607,39.2632255716727,0.0011077666085529,3.1915717453569297,407.8625232777193,15.124417129017054,6.2072589919251575,69.99825073022951,4.922382611919288e-07,113.70000605036684,140.03566173682628,15.288,0.0,0.0,0.0444479595865755,1.1084921261805627e-09,-0.0003661511460057,5.0723697896912267e-08,1.4691545926915382e-05,4.229038825557203,31.017264542603208,15.124533865618538,39.39272792946638
0.37,31.22218185710795,131.01039522227452,5.613102797925907,4.249164960780052,0.0007674149135003,37.28328237034959,0.001133274451316,3.1828514669894137,391.1218908297666,15.483077353331511,6.359470679857624,69.99803294268581,5.740349991123437e-07,113.70000645214331,146.75405277514704,15.288,0.0,0.0,0.0455020695186381,1.245311285088233e-09,-0.0003997125883071,5.6934243389647934e-08,1.641828325195534e-05,4.2491650299519,30.439178816713017,15.483197898584232,37.418894813348615
0.38,31.2221816281124,131.0103958424523,5.756069531572451,4.260095806433531,0.0007900626414612,38.9278000801764,0.0011607546399008,3.1735466295306622,404.8187610144602,15.87126705947922,6.521735074464384,69.99779542676283,6.659911329739736e-07,113.70000687263192,154.20298254405043,15.288,0.0,0.0,0.0466429667223463,1.3943646956867835e-09,-0.0004353006984059,6.369875435270817e-08,1.8328108041903096e-05,4.260095879559656,29.83470194713067,15.87139116222873,39.05694584372078
0.39,31.22218139339905,131.0103964781077,5.9025231349944285,4.274091258047817,0.0008133283308351,33.320076729592266,0.0011870382950339,3.164143363712209,357.64062493382744,16.24457853509073,6.678818328235205,69.9975369905506,7.690136753559805e-07,113.70000731287368,161.54010621938565,15.288,0.0,0.0,0.0477401448128051,1.5563705124515804e-09,-0.0004730068442167,7.105463478762673e-08,2.0383860516746246e-05,4.274091335289374,29.274934656826048,16.244706292406182,33.46997636540994
0.4,31.22218115316572,131.01039712870306,6.0523126585892895,4.286421841403391,0.0008363022448449,31.88018820767003,0.0012133780841982,3.1544430614236454,345.465636880754,16.62063299903514,6.836764518435374,69.99725641601981,8.840594270905819e-07,113.70000777359816,169.10340080049767,15.288,0.0,0.0,0.0488453895716005,1.7320643186450851e-09,-0.0005128553637434,7.9027539265021e-08,2.2612406375611563e-05,4.286421922834417,28.730746964325096,16.620764365084565,32.03586915718869
0.41,31.22218090752676,131.01039779392735,6.205351877049411,4.30025870409831,0.0008595777771371,35.882550741685804,0.0012389121673015,3.1445895889870297,378.94687077668647,16.987310563534386,6.99141560549392,69.9969524610574,1.0121301778427253e-06,113.70000825570062,176.64448930727934,15.288,0.0,0.0,0.0499230826371405,1.922193031274436e-09,-0.0005548883906878,8.764667734700782e-08,2.5005077415911235e-05,4.300258789847355,28.21875643368965,16.987445585695873,36.020076248499606
0.42,31.222180656535848,131.0103984736348,6.36160173428776,4.322008670726048,0.0008844838439129,40.34064925656127,0.001261804338223,3.134918999355981,416.2328240017114,17.318628721060172,7.133856886815013,69.99662385300175,1.154276942054023e-06,113.70000876021427,183.59942989625057,15.288,0.0,0.0,0.0508968652507098,2.1275184665783874e-09,-0.0005991661829955,9.694534598491077e-08,2.752657757470936e-05,4.322008761057615,27.772396468009568,17.318767655457478,40.462275036947325
0.43,31.222180400205527,131.0103991677914,6.521055075967404,4.339436441324956,0.0009085827200945,35.541853595187746,0.0012854696362701,3.124839917627212,375.9031395134336,17.662848429084132,7.280642039343927,69.99626930133451,1.3115939750280808e-06,113.70000928827632,190.96736675963504,15.288,0.0,0.0,0.0519085689713619,2.3488101247838237e-09,-0.0006457514522491,1.0695800287133593e-07,3.0255957891170616e-05,4.339436536261635,27.322335771349252,17.662991148924057,35.67895714766603
0.44,31.22218013836212,131.0103998768696,6.683849332059896,4.342209064313268,0.0009296474314902,32.82948243168077,0.0013129688908547,3.113754688841357,353.0750125389216,18.063580761318697,7.446730341918701,69.99588746395321,1.4852372182848018e-06,113.7000098413532,199.7278270846888,15.288,0.0,0.0,0.0530863610987301,2.586862292117705e-09,-0.0006947575786514,1.1773083546077225e-07,3.329010177793299e-05,4.342209163639375,26.81344244367223,18.06372678999575,32.9768158972058
0.45,31.22217987077456,131.0104006014978,6.850166573233225,4.3420317510315165,0.0009500780330031,38.11022602597878,0.001341042003417,3.1022288449712887,397.2093853562869,18.47486275310604,7.616350301328129,69.99547690348253,1.6764536248320808e-06,113.70001042108892,208.92306716049887,15.288,0.0,0.0,0.0542951637545535,2.842521175226318e-09,-0.0007463379956615,1.2932090054593452e-07,3.657529369088674e-05,4.342031854775571,26.30944884471334,18.47501199101448,38.23628058998621
0.46,31.22217959739673,131.01040134180155,7.020045503401754,4.351169003849846,0.0009725797783515,44.3937050866137,0.0013660055515545,3.09098240974522,449.7140588976434,18.844323061800488,7.771531995684422,69.99503610583268,1.8865779683531e-06,113.70001102895836,217.3591612614144,15.288,0.0,0.0,0.0553810645782081,3.1166808800591503e-09,-0.000800596194505,1.417768495237597e-07,4.001824400409673e-05,4.351169112337076,25.873596578896564,18.844475834274814,44.50118229261506
0.47,31.22217931813738,131.01040209802923,7.193559875579052,4.358630093683735,0.0009947969928181,30.22514089990685,0.0013910994973101,3.079396422776949,331.0078106302534,19.2180591098146,7.9280875671397615,69.99456352718363,2.1170044481277104e-06,113.70001166656292,226.0625808853568,15.288,0.0,0.0,0.0564795377574197,3.4102493884459798e-09,-0.0008576351980594,1.551487523304888e-07,4.3718862242359527e-05,4.35863020698899,25.44665981168229,19.218215372160817,30.381603425148434
0.48,31.22217903348153,131.01040286886197,7.370336324605091,4.365514409145237,0.001016880998596,29.779838936311712,0.001416009414045,3.067527859335786,327.2031223011574,19.5915905767454,8.084483592791102,69.99405758812365,2.369198154608765e-06,113.70001233476164,234.93171707892955,15.288,0.0,0.0,0.057577416115756,3.7241711041759195e-09,-0.0009173883913609,1.6944871263079066e-07,4.767297940601472e-05,4.365514527349481,25.03354780044292,19.59175030803913,29.937410312943754
0.49,31.22217874361868,131.01040365378466,7.5502307795521535,4.3786401372577615,0.0010404145545081,37.2489281064929,0.0014385799934191,3.0558405437943126,389.60000969812296,19.93403005898306,8.23012235628909,69.99351671352461,2.644660619562788e-06,113.700013034871,243.21198709852868,15.288,0.0,0.0,0.0585839249886784,4.059374595909599e-09,-0.0009798792959512,1.8470833984680338e-07,5.180951737438081e-05,4.378640260624215,24.667474291142685,19.934193486919103,37.37406598941686
0.5,31.22217844858332,131.0104044527036,7.733219389747018,4.39373726618689,-23.41600578003891,38.93283185153053,1.6539417670765248,3.044619464463272,397.97031042210494,22.0684802700885,8.366023506705158,69.99293932307316,2.9449363413826395e-06,113.70001376847225,298.0794122806636,15.288,0.0,8.768049422645161,0.0648569736140293,4.416605232284705e-09,-0.0010607533276333,3.84562001333629e-05,6.208991356458774e-05,23.80182526116076,4.99979948395604,18.49184199166752,39.086706525771895
0.51,31.22217814782765,131.01040526516627,7.919285153274581,4.40484931619989,-23.09982397003492,30.024528692531444,1.6928027455378862,3.032208285258289,323.3984349720841,22.395541753309008,8.514025024486163,69.99231492200569,-0.0002145083414943,113.69978276959893,306.9746505587232,15.288,0.0,8.802850544621771,0.0658183115275625,4.722895664730993e-09,-0.0011287517207207,-0.0003558817399803,6.70480983089144e-05,23.493431550921947,4.965870863685212,18.864533137622367,30.224695059324148
0.52,31.22217784048405,131.01040609093442,8.108457396118963,4.412480356822342,-22.78677310897327,35.86379646520317,1.7331901339650415,3.0194354583085894,372.0984511843415,22.73184282033645,8.664680929074422,69.99165081693194,-0.0010592309042265,113.69888421709956,316.2574527509255,15.288,0.0,8.837539691134925,0.0668068101103048,4.826442398974046e-09,-0.0011997029735306,-0.0007599395604262,7.23314143826791e-05,23.18769317700727,4.933609587753235,19.24611796737701,36.03238592467732
0.53,31.22217752640619,131.01040693038104,8.300848638546874,4.420269267831095,-22.485163347709573,37.607241098895216,1.7737829480533611,3.006438632899673,386.5562464348624,23.065224114695283,8.814004826526364,69.99094526345495,-0.0025468959210711,113.69730142545664,325.5958152110621,15.288,0.0,8.872121616502733,0.0677867344103722,4.723234891099344e-09,-0.0012737411272349,-0.0011741656760031,7.792008279286467e-05,22.89339341558755,4.905058310813185,19.623226473268332,37.76889675739324
0.54,31.22217720547252,131.0104077837532,8.496536245053116,4.427857870582093,-22.19286314834563,33.154854941863775,1.8147265304636715,2.993189188560728,349.2703242098436,23.397199349986444,8.9625689131356,69.99019644917279,-0.0046935812877563,113.6950172775959,335.0294983209934,15.288,0.0,8.906621011064331,0.0687625332242395,4.4091937941392414e-09,-0.0013509855483279,-0.0015988958903163,8.383337933154211e-05,22.60836730063064,4.87929903009207,19.99767024595469,33.33911846637391
0.55,31.22217687793541,131.01040865028256,8.69530790346474,4.4364805665180045,-21.91480629297968,35.080467783432645,1.8555221955215973,2.9797909096044384,365.2500005919907,23.7221220851432,9.108301306373953,69.98940251311303,-0.0075154530011837,113.6920145613152,344.3928135520045,15.288,0.0,8.940997126417953,0.0697176119819482,3.880286834070733e-09,-0.0014314113203795,-0.0020337094041019,9.005588309291958e-05,22.337668121356177,4.857853942621909,20.36307422307296,35.25565679983129
0.56,31.22217654377399,131.01040952994657,8.89716390898278,4.447017664193175,-21.654233570659624,32.812281802757965,1.895768486410732,2.9663332774390594,346.2265619465787,24.03561319849961,9.249606139190062,69.98856157148633,-0.0110284065181957,113.6882763518214,353.54850248564134,15.288,0.0,8.97524899240969,0.0706391006908936,3.132611996941524e-09,-0.0015151021629549,-0.0024787555496905,9.65790239186686e-05,22.084627254434476,4.841638476490559,20.714572953752,33.00058951549975
0.57,31.22217620303844,131.01041042253087,9.102049789492698,4.455297418594736,-21.39218905579336,32.458128059643045,1.9371712663881853,2.952450397653222,343.1828296833023,24.356969556673807,9.393626757531594,69.9876716988353,-0.015248320446014,113.68378574119066,363.05845214641926,15.288,0.0,9.009361284974329,0.071583711538286,2.1623333875576023e-09,-0.0016021057784187,-0.0029339970134557,0.0001034883787293,21.82988834987524,4.82413507786523,21.07422087799975,32.649650426951126
0.58,31.2221758556862,131.01041132807427,9.309983261787192,4.458604082600939,-21.11689870401245,42.415098313852496,1.980971483726664,2.9378617863992824,426.1250058573153,24.699673213838903,9.54531339563352,69.9867309167126,-0.0201912054343316,113.67852568007116,373.33936860037767,15.288,0.0,9.043333648818,0.0725910678589138,9.65627248591895e-10,-0.0016925098816071,-0.0033995965805191,0.0001108640888838,21.561397166227703,4.801440942133032,21.457225610463126,42.56284582671953
0.59,31.222175501298985,131.01041224763404,9.521272770324035,4.467105846862804,-20.87210845824601,34.578607186459784,2.022821642791609,2.923522185009004,360.68438819711065,25.01507002024521,9.686751626909864,69.98573712785314,-0.0258740782209645,113.67247804778415,382.92701667442645,15.288,0.0,9.077203763077408,0.0735181780726928,-4.615898840827365e-10,-0.0017865845879805,-0.0038765992654168,0.0001185181780512,21.3239062341036,4.788026381131486,21.808521336853712,34.7608812362442
0.6,31.222175140063325,131.01041318062295,9.735757816525911,4.4672397491027445,-20.599483802785663,30.84615781243653,2.068683876955899,2.9081025566856824,329.4859594986058,25.36922274215324,9.842227439070305,69.98468813370707,-0.0323141570211159,113.6656245099812,393.8382935778533,15.288,0.0,9.110948807366723,0.0745591975777211,-2.123387509896654e-09,-0.0018843209697507,-0.0043646682137752,0.0001267689107371,21.0577127936767,4.764611354661628,22.202723806155248,31.051923696491308
0.61,31.22217477190953,131.01041412715048,9.95347661129422,4.465811013499664,-20.32820690913161,35.97122810443955,2.1156878688892604,2.8922298166362577,372.0984511843297,25.7297804054086,9.999828828218622,69.98358176803332,-0.0395290747364117,113.657946281571,405.10415510801766,15.288,0.0,9.14457566841407,0.0756190488085377,-4.023915813088015e-09,-0.0019858331596626,-0.0048640660219345,0.000135494128009,20.79267191013089,4.740847941334928,22.60320438628909,36.14927910501711
0.62,31.222174396927475,131.0104150868912,10.174343471536067,4.476372957106516,-20.11406996979809,44.47940667482571,2.157480068092813,2.877363350861261,442.86563930529206,26.027555541028068,10.134261471993923,69.9824156733173,-0.0475368193711978,113.64942420637313,414.526301292332,15.288,0.0,9.178092219880542,0.0764943915539366,-6.167366065650594e-09,-0.0020911803011588,-0.0053747893080194,0.000144330224322,20.58599990051533,4.734686081379409,22.932542885487702,44.624562275070296
0.63,31.222174014917023,131.01041606031515,10.398499159286636,4.4827526043436094,-19.889047550648232,25.66446274401414,2.201454319263275,2.861817102601492,286.11251274707894,26.34383664095115,10.275306749164836,69.98118749255562,-0.0563547160370838,113.64003983263812,424.65283591890267,15.288,0.0,9.211450098446736,0.0774241302767864,-8.557642525469263e-09,-0.0022005231069624,-0.0058972971129049,0.0001537191716068,20.367995934002167,4.723989963373537,23.282038423007076,25.917195955338904
0.64,31.222173626427903,131.01041704584972,10.625502193763184,4.482650796554756,-19.64416209697524,25.214601037977992,2.248883079288944,2.8452783621685094,282.30782441796754,26.69170259604912,10.42770585504294,69.97989491383296,-0.0660002621223919,113.62977451416644,435.9323182641964,15.288,0.0,9.244674527019257,0.0784467038601094,-1.1198712253700325e-08,-0.002313659136905,-0.0064303841708336,0.00016375299961,20.129415142701088,4.705992489315797,23.66610434525268,25.47408859148718
0.65,31.22217323142159,131.01041804352795,10.855368636260485,4.491389625574101,-19.44104785851916,43.7876344601484,2.292285639641208,2.8295012559157926,436.7781447787475,26.990712161984995,10.562139995610409,69.97853545993345,-0.0764904959776102,113.61861010374004,445.744110678593,15.288,0.0,9.277699176259022,0.0793256963330322,-1.4094290758205276e-08,-0.002430701579507,-0.006974309519033,0.000173960245247,19.933550565546646,4.700364051880397,23.99518104814772,43.938793593207706
0.66,31.22217282938613,131.0104190546763,11.088482965981386,4.497532626859173,-19.23326304595749,37.396131616280805,2.337226087486516,2.813182240032749,383.51251517160017,27.30068935756494,10.700419621804912,69.97710669719076,-0.0878426363324114,113.60652825270152,456.0310684199538,15.288,0.0,9.310600569385128,0.0802369302498092,-1.7248024254912188e-08,-0.002551993278853,-0.0075303339318919,0.0001847342586628,19.73272286785917,4.692236584040394,24.33595571945617,37.574556284297756
0.67,31.22217242048131,131.01042007878513,11.324706828392785,4.497930373984919,-19.00858827075294,26.05855495840997,2.38542677607922,2.795894454465908,289.1562440103425,27.63941622073683,10.848987512046008,69.97560600535267,-0.1000750534925922,113.59350938644307,467.4068629718388,15.288,0.0,9.343397977038416,0.0812326675201445,-2.066393143194042e-08,-0.0026775315047406,-0.0080981643095609,0.00019622209422,19.51434698903686,4.677780258398617,24.70802731888136,26.316450619812347
0.68,31.2221720048507,131.01042111539013,11.563914735525811,4.499502056805428,-18.794030114247512,32.290534728593485,2.433386079474271,2.778468227779696,340.8999924858462,27.96970733161977,10.994336379548464,69.9740307445828,-0.1132060544773979,113.57953399311928,478.6336421822679,15.288,0.0,9.375966432314655,0.0822036199945554,-2.4345957338702722e-08,-0.0028073314452817,-0.0086775967764115,0.0002081881889547,19.306201652448127,4.665546909611483,25.070203808227763,32.501075160109124
0.69,31.2221715825521,131.0104221642639,11.806048560479733,4.505890654529169,-18.60339556715101,39.53337605938211,2.479088039790037,2.761412157071865,401.0140726853634,28.270781590179823,11.128941205890914,69.97237809028827,-0.1272536301804954,113.564582906698,488.98204178994126,15.288,0.0,9.408407767957696,0.0830887112130686,-2.82978702095368e-08,-0.002941440360641,-0.0092685703197734,0.000220476466229,19.122514160707656,4.6599084894718805,25.399642296092896,39.70716682492948
0.7,31.22217115343424,131.01042322575378,12.05121364699506,4.5115606836910445,-18.41488114483576,33.31458955598046,2.5254331173546167,2.744018041403252,349.27032420985284,28.57308305521157,11.26385506806327,69.97064540115329,-0.1422355951320161,113.54863712970648,499.483632429322,15.288,0.0,9.44071924363046,0.0839774169477901,-3.2523283538322446e-08,-0.0030800281299354,-0.009871541841272,0.0002333275058777,18.94085582058096,4.653968517567074,25.730023797354185,33.52266881865494
0.71,31.222170717530208,131.01042429970292,12.299371820681444,4.513390586481624,-18.216457792589832,27.550129985269542,2.5741917838209134,2.725830142823155,301.33126406340574,28.89467518508064,11.405617472832228,69.96882979088245,-0.1581701532871464,113.53167725865592,510.7781823761701,15.288,0.0,9.472812130507444,0.0849228266479,-3.7025904381548287e-08,-0.0032231559035402,-0.0104864987597321,0.0002469124178797,18.74883185897984,4.643936659510969,26.08120518190836,27.804069405622307
0.72,31.222170274822822,131.01042538609167,12.550524058864788,4.510710987668833,-18.00603134747645,33.51484370940883,2.625907273498675,2.706700613020752,350.79220534145287,29.24031302251836,11.555912762209116,69.96692831263006,-0.175075874800698,113.51368349504808,523.0585016447038,15.288,0.0,9.504778576942984,0.0859389162231009,-4.18094719649606e-08,-0.0033709293118562,-0.0111136142883042,0.0002613153920339,18.5442479680256,4.629202772299356,26.45825905585529,33.726345282043845
0.73,31.22216982528944,131.0104264849139,12.804675309450523,4.517273728926122,-17.83465429258203,42.14176994353918,2.672651330667287,2.6886493574673462,422.320318528234,29.529552498131288,11.685701788439369,69.96493784945163,-0.1929719684025192,113.49463536138056,533.444647633077,15.288,0.0,9.536624581058213,0.0867892560826634,-4.6877834960398346e-08,-0.0035234690329505,-0.0117531197936454,0.0002758354328086,18.379799915630837,4.625812901330803,26.773112356327022,42.31194482030943
0.74,31.222169368850608,131.01042759632543,13.061876226358796,4.520268755008841,-17.654178125539744,26.743058399439395,2.7217216245063813,2.6698122211704534,294.48281347105944,29.837020636869703,11.821945924082032,69.9628553674791,-0.2118769576484544,113.47451309986658,544.5977132404721,15.288,0.0,9.56826142012664,0.0876931792048659,-5.2234574368110726e-08,-0.0036808946147972,-0.0124052278206496,0.0002911527123773,18.20581801470032,4.6186340264126455,27.10758091840849,27.01345661801619
0.75,31.222168905839087,131.01042871935073,13.321855668820136,4.5208360598367685,-17.46901780718481,31.06080078882887,2.772590698194452,2.6503161202258525,330.24688556441487,30.156617320791288,11.9624283959904,69.9606777015083,-0.2318094844486277,113.45329682682832,556.3131313408763,15.288,0.0,9.59973361793544,0.0886327571343257,-5.7883443442088606e-08,-0.0038430710782339,-0.0130691306184366,0.0003072289956724,18.026841820475173,4.6090951962026265,27.454906947768656,31.29672155929684
0.76,31.222168436129493,131.0104298542741,13.584700738475515,4.524403058055529,-17.298770271349277,33.36177850782429,2.821953313264717,2.631023672612344,349.27032420986166,30.455539525068964,12.095337756620845,69.95840162802256,-0.2527880180204942,113.43096684008852,567.382183187883,15.288,0.0,9.631062861484368,0.0895115793107766,-6.382783896092807e-08,-0.0040101835212277,-0.0137453105921536,0.0003237581744472,17.863135624532823,4.603364126008748,27.77935008566521,33.58413273069917
0.77,31.2221679596488,131.010431001238,13.850458102678685,4.528401388408097,-17.133816592701358,31.257247034750904,2.8713226228480297,2.611541986435624,331.7687666960708,30.749001786878896,12.226163788824165,69.95602381921763,-0.2748312066209778,113.40750324447195,578.3544195812397,15.288,0.0,9.66222974561827,0.0903743623585194,-7.00711737091596e-08,-0.0041823743111023,-0.0144340656826146,0.0003409047349196,17.70477044626126,4.598433924659135,28.097562246046213,31.49730365194518
0.78,31.22216747644332,131.0104321600581,14.119081449883156,4.529030586443544,-16.96050699930252,25.84532473701348,2.9231108731525715,2.591221081569073,286.8734378128899,31.060655466368537,12.363408406086728,69.95354094871496,-0.2979577629646043,113.38288606619297,590.1223244700614,15.288,0.0,9.693190698572106,0.0912906200718502,-7.661691373075318e-08,-0.0043596902479437,-0.0151353136158624,0.0003589501674058,17.53761700031772,4.590027911586114,28.43524322906928,26.13885641400541
0.79,31.22216698658225,131.01043333048685,14.390506585863845,4.527595651896499,-16.78367413000145,36.32214385038008,2.976614267073346,2.570240494540731,373.6203323159534,31.382954381365696,12.504343250532193,69.95094944560671,-0.3221865735375331,113.35709515391471,602.4168938549079,15.288,0.0,9.723998644414968,0.0922381738469889,-8.346851803614762e-08,-0.0045421748410696,-0.0158489640963545,0.0003778455070155,17.366660208760546,4.57968786439391,28.78412332358285,36.534429003098225
0.8,31.222166489833967,131.010434513107,14.664905139181569,4.531560713183264,-16.629240750262916,36.788817372563486,3.0269032056559366,2.549936619357241,377.42502064505743,31.66839716350526,12.631931882962764,69.94824577490347,-0.3475370781499918,113.3301097509818,613.4090976906608,15.288,0.0,9.754676707309384,0.0930774117317051,-9.062927968305376e-08,-0.0047301202890559,-0.0165758697066831,0.0003970483660199,17.218785975976488,4.575592723845888,29.092800495260388,37.00110003028259
0.81,31.2221659862826,131.01043570763267,14.942201912169628,4.531478775943963,-16.464151988006883,24.29513140186093,3.080183364682122,2.528623207012081,273.9374926939919,31.977001457273264,12.767702081859245,69.94542621978508,-0.3740285290205078,113.30190930448904,625.4058727483714,15.288,0.0,9.78520915241502,0.093984732700425,-9.810268263496909e-08,-0.0049235361519124,-0.0173157958613299,0.0004173000603196,17.059719977128935,4.567347523432476,29.426262961685467,24.61980655319602
0.82,31.22216547609591,131.01043691354693,15.222256111538604,4.529532677956964,-16.295936107454388,30.91858474276104,3.135106697246389,2.506649337098989,328.72500443277005,32.2953241518029,12.90683370823025,69.94248696642929,-0.4016801542635719,113.27247328368097,637.9021958343782,15.288,0.0,9.81551636449032,0.0949206260843016,-1.0589221149698129e-07,-0.0051223860768695,-0.0180683462896695,0.0004384639131631,16.897270340183766,4.557342358216067,29.76993647413482,31.178054259327887
0.83,31.22216495924245,131.01043813088452,15.505083558994508,4.534222171235692,-16.153413482459666,39.01725027962391,3.185743475230919,2.4856677606246955,395.68750322465047,32.56744405046592,13.029317803264224,69.93942424147113,-0.4305113243282494,113.24178099125037,648.6797735503188,15.288,0.0,9.845674046035406,0.0957207312537216,-1.1400112131637721e-07,-0.0053268110954823,-0.0188337869043314,0.0004597916439997,16.761386947654675,4.554725262128359,30.063552155810072,39.22592669509539
0.84,31.222164435605706,131.01043935992232,15.790768308293476,4.537181896717804,-16.007944331024834,24.48818760024164,3.237815668674352,2.4640957015532714,275.4593748256452,32.84786712007971,13.154664040331518,69.9362340781328,-0.4605408880238965,113.20981229223628,659.8807204642433,15.288,0.0,9.8756848490751,0.0965452490184197,-1.224323967062697e-07,-0.0055369865458136,-0.0196124953466863,0.0004820352862872,16.622323162642537,4.550458566628987,30.36593139022049,24.823910849730247
0.85,31.22216390545901,131.01044059985492,16.079087568315863,4.534119444477898,-15.845317591840404,26.60750953119328,3.294547953497459,2.4410081259409115,292.96093233939376,33.16592096086545,13.293342226750516,69.93291250784822,-0.4917876039842336,113.17654713598476,672.7027250738926,15.288,0.0,9.905524759182986,0.0974803783392188,-1.3118941736777977e-07,-0.0057527621237074,-0.0204036678644931,0.0005056553887927,16.46527596216321,4.540039370427432,30.708549984148096,26.921592269799813
0.86,31.222163368619672,131.01044185114327,16.370177664945462,4.534987678299144,-15.69865906682454,33.054488600949654,3.348766414174566,2.4184279329330187,346.2265619465587,33.454886162404904,13.4215163027656,69.92945538425853,-0.5242708836909067,113.14196477329868,684.4567896952432,15.288,0.0,9.93521398031872,0.0983300199990128,-1.402750466180347e-07,-0.0059744244574809,-0.0212080826599802,0.0005296996081493,16.32472219977429,4.534012987211932,31.01968492421952,33.311593279724775
0.87,31.222162825098604,131.01044311371328,16.664023067334664,4.5375502558708485,-15.56020955157392,30.84912163442016,3.4019839348277654,2.395933505787761,327.964078366998,33.72929873995424,13.544393722699947,69.92585848642247,-0.558009923751142,113.10604467777972,695.711674141432,15.288,0.0,9.964724514562308,0.0991368973629307,-1.4969232073710725e-07,-0.0062020621623167,-0.0220257920875499,0.0005543769844349,16.19260898505604,4.529951475447933,31.31504096273181,31.128480490898244
0.88,31.222162274918656,131.0104443874602,16.960599375882108,4.536959858743208,-15.414079692000588,26.800119311831743,3.4578575155846782,2.3724706279806806,294.4828134710418,34.02248574769558,13.673860295105968,69.92211751072274,-0.5930237677673261,113.0687664799662,707.8388227743396,15.288,0.0,9.9940539513042,0.099998965004442,-1.5944424475245464e-07,-0.0064357304481408,-0.0228567288817643,0.0005802475051108,16.052372079067812,4.522797948669963,31.63034853743367,27.126219615109164
0.89,31.222161718147188,131.01044567215493,17.259847060022043,4.533286030669235,-15.260692073658156,29.290329289690987,3.516428868622072,2.348012676216024,315.028134248087,34.33459919194628,13.809955534332916,69.91822804100448,-0.6293315589866361,113.03010969801248,720.8647338094519,15.288,0.0,10.02322438848012,0.1009166702683716,-1.695338095840309e-07,-0.0066754790930271,-0.0237008092784131,0.0006073672010722,15.90443089468812,4.512687890490092,31.965697935986416,29.593949135157334
0.9,31.222161154699823,131.01044696799275,17.561826725274283,4.5363903915339145,-15.131540670457376,32.242580394125135,3.570017907002588,2.324804076803854,339.37814235421445,34.59619966949716,13.927955427604635,69.91418549988221,-0.6669529531093931,112.99005329812202,731.8701085287834,15.288,0.0,10.052246704269583,0.1016859160396961,-1.7996380283376905e-07,-0.0069215081755914,-0.0245584671245928,0.0006345318834487,15.78168215298316,4.509771677298806,32.24687611255859,32.52281864050939
0.91,31.222160584634945,131.01044827477534,17.866487189843674,4.536387435228723,-14.99485253217963,24.778766947319863,3.626307378877976,2.3005987754971,277.7421810230789,34.876697697083586,14.05257949580118,69.90998529958432,-0.705906726143809,112.94857717607614,743.7641247367702,15.288,0.0,10.081112274581162,0.1025107144418513,-1.907370552592429e-07,-0.0071738473898093,-0.0254295399140769,0.0006629779753863,15.65094990707178,4.503859314598584,32.54810731182067,25.148163975954883
0.92,31.22216000813663,131.0104495919495,18.173677110463466,4.533369481909689,-14.851055302058114,29.298605454692574,3.685348137222296,2.2753639252104554,315.02813424806214,35.176060619504085,14.183807522628436,69.90562273528057,-0.7462117214158857,112.90566114866422,756.5647478482324,15.288,0.0,10.109807495877408,0.1033909699645329,-2.0185662123982362e-07,-0.0074323981371373,-0.0263134404977642,0.0006927474952819,15.512664880696954,4.49509345920621,32.869296031821555,29.61701121778527
0.93,31.222159425108497,131.0104509197528,18.48346854118297,4.536542789011671,-14.728854494661364,34.65098450156772,3.739574795788516,2.2513568432942206,359.1625070654728,35.42763478645156,14.297948318047982,69.90109298681199,-0.7878868101144654,112.86128499595344,767.4022986652064,15.288,0.0,10.138346887040834,0.1041307714226134,-2.1332482110054482e-07,-0.0076973971189551,-0.0272107131684433,0.0007225566920797,15.396877634751956,4.492808195661901,33.139429478947214,34.924830052800985
0.94,31.22215883543775,131.01045225847648,18.795948145668223,4.533629372757921,-14.589961742783723,25.42756766670344,3.799121866080788,2.2255416080262207,283.0687504837787,35.720477713242545,14.42664817399924,69.8963911347965,-0.8309503838927402,112.81542900383216,780.1179315305875,15.288,0.0,10.166730022563083,0.1049918809766794,-2.251439408491475e-07,-0.0079690278942098,-0.0281217064147974,0.00075421548918,15.263499166741893,4.484581681573816,33.45337941325514,25.805959773803632
0.95,31.222158239392268,131.0104536073304,19.11089783341618,4.531302925245372,-14.455091172141106,32.627355264809886,3.858499808380639,2.19955640534588,342.4218736174873,36.006285522640496,14.552746440155897,69.89151217964178,-0.8754215019226488,112.76807272999088,792.6277060877308,15.288,0.0,10.194945536593924,0.1058323214204762,-2.3731710263728454e-07,-0.0082471316238191,-0.0290456427127551,0.0007867576089607,15.134222613025296,4.477175214866398,33.75969574493737,32.92826112517466
0.96,31.22215763668489,131.0104549671025,19.428544266496743,4.531965990298445,-14.331405594341115,31.983618770742087,3.9155668299552,2.1740589972473505,337.09533515678345,36.26674505704163,14.669749011829868,69.88645092155599,-0.9213189269209088,112.7191960485751,804.1119495203113,15.288,0.0,10.222998742901728,0.1065982653046988,-2.498459875586561e-07,-0.0085321436897493,-0.0299836874338743,0.0008198099695856,15.016577252530972,4.472965757396706,34.03897394844939,32.29566636246299
0.97,31.22215702732784,131.01045633773353,19.748875090102896,4.530822737539921,-14.204238576310155,20.811610572910904,3.974452299603759,2.147790094270099,245.02188719299323,36.53749144244905,14.790300916607844,69.88120203390947,-0.9686617418301582,112.66877848057068,816.1377172043412,15.288,0.0,10.250898808988884,0.1073944540194171,-2.6273309493645255e-07,-0.0088241576196938,-0.0309358735147655,0.0008541715008615,14.895176597141148,4.467169332574237,34.329079524674675,21.296300336193777
0.98,31.22215641158788,131.01045771843815,20.071673536261248,4.523906434621518,-14.061821019129075,29.86294218828784,4.038834442222908,2.119595344830135,319.5937466429581,36.84924275950059,14.925283942298872,69.87576009282209,-1.01746876053775,112.61679982377336,830.0985711195749,15.288,0.0,10.278634512374168,0.1083111775200046,-2.759815790625481e-07,-0.009122950329514,-0.0319012260460255,0.0008906016736298,14.75763545034492,4.45590372038935,34.66252459830187,30.20927314945749
0.99,31.22215578931772,131.01045910961187,20.3970554074804,4.526216763049972,-13.948851944862373,32.543500737343656,4.095123740211559,2.093690835500013,341.6609485517054,37.087443453666815,15.034106935065772,69.87011949881969,-1.0677591510117,112.56323948974088,840.8388174622123,15.288,0.0,10.306226386531394,0.1090117223490202,-2.89593199577326e-07,-0.0094288639398711,-0.0328805794480288,0.0009263867236416,14.65095864506626,4.453980194836582,34.91794292393739,32.86689854555474
1.0,31.22215516051208,131.01046051125485,20.72502446201108,4.522909283783448,-13.821086812818272,29.217624911815808,4.1568035237856416,2.0658828461513994,314.2672081822764,37.36558279556781,15.15697799155011,69.86427466855352,-1.1195508494690087,112.50807819153448,853.4710585659618,15.288,0.0,10.333666225646496,0.1098296682743417,-3.0357013432975524e-07,-0.0097419630014177,-0.0338738688697512,0.0009642965480549,14.528615029648854,4.446765778153945,35.21556512619164,29.584058088046998
1.01,31.222154525335338,131.01046192287495,21.0554464961948,4.5203392176494495,-13.697338037937312,30.51219469168752,4.218061102256389,2.0379784166685964,324.9203161036979,37.63496247102185,15.276650529352931,69.85821978988072,-1.1728625189162178,112.45129585735064,865.7937960702634,15.288,0.0,10.360950189471753,0.1106218756974878,-3.179149714720525e-07,-0.0100621822855811,-0.0348806322013425,0.0010031416462727,14.410399633712064,4.44052858909289,35.50382540230304,30.869716882288042
1.02,31.22215388371188,131.0104633446751,21.388382292918216,4.5190114214087975,-13.57896469997232,25.61118879753805,4.278361072911048,2.0101507647241528,284.59063161540416,37.89134619696736,15.391629311718315,69.85194898778015,-1.2277121934069797,112.39287307464636,877.602147225601,15.288,0.0,10.38808476458134,0.1113758925582001,-3.3262940103358685e-07,-0.0103897296319721,-0.0359012546532858,0.0010428191222741,14.29775530461111,4.435756578418534,35.778278891854164,26.043772215066312
1.03,31.22215323570262,131.01046477646815,21.72378283894321,4.513800256862237,-13.451133152777276,21.077118262865973,4.342672334874026,1.9808121276977408,247.30469339049705,38.17533107230286,15.516272086868428,69.84545628978869,-1.2841175365180433,112.33279081389648,890.777503409674,15.288,0.0,10.415065107164953,0.1122110479241044,-3.47715508455536e-07,-0.010724625043625,-0.0369355353191072,0.0010844652579798,14.175031783565778,4.427482289735692,36.08178745914557,21.61081520813486
1.04,31.22215258136111,131.0104662180847,22.06160443079016,4.511968375240398,-13.334703282631123,33.010702224635985,4.403941861361923,1.952212725248848,345.46563688072297,38.42922642269063,15.630182664035148,69.83873550288831,-1.342096767185148,112.27102944213452,902.6363285854276,15.288,0.0,10.44189494147258,0.1129577684132356,-3.631752845293125e-07,-0.0110669425779095,-0.0379834436555867,0.001126486317249,14.06424979200885,4.422759913693243,36.35347419597432,33.36034022318218
1.05,31.222151920422736,131.01046767028885,22.40206429150447,4.506972375259802,-13.21095356003304,20.238286300920063,4.468593835165478,1.922287275242356,240.45625879819983,38.70527453180152,15.751821110389283,69.83178035311315,-1.401667554097923,112.20756990061996,915.620750643397,15.288,0.0,10.468588662066372,0.1137696134175444,-3.790094781445005e-07,-0.011417154193446,-0.0390461348070247,0.0011704434583643,13.945633372436898,4.415270176675868,36.648441616828045,20.814700373299786
1.06,31.22215125310389,131.0104691324408,22.74498674350172,4.499272337913873,-13.081307130556596,28.474371620906577,4.536350341285688,1.8911046172654555,308.17968365593924,39.00043379420035,15.880107796853174,69.82458430427717,-1.4628483513728223,112.14239228023472,929.6080854167,15.288,0.0,10.495135163209117,0.1146376430560232,-3.952208498226814e-07,-0.0117750788794528,-0.0401227956441339,0.0012163018795123,13.820670653902384,4.405493590947086,36.96343199128346,28.895407771786427
1.07,31.222150579295977,131.0104706048492,23.09046163257671,4.4972863758875326,-12.969310849043534,33.381049511306905,4.598478835769438,1.8615144026753887,348.5093681440308,39.24551303275377,15.990614691145668,69.8171406204094,-1.5256578780807604,112.07547637649108,941.2968971144116,15.288,0.0,10.521549312686208,0.1153584772432523,-4.118106291240273e-07,-0.012141048193727,-0.0412141436995748,0.0012619434603639,13.714293482687482,4.401508422487067,37.22565092170764,33.74767710451654
1.08,31.22214989890731,131.0104720877841,23.438567221622257,4.493893533106976,-12.854906223492923,22.727925146029968,4.662268852921832,1.831141377354916,261.00157857466235,39.498602111277535,16.10385303303722,69.80944250922782,-1.5901140221310297,112.00680285625133,953.4447593366652,15.288,0.0,10.547832710804617,0.1161028647589266,-4.287801701237016e-07,-0.0125152935852074,-0.0423205767978276,0.0013091878009496,13.605276750471235,4.396488467786162,37.49625622822231,23.273341209296262
1.09,31.22214921218916,131.0104735805049,23.789099593164035,4.48404031616039,-12.724268976094413,20.9633448152274,4.7332388409815165,1.7981404561450551,246.54375332474407,39.80257070286311,16.234942151122503,69.80148301448989,-1.6562346122963107,111.93635243423132,968.143438676802,15.288,0.0,10.573970183339735,0.1169968180248145,-4.461323536108106e-07,-0.0128975428304537,-0.0434410238050994,0.0013595107961507,13.478941428027928,4.38565332202502,37.8202361457228,21.566146732041013
1.1,31.22214851921021,131.01047508280553,24.1420043966678,4.47728480946294,-12.603743801657288,41.25715005208604,4.8012244150766366,1.7658653450484727,413.1890617385841,40.07764549902104,16.35574213847929,69.79325501423908,-1.7240373993222873,111.86410589334588,981.5380470167116,15.288,0.0,10.599966686053753,0.117805849931909,-4.638688247128429e-07,-0.0132878645712423,-0.0445754204197397,0.0014102861159107,13.363230025967246,4.378125537894548,38.11378241840454,41.57309787255593
1.11,31.22214781960797,131.01047659576608,24.4975852982654,4.47689168394803,-12.501941141785588,30.41061663150904,4.862353707696816,1.7356360598874625,324.1593910376397,40.29486980457733,16.45605300259834,69.78475118815756,-1.7935402565581575,111.79004387068947,992.1730354652962,15.288,0.0,10.625846388374372,0.1184448431159329,-4.819891320495122e-07,-0.0136869902045498,-0.0457255866657035,0.0014604702591443,13.267323207208351,4.37698061286347,38.3466155940892,30.845753678906096
1.12,31.222147113443395,131.01047811922038,24.855797862246163,4.464164023263567,-12.368321301360202,11.953254283001549,4.937563022753194,1.700413584842598,172.73281794065943,40.614452229831485,16.592333913415658,69.77596414831032,-1.8647602207502725,111.71414787774592,1007.938799499808,15.288,0.0,10.651598249855926,0.1193847229816497,-5.004952037511017e-07,-0.014094907379053,-0.0468911849194866,0.0015158732433801,13.137484115348956,4.364541037818324,38.6866945782523,13.044202655481543
1.13,31.22214640124725,131.01047965157684,25.21620267647671,4.4579031880619375,-12.253554323178289,35.692700963584954,5.0057769917864645,1.667276998258297,367.5328077900705,40.87532569907176,16.707838848952775,69.76688606939375,-1.937716030041676,111.6363975949602,1020.8933621983732,15.288,0.0,10.67719995365914,0.1201520398564285,-5.193912717904425e-07,-0.014510929787427,-0.0480700094394514,0.0015705851707546,13.02760383816736,4.358608028981639,38.96518105370064,36.08055595409137
1.14,31.22214568243072,131.01048119461964,25.57929736911972,4.456137752049453,-12.152035381304918,20.10299661516409,5.068906753243059,1.6356134028382108,239.69531773195544,41.092980660442045,16.808030405785896,69.75750930156944,-2.012423854772796,111.556775423251,1031.758529426766,15.288,0.0,10.70267068679532,0.1207923263573271,-5.386748969021961e-07,-0.0149361983856007,-0.0492649743460956,0.0016251655042282,12.93175795450331,4.357301268421922,39.19842226797738,20.79662279760625
1.15,31.22214495743388,131.01048274704277,25.94472091012541,4.4418794139134805,-12.01891228505687,19.81768237303395,5.1469851133265685,1.598563795651652,237.41251153546767,41.417440002680245,16.945729725179383,69.7478260451855,-2.0888995400022554,111.47526409043908,1048.079048280014,15.288,0.0,10.727997061520831,0.1217465727969952,-5.583500356530682e-07,-0.0153700161324359,-0.050473846480321,0.0016855133970055,12.802116170975518,4.344669145617077,39.5433290702036,20.53746324656563
1.16,31.222144226380383,131.0104843084745,26.312373119202874,4.440928028699209,-11.922023771265955,50.633773587206605,5.209414896292287,1.5666176316522629,490.0437743845894,41.62030471248734,17.04054569352866,69.7378280601114,-2.167160516927928,111.39184461523249,1058.3339034293667,15.288,0.0,10.75318970955718,0.1223434012671116,-5.784179973832988e-07,-0.015812411896231,-0.0516964451843364,0.0017424594097572,12.711055200779052,4.3449625831179866,39.76108204306675,50.92515411902076
1.17,31.22214348850777,131.0104858812668,26.682906113508743,4.433316901319714,-11.80902181969258,9.59000429904482,5.27996618490532,1.531605203420782,153.70937929486794,41.87855618146841,17.15475093747565,69.72750725978153,-2.24722180145698,111.30650057251516,1071.4703080833442,15.288,0.0,10.778281449010167,0.1231030494344136,-5.988748332643192e-07,-0.0162648813267757,-0.0529365532624244,0.0018033766291083,12.602701688877714,4.339453789635953,40.0367045415465,11.054050835263396
1.18,31.22214274483636,131.0104874623241,27.055465055901287,4.416889141768388,-11.674646795204945,24.99854621345609,5.361795364284379,1.492369478937924,280.02501822196746,42.21393700461592,17.295996964405738,69.71685518684332,-2.329099439141125,111.21921441646516,1088.6616203752208,15.288,0.0,10.803218815241348,0.1240894313824375,-6.197284801592543e-07,-0.0167256036837056,-0.0541889356610368,0.0018692438254281,12.471384731098157,4.326169330823836,40.39275125247864,25.6106096955232
1.19,31.22214199491445,131.01048905304287,27.430438243470448,4.419305829061144,-11.589851762969436,43.11086894346664,5.420155204739697,1.4610578105524512,428.4078130529292,42.37351873637765,17.375332439020177,69.7058631066833,-2.412809834564709,111.12996819958634,1096.8686225056233,15.288,0.0,10.828044963839496,0.124559054907759,-6.409756449816957e-07,-0.0171957570415099,-0.0554565022485937,0.0019289833615805,12.39305112371457,4.33097845050473,40.56537899707388,43.47481792290797
1.2,31.222141238365683,131.0104906546322,27.808159070796247,4.406211036951731,-11.466692329059144,5.097630141978006,5.4982898572739805,1.422525587084234,117.1843741360236,42.67146040845151,17.5032165790759,69.69452252935811,-2.498366384223735,111.03874715950433,1112.3073539266277,15.288,0.0,10.8527628297122,0.1254354039113115,-6.626147409726224e-07,-0.0176760952029912,-0.0567409392641294,0.001996736385311,12.273537763040675,4.321798408565756,40.882276225235614,7.631553148928072
1.21,31.22214047620012,131.01049226398194,28.187771970394056,4.39373262449569,-11.346423461503315,34.74061534737299,5.576004943399055,1.3838267795709445,359.92343213200894,42.96105449599848,17.628083065285985,69.68282432353713,-2.585785098171703,110.94553372253309,1127.4150381861102,15.288,0.0,10.877331987102693,0.1262872247384791,-6.846537881249654e-07,-0.0181647599250045,-0.0580370419863233,0.0020657875277021,12.157018232230817,4.313713797362714,41.19038895858952,35.21245748877514
1.22,31.22213970766437,131.0104938834666,28.569931854828305,4.3942112950543,-11.259789400398034,25.344641574151066,5.636692752050257,1.3508974546876933,283.0687504825761,43.1249873295741,17.7087015017955,69.67075946116498,-2.67507984982491,110.85031257262528,1135.9938366388055,15.288,0.0,10.901801258495968,0.1267696642974782,-7.070863867696574e-07,-0.0186635700675442,-0.0593493133880253,0.0021305356918739,12.07653248972937,4.318239392583702,41.36766628841622,25.999001627683402
