Time,Latitude,Longitude,Altitude,Angle of Attack,Angle of Sideslip,X-Acceleration,Y-Acceleration,Z-Acceleration,Thrust,True Velocity,Ground Velocity,Pitch,Roll,Yaw,Dynamic Pressure,cp,parachute_deploy_gain,Wind Speed,Mach,omega_x,omega_y,omega_z,Cmq,Angle of Attack(total),Angle of Attack(gust),True Velocity(gust),Acceleration
0.0,31.222216000000007,131.010392,3.000000004412624,0.0,0.0,0.0,0.0,0.0,2.2828121974499247,0.0,0.0,71.99999999612658,-1.0292491154817412e-14,119.99999999354436,0.0,15.288,0,0.0,0.0,0.0,0.0,0.0,-0.0,0.0,90.0,0.0,0.0
0.01,31.22221599999862,131.01039200000284,3.0000009727369523,0.0,0.0,0.0,0.0,0.0,34.24218696174923,5.916279387578309e-11,5.734623670548936e-11,71.99999999613168,-5.86671995824671e-13,119.9999999935449,2.1432944861733093e-21,15.288,0,0.0,1.7386402909615473e-13,-3.4220131069073734e-19,7.115076756936125e-19,5.488773498207866e-19,-1.1574302492039043e-31,0.0,89.99999999962336,5.916279387578309e-11,0.0
0.02,31.22221599999738,131.01039200000537,3.0000018317022668,0.0,0.0,0.0,0.0,0.0,25.871876237766408,1.2265415415436536e-10,1.1895038237325684e-10,71.9999999961369,-1.1836364828043265e-12,119.99999999354544,9.211895886571454e-21,15.288,0,0.0,3.6044858651615574e-13,-6.979551485375437e-19,1.4162390878091906e-18,1.0909784360635388e-18,-4.776231873571785e-31,0.0,89.99999999921916,1.2265415415436536e-10,0.0
0.03,31.22221599921969,131.01039200159065,3.0001883335529382,18.80143492628821,-0.0001350810307892,10.931161642028636,-1.75114298675875e-05,3.026590975169265,180.34219359854663,0.0798232026864394,0.0478175828508887,71.99999999765336,-5.341802909786072e-12,119.99999999436793,0.0039016003969354,15.288,0,0.0,0.0002345795854893,3.788270153300133e-17,-7.771883375645477e-10,1.1422790048099072e-11,1.7057759223764537e-13,18.80143492675591,89.51882325913425,0.079801984207741,11.342422482672777
0.04,31.222215995131297,131.01039200995308,3.001692634342189,9.19442604083399,-4.49173898918486e-05,52.29595764159784,6.445392950801871e-06,3.026413589912948,548.6359724538078,0.3504174083926908,0.1601447499964056,72.00000000319055,-3.111420077280171e-11,119.99999999870242,0.0751892535633216,15.288,0,0.0,0.0010297854387864,2.0082066977226968e-15,-1.520937588847922e-08,2.5623342884322286e-11,1.4654248781413086e-11,9.19442604094277,87.798916624545,0.3504103527855857,52.383455068075136
0.05,31.222215983575865,131.01039203366796,3.0074067499493786,5.158590039700252,1.707592688632746e-06,76.26884281015512,5.843947534199429e-05,3.0258124765658088,761.6984298824644,0.9592973585397016,0.3772700771701255,72.0000000004862,-1.3608731808076822e-10,120.0000000109612,0.5634958029902841,15.288,0,0.0,0.0028191251099456,2.086299069701397e-14,-1.0551247853743037e-07,3.973493515691201e-11,2.783064866637575e-10,5.158590039700515,83.94063169874748,0.959297626767734,76.32884071402438
0.06,31.222215961742712,131.0103920785344,3.019291017943491,4.109521257467909,3.140103977270004e-05,57.06876634333886,0.0001151069734147,3.024834864051463,590.4875390737208,1.6257536642597354,0.6118982818704327,71.99999992547217,-3.5903296759057166e-10,120.00000003412836,1.6184272268450337,15.288,0,0.0,0.0047776672697797,1.0694899894620088e-13,-3.741090980393931e-07,5.521401959501359e-11,1.6723176417636091e-09,4.109521257587776,79.78719176344794,1.6257585967235286,57.148873286519276
0.07,31.222215929936205,131.01039214392435,3.0371334573469446,3.649087515174788,5.707077112564807e-05,86.89643797254193,0.0001728541558773,3.0234947746384675,855.2937749779139,2.3057260079826607,0.8506307413593818,71.99999965378231,-6.907496536790437e-10,120.00000006788592,3.255354923652711,15.288,0,0.0,0.0067759305364855,3.495199904512709e-13,-9.036515915819006e-07,7.594816279105379e-11,5.728932851326001e-09,3.6490875156204896,75.6601668283889,2.305734972638426,86.94902215090157
0.08,31.222215886364623,131.01039223353447,3.0621840248716574,3.4254446680114707,8.413075603463509e-05,17.831756866644035,0.0002285946601282,3.021841001032126,241.2171988638848,2.961944911520492,1.0819695676346892,71.99999900671328,-1.141745983122182e-09,120.00000011415082,5.371998197385977,15.288,0,0.0,0.0087043901031071,8.800530155962314e-13,-1.829098470920821e-06,1.0943386634701918e-10,1.4896287129277132e-08,3.4254446690434226,71.81713637501419,2.9619581267487467,18.085991154451033
0.09,31.22221583454733,131.01039234010327,3.0919888289029,3.389560809024919,0.0001118726864415,54.09031716446879,0.0002748660999733,3.020060228038602,563.0937377043176,3.504225426410036,1.2780161667917422,71.99999774508822,-1.634190085504106e-09,120.00000016921716,7.519080503822694,15.288,0,0.0,0.0102980157586766,1.865782139518716e-12,-3.1503298654458527e-06,1.6284478329871028e-10,3.03536411425607e-08,3.389560810868955,68.76526501308032,3.504242999330529,54.17456206384468
0.1,31.22221577423132,131.0103924641528,3.1267248829165366,3.4447939461814814,0.0001419149103147,51.372195336549765,0.0003131602029306,3.0182021883815127,538.7437595981919,3.950569597142709,1.4443465951180965,71.99999562056465,-2.1287748602259068e-09,120.00000023339832,9.55649523509932,15.288,0,0.0,0.0116097108366932,3.485956000178229e-12,-4.949356763187612e-06,2.4573266549165286e-10,5.3761299442583966e-08,3.444793949101151,66.34639928474206,3.9505918890846927,51.460781166288626
0.11,31.222215706113143,131.01039260424562,3.165907002780892,3.4691423802630394,0.0001702373452339,40.591037561894986,0.0003534470100582,3.016051659024047,442.8656393052949,4.421478635995476,1.6182620895289603,71.99999235067894,-2.5564479031457968e-09,120.00000030601664,11.970509656144712,15.288,0,0.0,0.0129935974697161,5.942887149865172e-12,-7.273722517324353e-06,3.67769289312894e-10,8.842679949465076e-08,3.4691423844348632,63.88798785789768,4.421505376815134,40.70293476011277
0.12,31.222215630588888,131.0103927595646,3.2092596514826863,3.4852659299808075,0.0001974376474727,44.30042894095728,0.000394069215595,3.013641598889868,475.58594813540446,4.896982486381051,1.793579340340896,71.99998761802138,-2.8337988279882726e-09,120.00000038673312,14.683611096353944,15.288,0,0.0,0.0143909889875706,9.464337642181618e-12,-1.017558359402848e-05,5.395790443954697e-10,1.3700793350599625e-07,3.4852659355662303,61.5068242157714,4.897013499814194,44.40281567867803
0.13,31.222215548046687,131.0103929293088,3.256512891171917,3.5606043721293616,0.0002276507019012,48.86766833507025,0.0004268800875964,3.0112558910133567,515.9156326236895,5.278566579338586,1.939796541405244,71.99998107389406,-2.8573058577484587e-09,120.00000047523812,17.061052093156064,15.288,0,0.0,0.0155123760833565,1.4300406003001044e-11,-1.3705268062305584e-05,7.724776992181392e-10,1.989112774124932e-07,3.560604379397528,59.67313531776262,5.27860233862722,48.960358155653
0.14,31.222215458587108,131.01039311327068,3.30759734332425,3.6000732663755977,0.0002555702913645,45.540290862247225,0.0004629468001456,3.0085404980032777,486.2390860568404,5.70011779273801,2.098362647205908,71.99997235012626,-2.508533681468686e-09,120.00000057154703,19.894788765881632,15.288,0,0.0,0.0167512184495524,2.071534240530911e-11,-1.7917736259613292e-05,1.0787346240473087e-09,2.8081526258393346e-07,3.6000732754351943,57.72385750323359,5.700157937625502,45.639559681930805
0.15,31.222215362317904,131.01039331122794,3.3624387479639086,3.651605404442164,0.0002842753491325,44.01308509501,0.0004965057129938,3.005703619811542,472.54218587214,6.091938849578711,2.2476968067377374,71.99996103728932,-1.6446954747148112e-09,120.00000067569304,22.723773683610247,15.288,0,0.0,0.0179026934683374,2.9002783512213203e-11,-2.287326399669318e-05,1.47199345427166e-09,3.831202693354572e-07,3.651605415492516,55.98561718911576,6.091983503446133,44.115597174664394
0.16,31.22221525912812,131.01039352340948,3.421115382839859,3.67540086436193,0.0003108411545024,34.83804992586084,0.0005330990866742,3.002517946501868,391.1218908297564,6.521183188362317,2.4085903880902046,71.99994669525161,-1.0153513453738144e-10,120.00000078796704,26.03872642002185,15.288,0,0.0,0.019164148528834,3.9478358970291335e-11,-2.864207894220033e-05,1.9677461746207517e-09,5.135466997084602e-07,3.6754008774883777,54.15946979122355,6.521232015176687,34.96719658394182
0.17,31.2222151493826,131.01039374906244,3.4833737923187487,3.7139589864597298,0.0003384978477213,43.96471427482637,0.0005668629535037,2.999235483723449,471.78125980632376,6.916861975403744,2.559060925010733,71.99992884100092,2.3206494032971838e-09,120.0000009081849,29.29426197817256,15.288,0,0.0,0.0203269651395979,5.248754693205839e-11,-3.5267097947693114e-05,2.580363454062817e-09,6.706952682968329e-07,3.713959001863866,52.549031795895466,6.916915146521327,44.06689817851128
0.18,31.22221503253009,131.01039398932429,3.549599475912623,3.7380363034619775,0.0003650282082698,36.67395661481795,0.0006021794701355,2.9956556354306425,407.10156721191447,7.332140201215607,2.71556808256092,71.99990696207136,5.837017536380516e-09,120.00000103716444,32.917216366714264,15.288,0,0.0,0.0215473823438242,6.839750892601699e-11,-4.285557247677198e-05,3.331016495775474e-09,8.639362741436378e-07,3.738036321259578,50.93050624815799,7.332197539712479,36.796100973258795
0.19,31.22221490871209,131.01039424390297,3.619694897703461,3.747799769666444,0.0003901520189829,41.42208371271829,0.0006393759928961,2.991742733214697,448.9531328318269,7.771071983754382,2.879366399937307,71.99988049019642,1.0709144790974043e-08,120.00000117502664,36.97605053227239,15.288,0,0.0,0.0228373144884866,8.761416506509219e-11,-5.146771415177372e-05,4.238406957677133e-09,1.0996552116864756e-06,3.747799789945131,49.29705748437159,7.771133268690212,41.529983675580546
0.2,31.22221477769685,131.01039451327668,3.693822889232993,3.7700519460961166,0.0004166800650969,37.99697972290605,0.0006740224661302,2.987733789228414,418.51563019916136,8.179966026035371,3.0338260708461373,71.99984881140107,1.723179577184912e-08,120.0000013223286,40.969302182777255,15.288,0,0.0,0.024038975990988,1.1057590044953188e-10,-6.120032215177249e-05,5.3263847350253015e-09,1.376394225587184e-06,3.7700519690893857,47.8457752505109,8.180031477986942,38.11426270718793
0.21,31.222214639876928,131.01039479663547,3.771710975053407,3.7926098867321474,0.0004432924407074,36.46301043881366,0.0007080907240332,2.983530483977461,404.8187610144644,8.582757448615462,3.1863584283669346,71.99981127559042,2.5745201416596626e-08,120.00000147900325,45.103059028532826,15.288,0,0.0,0.0252227064089584,1.3774582723633048e-10,-7.20875523136271e-05,6.61341033873124e-09,1.7010673350603349e-06,3.792609912601061,46.47936953648762,8.582827080829217,36.584868250565684
0.22,31.22221449507626,131.01039509434258,3.8534832466471007,3.782921298925821,0.0004660920499522,44.14577847155813,0.0007479176313898,2.978724032883548,472.5421858721365,9.056569122268344,3.360845972992861,71.99976720416048,3.661811567390422e-08,120.00000164562512,50.21995530074818,15.288,0,0.0,0.0266151520780326,1.6960703048385348e-10,-8.421592474264931e-05,8.124635526119773e-09,2.0969540034515424e-06,3.7829213275976334,44.9464484092354,9.056642335836344,44.24615863872642
0.23,31.22221434283448,131.01039540734791,3.9394622486964206,3.813874679301352,0.0004940771488601,36.66675459308932,0.000779455230549,2.974212905336642,406.3406421461021,9.430647902846331,3.5044030163419806,71.99971583979395,5.0272885112871524e-08,120.00000182313076,54.45382429059888,15.288,0,0.0,0.0277145095638672,2.0669790509245914e-10,-9.77285871729516e-05,9.894576563683824e-09,2.5339062472561444e-06,3.813874711257219,43.79476959007253,9.430725512303388,36.78718303164376
0.24,31.222214184153326,131.01039573358457,4.028950821673608,3.829256049377765,0.0005200487408944,37.802126339316736,0.0008136255607606,2.9692962675112065,416.2328240017114,9.837806876534357,3.658163422426286,71.9996564062533,6.718950080713476e-08,120.0000020109434,59.25679777340223,15.288,0,0.0,0.0289110855155543,2.4956955046738006e-10,-0.0001125744417092,1.1934277804843484e-08,3.0448209172448607e-06,3.829256084638984,42.59361542722471,9.83788856559955,37.91856374864305
0.25,31.22221401888584,131.01039607335582,4.122052964664892,3.851417709838087,0.0005469594058717,38.85163035360012,0.0008459008130282,2.964283881833675,425.36408079150686,10.22297576958679,3.8050691648373967,71.99958811418384,8.786880969336211e-08,120.00000220974424,63.98709205399403,15.288,0,0.0,0.0300430411774988,2.987811646313829e-10,-0.0001288461362054,1.4273117985167728e-08,3.621333387698252e-06,3.8514177486178034,41.50703126619192,10.223061685769354,38.96455005232871
0.26,31.222213847358866,131.0103964259872,4.218542267117083,3.8780574625554745,0.0005745172425185,42.3164797140743,0.0008766626387865,2.959162938653076,455.8015834241788,10.590779679138215,3.946551912391076,71.99951013710364,1.1286401474734325e-07,120.00000241975916,68.67355887153568,15.288,0,0.0,0.0311239685467471,3.5491769188178554e-10,-0.0001465721578858,1.6932703957058654e-08,4.267712643344226e-06,3.8780575050466,40.51245375834074,10.590869924095635,42.41981967733593
0.27,31.22221366913008,131.0103967923915,4.318728802515264,3.886188503202341,0.0005994342651313,38.70936050721014,0.0009111181036949,2.953518013741325,423.84219965987256,11.004860953238978,4.102320296019413,71.99942161756776,1.4276417094868828e-07,120.0000026420792,74.14786134434608,15.288,0,0.0,0.0323408987462391,4.1858405402174807e-10,-0.0001658847815307,1.995072923688136e-08,5.018832267232506e-06,3.886188549362022,39.43841359495857,11.00495511215316,38.8218734782956
0.28,31.22221348431185,131.01039717233687,4.422535913956003,3.90556090261878,0.0006261175699806,44.68030766832924,0.0009425767186621,2.947879457547137,476.3468732012221,11.38358114165448,4.247086834352694,71.999321619057,1.7823531611327881e-07,120.000002877279,79.33831935330025,15.288,0,0.0,0.033453914386159,4.904408325040897e-10,-0.0001868529238516,2.3357766479368094e-08,5.847713054408178e-06,3.9055609527288775,38.49894431917428,11.383679491972384,44.77744842575601
0.29,31.222213292835256,131.0103975659655,4.530013412817602,3.9242599519377537,0.0006528240665589,35.802573724660256,0.0009737210635801,2.942037024315898,397.97031042211177,11.759725774384751,4.391004157029451,71.99920917567837,2.1999186079018322e-07,120.00000312617878,84.66717879828003,15.288,0,0.0,0.0345593650464213,5.711677680739745e-10,-0.0002095620322847,2.7188189988316943e-08,6.77505090435382e-06,3.9242600061534456,37.60352534239979,11.759828319749328,35.92324968749781
0.3,31.222213095024976,131.0103979726075,4.64093665799555,3.936939025755682,0.0006785438093183,33.570228713727204,0.0010059102294455,2.93586442972183,378.1859457108711,12.149968255527943,4.539237002744259,71.99908328532703,2.6880857935396905e-07,120.00000338923812,90.3787563598417,15.288,0,0.0,0.0357062504417728,6.614698865958865e-10,-0.0002340353597042,3.1467140861055e-08,7.817263716758327e-06,3.9369390841381695,36.71173884615234,12.150074840940263,33.698361337808635
0.31,31.22221289105846,131.01039839189684,4.755183729044857,3.9598342215431432,0.0007060286581592,35.396825578217346,0.0010350810412898,2.9297385597941448,394.1656220930212,12.504537499407316,4.6763673222047455,71.99894291513503,3.255120771695107e-07,120.00000366712923,95.72967338626896,15.288,0,0.0,0.0367483036680869,7.620720834468404e-10,-0.0002603234137215,3.622454560346964e-08,8.948994505138873e-06,3.9598342843844345,35.934338386209795,12.504648402129598,35.5178635353378
0.32,31.222212681031937,131.01039882363492,4.872689374180126,3.985461429033668,0.0007340760463279,38.52097867048992,0.0010630242168685,2.9235095146848846,421.55939346242695,12.84534566718622,4.809181081594425,71.99878701464397,3.909756427278764e-07,120.0000039606604,101.01782231644016,15.288,0,0.0,0.0377499198995686,8.737098716736534e-10,-0.0002884807530145,4.1491545539590986e-08,1.0187112828155184e-05,3.98546149652875,35.21473736963424,12.845460975581933,38.631757748577954
0.33,31.22221246496604,131.01039926777932,4.9934410812554,4.010606629086,0.0007621365968788,38.18822026147908,0.0010905599149574,2.917102431053817,418.5156301991682,13.18247167592885,4.940798912752974,71.99861449732019,4.661299779655886e-07,120.000004270781,106.38859400029033,15.288,0,0.0,0.0387407190563976,9.971421990244511e-10,-0.0003185760672934,4.7302669734505256e-08,1.154498667827874e-05,4.010606701382261,34.52805863348922,13.182591392065536,38.299473293007864
0.34,31.222212242662028,131.01039972474007,5.117579377337869,4.019339771238816,0.0007871574969313,29.898022638335373,0.0011220389395318,2.910051232417875,345.46563688075645,13.569536737955724,5.0878303926024735,71.99842423285973,5.519675040347761e-07,120.0000045987411,112.72655675097128,15.288,0,0.0,0.0398782837956187,1.1331556132162459e-09,-0.0003507224668667,5.37022358302301e-08,1.308298593306914e-05,4.019339848191799,33.76700548046532,13.5696603843662,30.039310197084795
0.35,31.22221201433324,131.01040019407705,5.2449575244483055,4.033762873683395,0.000813261106463,32.76415525156106,0.0011515840876071,2.902959820469776,370.5765700527033,13.934300103976534,5.227895396154902,71.99821502296155,6.495674834876441e-07,120.000004945438,118.8669740701126,15.288,0,0.0,0.040950312688979,1.2825853697215452e-09,-0.0003849609961885,6.072234695821837e-08,1.4746020857580124e-05,4.033762955530055,33.07785186209504,13.934427850732408,32.89250745069162
0.36,31.22221177990305,131.01040067594835,5.375631006350063,4.051723629010647,0.0008401329464575,37.01692984301412,0.0011797030485285,2.8957873473716007,407.8625232777193,14.282998147928636,5.362923567977223,71.9979856440668,7.600645476620651e-07,120.00000531213882,124.88900300695136,15.288,0,0.0,0.0419751331662584,1.4462801652534363e-09,-0.0004213876232777,6.84067806399068e-08,1.654507199147348e-05,4.051723715967022,32.44322602189087,14.283130115703262,37.13002398000203
0.37,31.222211539445663,131.01040117020102,5.509550188388412,4.071639898917391,0.0008674922629137,35.12417761390579,0.0012067983861697,2.88849906286036,391.1218908297666,14.620581431527652,5.494447309446232,71.99773482653193,8.846681943540367e-07,120.00000570002652,130.86067091914967,15.288,0,0.0,0.0429672939311924,1.6251202388969355e-09,-0.0004600660652957,7.679415042686734e-08,1.849041957573993e-05,4.071639991174516,31.85023865502424,14.620717696893658,35.24274792557624
0.38,31.222211292895075,131.01040167697127,5.646763233102716,4.08264881385344,0.0008930259828975,36.695642158537446,0.0012360471443664,2.880711738179021,404.8187610144602,14.986392916850402,5.634654729559426,71.99746126698146,1.0246533537040716e-06,120.0000061105033,137.4891296153862,15.288,0,0.0,0.0440424171304414,1.8200057922063743e-09,-0.0005010869196581,8.592980519823866e-08,2.0642694281337543e-05,4.082648911356968,31.228847973200924,14.986533193043764,36.808540518115166
0.39,31.22221104018777,131.0104021963902,5.787316652586672,4.096641430700089,0.0009192713382325,31.335681548387896,0.0012640110027448,2.872831219844713,357.64062493382744,15.337978856701952,5.770390286512262,71.99716358743511,1.1813915463769678e-06,120.00000654506955,144.01394309468844,15.288,0,0.0,0.0450757388736732,2.031886352449547e-09,-0.00054455673306,9.586443829735616e-08,2.295945663566148e-05,4.096641533664766,30.65298398882095,15.338123255506089,31.4670954954126
0.4,31.222210781536543,131.01040272801887,5.931064331106764,4.109028969993624,0.0009451871856381,29.95928076777898,0.0012920492774571,2.8646905607053603,345.465636880754,15.692185018814769,5.906873567965718,71.99684037970908,1.3563276523471372e-06,120.00000700500496,150.74021066990193,15.288,0,0.0,0.0461167659598875,2.2617341782092324e-09,-0.0005905037520737,1.0663253249436129e-07,2.5471259834659164e-05,4.1090290785164525,30.09246700352443,15.692333488470696,30.095929256306363
0.41,31.222210517064383,131.01040327160345,6.077922766619747,4.122888296344507,0.0009714525997821,33.78425365340317,0.0013192264430821,2.85640971467756,378.94687077668647,16.03742529732769,6.0405139809190125,71.99649020751959,1.5509747261474075e-06,120.0000074917568,157.44375780268788,15.288,0,0.0,0.0471314487675864,2.5105374204052982e-09,-0.0006389770219162,1.1827345344180344e-07,2.816813594418537e-05,4.122888410595805,29.56469007160549,16.037577892745222,33.904791300285986
0.42,31.22221024682894,131.0104038270252,6.227854084363214,4.14444025865494,0.0009995884754813,38.04468161607466,0.0013435485656724,2.8482703202464488,416.2328240017114,16.348862540904037,6.163613566771559,71.99611159893284,1.766920641656551e-06,120.00000800692096,163.6157044470786,15.288,0,0.0,0.0480467946810589,2.779304965995011e-09,-0.0006900467934588,1.308321832549104e-07,3.100973487310896e-05,4.144440378988911,29.104646754454564,16.34901955589459,38.15115260238947
0.43,31.222209970843565,131.0104043942566,6.380851271439565,4.1618082623168045,0.0010268052928652,33.45815353250911,0.0013687230309017,2.8397750580998298,375.9031395134336,16.67263197205097,6.290467308135904,71.99570306121484,2.005818691215035e-06,120.00000855220898,170.15779512382937,15.288,0,0.0,0.0489983878509763,3.0690566816849196e-09,-0.0007437862329608,1.443552931671376e-07,3.4086145072160934e-05,4.161808388761201,28.640125213458976,16.672793262249197,33.57845085853367
0.44,31.22220968892116,131.01040497368373,6.537047157143216,4.164954087655709,0.0010505545842624,30.86574023822051,0.0013980747538988,2.830419582421933,353.0750125389216,17.050421620730056,6.433992917638883,71.99526304125902,2.269416145406482e-06,120.00000912964636,177.9537948947602,15.288,0,0.0,0.050108743779844,3.380847125286677e-09,-0.0008003278134917,1.589055036683518e-07,3.750784460406397e-05,4.164954219916419,28.113519280259386,17.050586641458253,30.99524475496968
0.45,31.22220940081287,131.01040556582012,6.696617751072218,4.165241899529329,0.0010735835484822,35.912216710755274,0.0014280646808282,2.820677244966047,397.2093853562869,17.438293672974723,6.580571293039616,71.99478987454265,2.5595995397253085e-06,120.00000974147088,186.13940823302417,15.288,0,0.0,0.0512487363629523,3.7158016249566814e-09,-0.000859850913876,1.745604864109677e-07,4.121350642664912e-05,4.1652420376426775,27.591357195572936,17.43846231108416,36.02281959036367
0.46,31.222209106468902,131.0104061707686,6.859600379555308,4.174585124444534,0.0010989881252456,41.916816790010685,0.0014546917035209,2.811153314474766,449.7140588976434,17.786187321601275,6.714685486378061,71.99428180697711,2.8783880229668832e-06,120.0000103898448,193.6374175079873,15.288,0,0.0,0.0522712438446989,4.0751091178509895e-09,-0.0009224765531151,1.9138630415982226e-07,4.50966024037632e-05,4.1745852688465686,27.13985967570823,17.786359950252297,42.01097612387663
0.47,31.22220880579083,131.01040678873238,7.026066274755745,4.1823089530633855,0.0011240727220223,28.37640408484148,0.0014814747534716,2.801325368441072,331.0078106302534,18.138167428286582,6.849989708801916,71.99373704967608,3.2278903746588286e-06,120.00001107707628,201.37401505997488,15.288,0,0.0,0.0533057667609836,4.459978104761035e-09,-0.0009883252835099,2.094509673354327e-07,4.927107017839778e-05,4.182309103852639,26.69716826759888,18.13834399721685,28.514342615617974
0.48,31.222208499300592,131.0104074186346,7.195654207463586,4.189479568102716,0.0011490100608361,27.95074823096412,0.0015080719422187,2.7912412472910484,327.2031223011574,18.48995085190441,6.98515976370584,71.99315377257649,3.6103201777021456e-06,120.00001180491516,209.25751230436188,15.288,0,0.0,0.0543397174489847,4.8716620260348906e-09,-0.0010573190976925,2.2877013380347535e-07,5.373205427420879e-05,4.189479725385959,26.268461765425428,18.4901313379827,28.089773168283216
0.49,31.222208187201936,131.01040806005494,7.368224738812109,4.202723284133339,0.001175611380853,35.08821363242469,0.0015321405723077,2.781292092003844,389.60000969812296,18.812014261754847,7.111044804193205,71.99253015042137,4.027946338669921e-06,120.0000125755114,216.60722913930897,15.288,0,0.0,0.0552863302793499,5.311396446020465e-09,-0.0011294854492155,2.4938633613154685e-07,5.8398320167141767e-05,4.202723448262914,25.88860807032205,18.81219892635871,35.1982716047702
0.5,31.22220786953184,131.01040871291724,7.5437546994244835,4.220815778795054,0.0012036252596423,36.05491615971072,0.0015540388599792,2.7714444106710974,397.97031042210494,19.10875420627192,7.229005658018125,71.99186435180009,4.483102820610566e-06,120.00001339126192,223.4908652241728,15.288,0,0.0,0.0561585257949344,5.7804122391526605e-09,-0.0012048912160576,2.713531252030471e-07,6.327866493526626e-05,4.220815950099865,25.54902500917784,19.108943271285572,36.161276053538906
0.51,31.222207546379583,131.0104093770373,7.722184419225251,4.232567510615346,0.0012298790840397,27.54004661432325,0.0015777580800203,2.761017323676155,323.3984349720841,19.430597746636646,7.354673636736509,71.99115452520388,4.978202222778502e-06,120.00001425458936,231.07869697977367,15.288,0,0.0,0.0571045034845869,6.2799518101633574e-09,-0.0012835871653678,2.947201005874635e-07,6.854585242460463e-05,4.232567688976395,25.189423168613605,19.430790935591396,27.678103017910345
0.52,31.22220721783424,131.01041005242655,7.903529176069226,8.83941559823662,4.951011777116805,33.19894281059211,-0.3145468676119929,2.444446195660175,372.0984511843415,20.57722363603227,7.480978028541124,71.99038759568215,4.664212101355299e-05,120.0000584132244,259.15141272452894,15.288,0,2.51429078941129,0.060474441290224,6.831498109938308e-09,-0.001433873529362,7.615418538851712e-05,8.108858411000348e-05,10.121902138126003,29.77256261965907,21.35395926492286,33.29029979853542
0.53,31.22220688399933,131.01041073933908,8.087908924011138,8.784421719585573,4.88309612694816,34.86370124439854,-0.3224842451846395,2.4256659508245964,386.5562464348624,20.905659447167206,7.605319940334944,71.9895181366357,0.0002656788856618,120.00028908909208,267.4853984173354,15.288,0,2.523963991506597,0.0614398097068789,7.509413845052246e-09,-0.0016234442774495,0.0001836073955372,9.327293902711344e-05,10.041089460366626,29.379596447519816,21.67176617198284,34.949470895166044
0.54,31.222206544787884,131.0104114379805,8.275398989945964,8.731381090823195,4.817457659842533,30.60809402700517,-0.330512769990802,2.406563744582445,349.2703242098436,21.232191113354776,7.728925602459495,71.98853844169453,0.0006762110920237,120.00072113447756,275.90155448931483,15.288,0,2.533615501585055,0.062399588210672,8.323407802695307e-09,-0.0018193717670536,0.0002938032105726,0.0001061604744017,9.963177086516549,28.99932565760335,21.988024293709127,30.704335324410707
0.55,31.22220620050562,131.01041214773238,8.465793999257196,8.682508985106352,4.755221458756616,32.44707268280125,-0.3385395776106285,2.3873160668114664,365.2500005919907,21.55110650338319,7.850009495558984,71.98744489677166,0.0012829517141938,120.001359507336,284.24689189049747,15.288,0,2.5432334084087937,0.063336989220758,9.277168017039164e-09,-0.0020215198405018,0.0004066301633894,0.0001197253806181,9.890635027533024,28.638119264342315,22.29719773579797,32.53653965515466
0.56,31.222205851162983,131.01041286858495,8.659094185903086,8.639317199610714,4.697114230899344,30.27882884138273,-0.3464902769244515,2.368069221872116,346.2265619465787,21.85801270045623,7.967193892139455,71.98623389565634,0.0020905278550902,120.00220907613932,292.39494843160975,15.288,0,2.552817081309068,0.0642391022238106,1.0374311341906148e-08,-0.0022300231960102,0.000522127402929,0.0001339524429903,9.82512840132528,28.300151613424013,22.595007505898693,30.37326593169282
0.57,31.22220549684629,131.01041360037183,8.855246822892774,8.593749717567146,4.638736237524819,29.93962237426448,-0.3546818442686389,2.348209005734577,343.1828296833023,22.172559719175723,8.086648654773953,71.98490179563998,0.0031035554451207,120.00327469806038,300.86523227527346,15.288,0,2.5623618976482256,0.0651636771239107,1.1618464105917322e-08,-0.0024449273394128,0.00064028480136,0.0001489718442706,9.757496320106297,27.96123156751912,22.900414947203856,30.033662325111553
0.58,31.22220513754161,131.0104143431332,9.05426899812955,8.540695234218513,4.577374316804601,39.45273489486062,-0.3633468444747338,2.327272807115541,426.1250058573153,22.508379487076407,8.21264954601047,71.98344489114655,0.0043266828857503,120.00456126509351,310.0419752270956,15.288,0,2.5718674958469023,0.0661507775897781,1.3013278488529445e-08,-0.0026663750471718,0.000761145070909,0.0001649223709249,9.68195994999148,27.60625010657106,23.226627163820183,39.52298711297366
0.59,31.22220477283197,131.01041509774134,9.256458954600616,8.499197580612163,4.523110687900914,31.9643931250684,-0.3716779753994496,2.306842129708465,360.68438819711065,22.81618748112188,8.329721590351735,71.98185925696924,0.0057648489778262,120.00607397565062,318.5735825914071,15.288,0,2.581348198995689,0.0670555597763276,1.4562581797198121e-08,-0.0028949451445945,0.0008849838409978,0.0001815052069251,9.620007666511173,27.29119609139444,23.52593831274621,32.04968163621466
0.6,31.222204402951164,131.01041586372574,9.461661450201865,8.44385240142132,4.462507785817193,28.39767802219293,-0.3807877906472089,2.2847204173168154,329.4859594986058,23.16282935271893,8.458842325265165,71.98014088675744,0.0074230468871052,120.00781808527184,328.32069897289284,15.288,0,2.590794684479969,0.0680744793623736,1.6270322787491484e-08,-0.0031305413819548,0.0010117118942007,0.0001992545153816,9.54296508250414,26.94131191831968,23.86308995491002,28.491982447329807
0.61,31.222204027857263,131.01041664118475,9.669913404889687,8.387376950338176,4.402284730769578,33.294092638734305,-0.3901424626325274,2.2619497876686947,372.0984511843297,23.515525763848323,8.589725146508972,71.97828565999147,0.0093063774048864,120.00979896367836,338.38862071209064,15.288,0,2.6002082493833734,0.0691112000954239,1.8140508983997188e-08,-0.0033733626386598,0.0011413982994103,0.0002179747330451,9.465173887475409,26.593941915068985,24.20635484338865,33.373121409597054
0.62,31.22220364768049,131.01041742986175,9.88113194446683,8.354555849485045,4.355203208062147,41.4227590201957,-0.3985501235850284,2.2409168941439708,442.86563930529206,23.804608559187287,8.700522746381774,71.97628930212167,0.0114200524353905,120.01202210053911,346.75253447983243,15.288,0,2.609588579728801,0.0699609697016206,2.0177258739116412e-08,-0.0036234763647993,0.0012740420846951,0.0002370096884442,9.414442395801048,26.3207810346949,24.48806367717213,41.48524455240289
0.63,31.22220326223594,131.01041823014904,10.09545314605084,8.315479053808577,4.305668807585552,23.446202312628024,-0.4073982851440905,2.218852812115019,286.11251274707894,24.112094868808203,8.816956815340923,71.97414773429253,0.0137690558278754,120.01449273926114,355.76113738251826,15.288,0,2.618929023335492,0.0708648332966903,2.2384497494631646e-08,-0.0038811854762537,0.0014097638928791,0.00025714022854,9.357113886229683,26.03459869946733,24.78779135464441,23.554483311022825
0.64,31.222202872147413,131.01041904077118,10.312450085477828,8.266038394394766,4.251632567683372,23.01648251622704,-0.4169258098917147,2.195260635740221,282.30782441796754,24.451037375538927,8.943133546635734,71.9718566852442,0.0163584287266417,120.01721619107268,365.8256450306612,15.288,0,2.628232899354959,0.0718611526186554,2.4766345736240567e-08,-0.0041459475010296,0.0015482452943274,0.0002785368903861,9.28860257468132,25.72361392467113,25.11826952498761,23.124693810071722
0.65,31.222202477402945,131.01041986176335,10.53213827670681,8.233932568760478,4.207158398218131,40.761230664009695,-0.4257238735621529,2.172990843944409,436.7781447787475,24.740657555132927,9.053723167508329,71.96941195822973,0.0191930681167393,120.02019761465976,374.5354087846164,15.288,0,2.6374762669291942,0.0727125212525936,2.7326714989889145e-08,-0.0044179591072555,0.001689554501923,0.0003003207935676,9.239900730498734,25.467363183994653,25.40092274299158,40.821330885567555
0.66,31.222202077478386,131.0104206942164,10.75488945856038,8.198392139800518,4.161647112230704,34.654933125968064,-0.4348442320645325,2.149916438542593,383.51251517160017,25.041072668929488,9.167562631715338,71.96680924210105,0.0222779148903593,120.02344221897276,383.6780673127953,15.288,0,2.64668990302684,0.0735956229220818,3.0069455565357844e-08,-0.0046979389597646,0.0018340238810513,0.0003232239116189,9.18773836273,25.20594147071345,25.69420801714878,34.72427998050059
0.67,31.222201672576567,131.01042153772286,10.980569835097048,8.153809491063527,4.112311754650687,23.823635830222955,-0.4446131958010627,2.1253562828472696,289.1562440103425,25.370039048675743,9.290224616179106,71.9640440820195,0.0256182170113288,120.02695552836788,393.8165618070372,15.288,0,2.655873980908764,0.074562643773771,3.2998817579062846e-08,-0.0049858086749655,0.0019815757822003,0.0003475285723908,9.125862169378522,24.92343569155128,26.015445009361216,23.922383752335424
0.68,31.222201262882376,131.01042239191216,11.2090580643607,8.112515592084542,4.065306415018448,29.777950240213208,-0.4543693644188196,2.100656429264491,340.8999924858462,25.690319612977305,9.410040354009366,71.96111186554175,0.0292192135355893,120.03074306669726,403.813831817875,15.288,0,2.6649948039083493,0.0755041442313977,3.6119055667228765e-08,-0.0052815331943604,0.0021321561161598,0.0003727809955845,9.068020701517932,24.65493752505548,26.328360785604204,29.85541038843289
0.69,31.222200848486768,131.0104232566067,11.440297940586456,8.080902383298039,4.023754198878738,36.697917075991285,-0.4637288903068081,2.076622384336901,401.0140726853634,25.981175067952595,9.52050591634065,71.95800798460719,0.0330860471103487,120.0348102577128,413.0000563719736,15.288,0,2.674079654664044,0.0763591709568656,3.9434355634099245e-08,-0.0055851510396258,0.0022857484827219,0.0003986651848721,9.021310874698628,24.418127852865968,26.61270548916116,36.75955008874792
0.7,31.222200429253004,131.01042413209785,11.674391299708164,8.049066063869693,3.9826973103928527,30.75753789959383,-0.4732431733627829,2.052114696017399,349.27032420985284,26.273078283212502,9.631173001412977,71.95472794929215,0.0372237570404444,120.0391624100212,422.32295644328303,15.288,0,2.683130925316936,0.0772172840254184,4.294877367142082e-08,-0.0058969750912492,0.0024424729853208,0.0004256426021301,8.974676848556612,24.184839043983512,26.898175238863885,30.829551918114152
0.71,31.22220000524399,131.01042501826538,11.91130122739074,8.0114737695689,3.939403935459647,25.25150859194398,-0.4832501426522177,2.026414668788311,301.33126406340574,26.58405148143732,9.74769847452462,71.95126697346018,0.0416375250857704,120.04380499361868,432.3696765374863,15.288,0,2.692120996538516,0.0781314514508707,4.6666552692261935e-08,-0.0062170723729411,0.0026023259937524,0.0004540482941976,8.921956754238128,23.93960460847047,27.202364174599275,25.337296092505106
0.72,31.222199576468224,131.01042591510125,12.151028668651316,7.967037245757464,3.8934008189312266,30.95071364495708,-0.4938556234281105,1.999289831501102,350.79220534145287,26.918756732091847,9.871542944388704,71.94762031445103,0.0463325921841271,120.04874353165144,443.3154701235165,15.288,0,2.7010733668750846,0.0791153757919994,5.0591978538655694e-08,-0.0065456087268269,0.002765352731317,0.0004840497466556,8.861963570727362,23.679443459210944,27.529860147552306,31.019150993205272
0.73,31.222199142928936,131.01042682260848,12.393578414827912,7.939688702972383,3.856248463229985,39.19302815105632,-0.5035450418492741,1.9739385844981585,422.320318528234,27.19711589343648,9.977591900669092,71.94378288556777,0.0513144070220865,120.05398377763856,452.5207306367321,15.288,0,2.7099918620610737,0.0799337039900943,5.4729497739335503e-08,-0.0068827821890596,0.0029316138042474,0.0005142351046548,8.821222860654233,23.470720660125828,27.8023967710336,39.24593541749304
0.74,31.22219870456492,131.0104277409218,12.638999438294505,7.907022442741754,3.8170568377349614,24.484155667299422,-0.5137163812349393,1.9474059739435088,294.48281347105944,27.49347792174889,10.089162583552332,71.93974980560502,0.056588171231225,120.05953121909872,462.4256370225687,15.288,0,2.718863293020681,0.0808049507695362,5.9083391059510407e-08,-0.0072287848626668,0.0031011648207013,0.0005459584455988,8.774866792089153,23.25105259922794,28.09261639019889,24.56685110648596
0.75,31.22219826176327,131.01042866925292,12.887029617488608,7.8710275827790275,3.7767948298364873,28.61026086934368,-0.5242644293078276,1.9199027236960635,330.24688556441487,27.80171737325468,10.20434674342656,71.93551611798793,0.0621591068621447,120.06539136578571,472.8413453528869,15.288,0,2.727678137969448,0.081711113322543,6.365817380597274e-08,-0.0075832527479446,0.0032737923298143,0.0005791371415444,8.725100816579188,23.025962204034244,28.394545382208488,28.67939864558166
0.76,31.22219781441182,131.010429607841,13.137753174577544,7.841043479345392,3.7399034209315776,30.809864123793464,-0.5345572832945414,1.8927815007647453,349.27032420986166,28.08926567859036,10.312923124896091,71.9310767172095,0.0680323929741611,120.07156969259952,482.6613366022252,15.288,0,2.736452871565359,0.082556470618803,6.845810442529092e-08,-0.0079465224316061,0.0034496229202851,0.0006131423384206,8.682245611899631,22.8209997576388,28.676311261276062,30.872578457676255
0.77,31.2221973624545,131.0104305568096,13.391215233560176,7.812589183839213,3.7042140551570975,28.8012461151499,-0.5448868750261253,1.8654202300277225,331.7687666960708,28.37126839330912,10.41964058156277,71.92642653436403,0.0742132189630865,120.07807167873447,492.3893751058106,15.288,0,2.745188434969023,0.0833855363193475,7.348750640178118e-08,-0.008318833894496,0.0036287345499106,0.0006482976394928,8.641329978887708,22.623691844756223,28.952719728510125,28.866736430130263
0.78,31.222196905964683,131.0104315160154,13.647371035235777,7.779144700365981,3.666645123894644,23.63355850778377,-0.5557193497847159,1.8368043029934569,286.8734378128899,28.67117680508887,10.5318620789397,71.92156038733663,0.0807067783659405,120.0849028123582,502.8419744804907,15.288,0,2.75387172203398,0.0842672358185101,7.875081349468774e-08,-0.0087002191794904,0.0038111050685865,0.0006851698823505,8.595152360983214,22.41623546079876,29.246739030409312,23.711342471147834
0.79,31.22219644504079,131.01043248526366,13.90615855208807,7.742954779224857,3.6282663747449018,33.64330592834505,-0.566917201106078,1.8072200474818008,373.6203323159534,28.981464811949568,10.647231354296382,71.91647299250137,0.0875183057062037,120.09206862669043,513.771910853917,15.288,0,2.762501769328455,0.0851794496202516,8.42525280781921e-08,-0.0090907040800543,0.0039967099510527,0.000723651742315,8.546192558909484,22.204768181426925,29.551010729057964,33.69657954750225
0.8,31.222195979452025,131.01043346503658,14.167743707970114,7.716643668440144,3.5949308337942374,34.09121789167409,-0.577529000175603,1.778744439165391,377.42502064505743,29.25513869658536,10.750989822147863,71.91115886788457,0.0946531736119675,120.09957480463952,523.5077375926227,15.288,0,2.771095574902702,0.0859840585494186,8.999704129664e-08,-0.0094908438062703,0.0041857731792724,0.0007626193783362,8.508340758246458,22.023312560525152,29.81945867861556,34.142475142606536
0.81,31.22219550931181,131.01043445510808,14.432053835791404,7.684194070790945,3.559189652255564,22.15973963683684,-0.5887577561566695,1.7487490034230728,273.9374926939919,29.55159822266885,10.861786360269212,71.90561261988957,0.1021166625199928,120.10742692636248,534.1579613851313,15.288,0,2.7796487190449914,0.0868556445938159,9.598898679840233e-08,-0.0099005878044519,0.0043782321185436,0.0008035849209104,8.463959356186402,21.828500722820863,30.110314930796,22.236430008992127
0.82,31.222195034825287,131.01043545506357,14.698952880756789,7.649304285895433,3.5227651549283863,28.48896874619492,-0.6003461139838304,1.7177850534065031,328.72500443277005,29.857537347317024,10.975453545365257,71.89982867890862,0.1099140473299951,120.1156305757421,545.2612004776024,15.288,0,2.7881573406567224,0.087755100145737,1.0223307535007649e-07,-0.0103197907430149,0.004573981578536,0.0008462595234418,8.41711910490029,21.630319954988067,30.410543431988447,28.547023332879267
0.83,31.22219455597872,131.01043646493815,14.96845617501184,7.626153259981171,3.492097046314896,36.22721033087594,-0.6111328375237989,1.6884151495897364,395.68750322465047,30.117730018252352,11.074647872799744,71.89380137343046,0.1180506158334967,120.12419135363191,554.7915763536398,15.288,0,2.796613079316512,0.0885201086651991,1.0873386883958493e-07,-0.0107486823679129,0.0047730910021647,0.0008890883480743,8.383366764804235,21.46658916336797,30.665927791229727,36.271683134643595
0.84,31.222194072662106,131.0104374849636,15.24064497841282,7.600695856559072,3.460747904160616,22.352567086881137,-0.6222345661289636,1.6581776745631576,275.4593748256452,30.386029208082743,11.176276273985572,71.88752521773883,0.1265314596082288,120.13311464741086,564.7053940800809,15.288,0,2.805021951665657,0.0893089507789463,1.1549577713216873e-07,-0.0111875603790498,0.0049756587581613,0.0009336098911703,8.347274914385189,21.299608614595567,30.92931173092959,22.422622157750133
0.85,31.22219358519485,131.01043851449003,15.515304000954762,7.565826539874114,3.4255339702937166,24.379997674974327,-0.6342834604774036,1.6256520742869247,292.96093233939376,30.69132593062556,11.289430339261592,71.88099449014952,0.1353616518039467,120.14240583933568,576.0947019814614,15.288,0,2.8133831345139844,0.0902065417060627,1.2252361138412974e-07,-0.0116360424846487,0.0051814720210705,0.0009807664363374,8.301067142322783,21.1105404656404,31.22908704653215,24.442367864153876
0.86,31.22219309339388,131.01043955389923,15.792565044875012,7.538065431446929,3.3938975084221776,30.54096876361212,-0.6458772521035471,1.5939606845163194,346.2265619465587,30.96783624521738,11.393435455462908,71.87420341514692,0.1445464030200295,120.15207044961517,586.506376644116,15.288,0,2.8217023841095825,0.0910195329132555,1.2982180381701202e-07,-0.0120946577680104,0.0053907348153895,0.0010285787015013,8.262833648393835,20.943176092412003,31.500636714500587,30.589355029298996
0.87,31.2221925972882,131.01044060313697,16.072413137581584,7.513642568184045,3.364101739833921,28.437985903961216,-0.657312396952625,1.5624482140146287,327.964078366998,31.229932887298794,11.492805521710842,71.86714612239643,0.1540908482093316,120.16211392580358,596.4601651228364,15.288,0,2.829979277620735,0.0917901676150183,1.3739500519621448e-07,-0.0125635198299287,0.0056034598117634,0.0010774665339077,8.228428858459147,20.787355918206764,31.75806118497404,28.488459879090726
0.88,31.222192096919017,131.01044166212367,16.354824743915845,7.484557200481564,3.332577755735173,24.574407838009503,-0.6693080763930748,1.5294925641167267,294.4828134710418,31.510427527111748,11.597859424768949,71.85981671816336,0.1640000474881765,120.17254163851194,607.2061403948056,15.288,0,2.83821183069191,0.0926148849273227,1.4524790132129986e-07,-0.0130426728007586,0.005819628146556,0.0011285752589169,8.189103281508872,20.62197023493988,32.03361250220663,24.631054410918676
0.89,31.222191592376863,131.01044273067865,16.639742373778876,7.45095322182559,3.299413119611348,26.95655070181329,-0.681880064692519,1.4950432626824257,315.028134248087,31.809429270013208,11.708640405089184,71.85220919337311,0.1742790667730006,120.18335896860565,618.7674129972091,15.288,0,2.846399361088886,0.093494006059681,1.5338523283178285e-07,-0.0135321525765268,0.0060392176559626,0.0011820082545912,8.14502189298701,20.44745424057848,32.32741347852914,27.006586983907233
0.9,31.22219108358369,131.01044380896673,16.927224644058516,7.428918660119355,3.271656701570401,29.78005035704918,-0.6935019472705324,1.4625618824104452,339.37814235421445,32.058677333614845,11.80367178974654,71.8443174365315,0.1849330794113418,120.19457140767668,628.4849609509275,15.288,0,2.8545354671582426,0.0942268995075414,1.618116445888397e-07,-0.014032302323698,0.0062623427206326,0.0012352654349914,8.11372342446502,20.305784125337983,32.57230874062551,29.824007636116463
0.91,31.2221905706176,131.01044489683167,17.217222134089678,7.402281821060021,3.24219483061538,22.6556793465886,-0.7056951221675921,1.4285951126591496,277.7421810230789,32.32642210855462,11.904427119055516,71.83613529873999,0.1959670017560182,120.20618418954558,639.0088491360729,15.288,0,2.862627021721104,0.0950141661380004,1.7053188881552668e-07,-0.0145431114686736,0.0064889589153371,0.0012908882048775,8.077564054702638,20.154626502831984,32.83543313061972,22.711642306464892
0.92,31.22219005369788,131.01044599382865,17.50958864464676,7.371219087052106,3.21112611940051,26.97670496921128,-0.7184711782670639,1.3931009080458177,315.02813424806214,32.61260011189201,12.010901727892728,71.82765668357455,0.2073857114986137,120.21820250112457,650.3546493421744,15.288,0,2.8706712276231143,0.0958556198034001,1.7955093175212288e-07,-0.0150643116373945,0.0067189099956427,0.0013489510244256,8.036743010982269,19.994480709306885,33.11673860904,27.022204609725446
0.93,31.22218953272931,131.0104471001562,17.804393850470092,7.350619897775104,3.184879133889638,32.09287681435726,-0.730325752654219,1.359532014521483,359.1625070654728,32.85180140862462,12.102492959208972,71.81887537152491,0.2191940705268048,120.23063151875944,659.9111707855328,15.288,0,2.878672220512664,0.0965590063282471,1.88873244358926e-07,-0.0155963133784659,0.0069523379188133,0.0014067933637619,8.00745559546088,19.863830716174565,33.35182345946676,32.12996179930827
0.94,31.222189007595087,131.01044821605575,18.10172152397779,7.320622028035139,3.1548787289536007,23.288866459878165,-0.7432784385228252,1.3232406631544107,283.0687504837787,33.1314162015492,12.20672411561514,71.80978512593083,0.2313967790301568,120.24347625470344,671.1733457674238,15.288,0,2.886629901728205,0.0973811852683203,1.985033387155022e-07,-0.0161394150067529,0.0071893327146043,0.0014681301475065,7.968094797711533,19.711308557494057,33.6267330100408,23.338267495164168
0.95,31.22218847860873,131.0104493408899,18.40136100511677,7.291999000782701,3.125763258839239,30.16968668991053,-0.7562341376326877,1.286740100433282,342.4218736174873,33.4040456745984,12.308678309368307,71.8003794599379,0.2439986968181419,120.2567418937962,682.2449664909047,15.288,0,2.8945410734831265,0.0981828406864435,2.084464335752698e-07,-0.016693228850317,0.0074296878120738,0.0015309594414171,7.930373629235769,19.56468887213197,33.894795903432474,30.20658181794737
0.96,31.222187945455552,131.01045047530377,18.703531338795287,7.268575013516809,3.0991393474427382,29.559917122717486,-0.7687662107776702,1.251025658587218,337.09533515678345,33.651773589292176,12.402692154490122,71.79065200661684,0.2570045423394154,120.27043346720164,692.3815956303538,15.288,0,2.902411933435312,0.0989113121986317,2.187067092000681e-07,-0.0172585544524933,0.0076737083841021,0.0015944982278969,7.898433862499141,19.43371271751903,34.13834791294168,29.596364083907392
0.97,31.22218740815796,131.0104516192537,19.00822063505382,7.24264478999553,3.071720610753856,18.89595942279797,-0.7817008446564833,1.214175713617166,245.02188719299323,33.909518532036195,12.499776918579244,71.78059610070227,0.2704191176072632,120.28455610647076,703.0077885638269,15.288,0,2.910241709505918,0.0996692342627143,2.29289060107465e-07,-0.0178355041163183,0.0079214010594984,0.00166037417174,7.863908154035065,19.29857342662936,34.39179217400076,18.951056999072684
0.98,31.222186867027563,131.01045277210602,19.31521953149592,7.2079073931824,3.040874090920536,27.545474323192163,-0.7957735755686035,1.1744524633994091,319.5937466429581,34.207316476649765,12.609432908613726,71.7702050547562,0.2842471091091395,120.29911482472431,715.3887322804745,15.288,0,2.9180251086325595,0.1005448911557027,2.401989271636153e-07,-0.0184235631393666,0.0081725064703876,0.0017301301872931,7.819974601246907,19.1432251039099,34.68475165056872,27.581982341050054
0.99,31.22218632190559,131.0104539341866,19.6246399751473,7.188210050467528,3.0165917424843265,30.11104602207621,-0.8082540785565901,1.1382582027800408,341.6609485517054,34.43308439967193,12.696271952256202,71.75947210470726,0.2984932492775319,120.31411468191196,724.8414690680521,15.288,0,2.9257680378851125,0.1012088397257787,2.514407734031736e-07,-0.019023333114972,0.008427240540851,0.0017981908542521,7.792457101504105,19.02833490339244,34.90671063914718,30.143390634354503
1.0,31.22218577279041,131.01045510549926,19.93648564831829,7.159947878303985,2.988982939172104,26.94093491454916,-0.8218573551385445,1.0992154235779348,314.2672081822764,34.697859410092256,12.795352205157668,71.74839060357174,0.3131618873265388,120.32956034325152,736.009696528955,15.288,0,2.9334681592497724,0.1019874492881865,2.630194075460056e-07,-0.0196348658558679,0.0086855833630912,0.0018702120820776,7.755792073232654,18.893827704169663,35.16715482338041,26.975872518411723
1.01,31.222185219876863,131.01045628564844,20.25062699033217,7.1331984104331205,2.9622520110557344,28.183380123847588,-0.8354122359297746,1.0600727417660227,324.9203161036979,34.95400558966423,12.891640244360127,71.73695365935095,0.3282575423199557,120.3454566556674,746.893997247652,15.288,0,2.9411243866757286,0.1027407041733665,2.749400376235255e-07,-0.0202579616086202,0.0089474108981798,0.001943747412633,7.720885005263827,18.76525812532096,35.419107779908586,28.215679737108296
1.02,31.222184663082352,131.01045747480265,20.567122782586985,7.108734113655997,2.936701493866228,23.509636926706552,-0.8488101258426082,1.021089598406908,284.59063161540416,35.19739925789243,12.983826588688334,71.7251544281606,0.3437845117721919,120.36180823750358,757.3088177305165,15.288,0,2.9487385949113407,0.103456483414879,2.872072489664481e-07,-0.0208929538264053,0.0092128218623408,0.0020185724904051,7.688563628626249,18.64451807820865,35.658493298968615,23.54710451463772
1.03,31.22218410247984,131.01045867281331,20.88592575408125,7.078491375448686,2.9090188871522926,19.186664675075168,-0.8630581615938016,0.9798638430417892,247.30469339049705,35.467686822471634,13.084458377281086,71.71298605307423,0.3597469465856666,120.37861955706288,768.9609686714781,15.288,0,2.956309408256024,0.1042513205829423,2.998259746633451e-07,-0.0215398076825178,0.0094817605749715,0.0020969849782496,7.650119367402429,18.511268888498588,35.92443814673066,19.231045314672098
1.04,31.222183538135283,131.01045987954672,21.206993772584035,7.0538605267551215,2.8838609743375807,30.58909915986097,-0.8767242996356547,0.939805174826364,345.46563688072297,35.708541701759295,13.175716566866951,71.70044144349107,0.3761491187591648,120.39589521485028,779.4161532632446,15.288,0,2.9638379077401864,0.1049596533974136,3.128011753017364e-07,-0.0221985945470333,0.0097542162187577,0.002175729166025,7.617843186054221,18.3941261715954,36.161346278769685,30.61608836340804
1.05,31.222182969741528,131.01046109562552,21.53053670557376,7.02459102965521,2.8570485552575047,18.399806196956337,-0.8911181723672043,0.8977795414031554,240.45625879819983,35.970958786662614,13.273734327294402,71.6875135335975,0.3929950999915386,120.41363960562504,790.8893089785213,15.288,0,2.971328233299608,0.1057313732472073,3.26136944731742e-07,-0.022870149874847,0.0100304893475394,0.002257952328458,7.580676681736889,18.26735948012156,36.41955696311638,18.443236369673247
1.06,31.222182397552217,131.01046232053423,21.856384963827846,6.99142304649028,2.8289002833819983,26.271801968913408,-0.9061830662624614,0.8539039880904395,308.17968365593924,36.25194230908704,13.377586749464044,71.67419496065224,0.4102891478874495,120.43185732433902,803.2683309700883,15.288,0,2.9787772115227806,0.1065576750327649,3.398389749319241e-07,-0.0235540481382008,0.0103103629530189,0.0023435649280504,7.539423582691974,18.13283741048171,36.69612440731095,26.301290813651335
1.07,31.222181821442007,131.01046355452647,22.18462540259439,6.967433891699497,2.8046672838489446,30.964600722646253,-0.9201369731095526,0.8124755570395156,348.5093681440308,36.484046540959866,13.46588387879292,71.6604781841308,0.428035553617982,120.45055300688573,813.5615116284441,15.288,0,2.986189116344641,0.1072403112078279,3.539119236348939e-07,-0.0242508495134221,0.0105940223787434,0.0024282668832846,7.508160562780637,18.02317665188445,36.92442672763072,30.988921673607404
1.08,31.222181241300564,131.01046479782357,22.51533366801617,6.941531059434,2.7798748967350333,20.80005296921925,-0.9344685750019142,0.7699049074160595,261.00157857466235,36.72391744908048,13.556578123056283,71.64635574673939,0.4462383246957885,120.4697309956487,824.2683078613242,15.288,0,2.993564416260195,0.1079457847095977,3.6836057748801737e-07,-0.024960915410777,0.0108815684200031,0.0025157192613649,7.474938526927546,17.910649572168765,37.16040788044737,20.83526310384527
1.09,31.22218065742188,131.01046604982815,22.848312923044418,6.90592334388439,2.7514425881243665,19.123322029751225,-0.950310869119064,0.7234201359201607,246.54375332474407,37.01328400623023,13.662945761069574,71.6318200858802,0.4649014078986403,120.48939557404113,837.282368895705,15.288,0,3.0008987694157327,0.1087967536487054,3.831909204938745e-07,-0.0256836473212921,0.0111727157931443,0.0026088739184706,7.43138694398486,17.775903263254076,37.4453135030411,19.160581225385336
1.1,31.222180069886218,131.01046731037624,23.183510784039623,6.875381648859134,2.7252425697656504,38.50902073329269,-0.96557821379777,0.6780821584165284,413.1890617385841,37.27444352138336,13.760323092506953,71.61686349472218,0.4840286906012394,120.50955097131995,849.1121612895398,15.288,0,3.0081936055387017,0.1095648197079016,3.984081118863216e-07,-0.0264190994555657,0.0114674439159698,0.0027024269867445,7.393384344453334,17.655614471597946,37.702362228334245,38.527091955372
1.11,31.222179478258536,131.01046858034462,23.521220542686564,6.854872942695254,2.7031902919855946,28.160782163598647,-0.979473411746585,0.6358605881716672,324.1593910376397,37.479263914254936,13.839726968678203,71.60147822793478,0.5036240275291394,120.5302013809922,858.4415736380182,15.288,0,3.0154558617054152,0.1101672903753123,4.140158508954827e-07,-0.0271685751344298,0.0117662267040348,0.0027942716097319,7.3662485480211215,17.562010520752388,37.90372254356064,28.184984280952936
1.12,31.22217888260238,131.01046985960025,23.8613993504851,6.815697518608996,2.6740289205787,10.546256128559175,-0.996311961289692,0.5861668024391244,172.73281794065943,37.783616832243,13.950746868559357,71.58565650074452,0.5236910094851764,120.55135073135324,872.4117419899549,15.288,0,3.022682379371287,0.1110623377207209,4.30019632683765e-07,-0.0279319626356126,0.012068970667166,0.0028960195752273,7.319180208228124,17.42412335892378,38.20349984638533,10.609417862147884
1.13,31.22217828355357,131.01047114685852,24.203623075721165,6.786683678592514,2.6490451100948254,33.221997823272666,-1.0117421772151869,0.5396707613128143,367.5328077900705,38.03080057738426,14.043559236289203,71.56939000748503,0.5442336625104287,120.57300341245782,883.83481484086,15.288,0,3.0298683837292284,0.1117893490307238,4.4642682932108594e-07,-0.0287078929769401,0.0123750926512741,0.0029958428088881,7.2831079072564675,17.313105955724502,38.44676337719281,33.24178103130616
1.14,31.222177680393507,131.01047244356383,24.54837223142068,6.764752851000325,2.6269918158581675,18.34620167674776,-1.0261604198837109,0.4954249899243052,239.69531773195544,38.23594544194617,14.122919318844536,71.55267094591427,0.5652552279153203,120.59516299496993,893.3660701131878,15.288,0,3.037023361190186,0.112392797814236,4.632398518269396e-07,-0.0294984213355367,0.0126853526510892,0.0030948418579521,7.254713369551236,17.221318375060008,38.64844778952488,18.38155507817224
1.15,31.22217707364314,131.01047374866127,24.895298341211408,6.724037394886514,2.597883412735969,18.08355522435172,-1.0437154097520036,0.443141808538869,237.41251153546767,38.544824289949375,14.235337316550153,71.53549145670442,0.586758808383436,120.6178329084109,907.8277530698872,15.288,0,3.0441386688353607,0.1133011765237948,4.804658660242026e-07,-0.0303021571079552,0.0129991593162985,0.0032047414496255,7.206293132363597,17.085087000750523,38.95275905234168,18.11906968006932
1.16,31.22217646344928,131.010475061853,25.24430483188137,6.703756041365549,2.57681292953394,47.515633854123,-1.0580538695979762,0.3985816220916911,490.0437743845894,38.7355311079472,14.3100356568824,71.5178431339102,0.6087479135516309,120.64101701823137,916.8024925614249,15.288,0,3.0512173213865306,0.1138622010701993,4.9811029703365e-07,-0.0311190765765341,0.0133164607923155,0.0033073110240511,7.179831380842577,17.000744271772685,39.14015950067392,47.529083789397
1.17,31.22217584886328,131.01047638503923,25.596021239254508,6.673580967203044,2.552129671988215,8.338563387441898,-1.074124038070764,0.3494460205962782,153.70937929486794,38.98000263386992,14.401837718696145,71.49971803842809,0.6312253144039813,120.66471841895664,928.3800747534074,15.288,0,3.058264382737537,0.1145812742842754,5.161746431681318e-07,-0.0319518637111935,0.0136382430485744,0.0034171355660415,7.142868007783664,16.893907490584652,39.38075767262375,8.414718910151338
1.18,31.22217523112633,131.01047771572118,25.949622517730457,6.6303138036421645,2.5226661935175025,23.060526181014907,-1.092578392631615,0.2940503466719418,280.02501822196746,39.29926452082544,14.517573936560655,71.48110781509483,0.6541940300671882,120.68894047123376,943.6179128866438,15.288,0,3.065262172530815,0.1155202019537892,5.346692888556588e-07,-0.0327970601464035,0.0139631280004177,0.0035361341870628,7.092000428303433,16.75670233187034,39.69539598494451,23.088266736498376
1.19,31.222174609674,131.0104790550281,26.305483587046705,6.615649373708722,2.50419744337114,40.36349209611561,-1.1061660516582763,0.2505881376176861,428.4078130529292,39.44789706091037,14.578703254829808,71.46200385723075,0.6776571329178007,120.7136866008052,950.736566676976,15.288,0,3.0722290372046976,0.1159575730490401,5.535965064819752e-07,-0.033656760042686,0.0142918732686011,0.0036424258111124,7.071769545312356,16.691122700538507,39.84113025146849,40.37942411602403
1.2,31.22217398401529,131.0104804039347,26.663926250840014,6.577841022557986,2.4771782675112664,4.082104074295096,-1.1239317976365335,0.1963387205653086,117.1843741360236,39.730727127472576,14.682752271285716,71.44239817876388,0.7016167911629411,120.73895928686136,964.3852477290312,15.288,0,3.0791658194184826,0.1167894279068033,5.72959696905201e-07,-0.0345322491103697,0.0146249133483848,0.0037638384713764,7.026906711750238,16.570719800791895,40.11972016532025,4.238554618299537
1.21,31.222173355399686,131.01048175993364,27.024124928816164,6.541174340977184,2.4507784925301728,32.39411596860602,-1.1416413954275757,0.1419219338873626,359.92343213200894,40.00538468076909,14.784231580124942,71.42228194624612,0.726075870231902,120.76476174940188,977.7310475379038,15.288,0,3.086060937722591,0.1175972684306009,5.92769622395992e-07,-0.0354200347045279,0.0149608791362344,0.0038871563087733,6.983348505997851,16.45470878731234,40.39023468569291,32.41453742225188
1.22,31.22217272286684,131.01048312493987,27.3867117466084,6.524062185820459,2.4318210964186475,23.43496982875976,-1.1558122145201115,0.0961874101973013,283.0687504825761,40.15820461802484,14.846595146346244,71.40164671584655,0.751036579283736,120.79109652593264,985.1808340042916,15.288,0,3.092928383907737,0.1180469711914919,6.130263862164971e-07,-0.0363233546137818,0.0153009434584835,0.0040013789538256,6.960715316137902,16.38799758941641,40.54007950485681,23.463651991282056
1.23,31.2221720867914,131.01048449819453,27.75143670050736,6.48539599977867,2.4050256309494,9.054209734885855,-1.1741078697299887,0.0396838495767703,159.79687382222795,40.440084043805136,14.95039359950464,71.38048443351083,0.7765004822091921,120.81796547918928,999.02478005219,15.288,0,3.099760230718676,0.1188760586207472,6.337371455659001e-07,-0.037240911099314,0.0156445661589775,0.0041311082526945,6.915184940031669,16.270413357438294,40.81775365772143,9.130105038879943
