Time,Latitude,Longitude,Altitude,Angle of Attack,Angle of Sideslip,X-Acceleration,Y-Acceleration,Z-Acceleration,Thrust,True Velocity,Ground Velocity,Pitch,Roll,Yaw,Dynamic Pressure,cp,parachute_deploy_gain,Wind Speed,Mach,omega_x,omega_y,omega_z,Cmq,Angle of Attack(total),Angle of Attack(gust),True Velocity(gust),Acceleration
0.0,31.222216000000007,131.010392,3.000000004412624,0.0,0.0,0.0,0.0,0.0,2.2828121974499247,0.0,0.0,71.99999999612658,-1.0292491154817412e-14,119.99999999354436,0.0,15.288,0,0.0,0.0,0.0,0.0,0.0,-0.0,0.0,90.0,0.0,0.0
0.01,31.22221599999862,131.01039200000284,3.0000009727369523,0.0,0.0,0.0,0.0,0.0,34.24218696174923,5.916279387578309e-11,5.734623670548936e-11,71.99999999613168,-5.86671995824671e-13,119.9999999935449,2.1432944861733093e-21,15.288,0,0.0,1.7386402909615473e-13,-3.4220131069073734e-19,7.115076756936125e-19,5.488773498207866e-19,-1.1574302492039043e-31,0.0,89.99999999962336,5.916279387578309e-11,0.0
0.02,31.22221599999738,131.01039200000537,3.0000018317022668,0.0,0.0,0.0,0.0,0.0,25.871876237766408,1.2265415415436536e-10,1.1895038237325684e-10,71.9999999961369,-1.1836364828043265e-12,119.99999999354544,9.211895886571454e-21,15.288,0,0.0,3.6044858651615574e-13,-6.979551485375437e-19,1.4162390878091906e-18,1.0909784360635388e-18,-4.776231873571785e-31,0.0,89.99999999921916,1.2265415415436536e-10,0.0
0.03,31.22221599921969,131.01039200159065,3.0001883335529382,18.80143492628821,-0.0001350810307892,10.931161642028636,-1.75114298675875e-05,3.026590975169265,180.34219359854663,0.0798232026864394,0.0478175828508887,71.99999999765336,-5.341802909786072e-12,119.99999999436793,0.0039016003969354,15.288,0,0.0,0.0002345795854893,3.788270153300133e-17,-7.771883375645477e-10,1.1422790048099072e-11,1.7057759223764537e-13,18.80143492675591,89.51882325913425,0.079801984207741,11.342422482672777
0.04,31.222215995131297,131.01039200995308,3.001692634342189,9.19442604083399,-4.49173898918486e-05,52.29595764159784,6.445392950801871e-06,3.026413589912948,548.6359724538078,0.3504174083926908,0.1601447499964056,72.00000000319055,-3.111420077280171e-11,119.99999999870242,0.0751892535633216,15.288,0,0.0,0.0010297854387864,2.0082066977226968e-15,-1.520937588847922e-08,2.5623342884322286e-11,1.4654248781413086e-11,9.19442604094277,87.798916624545,0.3504103527855857,52.383455068075136
0.05,31.222215983575865,131.01039203366796,3.0074067499493786,5.158590039700252,1.707592688632746e-06,76.26884281015512,5.843947534199429e-05,3.0258124765658088,761.6984298824644,0.9592973585397016,0.3772700771701255,72.0000000004862,-1.3608731808076822e-10,120.0000000109612,0.5634958029902841,15.288,0,0.0,0.0028191251099456,2.086299069701397e-14,-1.0551247853743037e-07,3.973493515691201e-11,2.783064866637575e-10,5.158590039700515,83.94063169874748,0.959297626767734,76.32884071402438
0.06,31.222215961742712,131.0103920785344,3.019291017943491,4.109521257467909,3.140103977270004e-05,57.06876634333886,0.0001151069734147,3.024834864051463,590.4875390737208,1.6257536642597354,0.6118982818704327,71.99999992547217,-3.5903296759057166e-10,120.00000003412836,1.6184272268450337,15.288,0,0.0,0.0047776672697797,1.0694899894620088e-13,-3.741090980393931e-07,5.521401959501359e-11,1.6723176417636091e-09,4.109521257587776,79.78719176344794,1.6257585967235286,57.148873286519276
0.07,31.222215929936205,131.01039214392435,3.0371334573469446,3.649087515174788,5.707077112564807e-05,86.89643797254193,0.0001728541558773,3.0234947746384675,855.2937749779139,2.3057260079826607,0.8506307413593818,71.99999965378231,-6.907496536790437e-10,120.00000006788592,3.255354923652711,15.288,0,0.0,0.0067759305364855,3.495199904512709e-13,-9.036515915819006e-07,7.594816279105379e-11,5.728932851326001e-09,3.6490875156204896,75.6601668283889,2.305734972638426,86.94902215090157
0.08,31.222215886364623,131.01039223353447,3.0621840248716574,3.4254446680114707,8.413075603463509e-05,17.831756866644035,0.0002285946601282,3.021841001032126,241.2171988638848,2.961944911520492,1.0819695676346892,71.99999900671328,-1.141745983122182e-09,120.00000011415082,5.371998197385977,15.288,0,0.0,0.0087043901031071,8.800530155962314e-13,-1.829098470920821e-06,1.0943386634701918e-10,1.4896287129277132e-08,3.4254446690434226,71.81713637501419,2.9619581267487467,18.085991154451033
0.09,31.22221583454733,131.01039234010327,3.0919888289029,3.389560809024919,0.0001118726864415,54.09031716446879,0.0002748660999733,3.020060228038602,563.0937377043176,3.504225426410036,1.2780161667917422,71.99999774508822,-1.634190085504106e-09,120.00000016921716,7.519080503822694,15.288,0,0.0,0.0102980157586766,1.865782139518716e-12,-3.1503298654458527e-06,1.6284478329871028e-10,3.03536411425607e-08,3.389560810868955,68.76526501308032,3.504242999330529,54.17456206384468
0.1,31.22221577423132,131.0103924641528,3.1267248829165366,3.4447939461814814,0.0001419149103147,51.372195336549765,0.0003131602029306,3.0182021883815127,538.7437595981919,3.950569597142709,1.4443465951180965,71.99999562056465,-2.1287748602259068e-09,120.00000023339832,9.55649523509932,15.288,0,0.0,0.0116097108366932,3.485956000178229e-12,-4.949356763187612e-06,2.4573266549165286e-10,5.3761299442583966e-08,3.444793949101151,66.34639928474206,3.9505918890846927,51.460781166288626
0.11,31.222215706113143,131.01039260424562,3.165907002780892,3.4691423802630394,0.0001702373452339,40.591037561894986,0.0003534470100582,3.016051659024047,442.8656393052949,4.421478635995476,1.6182620895289603,71.99999235067894,-2.5564479031457968e-09,120.00000030601664,11.970509656144712,15.288,0,0.0,0.0129935974697161,5.942887149865172e-12,-7.273722517324353e-06,3.67769289312894e-10,8.842679949465076e-08,3.4691423844348632,63.88798785789768,4.421505376815134,40.70293476011277
0.12,31.222215630588888,131.0103927595646,3.2092596514826863,3.4852659299808075,0.0001974376474727,44.30042894095728,0.000394069215595,3.013641598889868,475.58594813540446,4.896982486381051,1.793579340340896,71.99998761802138,-2.8337988279882726e-09,120.00000038673312,14.683611096353944,15.288,0,0.0,0.0143909889875706,9.464337642181618e-12,-1.017558359402848e-05,5.395790443954697e-10,1.3700793350599625e-07,3.4852659355662303,61.5068242157714,4.897013499814194,44.40281567867803
0.13,31.222215548046687,131.0103929293088,3.256512891171917,3.5606043721293616,0.0002276507019012,48.86766833507025,0.0004268800875964,3.0112558910133567,515.9156326236895,5.278566579338586,1.939796541405244,71.99998107389406,-2.8573058577484587e-09,120.00000047523812,17.061052093156064,15.288,0,0.0,0.0155123760833565,1.4300406003001044e-11,-1.3705268062305584e-05,7.724776992181392e-10,1.989112774124932e-07,3.560604379397528,59.67313531776262,5.27860233862722,48.960358155653
0.14,31.222215458587108,131.01039311327068,3.30759734332425,3.6000732663755977,0.0002555702913645,45.540290862247225,0.0004629468001456,3.0085404980032777,486.2390860568404,5.70011779273801,2.098362647205908,71.99997235012626,-2.508533681468686e-09,120.00000057154703,19.894788765881632,15.288,0,0.0,0.0167512184495524,2.071534240530911e-11,-1.7917736259613292e-05,1.0787346240473087e-09,2.8081526258393346e-07,3.6000732754351943,57.72385750323359,5.700157937625502,45.639559681930805
0.15,31.222215362317904,131.01039331122794,3.3624387479639086,3.651605404442164,0.0002842753491325,44.01308509501,0.0004965057129938,3.005703619811542,472.54218587214,6.091938849578711,2.2476968067377374,71.99996103728932,-1.6446954747148112e-09,120.00000067569304,22.723773683610247,15.288,0,0.0,0.0179026934683374,2.9002783512213203e-11,-2.287326399669318e-05,1.47199345427166e-09,3.831202693354572e-07,3.651605415492516,55.98561718911576,6.091983503446133,44.115597174664394
0.16,31.22221525912812,131.01039352340948,3.421115382839859,3.67540086436193,0.0003108411545024,34.83804992586084,0.0005330990866742,3.002517946501868,391.1218908297564,6.521183188362317,2.4085903880902046,71.99994669525161,-1.0153513453738144e-10,120.00000078796704,26.03872642002185,15.288,0,0.0,0.019164148528834,3.9478358970291335e-11,-2.864207894220033e-05,1.9677461746207517e-09,5.135466997084602e-07,3.6754008774883777,54.15946979122355,6.521232015176687,34.96719658394182
0.17,31.2222151493826,131.01039374906244,3.4833737923187487,3.7139589864597298,0.0003384978477213,43.96471427482637,0.0005668629535037,2.999235483723449,471.78125980632376,6.916861975403744,2.559060925010733,71.99992884100092,2.3206494032971838e-09,120.0000009081849,29.29426197817256,15.288,0,0.0,0.0203269651395979,5.248754693205839e-11,-3.5267097947693114e-05,2.580363454062817e-09,6.706952682968329e-07,3.713959001863866,52.549031795895466,6.916915146521327,44.06689817851128
0.18,31.22221503253009,131.01039398932429,3.549599475912623,3.7380363034619775,0.0003650282082698,36.67395661481795,0.0006021794701355,2.9956556354306425,407.10156721191447,7.332140201215607,2.71556808256092,71.99990696207136,5.837017536380516e-09,120.00000103716444,32.917216366714264,15.288,0,0.0,0.0215473823438242,6.839750892601699e-11,-4.285557247677198e-05,3.331016495775474e-09,8.639362741436378e-07,3.738036321259578,50.93050624815799,7.332197539712479,36.796100973258795
0.19,31.22221490871209,131.01039424390297,3.619694897703461,3.747799769666444,0.0003901520189829,41.42208371271829,0.0006393759928961,2.991742733214697,448.9531328318269,7.771071983754382,2.879366399937307,71.99988049019642,1.0709144790974043e-08,120.00000117502664,36.97605053227239,15.288,0,0.0,0.0228373144884866,8.761416506509219e-11,-5.146771415177372e-05,4.238406957677133e-09,1.0996552116864756e-06,3.747799789945131,49.29705748437159,7.771133268690212,41.529983675580546
0.2,31.22221477769685,131.01039451327668,3.693822889232993,3.7700519460961166,0.0004166800650969,37.99697972290605,0.0006740224661302,2.987733789228414,418.51563019916136,8.179966026035371,3.0338260708461373,71.99984881140107,1.723179577184912e-08,120.0000013223286,40.969302182777255,15.288,0,0.0,0.024038975990988,1.1057590044953188e-10,-6.120032215177249e-05,5.3263847350253015e-09,1.376394225587184e-06,3.7700519690893857,47.8457752505109,8.180031477986942,38.11426270718793
0.21,31.222214639876928,131.01039479663547,3.771710975053407,3.7926098867321474,0.0004432924407074,36.46301043881366,0.0007080907240332,2.983530483977461,404.8187610144644,8.582757448615462,3.1863584283669346,71.99981127559042,2.5745201416596626e-08,120.00000147900325,45.103059028532826,15.288,0,0.0,0.0252227064089584,1.3774582723633048e-10,-7.20875523136271e-05,6.61341033873124e-09,1.7010673350603349e-06,3.792609912601061,46.47936953648762,8.582827080829217,36.584868250565684
0.22,31.22221449507626,131.01039509434258,3.8534832466471007,3.782921298925821,0.0004660920499522,44.14577847155813,0.0007479176313898,2.978724032883548,472.5421858721365,9.056569122268344,3.360845972992861,71.99976720416048,3.661811567390422e-08,120.00000164562512,50.21995530074818,15.288,0,0.0,0.0266151520780326,1.6960703048385348e-10,-8.421592474264931e-05,8.124635526119773e-09,2.0969540034515424e-06,3.7829213275976334,44.9464484092354,9.056642335836344,44.24615863872642
0.23,31.22221434283448,131.01039540734791,3.9394622486964206,3.813874679301352,0.0004940771488601,36.66675459308932,0.000779455230549,2.974212905336642,406.3406421461021,9.430647902846331,3.5044030163419806,71.99971583979395,5.0272885112871524e-08,120.00000182313076,54.45382429059888,15.288,0,0.0,0.0277145095638672,2.0669790509245914e-10,-9.77285871729516e-05,9.894576563683824e-09,2.5339062472561444e-06,3.813874711257219,43.79476959007253,9.430725512303388,36.78718303164376
0.24,31.222214184153326,131.01039573358457,4.028950821673608,3.829256049377765,0.0005200487408944,37.802126339316736,0.0008136255607606,2.9692962675112065,416.2328240017114,9.837806876534357,3.658163422426286,71.9996564062533,6.718950080713476e-08,120.0000020109434,59.25679777340223,15.288,0,0.0,0.0289110855155543,2.4956955046738006e-10,-0.0001125744417092,1.1934277804843484e-08,3.0448209172448607e-06,3.829256084638984,42.59361542722471,9.83788856559955,37.91856374864305
0.25,31.22221401888584,131.01039607335582,4.122052964664892,3.851417709838087,0.0005469594058717,38.85163035360012,0.0008459008130282,2.964283881833675,425.36408079150686,10.22297576958679,3.8050691648373967,71.99958811418384,8.786880969336211e-08,120.00000220974424,63.98709205399403,15.288,0,0.0,0.0300430411774988,2.987811646313829e-10,-0.0001288461362054,1.4273117985167728e-08,3.621333387698252e-06,3.8514177486178034,41.50703126619192,10.223061685769354,38.96455005232871
0.26,31.222213847358866,131.0103964259872,4.218542267117083,3.8780574625554745,0.0005745172425185,42.3164797140743,0.0008766626387865,2.959162938653076,455.8015834241788,10.590779679138215,3.946551912391076,71.99951013710364,1.1286401474734325e-07,120.00000241975916,68.67355887153568,15.288,0,0.0,0.0311239685467471,3.5491769188178554e-10,-0.0001465721578858,1.6932703957058654e-08,4.267712643344226e-06,3.8780575050466,40.51245375834074,10.590869924095635,42.41981967733593
0.27,31.22221366913008,131.0103967923915,4.318728802515264,3.886188503202341,0.0005994342651313,38.70936050721014,0.0009111181036949,2.953518013741325,423.84219965987256,11.004860953238978,4.102320296019413,71.99942161756776,1.4276417094868828e-07,120.0000026420792,74.14786134434608,15.288,0,0.0,0.0323408987462391,4.1858405402174807e-10,-0.0001658847815307,1.995072923688136e-08,5.018832267232506e-06,3.886188549362022,39.43841359495857,11.00495511215316,38.8218734782956
0.28,31.22221348431185,131.01039717233687,4.422535913956003,3.90556090261878,0.0006261175699806,44.68030766832924,0.0009425767186621,2.947879457547137,476.3468732012221,11.38358114165448,4.247086834352694,71.999321619057,1.7823531611327881e-07,120.000002877279,79.33831935330025,15.288,0,0.0,0.033453914386159,4.904408325040897e-10,-0.0001868529238516,2.3357766479368094e-08,5.847713054408178e-06,3.9055609527288775,38.49894431917428,11.383679491972384,44.77744842575601
0.29,31.222213292835256,131.0103975659655,4.530013412817602,3.9242599519377537,0.0006528240665589,35.802573724660256,0.0009737210635801,2.942037024315898,397.97031042211177,11.759725774384751,4.391004157029451,71.99920917567837,2.1999186079018322e-07,120.00000312617878,84.66717879828003,15.288,0,0.0,0.0345593650464213,5.711677680739745e-10,-0.0002095620322847,2.7188189988316943e-08,6.77505090435382e-06,3.9242600061534456,37.60352534239979,11.759828319749328,35.92324968749781
0.3,31.222213095024976,131.0103979726075,4.64093665799555,3.936939025755682,0.0006785438093183,33.570228713727204,0.0010059102294455,2.93586442972183,378.1859457108711,12.149968255527943,4.539237002744259,71.99908328532703,2.6880857935396905e-07,120.00000338923812,90.3787563598417,15.288,0,0.0,0.0357062504417728,6.614698865958865e-10,-0.0002340353597042,3.1467140861055e-08,7.817263716758327e-06,3.9369390841381695,36.71173884615234,12.150074840940263,33.698361337808635
0.31,31.22221289105846,131.01039839189684,4.755183729044857,3.9598342215431432,0.0007060286581592,35.396825578217346,0.0010350810412898,2.9297385597941448,394.1656220930212,12.504537499407316,4.6763673222047455,71.99894291513503,3.255120771695107e-07,120.00000366712923,95.72967338626896,15.288,0,0.0,0.0367483036680869,7.620720834468404e-10,-0.0002603234137215,3.622454560346964e-08,8.948994505138873e-06,3.9598342843844345,35.934338386209795,12.504648402129598,35.5178635353378
0.32,31.222212681031937,131.01039882363492,4.872689374180126,3.985461429033668,0.0007340760463279,38.52097867048992,0.0010630242168685,2.9235095146848846,421.55939346242695,12.84534566718622,4.809181081594425,71.99878701464397,3.909756427278764e-07,120.0000039606604,101.01782231644016,15.288,0,0.0,0.0377499198995686,8.737098716736534e-10,-0.0002884807530145,4.1491545539590986e-08,1.0187112828155184e-05,3.98546149652875,35.21473736963424,12.845460975581933,38.631757748577954
0.33,31.22221246496604,131.01039926777932,4.9934410812554,4.010606629086,0.0007621365968788,38.18822026147908,0.0010905599149574,2.917102431053817,418.5156301991682,13.18247167592885,4.940798912752974,71.99861449732019,4.661299779655886e-07,120.000004270781,106.38859400029033,15.288,0,0.0,0.0387407190563976,9.971421990244511e-10,-0.0003185760672934,4.7302669734505256e-08,1.154498667827874e-05,4.010606701382261,34.52805863348922,13.182591392065536,38.299473293007864
0.34,31.222212242662028,131.01039972474007,5.117579377337869,4.019339771238816,0.0007871574969313,29.898022638335373,0.0011220389395318,2.910051232417875,345.46563688075645,13.569536737955724,5.0878303926024735,71.99842423285973,5.519675040347761e-07,120.0000045987411,112.72655675097128,15.288,0,0.0,0.0398782837956187,1.1331556132162459e-09,-0.0003507224668667,5.37022358302301e-08,1.308298593306914e-05,4.019339848191799,33.76700548046532,13.5696603843662,30.039310197084795
0.35,31.22221201433324,131.01040019407705,5.2449575244483055,4.033762873683395,0.000813261106463,32.76415525156106,0.0011515840876071,2.902959820469776,370.5765700527033,13.934300103976534,5.227895396154902,71.99821502296155,6.495674834876441e-07,120.000004945438,118.8669740701126,15.288,0,0.0,0.040950312688979,1.2825853697215452e-09,-0.0003849609961885,6.072234695821837e-08,1.4746020857580124e-05,4.033762955530055,33.07785186209504,13.934427850732408,32.89250745069162
0.36,31.22221177990305,131.01040067594835,5.375631006350063,4.051723629010647,0.0008401329464575,37.01692984301412,0.0011797030485285,2.8957873473716007,407.8625232777193,14.282998147928636,5.362923567977223,71.9979856440668,7.600645476620651e-07,120.00000531213882,124.88900300695136,15.288,0,0.0,0.0419751331662584,1.4462801652534363e-09,-0.0004213876232777,6.84067806399068e-08,1.654507199147348e-05,4.051723715967022,32.44322602189087,14.283130115703262,37.13002398000203
0.37,31.222211539445663,131.01040117020102,5.509550188388412,4.071639898917391,0.0008674922629137,35.12417761390579,0.0012067983861697,2.88849906286036,391.1218908297666,14.620581431527652,5.494447309446232,71.99773482653193,8.846681943540367e-07,120.00000570002652,130.86067091914967,15.288,0,0.0,0.0429672939311924,1.6251202388969355e-09,-0.0004600660652957,7.679415042686734e-08,1.849041957573993e-05,4.071639991174516,31.85023865502424,14.620717696893658,35.24274792557624
0.38,31.222211292895075,131.01040167697127,5.646763233102716,4.08264881385344,0.0008930259828975,36.695642158537446,0.0012360471443664,2.880711738179021,404.8187610144602,14.986392916850402,5.634654729559426,71.99746126698146,1.0246533537040716e-06,120.0000061105033,137.4891296153862,15.288,0,0.0,0.0440424171304414,1.8200057922063743e-09,-0.0005010869196581,8.592980519823866e-08,2.0642694281337543e-05,4.082648911356968,31.228847973200924,14.986533193043764,36.808540518115166
0.39,31.22221104018777,131.0104021963902,5.787316652586672,4.096641430700089,0.0009192713382325,31.335681548387896,0.0012640110027448,2.872831219844713,357.64062493382744,15.337978856701952,5.770390286512262,71.99716358743511,1.1813915463769678e-06,120.00000654506955,144.01394309468844,15.288,0,0.0,0.0450757388736732,2.031886352449547e-09,-0.00054455673306,9.586443829735616e-08,2.295945663566148e-05,4.096641533664766,30.65298398882095,15.338123255506089,31.4670954954126
0.4,31.222210781536543,131.01040272801887,5.931064331106764,4.109028969993624,0.0009451871856381,29.95928076777898,0.0012920492774571,2.8646905607053603,345.465636880754,15.692185018814769,5.906873567965718,71.99684037970908,1.3563276523471372e-06,120.00000700500496,150.74021066990193,15.288,0,0.0,0.0461167659598875,2.2617341782092324e-09,-0.0005905037520737,1.0663253249436129e-07,2.5471259834659164e-05,4.1090290785164525,30.09246700352443,15.692333488470696,30.095929256306363
0.41,31.222210517064383,131.01040327160345,6.077922766619747,4.122888296344507,0.0009714525997821,33.78425365340317,0.0013192264430821,2.85640971467756,378.94687077668647,16.03742529732769,6.0405139809190125,71.99649020751959,1.5509747261474075e-06,120.0000074917568,157.44375780268788,15.288,0,0.0,0.0471314487675864,2.5105374204052982e-09,-0.0006389770219162,1.1827345344180344e-07,2.816813594418537e-05,4.122888410595805,29.56469007160549,16.037577892745222,33.904791300285986
0.42,31.22221024682894,131.0104038270252,6.227854084363214,4.14444025865494,0.0009995884754813,38.04468161607466,0.0013435485656724,2.8482703202464488,416.2328240017114,16.348862540904037,6.163613566771559,71.99611159893284,1.766920641656551e-06,120.00000800692096,163.6157044470786,15.288,0,0.0,0.0480467946810589,2.779304965995011e-09,-0.0006900467934588,1.308321832549104e-07,3.100973487310896e-05,4.144440378988911,29.104646754454564,16.34901955589459,38.15115260238947
0.43,31.222209970843565,131.0104043942566,6.380851271439565,4.1618082623168045,0.0010268052928652,33.45815353250911,0.0013687230309017,2.8397750580998298,375.9031395134336,16.67263197205097,6.290467308135904,71.99570306121484,2.005818691215035e-06,120.00000855220898,170.15779512382937,15.288,0,0.0,0.0489983878509763,3.0690566816849196e-09,-0.0007437862329608,1.443552931671376e-07,3.4086145072160934e-05,4.161808388761201,28.640125213458976,16.672793262249197,33.57845085853367
0.44,31.22220968892116,131.01040497368373,6.537047157143216,4.164954087655709,0.0010505545842624,30.86574023822051,0.0013980747538988,2.830419582421933,353.0750125389216,17.050421620730056,6.433992917638883,71.99526304125902,2.269416145406482e-06,120.00000912964636,177.9537948947602,15.288,0,0.0,0.050108743779844,3.380847125286677e-09,-0.0008003278134917,1.589055036683518e-07,3.750784460406397e-05,4.164954219916419,28.113519280259386,17.050586641458253,30.99524475496968
0.45,31.22220940081287,131.01040556582012,6.696617751072218,4.165241899529329,0.0010735835484822,35.912216710755274,0.0014280646808282,2.820677244966047,397.2093853562869,17.438293672974723,6.580571293039616,71.99478987454265,2.5595995397253085e-06,120.00000974147088,186.13940823302417,15.288,0,0.0,0.0512487363629523,3.7158016249566814e-09,-0.000859850913876,1.745604864109677e-07,4.121350642664912e-05,4.1652420376426775,27.591357195572936,17.43846231108416,36.02281959036367
0.46,31.222209106468902,131.0104061707686,6.859600379555308,4.174585124444534,0.0010989881252456,41.916816790010685,0.0014546917035209,2.811153314474766,449.7140588976434,17.786187321601275,6.714685486378061,71.99428180697711,2.8783880229668832e-06,120.0000103898448,193.6374175079873,15.288,0,0.0,0.0522712438446989,4.0751091178509895e-09,-0.0009224765531151,1.9138630415982226e-07,4.50966024037632e-05,4.1745852688465686,27.13985967570823,17.786359950252297,42.01097612387663
0.47,31.22220880579083,131.01040678873238,7.026066274755745,4.1823089530633855,0.0011240727220223,28.37640408484148,0.0014814747534716,2.801325368441072,331.0078106302534,18.138167428286582,6.849989708801916,71.99373704967608,3.2278903746588286e-06,120.00001107707628,201.37401505997488,15.288,0,0.0,0.0533057667609836,4.459978104761035e-09,-0.0009883252835099,2.094509673354327e-07,4.927107017839778e-05,4.182309103852639,26.69716826759888,18.13834399721685,28.514342615617974
0.48,31.222208499300592,131.0104074186346,7.195654207463586,4.189479568102716,0.0011490100608361,27.95074823096412,0.0015080719422187,2.7912412472910484,327.2031223011574,18.48995085190441,6.98515976370584,71.99315377257649,3.6103201777021456e-06,120.00001180491516,209.25751230436188,15.288,0,0.0,0.0543397174489847,4.8716620260348906e-09,-0.0010573190976925,2.2877013380347535e-07,5.373205427420879e-05,4.189479725385959,26.268461765425428,18.4901313379827,28.089773168283216
0.49,31.222208187201936,131.01040806005494,7.368224738812109,4.202723284133339,0.001175611380853,35.08821363242469,0.0015321405723077,2.781292092003844,389.60000969812296,18.812014261754847,7.111044804193205,71.99253015042137,4.027946338669921e-06,120.0000125755114,216.60722913930897,15.288,0,0.0,0.0552863302793499,5.311396446020465e-09,-0.0011294854492155,2.4938633613154685e-07,5.8398320167141767e-05,4.202723448262914,25.88860807032205,18.81219892635871,35.1982716047702
0.5,31.22220786953184,131.01040871291724,7.5437546994244835,4.220815778795054,0.0012036252596423,36.05491615971072,0.0015540388599792,2.7714444106710974,397.97031042210494,19.10875420627192,7.229005658018125,71.99186435180009,4.483102820610566e-06,120.00001339126192,223.4908652241728,15.288,0,0.0,0.0561585257949344,5.7804122391526605e-09,-0.0012048912160576,2.713531252030471e-07,6.327866493526626e-05,4.220815950099865,25.54902500917784,19.108943271285572,36.161276053538906
0.51,31.222207546379583,131.0104093770373,7.722184419225251,4.232567510615346,0.0012298790840397,27.54004661432325,0.0015777580800203,2.761017323676155,323.3984349720841,19.430597746636646,7.354673636736509,71.99115452520388,4.978202222778502e-06,120.00001425458936,231.07869697977367,15.288,0,0.0,0.0571045034845869,6.2799518101633574e-09,-0.0012835871653678,2.947201005874635e-07,6.854585242460463e-05,4.232567688976395,25.189423168613605,19.430790935591396,27.678103017910345
0.52,31.222207218166886,131.0104100524404,7.90355990263708,20.5513421388249,16.879363386749457,34.06619981796029,-1.462597688912443,1.407631161409638,372.0984511843415,24.45540262712649,7.475994172925549,71.99035005946153,0.0001941477242273,120.00021351801269,366.04093741341217,15.288,0,10.057168033912772,0.0718720288545561,6.9016458690369836e-09,-0.0016642816382386,0.0003499095487396,0.0001118571449286,26.360506242021817,41.52247457280666,27.068620600968963,34.1266257857905
0.53,31.222206885846155,131.01041073933035,8.088081369309716,20.350229097250047,16.681668223418434,35.735503172767885,-1.4960413752083996,1.3636091422764296,386.5562464348624,24.780670807061288,7.59315566566988,71.98925814227019,0.0012033574344888,120.0012750787444,375.8360597802076,15.288,0,10.095887947211212,0.0728281117179848,7.977998975442915e-09,-0.0022061470086866,0.0008469759732817,0.0001502456487944,26.08722915649517,41.06755180310934,27.3641572568312,35.79278917184492
0.54,31.22220654938321,131.0104114378949,8.27582845767761,20.15510627798533,16.48927051742207,31.484379334341096,-1.5299050590124394,1.318963296077586,349.2703242098436,25.10456580666748,7.709446372765184,71.98785189611397,0.0030973751733771,120.00326705437756,385.7180203263768,15.288,0,10.134543574886608,0.0737801655877099,9.547901779541877e-09,-0.0027630342861597,0.0013555328522696,0.0001906275013962,25.821592936741908,40.62460953439642,27.65908788553688,31.549111171864674
0.55,31.222206209104208,131.01041214751035,8.46659671953438,19.970282850999087,16.30533795305932,33.327796224226184,-1.5638340991553044,1.2741374494669304,365.2500005919907,25.42181557348575,7.82309159449037,71.98612279104955,0.0058958162436812,120.00621008898248,395.5211139975025,15.288,0,10.173086131810164,0.0747126962264246,1.1622076993450276e-08,-0.0033344801081063,0.0018751424414835,0.000232955681238,25.5688225891147,40.201177595605,27.948620723907304,33.38878560974268
0.56,31.22220586503936,131.01041286816212,8.660387304306612,19.798658919261257,16.13200668512364,31.16395123666867,-1.597540430186828,1.229492539071966,346.2265619465787,25.72833697785911,7.932714380504243,71.98406236251051,0.0096178907313759,120.01012440673406,405.10900213805576,15.288,0,10.211512049888553,0.0756137035845434,1.4211001309906697e-08,-0.0039207384008649,0.0024059633559998,0.0002772107780652,25.332452378756223,39.80237826482272,28.228998879589376,31.22908330404813
0.57,31.222205517294245,131.0104135996788,8.857148370640996,19.62412353124364,15.957309556499972,30.82902188027949,-1.632229184008804,1.1834991358596436,343.1828296833023,26.042110106881225,8.044488928212171,71.98166205335895,0.0142826976861892,120.01503012382808,415.0425279536301,15.288,0,10.2498018772636,0.0765360297830612,1.732511106223062e-08,-0.0045218287038859,0.0029479596308659,0.0003236030468558,25.092935836160137,39.40033735129334,28.5163995933351,30.894877122404324
0.58,31.222205165873927,131.01041434209588,9.056897888095609,19.436525553041896,15.77370819538716,40.34624050877885,-1.6687954095227002,1.135021379570317,426.1250058573153,26.375709809316174,8.162692747633038,71.97891330511378,0.019909362418058,120.02094738318848,425.73586725596857,15.288,0,10.287953283061317,0.0775166317999525,2.0974865572957733e-08,-0.005138024216958,0.0035013045117085,0.0003724039662598,24.837929158605487,38.977338266323535,28.822257903980503,40.396686433953384
0.59,31.222204810381047,131.01041509628055,9.259934975339018,19.27356333919468,15.609153866213376,32.86200889817603,-1.7041510031674023,1.0879707709412398,360.68438819711065,26.683796551474227,8.271835714033529,71.9758069078054,0.0265181081446921,120.02789749760498,435.731244428121,15.288,0,10.326022745211892,0.0784222599135942,2.517131892025272e-08,-0.0057707218905703,0.0040670953096176,0.0004231392318369,24.61322946856726,38.59895905489704,29.105459824032096,32.924146759845115
0.6,31.222204451068908,131.01041586175722,9.466105257990952,19.084916288625006,15.42632214008425,29.29915872562686,-1.7425617849467616,1.0369370180251,329.4859594986058,27.027961479564084,8.392908815663162,71.97233348614957,0.0341292777311437,120.03590191272056,447.0349163804602,15.288,0,10.363972220869409,0.0794339270979386,2.992572049591454e-08,-0.0064195669753725,0.0046449843301481,0.0004767777232922,24.357681053237595,38.17752267597841,29.42195250295858,29.369243469711375
0.61,31.22220408791505,131.01041663861915,9.675446518753336,18.895729639445303,15.24384077724444,34.19931541822725,-1.7819886821061357,0.9845016112678784,372.0984511843297,27.378049348356303,8.515624564253807,71.96848349351185,0.0427635315107909,120.0449824113828,458.6814079860376,15.288,0,10.40180620415801,0.0804630091560157,3.5249487870991e-08,-0.0070849651129605,0.0052352470647219,0.0005330014836263,24.10182122350737,37.7567633101764,29.74439684421114,34.259858466741214
0.62,31.222203721069327,131.0104174266046,9.887876731256895,18.75471620057749,15.097786232354464,42.33183659277509,-1.8178313704272533,0.936495862190273,442.86563930529206,27.669505632184386,8.618131767416742,71.96424709267639,0.0524418437965087,120.05516111778697,468.4897284710013,15.288,0,10.43952279273914,0.0813197825821775,4.1154288618663446e-08,-0.0077669813811603,0.0058378761172442,0.0005905178157604,23.904928062028613,37.42204007614809,30.013710476881347,42.3811977734068
0.63,31.222203350364524,131.0104182261011,10.103532776694736,18.60283859318561,14.94438346576738,24.35893289195868,-1.85542766580682,0.8861438654604379,286.11251274707894,27.97815759010916,8.726155764073285,71.95961468341795,0.0631842606898682,120.0664591894844,478.99006400867376,15.288,0,10.477091637286934,0.0822271007591406,4.765121040662518e-08,-0.0084662812877215,0.0064533594672799,0.0006508518640423,23.69518118195417,37.070123699830205,30.299089354813194,24.445561445961534
0.64,31.222202976443388,131.01041903582848,10.321988555859456,18.432108755329555,14.777725130488449,23.93264341400441,-1.895717901218916,0.8322512943904522,282.30782441796754,28.316237176572976,8.843830529953092,71.95457647378844,0.0750108445272898,120.07889781299497,490.62565383954137,15.288,0,10.514536965034033,0.0832209132497808,5.47516810650346e-08,-0.0091813836033117,0.0070804251580379,0.0007143399041802,23.46283936905968,36.686795186863776,30.611865978606065,24.02202758636134
0.65,31.222202599311096,131.0104198558172,10.54326035993552,18.29665963314769,14.63781947933868,41.68085101011831,-1.9332339132249128,0.7817506969530239,436.7781447787475,28.60860967538815,8.945811065839779,71.94912293203157,0.0879409640540904,120.09249744764364,500.79899337443607,15.288,0,10.551731630495274,0.0840804006686294,6.246655757303258e-08,-0.0099126860993769,0.0077193379325496,0.000779184160408,23.27378219004508,36.36724320459898,30.882982245703868,41.732982980409034
0.66,31.222202218458488,131.01042068715415,10.767720626416128,18.155840772640573,14.49461556162596,35.57783808809429,-1.9720588447874328,0.7294639813317905,383.51251517160017,28.9111812858412,9.050928800003785,71.94324418993695,0.1019940353420784,120.10727862557526,511.43713130589737,15.288,0,10.588842057910108,0.084969870591353,7.080654894472534e-08,-0.0106618957960843,0.0083714308318422,0.0008469210337902,23.0785464684759,36.03998428098069,31.16378246704699,35.63991718298483
0.67,31.2222018341062,131.01042152942702,10.995236333590825,17.998689519215635,14.339998742253572,24.749585269787143,-2.013459369097748,0.6737715698621524,289.1562440103425,29.240533819374782,9.164772398646482,71.93692988038968,0.1171906212260391,120.1232630873548,523.1445280534899,15.288,0,10.62581842545083,0.0859380572294583,7.978342426795683e-08,-0.0114287083172585,0.009036393958691,0.0009181541590374,22.86375843262526,35.68566426598029,31.469612705650675,24.840490288756918
0.68,31.22220144645661,131.01042238226043,11.225686886887324,17.84922500103165,14.191684579181617,30.706822812045967,-2.054871917168372,0.6179256846473837,340.8999924858462,29.561942381936607,9.27567130009632,71.93016951059548,0.1335510164538301,120.14047230837588,534.6965906170141,15.288,0,10.662580318626114,0.0868829042895452,8.940887183300952e-08,-0.0122129286219689,0.0097140046991185,0.0009919192861176,22.658652207862215,35.34659565001947,31.768442558323404,30.78170394825635
0.69,31.222201055617088,131.01042324547248,11.459016791133893,17.719780162275974,14.058771818634575,37.62965630586351,-2.0947900662813086,0.563848128643954,401.0140726853634,29.8560056602532,9.377116931298255,71.9229526951318,0.1510949586531376,120.15892718703554,545.3749177085144,15.288,0,10.69921127283244,0.0877473907852847,9.969430742529765e-08,-0.0130145478488434,0.010404192299282,0.0010675165268996,22.47827062602537,35.044508047978674,32.0422592037323,37.692135835361995
0.7,31.22220066146531,131.01042411935032,11.69532854015492,17.591014052419453,13.926956172237617,31.691972728289848,-2.1353556647377614,0.5088078850675364,349.27032420985284,30.15114523800538,9.478667591165197,71.91526905567831,0.1698417051078922,120.1786481306462,556.1981266577425,15.288,0,10.7356873788531,0.0886150480876486,1.1065078421524445e-07,-0.0138342372710271,0.0111074371380053,0.0011459429467682,22.29904018482533,34.74531529891718,32.317307652306425,31.767904631711264
0.71,31.222200264079465,131.0104250037696,11.934585886452174,17.452234977865803,13.788337741875248,26.188405762561047,-2.177902480705185,0.4510966716333841,301.33126406340574,30.464240174228863,9.585994117031058,71.90710787627182,0.1898107842363279,120.1996558483144,567.7963801033537,15.288,0,10.771950284963845,0.0895354844273156,1.2228975924429816e-07,-0.0146720548111136,0.0118237211896561,0.0012279347118155,22.1079149558704,34.43012203933689,32.60926222396007,26.2826814424853
0.72,31.222199863483045,131.01042589871793,12.176790420000431,17.301415313653695,13.641455398164446,31.88983863826301,-2.2228556857372856,0.3901719581392152,350.79220534145287,30.7997676176458,9.700565441622896,71.89845813851062,0.2110219116505915,120.2219712630156,580.3589638047013,15.288,0,10.80808148443072,0.0905218588602614,1.3462284750931914e-07,-0.0155283023494269,0.0125532226167799,0.0013138787910567,21.90242849527572,34.09520169745668,32.9223752954764,31.969596962285674
0.73,31.22219945969452,131.01042680419403,12.42194757609482,17.184575380271237,13.520153143369276,40.13437733499944,-2.264259200249336,0.3336336735170435,422.320318528234,31.082523015318984,9.797221161906668,71.88930855693629,0.2334952839130531,120.24561580991148,591.0498623260122,15.288,0,10.84408568844392,0.0913531419622668,1.4766201583749476e-07,-0.0164033546153473,0.0132961737034011,0.0014006273327666,21.738669241375987,33.82204323736904,33.18660934123183,40.19958240109138
0.74,31.22219905266564,131.0104277203289,12.670106898483732,17.0584456318776,13.392547433302331,25.42746505129241,-2.3075884685339885,0.2744791075809956,294.48281347105944,31.38223707891644,9.899321107291442,71.87964796020029,0.2572500254690606,120.27060982033947,602.4888875299728,15.288,0,10.879858223692535,0.0922342753211335,1.614187124668837e-07,-0.0172975713497197,0.0140527967374467,0.0014911877920849,21.563874822283573,33.534104227916174,33.46682941610501,25.533434595747323
0.75,31.22219864280036,131.0104286463294,12.921006928456851,16.92696954328664,13.261559120550675,29.55531757364235,-2.3524596953429646,0.2132011799390733,330.24688556441487,31.693243120648127,10.00497255063553,71.86946504461312,0.282305123580175,120.29697349545548,614.4748941516297,15.288,0,10.915464418382909,0.0931486043881974,1.7590494321861424e-07,-0.0182099569491607,0.0148222259759988,0.0015853620106663,21.38285713263698,33.23823809069987,33.75781396402448,29.649558483056587
0.76,31.22219822999832,131.0104295824312,13.174732415801364,16.807950826447307,13.140244249599636,31.75653307536051,-2.396367839045819,0.1530004156423185,349.27032420986166,31.9848591396325,10.1039262011277,71.8587484819121,0.3086790787046304,120.32472654229343,625.8194868767956,15.288,0,10.950918991833952,0.0940059528676153,1.9113193467232962e-07,-0.0191412212391441,0.0156049608847688,0.0016817303019734,21.21731371906362,32.96602385727543,34.03087744253654,31.847187959279324
0.77,31.22219781421508,131.01043052875423,13.431328997219076,16.692726318836485,13.02221664555158,29.74933491639332,-2.4404553541139866,0.0924116914773625,331.7687666960708,32.271303656120644,10.200940586785892,71.84748674487614,0.3363903039677103,120.35388859420564,637.0631949543325,15.288,0,10.986197106441132,0.0948481098428435,2.071110781396197e-07,-0.0200918351754202,0.0164013085066184,0.0017810154176747,21.05667507344928,32.70211346192801,34.29926333255371,29.849410215679036
0.78,31.222197395536625,131.01043148515143,13.690752433172536,16.56886057750491,12.898352161194875,24.58279678266397,-2.486567909286436,0.0290616015279289,286.8734378128899,32.57470080225427,10.303406978795188,71.83566816977451,0.3654569536577054,120.38447903107706,649.0819718476254,15.288,0,11.021255855847556,0.0957401001149749,2.238539820218076e-07,-0.02106176468416,0.0172111718442551,0.0018844991004116,20.88577377821392,32.42441268684181,34.58369953646847,24.708252916827817
0.79,31.222196974074222,131.01043245142415,13.9529412098408,16.44070697578229,12.771858253070349,34.59345915671202,-2.534180201123939,-0.0363775717415594,373.6203323159534,32.88801485868402,10.408971490870572,71.82328087529014,0.3958970972026954,120.41651716330468,661.6115236382454,15.288,0,11.0561506956615,0.0966612454398092,2.4137239780027976e-07,-0.0220509618658828,0.0180344426705643,0.0019919342816432,20.709920956320445,32.14056774071016,34.87764045381087,34.686176051081176
0.8,31.222196549605325,131.01043342805167,14.218061645445172,16.332118378935355,12.6601533512103,35.04216297496576,-2.579504493839897,-0.0990457605045628,377.42502064505743,33.166780431888895,10.50281392928998,71.81031260360818,0.427729076590367,120.45002260923695,672.8578368084344,15.288,0,11.09090757093673,0.0974808576070367,2.5967773881257624e-07,-0.0230606409126613,0.0188720102367839,0.0021007454878014,20.55818180275938,31.89301606437086,35.13928982777611,35.13711484257743
0.81,31.22219612225533,131.0104344148042,14.486041542835949,16.212735332544646,12.541045421839868,23.11117800662881,-2.627315084466965,-0.1650789118160132,273.9374926939919,33.46718208577636,10.603658655584368,71.79675105268305,0.4609706864298044,120.48501443232972,685.0839611241829,15.288,0,11.1255084051681,0.0983640688902423,2.787820365373716e-07,-0.0240905667484509,0.0197236162716268,0.0022143880931999,20.39355411854825,31.627726004188563,35.42143268150527,23.260623045272823
0.82,31.22219569224292,131.010435411263,14.756745341022448,16.089496490487086,12.41958052851373,29.44063681566176,-2.6765799764138127,-0.2331638124375856,328.72500443277005,33.77661886901713,10.70733662680244,71.78258380271582,0.4956393315274538,120.5215113080187,697.7929274621189,15.288,0,11.15986795623578,0.0992738439769947,2.986974348561098e-07,-0.02514027928636,0.0205888240483263,0.0023321826211572,20.224474997994623,31.35704728402129,35.71224065370868,29.562975862474815
0.83,31.22219525956409,131.01043641745983,15.030188763535838,15.989114704574172,12.315211488067364,37.1789974109553,-2.722689560860125,-0.2973637834413656,395.68750322465047,34.0427256338206,10.7964240509156,71.76779824575338,0.5317521741199712,120.559531679852,708.8126524095416,15.288,0,11.19406230826477,0.1000562748070043,3.194356077861889e-07,-0.026210206682971,0.0214678958611485,0.0024505278860831,20.083491501446048,31.1285348819667,35.962333610008564,37.279743992526825
0.84,31.222194824115096,131.0104374336241,15.306453366164051,15.88511027764852,12.208638056525286,23.304282198260136,-2.770064886866108,-0.3633721780881487,275.4593748256452,34.31655726714192,10.887900741507524,71.75238188383122,0.569325414258324,120.59909300250584,720.2424474987896,15.288,0,11.228098348579303,0.1008614182023841,3.410077620336702e-07,-0.0273009306490217,0.0223612151675516,0.0025729687990239,19.938340788845316,30.895000282101524,36.219806632835024,23.47114968622972
0.85,31.222194386229727,131.0104384591015,15.585324351711796,15.764207345414356,12.090223653164994,25.33131314426881,-2.821251110987084,-0.4344793017351096,292.96093233939376,34.6256020248562,10.99092773738883,71.73632214046192,0.6083747137662086,120.64021218820795,733.2538035808305,15.288,0,11.261948642073351,0.1017700664945099,3.634260849941372e-07,-0.0284114314835659,0.0232679079734236,0.0027016692142446,19.772852277149127,30.632712790736147,36.51066751607,25.49163893726506
0.86,31.22219394572933,131.0104394942717,15.866933753711322,15.657288915152971,11.98239011236948,31.491690698335585,-2.8706494297399203,-0.503467150826021,346.2265619465587,34.907341426530905,11.08471445384534,71.71960596996149,0.6489160883074814,120.68290654795096,745.2147811960908,15.288,0,11.295635833571028,0.1025984687059116,3.86701720849477e-07,-0.0295428329037149,0.0241887776812464,0.0028320367946101,19.62463108953405,30.396757727528367,36.77584084798824,31.62626583016185
0.87,31.22219350265073,131.01044053907765,16.151266902459025,15.557213801524847,11.879918660718715,29.387871446474623,-2.9194322328163618,-0.5718498898261213,327.964078366998,35.175385683669546,11.173796912530364,71.70222028891335,0.6909648748015099,120.72719270436428,756.6826735147393,15.288,0,11.329138240997493,0.1033866269297266,4.108463221564409e-07,-0.0306952806217945,0.0251238607309625,0.0029650266184359,19.48496867661598,30.174410641626277,37.028136659518495,29.538061632629514
0.88,31.222193057042457,131.01044159343692,16.438300537845226,15.449073266346156,11.772002340612516,25.523134188356096,-2.9704731332245884,-0.6433487508854006,294.4828134710418,35.46097083885712,11.268564196471711,71.68415194227111,0.7345357938262851,120.7730866583664,768.9982023348674,15.288,0,11.36243285065736,0.1042263493281039,4.35871576460796e-07,-0.0318687583433082,0.026073067371426,0.0031032867918922,19.33571064864533,29.939037746482903,37.29713016212795,25.70346254976762
0.89,31.222192609003496,131.01044265716578,16.727977473652302,15.333214644415168,11.65891742358742,27.903798509487675,-3.02384869888196,-0.7180700564038291,315.028134248087,35.76426414817943,11.369073358745636,71.66538757110769,0.7796432334098568,120.82060408883277,782.1869884150474,15.288,0,11.395554168358885,0.1051181280091829,4.617892592065453e-07,-0.0330632295300994,0.027036291291817,0.0032470474286418,19.177287277861563,29.69119439328061,37.5830301818613,28.076346927934207
0.9,31.22219215845985,131.01044373042694,17.020356491442477,15.23937347078188,11.562117406132732,30.72563822808497,-3.0734425071067366,-0.7880912047503402,339.37814235421445,36.02013347640506,11.45368911839738,71.64591339328503,0.8263017243578036,120.8697608545438,793.3967921414696,15.288,0,11.42851428464568,0.1058705269892658,4.886108466838424e-07,-0.0342793632339028,0.0280139702831314,0.0033904702281738,19.04587129239332,29.484043824651486,37.82400532684653,30.889026872251122
0.91,31.2221917054961,131.01044481306153,17.315388391906865,15.137601641855907,11.459971289058924,23.59926521607632,-3.1253456757776945,-0.8613093405069298,277.7421810230789,36.29368125037566,11.54404592976814,71.6257159118698,0.874524305627471,120.9205712726222,805.4703165577384,15.288,0,11.461303212136157,0.1066748948609697,5.163479758065758e-07,-0.0355170136347063,0.0290059124610502,0.0035394601608924,18.90502084502892,29.264025613200364,38.08183075486829,23.82089331053427
0.92,31.222191250342902,131.01044590462087,17.612927302573823,15.028264003879364,11.352753956856809,27.91795044293914,-3.1796087287395167,-0.9378015737395932,315.02813424806214,36.58488599554926,11.640159696430564,71.6047814320926,0.9243236083833228,120.97304926121024,818.4242716735581,15.288,0,11.493905336319312,0.1075311689201154,5.450128995198268e-07,-0.0367754419449892,0.0300114679319828,0.0036941690197562,18.75518011854184,29.03174672992616,38.35652647921349,28.114077263783546
0.93,31.222190792905952,131.01044700530207,17.913042953487043,14.938657242577948,11.260081201997302,33.031566759411795,-3.2301786371899976,-1.0097041344355864,359.1625070654728,36.8311946546899,11.721245543759892,71.58309607601254,0.9757118033936064,121.0272082854074,829.4575837438252,15.288,0,11.526336869949583,0.1082554917881426,5.746163519410037e-07,-0.0380554636769238,0.0310311833185189,0.0038483756770125,18.629531680509093,28.836075565357216,38.58856064965695,33.20448703185661
0.94,31.22219033306631,131.01044811534592,18.215819085866567,14.832365437421531,11.15578431749568,24.224589708519915,-3.285178636481957,-1.087584305030393,283.0687504837787,37.11619497438543,11.815070640307995,71.56064603682145,1.0287000129299029,121.08306073790489,842.3194643443104,15.288,0,11.558597113067176,0.1090935470590374,6.051690887576832e-07,-0.0393576381416807,0.0320654085941341,0.0040107397690092,18.483805511280032,28.6117969744655,38.85749050608821,24.470512557776036
0.95,31.22218987115233,131.01044923411018,18.5210454131444,14.729114388194573,11.054023580117896,31.102135947502525,-3.3402029103871023,-1.165718312965851,342.4218736174873,37.39455001607379,11.906600863751052,71.53741700040196,1.0832995761779012,121.14061927304913,854.9758220670918,15.288,0,11.590672997485616,0.1099120789370161,6.366838572829678e-07,-0.0406809530081679,0.0331132835734553,0.0041765598291416,18.34197350053769,28.39420141254124,39.12016030218641,31.302695014402055
0.96,31.22218940683871,131.01045036224133,18.82894070243978,14.63581468183752,10.959729319148646,30.48880025790246,-3.393524224990115,-1.2418544865200896,337.09533515678345,37.64906073872489,11.99009837798434,71.51339461120429,1.1395209950125669,121.19989569776268,866.6278863375442,15.288,0,11.622583372161744,0.1106605350366468,6.691703449422804e-07,-0.0420270951788518,0.0341760154346518,0.0043440013748995,18.2124250027314,28.1957052799524,39.36013179068986,30.702201067636146
0.97,31.22218894014948,131.01045149969394,19.13949308230914,14.538410378492657,10.862828330911704,19.820900711053675,-3.448468391017519,-1.3203349639547652,245.02188719299323,37.913180477172965,12.076690674693433,71.48856416601681,1.1973745826965747,121.26090165524806,878.8036470197854,15.288,0,11.654312100681592,0.1114372432131269,7.026401965005901e-07,-0.0433961855246577,0.0352536101274308,0.0045168457152799,18.078079080770987,27.99110298636166,39.60930553569278,20.161927577945924
0.98,31.222188471410668,131.01045264582964,19.452493520092126,14.425555620153078,10.755242040346944,28.46598175455171,-3.508031597097846,-1.4050854581780383,319.5937466429581,38.21578572214254,12.176013768490598,71.46291091152963,1.2568697883011597,121.32364791362976,892.8611874214051,15.288,0,11.685859486651028,0.1123270798001868,7.371066015151957e-07,-0.0447869339461829,0.0363450000865174,0.0046986657381785,17.9251664413094,27.759964648859647,39.89531100631189,28.715721618679392
0.99,31.22218800045733,131.01045380097446,19.76805374269749,14.340329736372023,10.66767700052442,31.02687199578488,-3.5611629377042786,-1.481660196064717,341.6609485517054,38.449246407152096,12.25225333621618,71.43641971204745,1.3180159039055768,121.38814511339936,903.7761158492552,15.288,0,11.71724855453203,0.1130136896634765,7.72579831574724e-07,-0.0462005651380822,0.0374510274213424,0.0048764343593555,17.805974204747848,27.579647477392967,40.1152566748838,31.265699804231172
1.0,31.22218752728571,131.01045496513126,20.086177307781487,14.240087818806092,10.569735680810126,27.8516142436156,-3.618836240877089,-1.5644171004030305,314.2672081822764,38.720197249246205,12.340892229506435,71.4090758801382,1.3808202491933903,121.4544018526042,916.530766302204,15.288,0,11.74846982596098,0.1138105027450651,8.090710854620392e-07,-0.0476370653132761,0.0385715958188232,0.0050633337244719,17.668740703028583,27.37355920972667,40.37108638966146,28.129269321784566
1.01,31.22218705209972,131.01045613790103,20.40673479946514,14.142996996059445,10.474348904331803,29.08855052256197,-3.6763097147326658,-1.6471570350593732,324.9203161036979,38.982878196783545,12.426723672859469,71.38086414338991,1.44529038708946,121.52242702446938,928.9799836928796,15.288,0,11.779518769581388,0.1145830168588807,8.465926695282429e-07,-0.049095847649146,0.0397061718197589,0.0052536276021289,17.535507970478037,27.1743086489638,40.61903596770338,29.36617358323048
1.02,31.22218657481036,131.01045731945229,20.72978473131373,14.050404115602866,10.382457501308348,24.408931638417744,-3.733138497004248,-1.7292975186575985,284.59063161540416,39.23330301253869,12.508414178192648,71.35176935346624,1.5114325835101932,121.59222819386046,940.9246025898958,15.288,0,11.810402527944646,0.1153195150255629,8.85154974303497e-07,-0.0505775184253466,0.0408551244147966,0.0054467762560247,17.407903179999366,26.9843253443023,40.85526494438456,24.753236892875268
1.03,31.22218609549135,131.0104585096349,21.05527972955156,13.947890465084244,10.283842622913252,20.079623525154496,-3.7934072113770254,-1.8162096222728896,247.30469339049705,39.50964663578793,12.598699846733968,71.32177634857884,1.579252093150397,121.66381189869055,954.1964419873726,15.288,0,11.841115438239129,0.116132205901265,9.247693501354108e-07,-0.0520818618678144,0.0420182020460049,0.0056481109011824,17.26844544343435,26.77764553797305,41.11636941271564,20.515356116219422
1.04,31.22218561421003,131.01045970831333,21.38317757308829,13.855773658353852,10.192880493616206,31.47538610828664,-3.8513026699606208,-1.9002583187315447,345.46563688072297,39.757657930954025,12.679502825002734,71.29086945511064,1.6487541922194116,121.73718474085884,966.1830397414332,15.288,0,11.871661529381685,0.1168616273225054,9.65447135710509e-07,-0.0536088926055371,0.0431953245098305,0.0058500222762108,17.14175606238501,26.590832016234508,41.35031992659844,31.767018188669798
1.05,31.222185130635488,131.01046091611437,21.713687369400656,13.755792076120215,10.096661198618708,19.27893880488825,-3.9121374147831465,-1.9884378930349205,240.45625879819983,40.02647545750024,12.767194449326476,71.25903307140108,1.7199429330702134,121.81235207295344,979.2616275950464,15.288,0,11.90205688158772,0.1176522146100707,1.007197008882995e-06,-0.05516031525418,0.0443876774985662,0.006059826549826,17.00570869350205,26.391009046161297,41.6042596593806,19.772106257281475
1.06,31.222184645033007,131.0104621325182,22.046639664126303,13.649305403563403,9.996159682730996,27.14331939430341,-3.975685639410908,-2.0804660343729857,308.17968365593924,40.313249790673176,12.860863618509178,71.22625094839621,1.7928226178743856,121.8893195539466,993.312195341888,15.288,0,11.93228877348868,0.1184955927755389,1.05003230494421e-06,-0.0567350402978226,0.0455943506888645,0.0062772784325196,16.861954038381196,26.18057390315365,41.875489315044106,27.51171028788951
1.07,31.22218415726468,131.01046335777994,22.382120819971554,13.559419644176844,9.907637153913637,31.828165115492048,-4.034694105827898,-2.166777627609125,348.5093681440308,40.55286893094942,12.93874501624743,71.19250645723025,1.867397210722308,121.9680925308383,1005.123257011926,15.288,0,11.962373827142091,0.1192003735597955,1.0939631693967525e-06,-0.0583341443997936,0.0468160503600275,0.0064923606552555,16.738461167792757,26.001226221851017,42.101412597578175,32.1559602007798
1.08,31.22218366720527,131.01046459212273,22.720205899074084,13.466484081219688,9.817244495111394,21.65518778917718,-4.095212758032796,-2.2553559101446536,261.00157857466235,40.79999334053208,13.019093563872705,71.1577831777572,1.9436691118698328,122.04867474423084,1017.3777497527344,15.288,0,11.992313674622563,0.1199272241430696,1.1390000618745883e-06,-0.0599582638271843,0.0480531512640946,0.0067135659370602,16.61143529127166,25.81752314001364,42.33454799607539,22.154109235072113
1.09,31.222183175162943,131.01046583494443,23.060698225102115,13.35685065681024,9.715422671248778,19.9694612071758,-4.161856986493286,-2.3523215410909626,246.54375332474407,41.09499401629064,13.115468830006671,71.12206447898966,2.021640009435857,122.1310692278322,1032.1092975377337,15.288,0,12.022091015366676,0.1207948112650536,1.1851569386282303e-06,-0.0616059344065126,0.049304468057686,0.0069477052352323,16.464371852796354,25.60474478110936,42.6137863303477,20.533724725767673
1.1,31.22218268121795,131.01046708607944,23.40354519233211,13.25647933612768,9.620381701637728,39.345766309282304,-4.226132169237481,-2.446446392804582,413.1890617385841,41.3627716401676,13.202748002247768,71.0853335218654,2.1013108591409955,122.21527828838944,1045.5692682807824,15.288,0,12.051711285116198,0.1215823884172987,1.2324451797799055e-06,-0.0632771136983789,0.0505698705119576,0.0071824383265255,16.328671103969658,25.40978852890217,42.86684698139735,39.64763069250652
1.11,31.22218218489297,131.01046834641275,23.74903875875741,13.173951209657384,9.538083666566829,28.98775428548775,-4.284776010569461,-2.533394232945537,324.1593910376397,41.576035679184805,13.271719744567148,71.0475731431187,2.1826821000377192,122.30130373477792,1056.343795348982,15.288,0,12.081201601862714,0.1222097365977231,1.280871716893986e-06,-0.0649744676812204,0.0518512259877201,0.0074128806207786,16.21469122957632,25.248266644790277,43.06736392987529,29.412026287151427
1.12,31.22218168624485,131.0104696158114,24.097135647989457,13.059197185098336,9.4335589557942,11.362740515109268,-4.3553851826778045,-2.6365214379929296,172.73281794065943,41.88569815567375,13.373032843991409,71.00876637971247,2.2657525945172887,122.3891457568552,1072.102056095446,15.288,0,12.110549340605331,0.1231204505977974,1.3304487536970092e-06,-0.0666975891759471,0.0531481294414126,0.0076658898276557,16.06192656037754,25.02948535673307,43.36083220797234,12.45120465642547
1.13,31.222181185957098,131.01047089297788,24.44741270334154,12.962461716837009,9.341871818158246,34.027633440411925,-4.420208569302227,-2.732275991897851,367.5328077900705,42.140030840214365,13.45583179212438,70.96889506343966,2.350522383363576,122.4788058393386,1085.124820599459,15.288,0,12.13972524267164,0.1238685356205633,1.3811939725963698e-06,-0.0684433434417243,0.0544581701428804,0.0079140380085276,15.931080355827005,24.84440576255045,43.60095559828667,34.422135515494595
1.14,31.222180683236463,131.01047217937244,24.800348198382128,12.87825933393724,9.259150707115657,19.14053977111545,-4.4808464191522805,-2.822767083285599,239.69531773195544,42.35360318133766,13.524910053140497,70.92794216796672,2.436988066090968,122.5702818789486,1096.1147010589243,15.288,0,12.168759385710736,0.1244968168081236,1.4331101531935917e-06,-0.0702159867287798,0.0557843658232887,0.0081598788215418,15.815508535763886,24.68320992646753,43.80170495173915,19.85966418064925
1.15,31.222180178638126,131.01047347393052,25.1555942639025,12.761878956823924,9.154337855440492,18.86585783849636,-4.554244308874974,-2.9305717589236706,237.41251153546767,42.66782664511921,13.627923908214576,70.88589057988185,2.5251452298204144,122.66357074935875,1112.4013313289374,15.288,0,12.197631875190217,0.1254209676245392,1.486214281948216e-06,-0.0720123627830893,0.057124300581508,0.0084304373544577,15.66124701313772,24.464631673959104,44.09967655157523,19.627786019861627
1.16,31.222179672315058,131.0104747763511,25.5130541692432,12.681024039803912,9.07441499083606,48.28563602549932,-4.614449822436446,-3.0211074623450966,490.0437743845894,42.86740052087568,13.69237477345915,70.84272201836566,2.6149905095358736,122.7586704840626,1122.7933744118952,15.288,0,12.2263545655486,0.1260081181652922,1.5405179148106091e-06,-0.0738322349725089,0.0584776945754764,0.0086836192847717,15.54998960313487,24.31168065258333,44.28685468298954,48.599618145102944
1.17,31.222179163208835,131.0104760885585,25.87335422746157,12.583393199502607,8.98311663982985,9.095554662891535,-4.681670251568903,-3.121326486899099,153.70937929486794,43.11917167382802,13.774405544060036,70.7984192645179,2.7065173028203326,122.85557574243748,1135.9816908975574,15.288,0,12.25496430146436,0.1267487112856104,1.5960207851110756e-06,-0.0756811586735299,0.0598484833230461,0.0089530448815032,15.418639336965663,24.12936160173104,44.524462417004166,10.695318134954707
1.18,31.22217865267345,131.0104774080257,26.23567202644212,12.4636564038242,8.876810665194913,23.803827649276727,-4.758587612728729,-3.2348549837915463,280.02501822196746,43.44368193085717,13.881147220519503,70.75296423838573,2.7997194358395268,122.9542816862618,1153.1044510084207,15.288,0,12.283400680863156,0.1277031306461626,1.6527492194482448e-06,-0.0775515811804105,0.0612310672458068,0.0092430381790314,15.260788920986508,23.90775237376218,44.83247657847392,24.48939880010629
1.19,31.222178140075176,131.01047873589656,26.600380297192416,12.393061488089518,8.804640527919144,41.092897449901386,-4.815535004821227,-3.3219911173990946,428.4078130529292,43.60234199063501,13.931853562496531,70.70633835039726,2.8945904687713337,123.05478325012508,1161.5016112587086,15.288,0,12.3117122122535,0.1281700409909863,1.7107049551690947e-06,-0.0794477524616111,0.0626284161300085,0.009503283433826,15.162289546434186,23.776823986375064,44.97993486438114,41.50724302088551
1.2,31.222177624848445,131.01048007316157,26.96779847568725,12.283230369591786,8.705683508017401,4.796707441195926,-4.889495875010431,-3.4322629900836503,117.1843741360236,43.891517287717534,14.026767166371227,70.65852441568008,2.9911201395508407,123.15707137167948,1176.9175608202488,15.288,0,12.339902051491908,0.1290206131102239,1.7698931761167224e-06,-0.0813722120507188,0.0640422499576597,0.0097976887263539,15.016665385785272,23.575413823561387,45.25374715435887,7.6613315697250925
1.21,31.22217710837105,131.01048141728143,27.337104011812745,12.175647323896236,8.608529654329871,33.09339044512914,-4.963157313357382,-3.5424983132431143,359.92343213200894,44.172817245607234,14.11919462678254,70.60950346270862,3.0893002821521165,123.26113925962352,1192.0093018470548,15.288,0,12.367924544438267,0.1298480451270073,1.830340967162316e-06,-0.0833173839409053,0.0654669908726827,0.0100958348567568,14.8738903669276,23.379057023046595,45.51996009205759,33.65047868857481
1.22,31.2221765895557,131.0104827701993,27.7089252327952,12.101389179179522,8.534454506859971,24.118547477863533,-5.022248597040866,-3.6335051208410687,283.0687504825761,44.33548872324632,14.17137882874637,70.5592574171084,3.189119870955078,123.36697714737925,1200.7620003988427,15.288,0,12.395834549430932,0.1303267723701399,1.8920432760611688e-06,-0.0852898795470583,0.0669072795328752,0.0103725372551961,14.771345237459249,23.24477588718173,45.67112583658631,24.902402953843925
1.23,31.22217606880021,131.01048413114896,28.08301232452547,11.990918574484768,8.435802021800628,9.721201373844687,-5.098136058997175,-3.7474623119109394,159.79687382222795,44.62388702081383,14.26641739388269,70.50776911504282,3.290565063248468,123.47457233129975,1216.3907901168395,15.288,0,12.42359217258732,0.131175089908217,1.955016326771736e-06,-0.0872867852042879,0.0683609083061322,0.0106840593356658,14.625368517453037,23.04524004581533,45.94419745935774,11.598975006701238
