Time,Latitude,Longitude,Altitude,Angle of Attack,Angle of Sideslip,X-Acceleration,Y-Acceleration,Z-Acceleration,Thrust,True Velocity,Ground Velocity,Pitch,Roll,Yaw,Dynamic Pressure,cp,cg,parachute_deploy_gain,Wind Speed,Wind Direction,Mach,omega_x,omega_y,omega_z,Cmq,Angle of Attack(total),Angle of Attack(gust),True Velocity(gust),Acceleration
0.0,31.222216000000007,131.010392,3.000000004412624,0.0,0.0,0.0,0.0,0.0,2.2828121974499247,0.0,0.0,69.99999999623412,0.0,119.9999999935444,0.0,1.274,1.0271675151847728,0,0.0,0.0,0.0,0.0,0.0,0.0,-0.0,0.0,90.0,0.0,0.0
0.01,31.22221599999084,131.01039200000497,3.000002745347096,0.0,0.0,0.0,0.0,0.0,34.242186961749226,3.465174813755316e-14,2.8705476994166025e-14,69.9999999962611,-2.1713911667908447e-11,119.99999999352175,7.352495975525499e-28,1.274,1.0271659134330349,0,0.0,0.0,1.0183245502395064e-16,-3.3305335486039093e-18,7.169286865560398e-18,5.624298769768554e-18,-7.715917190115602e-34,0.0,89.99999999999979,3.465174813755316e-14,0.0
0.02,31.222215999994315,131.0103920000094,3.0000030495639742,0.0,0.0,0.0,0.0,0.0,25.871876237766216,3.8197434737535036e-11,2.4171837235633357e-11,69.99999999628672,-1.1921727947863515e-11,119.99999999353136,8.93414285188691e-22,1.274,1.027164492361118,0,0.0,0.0,1.1225230367947217e-13,-6.657678965418802e-18,1.4338573731120796e-17,1.1241821275959074e-17,-1.7010872994127372e-30,0.0,89.99999999975682,3.8197434737535036e-11,0.0
0.03,31.222215999994315,131.0103920000094,3.0000030495639742,0.0,0.0,9.81877837424427,-2.5122800045972096e-05,3.3498614629347925,180.34219359854663,1.2659015405517447e-10,1.1364406173918436e-10,69.99999999631459,-1.6431898037347223e-11,119.99999999352724,9.812605835254651e-21,1.274,1.0271551940870716,0,0.0,0.0,3.720154642239108e-13,-9.991600645811728e-18,2.150108433310316e-17,1.6859343782149594e-17,-8.453698244545225e-30,0.0,89.99999999919412,1.2659015405517447e-10,10.374487003414373
0.04,31.222215999994315,131.0103920000094,3.0000030495639742,18.83801224594347,-0.0001111777826462,48.68248476615645,-1.016330065874988e-05,3.3497854396877287,548.635972453808,0.1556173050466994,0.0975908358443652,69.99999999633813,-2.0932768807056278e-11,119.99999999352085,0.0148286043323172,1.274,1.027133720825283,0,0.0,0.0,0.0004573186944143,-1.3322134194415637e-17,-1.04744143520903e-11,1.336824254131964e-11,5.0626055458604615e-15,18.83801224625964,89.06236267790787,0.1555998412814392,48.79759610369246
0.05,31.22221599164764,131.01039201704114,3.002326315126219,5.772385609593056,-4.395076213712875e-06,71.20344550265034,4.905512691849684e-05,3.349217396035405,761.6984298824663,0.8326471944351852,0.3620326097059287,70.00000001316391,-1.0866255162484559e-10,120.00000000231074,0.4245281043148827,1.274,1.027093426565204,0,0.0,0.0,0.0024469331205246,-5.0245994431125096e-18,-7.32924164976824e-07,2.217344936947165e-11,1.895424184525467e-09,5.772385609594774,84.74112356985832,0.8326465040582279,71.28217104309611
0.06,31.22221596664444,131.01039206837547,3.015081730143309,4.056581213689704,3.169093567502233e-05,53.16249142470188,0.0001203825427859,3.3481235983850643,590.4875390737236,1.657216205300742,0.6755452977614796,69.99999964391398,-3.9285905645317736e-10,120.0000000287861,1.6816755551786196,1.274,1.027050317124926,0,0.0,0.0,0.0048701272653724,3.095757869075056e-13,-7.483541766772344e-06,3.074135420506017e-11,3.8518749565858254e-08,4.056581213813337,79.59316473687034,1.657221183301277,53.26781792157489
0.07,31.22221592883117,131.0103921460222,3.034593611434361,4.115662018628709,6.450869598349036e-05,81.18203554989698,0.0001593212642178,3.347059402768047,855.2937749779172,2.099899704220947,0.8579771146174259,69.99999543281565,-8.233801910783518e-10,120.00000006883089,2.700101932075157,1.274,1.027003201295312,0,0.0,0.0,0.006171060252819,3.4704292086287e-12,-2.6327204536316785e-05,1.9541142932033486e-10,1.7170712165327165e-07,4.115662019133419,76.90111966094352,2.099909837223217,81.2510043180746
0.08,31.22221588914193,131.01039222747755,3.0542761843835606,3.459696193892355,8.037433511260004e-05,16.298214211652088,0.0002413456836072,3.344878926597744,241.2171988638792,3.051964775152957,1.2149999716613011,69.99998042886442,-1.0128995578004475e-09,120.00000011111383,5.703497661025892,1.274,1.0269597189470347,0,0.0,0.0,0.0089689344021769,1.458982438104473e-11,-5.702803872814215e-05,7.043261397829576e-10,5.405702492731987e-07,3.459696194824858,71.30331929508368,3.051977400323993,16.63790856991177
0.09,31.2222158241468,131.01039236098703,3.0886872184095737,4.313676956300389,0.0001337561018991,50.35975918308536,0.0002293282821279,3.344215841840564,563.0937377043203,2.893161298572128,1.191209213966114,69.99994788602814,-7.098432023887522e-10,120.00000018106356,5.125380275808925,1.274,1.026918932011013,0,0.0,0.0,0.0085022553945842,3.8672912027154325e-11,-0.0001115933708951,2.016054215232918e-09,1.0027525988343615e-06,4.313676958370176,72.2316578138625,2.893182308931483,50.47067588835877
0.1,31.2222157788302,131.01039245392113,3.109877853389092,4.035124630954496,0.0001457499816535,47.804664812504015,0.0002878217657545,3.341734392237128,538.7437595981891,3.5677148583138303,1.4531247507621967,69.99988403958329,1.9248461973355822e-09,120.0000002323013,7.7939962029572305,1.274,1.0268846934974103,0,0.0,0.0,0.0104845969583028,8.579678749070606e-11,-0.0001726817043215,3.984565639703107e-09,1.913455350430327e-06,4.0351246335824245,68.43243098813296,3.567737752667411,47.92132267234452
0.11,31.222215703308,131.01039260899836,3.148841432727305,4.043401107254707,0.0001752764476999,37.67622367577205,0.0003286462930162,3.3392563999062723,442.86563930529127,4.034183355956686,1.6436552022667772,69.99978525353545,7.302513231814865e-09,120.00000031883242,9.96528118825134,1.274,1.026848594915519,0,0.0,0.0,0.0118554331868328,1.5870341853361987e-10,-0.0002596204409236,7.232030302688121e-09,3.252930323390323e-06,4.04340111104746,65.92012987243639,4.034210888316708,37.82391391539392
0.12,31.222215627491828,131.01039276462643,3.186995101203875,4.17874459224363,0.0002066711490009,41.15991989399172,0.0003576945202315,3.336766085769504,475.58594813540793,4.361857560629481,1.7865750500940407,69.99963665601238,1.781774420198147e-08,120.00000041104812,11.649831899889556,1.274,1.0268114448194128,0,0.0,0.0,0.0128183893919737,2.682972478760441e-10,-0.0003710216542429,1.2215991071490164e-08,5.026311388647148e-06,4.178744597345269,64.21681651392016,4.361890024457652,41.29495143136631
0.13,31.22221554594398,131.01039293200228,3.2277173449026786,4.202734874672792,0.0002327160860324,45.44886120763352,0.0003953741266062,3.333578629398489,515.9156326236897,4.792165672014363,1.9646716520715424,69.99942424225341,3.613383418913551e-08,120.00000051758742,14.061726603124043,1.274,1.026779572895131,0,0.0,0.0,0.0140829618979635,4.248908088871395e-10,-0.0005056103199642,1.908859219307828e-08,7.5253154423526356e-06,4.202734881104192,62.048594618540655,4.792202226971676,45.570952718869485
0.14,31.222215454191247,131.01039312033683,3.2737880595608355,4.184830647080848,0.000257138757548,42.32232525579263,0.0004369426767266,3.329727443445437,486.2390860568421,5.269261304374574,2.158791628597544,69.99913473613935,6.515851355725497e-08,120.00000064630268,17.000925061330125,1.274,1.0267449573927567,0,0.0,0.0,0.0154850332441425,6.382432869666793e-10,-0.0006690086306358,2.8426433029675884e-08,1.0948547100483978e-05,4.184830654966803,59.74181173116622,5.269301695636157,42.45310707234106
0.15,31.222215353826755,131.0103933263496,3.3242182719560263,4.21963947489699,0.0002846467688673,40.886944113003565,0.0004726792395108,3.325585650885676,472.5421858721398,5.6781946837482895,2.329510773545807,69.99875162806286,1.0876776246115984e-07,120.00000079954532,19.742017654108928,1.274,1.0267115958081523,0,0.0,0.0,0.0166867950518804,9.204756288136623e-10,-0.000865746478554,4.08948221429571e-08,1.526771148078443e-05,4.219639484480408,57.84996018384879,5.678239395958187,41.02196629910223
0.16,31.222215247130432,131.01039354534575,3.3775922280208457,4.253495568077899,0.0003118339050386,32.26872905470846,0.0005078415214353,3.32090791922544,391.1218908297597,6.081244877834229,2.4981889727471702,69.99825581174558,1.7187028096464329e-07,120.0000009800088,22.644030778355887,1.274,1.026675762255412,0,0.0,0.0,0.0178712695992133,1.2856146928958252e-09,-0.0010961187242953,5.6923362293832417e-08,2.0702404729358337e-05,4.253495579487569,56.06022383757386,6.081293860589489,32.43916312841722
0.17,31.22221513260033,131.01039378041813,3.4348437275053194,4.364838523348639,0.0003448792023946,40.840448242802736,0.0005326487904353,3.3162727284953744,471.78125980632416,6.362544479165355,2.6250789114832647,69.99762801982864,2.5997588617291615e-07,120.00000119506798,24.78723182122683,1.274,1.0266409836796937,0,0.0,0.0,0.0186979513961862,1.747791994374917e-09,-0.0013624931601664,7.706724512977917e-08,2.6923621797558364e-05,4.364838536947241,54.85936171416122,6.362598652663785,40.97486885600156
0.18,31.222215014088988,131.01039402363364,3.4935801365785646,4.353948305387995,0.0003681615230806,33.992183768165326,0.0005718025428208,3.310131992647221,407.1015672119096,6.81502088160835,2.810667639293692,69.99684761766231,3.794979223522764e-07,120.00000144728236,28.437950785509614,1.274,1.0266048342046536,0,0.0,0.0,0.020027681385988,2.3221419748804155e-09,-0.0016616990447559,1.0147209890543081e-07,3.517105786247627e-05,4.353948320923495,52.99157233768714,6.815078712285162,34.152972512863755
0.19,31.22221488419521,131.01039429023237,3.558399965607869,4.432620772533925,0.0003996774584738,38.45149959021069,0.0005986099513107,3.304145139297767,448.95313283182486,7.1223367465208405,2.946425726785696,69.99589577323147,5.440084577183829e-07,120.00000176148238,31.060341085698347,1.274,1.026566130444714,0,0.0,0.0,0.0209308229359413,3.022391489754689e-09,-0.0020041563310821,1.3135864879722746e-07,4.433199397898183e-05,4.432620790516937,51.77883352025967,7.122399527709208,38.59320142454953
0.2,31.222214751373183,131.01039456280608,3.624052454705669,4.443889400961181,0.0004246617145652,35.23432408779927,0.0006337972852267,3.2968110145188256,418.5156301991588,7.530482904611057,3.1167566004785483,69.99474776398331,7.478025600151903e-07,120.00000211715036,34.72195181863731,1.274,1.026529240027363,0,0.0,0.0,0.0221302820454282,3.866698391504749e-09,-0.0023849544920781,1.668144671071589e-07,5.57780533277244e-05,4.443889421210987,50.22448880200342,7.530549610317194,35.38822625098952
0.21,31.222214608673173,131.01039485566503,3.6948551453492566,4.493351735844891,0.0004538195602194,33.79371564104691,0.0006629296043866,3.2891790438445727,404.8187610144608,7.868284042829251,3.2629204975089228,69.99338155599101,1.0150082652278477e-06,120.00000255293388,37.906665490338085,1.274,1.0264923657015164,0,0.0,0.0,0.0231230169900677,4.871073773182836e-09,-0.0028117605859743,2.089322918608601e-07,6.870935089180403e-05,4.493351758715364,48.992529909481824,7.868355328639073,33.95340801819282
0.22,31.22221446109996,131.01039515850383,3.767700382407304,4.5412639153933885,0.000482649303782,41.008966751568416,0.0006914639179131,3.2808061382386606,472.5421858721387,8.20057841132235,3.4071691679735228,69.9917708347139,1.3454961520984431e-06,120.00000305929996,41.175744234065135,1.274,1.0264494137127138,0,0.0,0.0,0.0240995709751246,6.054779813287368e-09,-0.0032829112061357,2.580881224843564e-07,8.3609968899004e-05,4.54126394098788,47.82515604752711,8.2006542256977,41.13999323561041
0.23,31.22221430675399,131.0103954752338,3.843768625625224,4.52371495179584,0.0005047555656171,33.98493478127787,0.0007294889663961,3.2705214710765107,406.340642146096,8.647938096586296,3.5908865300848416,69.98989017772566,1.7539876018835507e-06,120.00000365514876,45.79040229326471,1.274,1.0264133390858623,0,0.0,0.0,0.0254142776666487,7.436335125872812e-09,-0.0038001790077148,3.1489825108822685e-07,0.0001020628978177,4.523714979897577,46.31461705147579,8.648017383405135,34.14194053232237
0.24,31.222214142622448,131.0103958120587,3.92493179063287,4.57837522350066,0.0005351929930195,35.051650311058864,0.0007555049947555,3.26053011385611,416.2328240017099,8.954297884844461,3.72617527247482,69.98771316795013,2.25257161141768e-06,120.0000043564586,49.09180568115741,1.274,1.0263750048312463,0,0.0,0.0,0.0263146218848643,9.034877387788232e-09,-0.0043732521010013,3.809642748985157e-07,0.00012161410144,4.578375254714954,45.32798984252032,8.954381952763216,35.20297212911011
0.25,31.22221397517227,131.0103961556623,4.0071748888306855,4.6034117733065,0.0005618935542827,36.03738579534623,0.000785606492708,3.249069743648399,425.3640807915084,9.311611941121669,3.8789349536029696,69.98520781816889,2.8559738498748624e-06,120.00000517181904,53.08749562138344,1.274,1.0263373768840591,0,0.0,0.0,0.0273647110956883,1.0873791100894836e-08,-0.0049950711786164,4.5609738277273444e-07,0.0001444478241125,4.603411807525074,44.2165428352526,9.311700203154778,36.183554686886296
0.26,31.22221379934012,131.01039651647062,4.09364247475714,4.621386912291471,0.0005881033207375,39.29107511182762,0.0008162761165496,3.236407051295005,455.80158342417656,9.67833954512075,4.034902068846398,69.98234620927953,3.5784678110229355e-06,120.00000612171208,57.350948423913096,1.274,1.0263006300381676,0,0.0,0.0,0.0284424679130479,1.2973286442992724e-08,-0.0056712051373577,5.414206381221602e-07,0.0001704578711045,4.621386949630312,43.12063533194282,9.678431924174348,39.42414126789902
0.27,31.222213616776543,131.01039689108487,4.183310605341074,4.617158109135719,0.0006115457810536,35.90419462403674,0.0008503454714941,3.221982799915672,423.8421996598744,10.088790784535757,4.205862468567124,69.97909721779352,4.436165972465058e-06,120.000007221354,62.31798301949865,1.274,1.026260090595354,0,0.0,0.0,0.0296487219805601,1.5355910600537293e-08,-0.0064045199323113,6.379142666348734e-07,0.0002006609239367,4.617158149547818,41.94410287616451,10.08888684592241,36.048472443180565
0.28,31.22221342607797,131.0103972823952,4.277051150896916,4.642105655370123,0.0006389739579882,41.51133203546672,0.0008785747638736,3.2071101123224945,476.3468732012228,10.432377224420517,4.35383399240675,69.97542808435722,5.446665372087172e-06,120.00000849080963,66.63429581008447,1.274,1.0262212716723291,0,0.0,0.0,0.0306584788590473,1.8045308789081613e-08,-0.0072006835403936,7.469524967369969e-07,0.0002332868227611,4.642105699250441,41.0023231023774,10.432477594215127,41.63503624837164
0.29,31.22221323001776,131.01039768469093,4.373143569786686,4.62134615173668,0.0006600657405645,33.17552944492765,0.0009148746278066,3.1894209319791806,397.9703104221098,10.876662296046485,4.536381530986506,69.9713027936179,6.629751536885327e-06,120.00000994797426,72.43000748232016,1.274,1.026183007522519,0,0.0,0.0,0.0319641703260467,2.1067646517035105e-08,-0.0080566154554079,8.688043379161898e-07,0.000272130659453,4.621346198772975,39.83162628795024,10.876765978930557,33.32848872465723
0.3,31.22221302403368,131.01039810736614,4.4744193758467325,4.664362353358112,0.0006905183788532,31.08096762732793,0.0009381960428197,3.172549142946348,378.1859457108735,11.168362145070317,4.66647911311536,69.96668711012893,8.005507138509574e-06,120.00001161892672,76.36634300732833,1.274,1.0261430389738484,0,0.0,0.0,0.0328214509167604,2.4447409007156216e-08,-0.0089829108229115,1.0056222251461646e-06,0.0003115527202986,4.664362404357781,39.09908960432563,11.168470611443622,31.242464973103964
0.31,31.22221281503337,131.01039853619727,4.576593712520673,4.700143580504286,0.0007196683316923,32.79732593144512,0.0009620705970519,3.154230688182399,394.1656220930229,11.470279728974068,4.800072153432283,69.96154070456518,9.597499105113692e-06,120.00001352112182,80.55022837857167,1.274,1.0261054058068628,0,0.0,0.0,0.0337087616009043,2.8214060606649844e-08,-0.0099686353219717,1.1565909895184251e-06,0.0003550834484269,4.700143635477137,38.36463422765983,11.47039277421126,32.94865339301887
0.32,31.222212598991007,131.01039897947376,4.68216432480395,4.718667719113184,0.0007464384342556,35.7316568886908,0.0009885845337584,3.133859770838664,421.5593934624264,11.808280530415894,4.946054328851105,69.95582953472353,1.14278227255889e-05,120.00001568218067,85.36654007972253,1.274,1.026068246703101,0,0.0,0.0,0.0347021168382987,3.2392058795580455e-08,-0.0110163301561155,1.3226102501723267e-06,0.0004039614423012,4.718667778018562,37.5686120062341,11.808397780690962,35.8688218659563
0.33,31.222212376029034,131.0103994369436,4.791055524254013,4.72141404831576,0.0007708346814671,35.42013590291081,0.0010176135371143,3.1111955852784385,418.5156301991632,12.181577273013426,5.104163223586657,69.94951809396906,1.351997394754887e-05,120.00001812674968,90.84831229869296,1.274,1.0260310883392356,0,0.0,0.0,0.0357992034445943,3.700677535501642e-08,-0.0121310534481307,1.5051409581878843e-06,0.0004588955105349,4.721414111097893,36.7208578211118,12.181698355442045,35.55651229220977
0.34,31.222212145785647,131.0103999093516,4.903491659547144,4.73024573449122,0.0007962944975467,27.63851074646407,0.0010446307681611,3.0871492806781062,345.4656368807584,12.53557620048282,5.2556261014174765,69.94256797855994,1.5899658158227497e-05,120.000020882338,96.20413272674828,1.274,1.0259901535019136,0,0.0,0.0,0.0368395817555172,4.208561016221623e-08,-0.0133180771902383,1.7057647550599631e-06,0.0005184333231541,4.730245801363397,35.94841996438923,12.535701282129995,27.810389570354005
0.35,31.222211909310875,131.01040039453565,5.018822212845608,4.780248518778662,0.0008286678570753,30.332092807652543,0.0010618579815451,3.063967690608957,370.5765700527057,12.774786382148209,5.367579971644358,69.93493776125636,1.8594985713558667e-05,120.00002397748868,99.9096898192772,1.274,1.025950003202184,0,0.0,0.0,0.0375426220587071,4.7658312175989686e-08,-0.0145774693288123,1.9252724355785177e-06,0.0005782798420984,4.780248590437683,35.44790728185619,12.774916548990808,30.486451961956565
0.36,31.22221166933814,131.0104008868675,5.135354490370708,4.798132156899578,0.0008554457330409,34.32674769697476,0.0010851169437774,3.0374319611165923,407.8625232777224,13.09301701329486,5.506730645516068,69.92658597246795,2.163521613217148e-05,120.0000274401514,104.94818266210537,1.274,1.0259105142325406,0,0.0,0.0,0.0384778908056978,5.3755109608570216e-08,-0.0158991451700967,2.162609490834569e-06,0.0006464142451675,4.798132232978766,34.796094028187134,13.09315138639638,34.46087058603792
0.37,31.222211421355144,131.01040139563804,5.255882891363927,4.797392186816851,0.0008791822061288,32.551601855236584,0.00111162791192,3.0078619428913056,391.1218908297639,13.457513730739372,5.661815946371007,69.91747693543164,2.5047738471809164e-05,120.0000313040604,110.87154396328836,1.274,1.025872170958032,0,0.0,0.0,0.0395491312153729,6.040098808671168e-08,-0.0172926678053148,2.420031948898497e-06,0.0007226353721561,4.797392267189059,34.07332166419882,13.457651832357364,32.69027405888565
0.38,31.22221116634284,131.01040191882743,5.379799334000849,4.811698494594017,0.0009057112478668,34.02947987649063,0.0011338447913587,2.9774881690446744,404.81876101445977,13.77554886562956,5.800899861213392,69.90756948297444,2.886339581486796e-05,120.00003560072224,116.17243393848278,1.274,1.02583050512925,0,0.0,0.0,0.0404838339452728,6.762496638941508e-08,-0.0187646375218858,2.69955777313946e-06,0.0008026686661094,4.8116985796350695,33.46655348088405,13.775691134419684,34.15949264475229
0.39,31.222210906095896,131.01040245274032,5.505993307722699,4.813508003664984,0.000929862892873,29.00025983045028,0.0011579891265804,2.9442136901860865,357.6406249338268,14.124492165837273,5.950648592462506,69.8968186645841,3.311602501056718e-05,120.00004036395212,122.13093644173792,1.274,1.02579027384009,0,0.0,0.0,0.0415093739609825,7.545934774906889e-08,-0.020311592409804,3.0013532510753577e-06,0.0008908380763632,4.813508093268025,32.821616487639595,14.124638228358922,29.149330452482886
0.4,31.222210638473225,131.0104030017851,5.635788650457906,4.841647069358873,0.0009592124397379,27.71178845184976,0.0011749448424961,2.91135549588368,345.4656368807565,14.390874239274588,6.07193451174791,69.8851815212744,3.783947407715338e-05,120.00004563180136,126.77947425345651,1.274,1.0257493418632293,0,0.0,0.0,0.0422922854866381,8.39343718693383e-08,-0.021938519432511,3.3271332720311508e-06,0.0009803271643914,4.841647164150728,32.348088166612904,14.391024912012275,27.864299944624147
0.41,31.22221036681104,131.01040355909262,5.767123077463226,4.86553909860892,0.0009876699832274,31.306062598221665,0.0011918093836199,2.876450850006428,378.9468707766882,14.663028799871563,6.195223154320929,69.87261222561014,4.307011032901644e-05,120.0000514391194,131.6183642808765,1.274,1.025708445186429,0,0.0,0.0,0.0430921644173401,9.308325447883581e-08,-0.0236371933433427,3.6760977501392174e-06,0.0010761942383903,4.865539198612839,31.87689439156756,14.663183942709727,31.437931330109585
0.42,31.22221008906472,131.01040412887247,5.901259531771367,4.867510642114694,0.0010118258958528,35.308283402190774,0.0012128114559048,2.8374461227958245,416.23282400171047,14.9952917972178,6.33928625560071,69.85906967380902,4.884273094936628e-05,120.00005782486392,137.64909586091787,1.274,1.0256701057426505,0,0.0,0.0,0.0440686959134695,1.0293499639582845e-07,-0.0254093547296826,4.049238334851429e-06,0.0011830797791891,4.867510747027452,31.315270489291198,14.995450734457847,35.422111438762386
0.43,31.222209804115888,131.01040471342728,6.038886819939341,4.854590670645608,0.0010330089741511,31.00586934514032,0.0012363751872706,2.794478603999558,375.90313951343126,15.369430568701889,6.497852263156962,69.8445117629242,5.519340856908871e-05,120.00006482835984,144.60167924299955,1.274,1.0256308158337524,0,0.0,0.0,0.0451682983415116,1.135186446762958e-07,-0.0272634397889413,4.449073329427772e-06,0.0013010625065656,4.854590780289497,30.70250814963406,15.369592833372094,31.13154422839874
0.44,31.22220951192321,131.01040531284193,6.180028459770617,4.866912332640401,0.0010595850174406,28.57707721036899,0.0012525768202179,2.752165534925872,353.07501253892326,15.659290812546615,6.627318538707029,69.82889155423543,6.216182865383864e-05,120.00007249162944,150.1053167542629,1.274,1.025586171750536,0,0.0,0.0,0.0460202245100907,1.2486676023179565e-07,-0.0292060158163984,4.8779154055816594e-06,0.001420032405556,4.866912447705031,30.24619499837236,15.659457251771938,28.709297424144207
0.45,31.222209215425703,131.01040592106523,6.322872201489905,4.881836476567178,0.0010866574689855,33.31904824532484,0.0012669045761511,2.7082028218433374,397.2093853562887,15.934249290371609,6.751662050993672,69.81215834018458,6.97909417564726e-05,120.00008085697964,155.42080512416243,1.274,1.0255397023523487,0,0.0,0.0,0.0468283602442113,1.3701614206272197e-07,-0.0312276295846745,5.334643585560923e-06,0.0015449645531859,4.8818365972149325,29.82567893138932,15.934419982127675,33.428929688274074
0.46,31.22220891307435,131.0104065412864,6.468371919199588,4.869610441729251,0.0011078049156487,38.95909776354321,0.0012868374716666,2.6582856015412624,449.7140588976424,16.292139278621757,6.904766425053949,69.79426683863348,7.812149592850748e-05,120.00008996920153,162.4785746623087,1.274,1.02549635315424,0,0.0,0.0,0.0478802236363867,1.499987870203256e-07,-0.0333272350234362,5.819761874615242e-06,0.0016858511402973,4.869610567434908,29.29014635640275,16.292313292210977,39.04968351401366
0.47,31.22220860266524,131.01040717804253,6.6178810515614845,4.838450928223533,0.0011247917292402,26.253747818137555,0.0013104398935566,2.6026193242279367,331.0078106302504,16.710658191447514,7.078951441335346,69.77517236812905,8.719457259907165e-05,120.0000998741591,170.9309671061642,1.274,1.025453319323251,0,0.0,0.0,0.0491102725711187,1.6384464803343264e-07,-0.0355167087264168,6.3368207228363735e-06,0.0018427306558807,4.838451058652396,28.68386015667837,16.710834873319172,26.382435512333956
0.48,31.222208284201663,131.0104078313267,6.771393590864176,4.869339340099417,0.0011561785713505,25.860860976019296,0.0013165328518772,2.5543454292827983,327.20312230115803,16.911139899671,7.177575416403102,69.75482343794755,9.70562828082882e-05,120.00011062072316,175.0543877818846,1.274,1.0254092882449153,0,0.0,0.0,0.0496995461609974,1.7858865391586845e-07,-0.0378054080201581,6.88909442277235e-06,0.0019849793891693,4.869339477030596,28.40887970825325,16.911321511776286,25.986704537635287
0.49,31.22220796480208,131.01040848648364,6.924537656029012,4.881367714530694,0.0011829003785372,32.565703383222065,0.0013261973190012,2.5011623511055703,389.6000096981238,17.169005224738054,7.296160258358563,69.73316318155707,0.0001077573203115,120.000122255028,180.4309832312717,1.274,1.025367445590036,0,0.0,0.0,0.05045746454003,1.942747077649401e-07,-0.0401641298712614,7.47069711110948e-06,0.002140948887153,4.881367857509675,28.058569663954906,17.169191034294997,32.66161128464712
0.5,31.222207637929923,131.01040915697027,7.081324512896956,4.862566137860805,0.001202418260511,33.47759680712428,0.0013425340759632,2.4399894027711366,397.970310422106,17.52898693231981,7.450304424940405,69.71015149227495,0.0001193385310595,120.0001348274002,188.0736471953394,1.274,1.0253278572281015,0,0.0,0.0,0.0515154948878309,2.109295159784217e-07,-0.0426011733481599,8.084173008518589e-06,0.0023184335011768,4.862566286171007,27.57768313050809,17.529175807738486,33.56639745442473
0.51,31.22220730314019,131.01040984370235,7.24202048914867,4.8479762258125,0.001223054804074,25.49162310288008,0.0013562860883156,2.3767006597692686,323.39843497208153,17.86914397471067,7.597652147346554,69.68574349602717,0.0001318441288964,120.00014838524436,195.4407439266201,1.274,1.025286455263166,0,0.0,0.0,0.0525152689856776,2.2858192086249162e-07,-0.0451315948093539,8.734206149830708e-06,0.002503767471626,4.847976379721193,27.13799345359824,17.86933609171003,25.602178740977283
0.52,31.222206962738102,131.01041054193402,7.405210501673173,4.865306299521403,0.0012516517170965,30.733671928447727,0.0013599291289974,2.317711624364424,372.098451184342,18.08534843773428,7.701914987606457,69.65988568649581,0.0001453248538387,120.00016298000436,200.19561780583155,1.274,1.0252426840672306,0,0.0,0.0,0.0531507657929359,2.4726951523704535e-07,-0.0477531686556663,9.421346966092632e-06,0.0026812161964639,4.865306460134566,26.8699055233151,18.085545046726228,30.820940596104087
0.53,31.222206619320115,131.01041124632013,7.569307468221277,4.848802699234936,0.0012715119568563,32.301199055744725,0.0013711327835325,2.2490252325653923,386.55624643486095,18.41963113311156,7.8474319110539055,69.6325258319474,0.0001598315062727,120.0001786629144,207.6614205945027,1.274,1.0251993415311351,0,0.0,0.0,0.0541332845214831,2.67031759303889e-07,-0.0504479325599339,1.0141887756417996e-05,0.0028848299490111,4.848802865552398,26.45837260670532,18.419830861742675,32.37940050117613
0.54,31.22220626697288,131.01041196903336,7.737918664599091,4.831496690588052,0.0012913635058467,28.31291960103712,0.0013809098107221,2.177242866245296,349.2703242098436,18.75116898748492,7.992112829440902,69.60362200959217,0.0001754082864028,120.00019548734956,215.20067397992847,1.274,1.0251561018460285,0,0.0,0.0,0.0551077428911958,2.878941684235108e-07,-0.0532336286085667,1.090122304443916e-05,0.003098869611663,4.831496862756785,26.061835558272342,18.751371834390056,28.396510432451375
0.55,31.222205908994248,131.01041270328463,7.909026079894722,16.926145910542473,21.867809829269504,30.9209585032238,-1.5629167197966192,1.284649892361431,365.2500005919912,23.311818853880887,8.113323699629928,69.57312211246325,0.0001921068626005,120.00021350480982,332.60755958266367,1.274,1.025112921033824,0,10.025614263783408,0.0,0.068511152573491,3.0989272306468813e-07,-0.0561100530405476,1.1700476995263424e-05,0.0040606783378885,27.39650053572576,44.75010101150643,26.664016837543148,30.987073252842908
0.56,31.222205546564343,131.01041344664463,8.081909946161325,20.825777164586142,16.944440195095535,28.922700804549383,-1.723819386583885,0.6007042047644287,346.22656194657776,24.334135024617083,8.24370876953435,69.54097415464405,0.0002099796112633,120.00023276987916,362.4135392044321,1.274,1.0250709539098009,0,10.062191141780394,345.0001478400497,0.0715157791551072,3.3292051977349045e-07,-0.0690085882480278,0.0189385669121715,0.0052130704809601,26.608226418154054,41.78202438121294,26.957133159632868,28.98025225301991
0.57,31.22220518105916,131.01041420589075,8.258547605517315,20.630940809705887,16.771396327973203,28.636472973257582,-2.0672052041428786,0.2109295640470161,343.1828296833045,24.608787177033246,8.357143411634437,69.50143310747288,0.0292380856677736,120.03121933929825,370.6343284740624,1.274,1.0250279191823897,0,10.098482259245095,345.0001478400497,0.0723231006210955,3.7153954531106813e-07,-0.0870087216749138,0.035388737673207,0.0066469157285505,26.354967742143742,41.37960536981184,27.205771737074063,28.711764365589524
0.58,31.22220481081932,131.0104149733216,8.437115822079598,20.42866077722997,16.586724007118306,37.595095007683646,-2.422238103400564,-0.1938654353702358,426.12500585731766,24.889014681069312,8.474366831503122,69.45156165390436,0.083271125534432,120.0889145202682,379.1169326797019,1.274,1.024981594484354,0,10.134876624800247,345.0001478400497,0.0731468124074636,4.2657249964021937e-07,-0.1052992174259052,0.0520500456932223,0.008135655963581,26.088834878639524,40.96398122607268,27.458211444230283,37.673544960268295
0.59,31.222204436423308,131.01041575339627,8.618477477209721,20.107663729942026,16.314814559467674,30.59522966806336,-2.805132518017576,-0.6385764411642844,360.68438819710633,25.29147476595707,8.639275038747453,69.39116662178746,0.1623581397032925,120.17339209285646,391.4700302265656,1.274,1.0249386802161349,0,10.171027790737726,345.0001478400497,0.0743297623031144,4.982253520467844e-07,-0.1238828472943373,0.0689159638254695,0.0097260723801064,25.679076239721173,40.3521955810076,27.819708591620493,30.73019080247297
0.6,31.2222040538811,131.01041655300529,8.804840196599761,19.903322145659384,16.128646816713538,27.27707996516012,-3.184856488316658,-1.0732802801489758,329.4859594986072,25.55933604397107,8.751607011395794,69.32004048517216,0.2664567711008514,120.2846339938534,399.798881992361,1.274,1.024891335813742,0,10.207106099829156,345.0001478400497,0.0751171445907923,5.86698022632009e-07,-0.1428610097353365,0.0860638891975523,0.0113346385683212,25.410084264876723,39.94859741577997,28.05949095580804,27.48334646357079
0.61,31.222203670456228,131.01041735736695,8.991836630422998,19.70293836297981,15.945516240503997,31.898328682384896,-3.572876837205288,-1.518002505625678,372.0984511843332,25.81423092055997,8.858898714579425,69.23790440304454,0.3955580105925962,120.422663774507,407.80544737594016,1.274,1.0248423929069768,0,10.243529289957252,345.0001478400497,0.0758664232827789,6.922909908667373e-07,-0.1621042861930178,0.1033875222823831,0.0129894356748301,25.145815288972404,39.55923112924887,28.28673924721926,32.133676310537254
0.62,31.22220328256333,131.0104181737705,9.18159787769988,19.42778999182761,15.707045878519748,39.5465520055111,-3.985396490672888,-1.9964237534213367,442.86563930529206,26.146862101272426,8.996850346393716,69.14454090805411,0.5494076707950819,120.58724901754708,418.3751495864568,1.274,1.0247996097896497,0,10.27943917633442,345.0001478400497,0.0768441701905419,8.151898664547911e-07,-0.1815924386568463,0.1208678159981594,0.0147382533786278,24.79062819199923,39.0481549751478,28.58333156921522,39.796970594703396
0.63,31.22220288822968,131.01041900615334,9.375260418649493,19.07905263677957,15.413967354570726,22.69478529081068,-4.429117527725904,-2.516601545340635,286.11251274707456,26.56330537892635,9.167796799018648,69.03973153771553,0.727640742508531,120.77804473218306,431.80024233855465,1.274,1.024756158874558,0,10.31523521151412,345.0001478400497,0.0780682443289648,9.55556954410627e-07,-0.2013834523859853,0.1385471980532704,0.0166045267417516,24.345670197673517,38.41558538030806,28.95542557798319,23.25948505037067
0.64,31.22220248650065,131.0104198563215,9.573332366658276,18.93707791132832,15.273751306622993,22.30973025847448,-4.829929842445189,-2.975220842327634,282.3078244179702,26.715298711078407,9.235288016565269,68.92321191016862,0.9298731148998172,120.99469148325112,436.7475329857251,1.274,1.024708534665538,0,10.351138924693585,345.0001478400497,0.0785151206776136,1.113601143150291e-06,-0.2215398851764592,0.1564719900410196,0.018370640808243,24.151676727963533,38.15247783193998,29.08617891112739,23.01964868431869
0.65,31.22220208772831,131.01042070350135,9.76979351946708,18.72805262542524,15.083834698650424,38.97002623469103,-5.252084117245808,-3.4636524768484844,436.7781447787504,26.93915015640464,9.33126030386152,68.7946689888528,1.1557051104748417,121.23681934563648,444.08896380059593,1.274,1.0246641738210605,0,10.387230160288595,345.0001478400497,0.0791731859791875,1.2896237899575683e-06,-0.2418150108415401,0.1744428457751203,0.0202195413222523,23.876010816653416,37.77941874802434,29.28123907457104,39.474602224563476
0.66,31.22220168254904,131.01042156632187,9.970026842922008,18.33407043656821,14.756294816543384,33.24089318182674,-5.742917467027582,-4.044664384064678,383.5125151715984,27.39342411579546,9.51872720708563,68.65392161429193,1.4043696893998747,121.50367048223104,459.18372953569366,1.274,1.0246195561629028,0,10.42241830316424,345.0001478400497,0.080508462542987,1.4836830137927974e-06,-0.2622604718147671,0.1924977332712569,0.0222984646664939,23.37457457154676,37.08757800095155,29.685797838721868,33.97495239935484
0.67,31.22220126654064,131.0104224532082,10.176419554876595,18.0515677526416,14.51117514348176,23.076610910821262,-6.208535662639168,-4.590872429871391,289.15624401033847,27.69354389921481,9.645738636925236,68.50074864599512,1.675086101123919,121.79447752880016,469.2910929843648,1.274,1.024572383541697,0,10.457682910822824,345.0001478400497,0.0813906952121922,1.6958529026650483e-06,-0.283063357679977,0.210781134440938,0.0243304075439466,23.00847674763967,36.59997928811614,29.9486633670334,24.3341734166388
0.68,31.222200850041062,131.01042334379588,10.383118617060216,17.842669994733985,14.320704608287553,28.656900061843853,-6.64997074849289,-5.105521296650826,340.89999248584934,27.88059234757273,9.728241151840963,68.33480967956861,1.967207409303408,122.1086222858918,475.6424570113342,1.274,1.0245245285832842,0,10.493404041737886,345.0001478400497,0.0819406174194313,1.926424467716877e-06,-0.3040722379147809,0.2291695656961538,0.026312210886995,22.73199134503856,36.25118055919135,30.10673481985289,29.858104089524378
0.69,31.222200431527128,131.01042424109778,10.59099500138398,17.536183045046663,14.057157942511658,35.13204057540395,-7.135586099950726,-5.679242848150285,401.0140726853658,28.191922748127755,9.86092661250113,68.15584377079374,2.2798453223861794,122.44523254271284,486.3146414511736,1.274,1.024479631064582,0,10.528578613374014,345.0001478400497,0.0828558068246381,2.1755613946548927e-06,-0.3251738228844471,0.2475703011660105,0.0284518282629695,22.33579840584057,35.735446491166094,30.377930376952616,36.29642769350595
0.7,31.22220000482089,131.01042515672083,10.803323241626911,17.17917693856592,13.755447070931078,29.531817391814226,-7.653485546280894,-6.295621981449272,349.270324209851,28.56812028980517,10.020413124824884,67.96364945772471,2.6119291789430683,122.80324423976272,499.3699772804375,1.274,1.0244351749185203,0,10.563400436207669,345.0001478400497,0.0839616491298631,2.4432834415187e-06,-0.3464577407529705,0.266050753105631,0.0307180034703601,21.87717050873573,35.13549758136645,30.708124414563372,31.15026381274963
0.71,31.222199571396352,131.01042608753932,11.019183001234127,16.886777770909813,13.501620499286169,24.333107315121325,-8.145780064779217,-6.879641304355116,301.3312640634036,28.83763153350292,10.137754281651109,67.75796640867206,2.962432121673433,123.18164442043168,508.8259726605244,1.274,1.0243880468141104,0,10.59838746201886,345.0001478400497,0.0847539485399474,2.729693230867916e-06,-0.3679593068285805,0.2846353360315067,0.0329314936032414,21.49717494519468,34.6597842829454,30.938887321632507,26.56658256060712
0.72,31.22219913576675,131.01042702502593,11.236167198682322,16.614678737308317,13.262598490073072,29.638558308014908,-8.627492866140335,-7.45156188709718,350.7922053414578,29.0615513819104,10.237365970004772,67.53850793620433,3.3303138175596247,123.57940946798004,516.7477974325957,1.274,1.024337302174265,0,10.63332991159652,345.0001478400497,0.085412259219583,3.034968671168225e-06,-0.3895678770638937,0.3032334291220017,0.0351354024115203,21.141629132238617,34.22904366039305,31.12628113497433,31.755370353534552
0.73,31.22219869630465,131.01042797212395,11.455095774089555,16.271972454709246,12.970242867431264,37.31580587312002,-9.152442541762335,-8.080611416612625,422.3203185282354,29.38474082242298,10.378264466620273,67.30504938443393,3.7143789535839606,123.9953515183528,528.2939585727138,1.274,1.024292465384646,0,10.667911471031752,345.0001478400497,0.0863623302913031,3.359181710897692e-06,-0.4112254996721846,0.3217962001916181,0.0375003887707064,20.698832579023744,33.67607153746854,31.404745599676374,39.26235924275221
0.74,31.2221982487392,131.01042893627618,11.678005749900327,15.873257231772072,12.635356073931275,23.449033562562256,-9.720762508958478,-8.766518392889006,294.4828134710563,29.792241074912475,10.554860329421782,67.05739900068598,4.113347173896512,124.42819276307732,543.0364305325505,1.274,1.0242470321640116,0,10.702266902876252,345.0001478400497,0.0875602017336925,3.702305779295205e-06,-0.4329917954485855,0.3403674302250757,0.0400320115231451,20.18647678403686,33.02575470295136,31.760949840906058,26.85520887102919
0.75,31.222197792602472,131.01042991789873,11.90496705796033,15.600842266802958,12.394761991668464,27.245577839087755,-10.201236272736033,-9.342604067882863,330.24688556441737,29.970249719757664,10.637990397677546,66.79532863283892,4.525977977664817,124.87670009033847,549.5331256721624,1.274,1.0241984712898409,0,10.736667077939252,345.0001478400497,0.0880835994938318,4.064359670781704e-06,-0.4549102301405237,0.3589781628544713,0.0423088452330128,19.828995998373024,32.61903771055257,31.902064065447583,30.556030240317483
0.76,31.22219733831942,131.01043089864,12.13094374622502,15.251748908790416,12.096180914314836,29.219077541919912,-10.735173832597416,-9.988815026081236,349.2703242098581,30.2682789191084,10.771749148970793,66.51858387794069,4.951056714281258,125.33966975610396,560.5046032606786,1.274,1.0241522053390697,0,10.771113920701705,345.0001478400497,0.0889597444067218,4.445527544089073e-06,-0.4767701560807544,0.377459566757859,0.0447818955125186,19.3765545451144,32.0757525978572,32.154259408324734,32.69212252580244
0.77,31.22219687391543,131.0104318990846,12.361534397208237,14.888703985526888,11.786416957752005,27.23125891221825,-11.27904290535276,-10.64992364835352,331.76876669606884,30.57764720937896,10.911649396313344,66.22704030170914,5.387169012597577,125.81568074451492,572.008185438012,1.274,1.0241065975906936,0,10.804892573623084,345.0001478400497,0.0898692246156299,4.8456669809663326e-06,-0.4986430414307839,0.3958652660397516,0.047314024911499,18.9061721619872,31.51369290967646,32.41602309391603,31.339737467324355
0.78,31.22219640401784,131.01043291088772,12.594428371288773,14.53745642432481,11.485080152882762,22.267621842939352,-11.809779621263017,-11.296957413653583,286.8734378128874,30.85144246133813,11.037798220605168,65.9205338734418,5.832979521808217,126.30339692738131,582.2846586085076,1.274,1.0240588105546735,0,10.838842543449116,345.0001478400497,0.0906741607142031,5.264737608386532e-06,-0.5205091020189204,0.4141765499790647,0.0498299160374445,18.44977958605669,30.981504429596928,32.64345725472401,27.621352683184284
0.79,31.22219592925024,131.0104339328421,12.829285108444385,14.207765791755664,11.199406962857548,31.52840611803961,-12.312056516344663,-11.910917641295296,373.6203323159581,31.065789827130743,11.13990185868984,65.5989174291067,6.287152493169415,126.80148002868305,590.3905589082351,1.274,1.0240083170932772,0,10.87260611028622,345.0001478400497,0.0913043818555317,5.702703668177872e-06,-0.5423128549985491,0.4323474623024499,0.0522767833069061,18.01941703836114,30.49925640041396,32.813807608064884,35.881709645213704
0.8,31.2221954508706,131.01043496274443,13.065503975492346,13.793537803956095,10.849518008196116,31.80010144089889,-12.893955106792518,-12.627774928016606,377.42502064505805,31.43759017965598,11.310870261635246,65.26208402623617,6.748332359627039,127.30856731667242,604.5931873089459,1.274,1.0239625010683884,0,10.90608368449324,345.0001478400497,0.0923973735776536,6.159497217750913e-06,-0.5639811203029179,0.4503182524284751,0.0550149243723588,17.48386163586704,29.85931832715478,33.13166187613408,36.56448043634813
0.81,31.222194960297223,131.01043601401045,13.306582578009769,13.39186509639656,10.50846581519484,20.44565953187488,-13.45969974274109,-13.327259594596487,273.9374926939922,31.77149835938467,11.467355955879896,64.9099796608859,7.215142443708823,127.82326883339708,617.4902321241758,1.274,1.0239149950770308,0,10.93925876704227,345.0001478400497,0.0933790080859652,6.6348454624040325e-06,-0.5855998023397821,0.4681535538358787,0.0577291642298233,16.963111415272753,29.25111252255476,33.41292561030338,27.871210220581645
0.82,31.222194464293832,131.0104370754897,13.549547844720284,13.055676646199892,10.216275358839304,26.20831571809476,-13.937186891645764,-13.919193224222209,328.725004432774,31.943808108009588,11.55475128264492,64.5425051630339,7.686321968532551,128.34431755032273,624.1916314391505,1.274,1.0238644186635044,0,10.972617588299128,345.0001478400497,0.0938856977583393,7.128662848608833e-06,-0.6071061468036262,0.4858017924724841,0.0601724697016212,16.52290757155101,28.781949650626917,33.54008682957934,32.7851327776056
0.83,31.222193967477736,131.0104381400586,13.792558727498946,12.650503430976595,9.871564576493729,33.27168050709814,-14.486420588464728,-14.60424344557059,395.6875032246518,32.25547041062091,11.704826461067809,64.15960924522372,8.16060946179838,128.87044047876483,636.4161470595404,1.274,1.0238188483711983,0,11.00574346344187,345.0001478400497,0.0948019609512512,7.640905335919786e-06,-0.6283530325647227,0.5031465624529242,0.0628844806974172,15.996600577160144,28.181809819138504,33.79843200794405,39.11706829313517
0.84,31.22219345833449,131.01043922496973,14.040020131201333,12.208084092353952,9.498192613444104,20.04434176271744,-15.078229647587184,-15.345941441696638,275.45937482564227,32.64386421341286,11.891184123805155,63.76134328280664,8.636694518859517,129.40030353469183,651.8193285473195,1.274,1.0237739661568126,0,11.0383924252269,345.0001478400497,0.0959437559380987,8.171169673599683e-06,-0.6494049213039093,0.5202359770280287,0.0657723260109088,15.423394561530694,27.512529467592696,34.12901265537096,29.404533064443957
0.85,31.22219293895632,131.0104403264424,14.29088769891249,11.84787842296708,9.186219241528963,21.72239989567604,-15.536843937672892,-15.924355158349936,292.9609323393965,32.810190330074825,11.979649799640567,63.347729102115935,9.11338545211252,129.9326965831798,658.4626502883121,1.274,1.0237227741398531,0,11.071131005641575,345.0001478400497,0.0964328788607834,8.719134079656646e-06,-0.6702751746189854,0.5370780014004474,0.0682303319019573,14.95160758582747,27.02202240745748,34.24698414704685,31.094071203053094
0.86,31.22219242122384,131.01044142703049,14.54075857489194,11.444687553350116,8.841417717263848,27.2577030432961,-16.039918119417656,-16.561874488578447,346.2265619465616,33.06733565930923,12.110620405440391,62.918790891690726,9.589569110621936,130.4664889995729,668.8082667236799,1.274,1.023674789281455,0,11.103814713484551,345.0001478400497,0.0971889322046944,9.2847514210528e-06,-0.6907806514432008,0.5535295306125568,0.0708670813414757,14.42593074396913,26.450218718890337,34.45063712064265,35.700938853895174
0.87,31.22219189205616,131.01044254546417,14.794303127491764,11.007708852159832,8.470638198137797,25.022779511374043,-16.581600037558527,-17.25134092742526,327.9640783669946,33.39956295681788,12.278183307624817,62.47468110275728,10.064085068941814,131.00048781296215,682.2981882979201,1.274,1.0236288969245204,0,11.13590592055248,345.0001478400497,0.0981656695645519,9.867528940783064e-06,-0.7109459910310935,0.5696081989306216,0.0736668325939838,13.857673375501616,25.81446238862479,34.72528600184361,34.62221422836297
0.88,31.22219135274053,131.01044367929586,15.050833705406028,10.585148982740474,8.110278670177133,21.121710343994536,-17.080594041901993,-17.89107358523619,294.4828134710421,33.67589243050818,12.422033071101332,62.01554896220905,10.535876255354903,131.5336053258168,693.617717493181,1.274,1.0235805388426191,0,11.16800858907538,345.0001478400497,0.0989781243868791,1.0466986912240284e-05,-0.730778629630168,0.585317756585031,0.0763464515411353,13.306801110362256,25.21778830530249,34.94560195976747,32.52635630857228
0.89,31.222190807658045,131.01044482219652,15.308768582610035,10.170437517497854,7.755358640212697,23.06348231228269,-17.541182655695803,-18.48641896797703,315.02813424808807,33.909569857992544,12.547785513595713,61.54155108997532,11.003974571489543,132.06484323559417,703.259737984756,1.274,1.0235293752791452,0,11.20003158566385,345.0001478400497,0.099665224842538,1.1082777533695548e-05,-0.7502048562206473,0.6006003780712575,0.0789178596722196,12.765170563691338,24.647393483433078,35.12406226990536,34.37099055292182
0.9,31.22219025601657,131.0104459751101,15.568320391487436,9.733497421526645,7.383397626649165,25.400470434708176,-18.02199221978076,-19.11086146019585,339.3781423542166,34.194025548863344,12.699633150625864,61.052903668641626,11.467452990077575,132.59323817234983,715.0902081207292,1.274,1.0234837388140003,0,11.231778844587904,345.0001478400497,0.1005015763680289,1.1714473004911736e-05,-0.7691615103901002,0.6154067426999353,0.0815887156016495,12.195471167483396,24.036020275268942,35.3505996954575,36.54040404299221
0.91,31.222189693763816,131.0104471430925,15.830652069916017,9.283218387431509,7.001159123085514,18.39157681759261,-18.50897130385485,-19.74693418101539,277.7421810230785,34.50693763314265,12.867561333511928,60.549876035739295,11.925437518716574,133.11787450905427,728.2194325499955,1.274,1.023436404813438,0,11.26328132756866,345.0001478400497,0.1014215739991179,1.2361470098814928e-05,-0.7876371573744237,0.6297268209085229,0.0843109522642983,11.608801854281191,23.40238439553653,35.603942441036345,32.7226760231141
0.92,31.22218912139167,131.0104483250717,16.0954501514655,8.85905365662952,6.6379638401985535,22.105026546773,-18.906286900992384,-20.274364560014,315.0281342480675,34.709397119167164,12.984088948236396,60.0327571383403,12.37713782685687,133.63791909620286,736.7709983406019,1.274,1.0233859136578225,0,11.294682096660951,345.0001478400497,0.1020169405742512,1.302316289427258e-05,-0.8056051253731136,0.6435390163088501,0.0867380443471107,11.05411160990927,22.83926344033428,35.74975507167649,35.45602545870768
0.93,31.22218854557042,131.01044951232748,16.36065556451323,8.404580477753061,6.252101770312778,26.545834191817608,-19.349672177209644,-20.86349335721453,359.16250706547066,35.004694757931254,13.148292356122344,59.50186503083559,12.821837000638036,134.15260973366594,749.3417153422055,1.274,1.0233407575091376,0,11.325943087752693,345.0001478400497,0.1028851794352243,1.3699102953038676e-05,-0.8229681618121256,0.6567693827794021,0.0893590622613598,10.46158514014548,22.212938684646776,35.984824813976296,38.914990445476
0.94,31.222187955735524,131.0104507179109,16.629245214057942,7.933673320039023,5.853977575507967,17.91757416315964,-19.81219489166195,-21.48078463625808,283.06875048378083,35.35127790746312,13.340905533023736,58.957592788073455,13.258856860274852,134.66121489770737,764.2339961724072,1.274,1.0232914783978162,0,11.356823923200116,345.0001478400497,0.103904165377554,1.4388465594197564e-05,-0.8397319968423679,0.6694210255760326,0.0920796988852925,9.848490904434229,21.55449591980682,36.26921954965784,34.278078109876915
0.95,31.222187353540527,131.01045193921803,16.90054119830868,7.493296352235871,5.478044344599388,23.9896678982186,-20.15328592288385,-21.94925095075352,342.421873617488,35.552932721602446,13.463104357740807,58.40034101152507,13.687609272489317,135.16309311092053,772.9575864147506,1.274,1.0232418269359267,0,11.387657369581255,345.0001478400497,0.1044971873071069,1.5090462355977878e-05,-0.855876162289466,0.6814769945445701,0.0943828564973621,9.272921242485552,20.982663990605776,36.41211152227743,38.25478684629523
0.96,31.22218674871785,131.01045316430182,17.171835487880053,7.0186130456118345,5.077168977375869,23.020619688603368,-20.570645525621863,-22.51781008620191,337.09533515678265,35.89120581025081,13.657323203027328,57.83053434112433,14.107578359287787,135.65767294006335,787.7158513346469,1.274,1.0231951201821403,0,11.418385339592202,345.0001478400497,0.1054917625564166,1.580458982405534e-05,-0.8712938770619866,0.6928578822505121,0.0969947328490433,8.655023966645134,20.33112607607547,36.68768232786071,38.21193739221235
0.97,31.222186125344816,131.01045441188742,17.447250102660814,6.5497029819959245,4.680470140383644,12.614052373699836,-20.93785625504716,-23.02731760531564,245.0218871929888,36.18952294479507,13.834098375885764,57.24867776763808,14.51828225818038,136.14440814163703,800.8436112967654,1.274,1.0231476260761452,0,11.448708012697177,345.0001478400497,0.1063689095731544,1.652978523087358e-05,-0.8860007654499948,0.7035734474936987,0.0994491115628978,8.044243949085475,19.70398592791869,36.92391205214306,33.58221996741043
0.98,31.222185493549503,131.01045566958544,17.72398354679406,6.105013485467799,4.301067677783603,20.31515505361269,-21.17406089231977,-23.37514994873037,319.593746642963,36.342746614882905,13.937237309430632,56.6552758168173,14.919323719518651,136.6228374737999,807.6179234092109,1.274,1.0230935628253934,0,11.47908630856416,345.0001478400497,0.106819600934991,1.726527611644368e-05,-0.899935609861403,0.7135776077522105,0.101438213708392,7.463262265798068,19.15546396691574,37.01772239455428,37.51591681739392
0.99,31.222184859150136,131.01045693072055,18.00059716996124,5.626586519164909,3.897975561480256,22.296725666327863,-21.509779966639734,-23.85283244520705,341.66094855170127,36.66633903421166,14.1329661160481,56.05088252084715,15.310354155377244,137.09254280781917,822.0420209797853,1.274,1.0230490803133316,0,11.50921205646342,345.0001478400497,0.1077710490462916,1.8010432752573805e-05,-0.9130073414745687,0.7228048941259817,0.1038251797377234,6.841330274522623,18.51983168652487,37.27815938815262,39.0995169447381
1.0,31.222184204047515,131.01045821544184,18.28133836061521,5.147795703320416,3.49498417959404,18.894774845052247,-21.81665551519948,-24.298272219358623,314.2672081822764,36.98579064844072,14.32998828275854,55.43612061043592,15.691063440653394,137.55313690326923,836.4057753292809,1.274,1.022999484445133,0,11.538937684711652,345.0001478400497,0.1087103373165844,1.8763952350511616e-05,-0.9252349304449224,0.7312664550693114,0.1061294930256303,6.219471174132033,17.891497651141854,37.53444108848416,37.727775009403324
1.01,31.222183538172768,131.01045951211643,18.56365813519188,4.676242233926889,3.097456702111568,19.627774789899856,-22.053773034490245,-24.65931289397171,324.92031610370094,37.249492607483965,14.499725714864349,54.81160856945858,16.061215135429048,138.00430631802612,848.352132246704,1.274,1.0229507481225095,0,11.568720455876903,345.0001478400497,0.1094857710187395,1.9524852492528685e-05,-0.9365733228995504,0.7389283885871609,0.10819309165114,5.607152840479694,17.29547566647384,37.73580300817011,38.46687094972292
1.02,31.222182862511808,131.01046081954254,18.847287166784,4.199067957336145,2.696669915765653,14.809685966703348,-22.28593231741843,-25.01820245349338,284.59063161543185,37.54563300110394,14.690301674804529,54.17800220295008,16.4206189164363,138.44577909465707,861.8713888345256,1.274,1.0229039803623294,0,11.598290088681011,345.0001478400497,0.1103565564393219,2.0292216941454328e-05,-0.9469655122268628,0.7457498614677088,0.1102602947731601,4.989105555372557,16.69056316970951,37.96906854906016,36.63195369746074
1.03,31.22218217164304,131.0104621432808,19.133315517852523,3.7295913772564577,2.301480171709443,10.323765526533764,-22.43321611840682,-25.27298036380173,247.3046933904342,37.770738313276034,14.84417185669096,53.53600186940264,16.76912500890167,138.87731843042252,872.2131299793122,1.274,1.022853416101322,0,11.627623330588944,345.0001478400497,0.1110185588595956,2.106489037329717e-05,-0.9563797948886608,0.7517067043836819,0.1120210119862179,4.381686743437941,16.123862878523855,38.13215676346992,35.334867433331375
1.04,31.22218147300877,131.01046347517095,19.420048403047645,3.263003044607365,1.908686650477308,20.58595689937232,-22.518537402920984,-25.45237467859319,345.4656368807608,37.95731691541175,14.978619540215735,52.88633538100978,17.106628051703893,139.29872801566503,880.8272127046821,1.274,1.0228049544826707,0,11.6568356587328,345.0001478400497,0.1115673255085479,2.18419131169967e-05,-0.9647630077140956,0.7567620587422282,0.1135580205858124,3.779726695610004,15.580479483393209,38.25707726316194,39.7327261210335
1.05,31.22218076512266,131.01046481665165,19.70775274763884,2.779632970381492,1.5067327094389642,8.726819517915906,-22.709006194710057,-25.77055059585676,240.4562587980608,38.3242118068441,15.219584971103984,52.22977139407579,17.433058885488535,139.7098425517573,897.9128243380205,1.274,1.022755494436122,0,11.685759069129553,345.0001478400497,0.1126460994015731,2.26222177631911e-05,-0.9720762520143372,0.7608894897397313,0.1155216090745135,3.1614587577260616,14.974151003115328,38.56086154910824,35.43977453742152
1.06,31.22218003262483,131.01046618303985,19.99934120633877,2.3156066461291824,1.1169674816398631,15.692963635250871,-22.69324833833896,-25.828245251253257,308.1796836557233,38.4667647849494,15.333546051537583,51.5671093768021,17.748385692317964,140.11052984898006,904.5797718354476,1.274,1.0227013895379469,0,11.714427423574795,345.0001478400497,0.1130654764296349,2.3404164057057488e-05,-0.9783145483422984,0.7640795283171549,0.1166921590587727,2.570791926785739,14.466532324087945,38.64220651354256,37.793529612378315
1.07,31.22217930331944,131.01046754596305,20.289296683978144,1.840575257754416,0.7227449281365903,19.68057281552814,-22.77148309095344,-26.01068724669137,348.5093681440431,38.777243058022194,15.548798435719387,50.89915753766832,18.052614264822285,140.5006920843676,919.2154409958392,1.274,1.0226540159946436,0,11.743130357628155,345.0001478400497,0.1139784390626119,2.4187099778611084e-05,-0.9834153051985308,0.7662954735961887,0.1182440506199041,1.977346153758334,13.9087454683149,38.89076855510229,39.77965861535361
1.08,31.22217854800236,131.0104689344615,20.58312104272572,1.366751138325438,0.3311731446427029,9.749058959810773,-22.836243692714085,-26.18038155784936,261.0015785751465,39.11670490823317,15.785446469482272,50.226768638906925,18.345778055641407,140.88025405693375,935.3533901902651,1.274,1.0226061614050743,0,11.771321688136604,345.0001478400497,0.1149766047626358,2.4969339405691057e-05,-0.9873683730358506,0.7675243593415836,0.1197552678077908,1.4062942516319072,13.357058466516524,39.16872517448732,36.08255194840672
1.09,31.222177776950943,131.01047033781964,20.878687118107884,0.9027683350115931,-0.0544707185798524,7.79722062226121,-22.737899536258645,-26.14345283482336,246.54375332456465,39.29148463291419,15.925743329722176,49.55080664417928,18.627939430452123,141.24916553212077,943.7038918649756,1.274,1.0225512795791307,0,11.799536992894677,345.0001478400497,0.1154907238965031,2.574952504563683e-05,-0.9901413339995476,0.7677414857940619,0.1206247569567299,0.9044100178261596,12.878117941462518,39.28292839373676,35.51462868846921
1.1,31.222177002540807,131.0104717440182,21.173778693695528,0.4397096961261894,-0.4376169677470171,25.607921684519614,-22.62137751928272,-26.08662864697251,413.1890617384087,39.49042763466127,16.083101786713183,48.87216055002384,18.89918318463152,141.60739371673492,953.2575028565308,1.274,1.0224981043155532,0,11.827583707630271,345.0001478400497,0.1160758699734507,2.652681346216197e-05,-0.9917002986510388,0.7669312197393742,0.1214229536438701,0.6203623679685097,12.40829661482566,39.42168759046418,42.98842365143721
1.11,31.222176212322395,131.01047316488686,21.470525962715566,-0.0243901728887182,-0.8145672380098034,15.549475079318906,-22.6804803975796,-26.26290678006215,324.1593910379213,39.96975415649186,16.418483427292596,48.191743134592414,19.15961944325364,141.954927927814,976.5109881621146,1.274,1.0224548851875197,0,11.85525801534628,345.0001478400497,0.1174851679263501,2.7299836165253778e-05,-0.9920264243806712,0.765080452016264,0.1229336712532701,0.8149322828875621,11.873884860905994,39.841806544176016,38.0253946573285
1.12,31.222175385556657,131.01047461934448,21.77216553980719,-0.4804936874710158,-1.188372426486474,-1.287841998150334,-22.520253043203606,-26.158514831186288,172.7328179403806,40.21259526988746,16.609976293222893,47.51048186021709,19.40937861909736,142.2917738979758,988.3842210643684,1.274,1.0223979224661404,0,11.882768093863492,345.0001478400497,0.1181993657109467,2.8066444162180748e-05,-0.9910849850036308,0.7621495764336896,0.1235596162380971,1.2818229597233084,11.434416917182602,40.02593954921067,34.54110930927833
1.13,31.222174559450423,131.01047607242768,22.072493946303705,-0.9341490945013984,-1.562701142029496,19.67806098185974,-22.172719076300247,-25.81259088220568,367.5328077894322,40.25651514262393,16.676554571015796,46.82933207156544,19.64859621465656,142.61793398419186,990.5158371608684,1.274,1.0223460397860296,0,11.910412747475704,345.0001478400497,0.1183288631253675,2.8825979672491885e-05,-0.9888590147835276,0.7581406338523164,0.1234131897770572,1.8205639223012728,11.073678933982968,40.01107705356158,39.30833757988816
1.14,31.222173732178863,131.0104775261551,22.371937677726656,-1.377377978773322,-1.9189820347453177,5.451101234249836,-22.0873807097218,-25.814817455114543,239.6953177322812,40.7016385038307,17.00457224264222,46.14925930611924,19.87743137379792,142.93343297619208,1012.5124318533756,1.274,1.0223022138470996,0,11.937625901910668,345.0001478400497,0.1196376504187999,2.957773973160028e-05,-0.9853563655074608,0.7530743375916021,0.1243322381204429,2.3619806691436365,10.630863885068123,40.40026186300524,34.40888971651246
1.15,31.222172858144955,131.01047902142415,22.677327291756704,-1.8213923720892176,-2.2807443783578742,4.96869433305358,-21.72811750736013,-25.46132981534684,237.4125115347709,40.83112902652607,17.130859308985936,45.4712217767491,20.096068415395983,143.23832175116036,1018.935321118185,1.274,1.0222426194541194,0,11.96445944921105,345.0001478400497,0.1200186860944478,3.031914096539312e-05,-0.9805167403474668,0.7468833132926137,0.1241115486120078,2.918477779388108,10.299300315149395,40.47296514336223,33.83900603969978
1.16,31.22217199619388,131.01048050499975,22.97967239500004,-2.2575666092903206,-2.6331252529872184,32.34993244033643,-21.380853592294127,-25.127217891963337,490.043774385954,41.02691929264754,17.30275351622096,44.79622378258724,20.304678900054675,143.53262537433528,1028.7007142020016,1.274,1.02219674531104,0,11.991524941166544,345.0001478400497,0.1205946018487259,3.1049841482661004e-05,-0.9743720720766847,0.7396136228083043,0.1239215723533631,3.467905228452943,9.980660543749265,40.613454521870906,46.20645093728418
1.17,31.22217111137008,131.01048200814157,23.28416999330304,-2.665821585186998,-2.9531320507072167,-4.566106053256233,-21.291695391543907,-25.141379254639297,153.70937929500428,41.636771630050696,17.756625722257898,44.12524381945424,20.503463620018568,143.81640250161084,1059.479656236345,1.274,1.022149394360584,0,12.018032703684502,345.0001478400497,0.1223876234717869,3.176834077372082e-05,-0.9669095781164654,0.7312549804125615,0.1247967827053102,3.977599597423757,9.598360774905824,41.17310009152477,33.26070606528795
