Time,Latitude,Longitude,Altitude,Angle of Attack,Angle of Sideslip,X-Acceleration,Y-Acceleration,Z-Acceleration,Thrust,True Velocity,Ground Velocity,Pitch,Roll,Yaw,Dynamic Pressure,cp,cg,parachute_deploy_gain,Wind Speed,Wind Direction,Mach,omega_x,omega_y,omega_z,Cmq,Angle of Attack(total),Angle of Attack(gust),True Velocity(gust),Acceleration
0.0,31.222216000000007,131.010392,3.000000004412624,0.0,0.0,0.0,0.0,0.0,2.2828121974499247,0.0,0.0,69.99999999623412,0.0,119.9999999935444,0.0,1.274,1.0271675151847728,0.0,0.0,0.0,0.0,0.0,0.0,0.0,-0.0,0.0,90.0,0.0,0.0
0.01,31.22221599999084,131.01039200000497,3.000002745347096,0.0,0.0,0.0,0.0,0.0,34.242186961749226,3.465174813755316e-14,2.8705476994166025e-14,69.9999999962611,-2.1713911667908447e-11,119.99999999352175,7.352495975525499e-28,1.274,1.0271659134330349,0.0,0.0,0.0,1.0183245502395064e-16,-3.3305335486039093e-18,7.169286865560398e-18,5.624298769768554e-18,-7.715917190115602e-34,0.0,89.99999999999979,3.465174813755316e-14,0.0
0.02,31.222215999994315,131.0103920000094,3.0000030495639742,0.0,0.0,0.0,0.0,0.0,25.871876237766216,3.8197434737535036e-11,2.4171837235633357e-11,69.99999999628672,-1.1921727947863515e-11,119.99999999353136,8.93414285188691e-22,1.274,1.027164492361118,0.0,0.0,0.0,1.1225230367947217e-13,-6.657678965418802e-18,1.4338573731120796e-17,1.1241821275959074e-17,-1.7010872994127372e-30,0.0,89.99999999975682,3.8197434737535036e-11,0.0
0.03,31.222215999994315,131.0103920000094,3.0000030495639742,0.0,0.0,9.81877837424427,-2.5122800045972096e-05,3.3498614629347925,180.34219359854663,1.2659015405517447e-10,1.1364406173918436e-10,69.99999999631459,-1.6431898037347223e-11,119.99999999352724,9.812605835254651e-21,1.274,1.0271551940870716,0.0,0.0,0.0,3.720154642239108e-13,-9.991600645811728e-18,2.150108433310316e-17,1.6859343782149594e-17,-8.453698244545225e-30,0.0,89.99999999919412,1.2659015405517447e-10,10.374487003414373
0.04,31.222215999994315,131.0103920000094,3.0000030495639742,18.83801224594347,-0.0001111777826462,48.68248476615645,-1.016330065874988e-05,3.3497854396877287,548.635972453808,0.1556173050466994,0.0975908358443652,69.99999999633813,-2.0932768807056278e-11,119.99999999352085,0.0148286043323172,1.274,1.027133720825283,0.0,0.0,0.0,0.0004573186944143,-1.3322134194415637e-17,-1.04744143520903e-11,1.336824254131964e-11,5.0626055458604615e-15,18.83801224625964,89.06236267790787,0.1555998412814392,48.79759610369246
0.05,31.22221599164764,131.01039201704114,3.002326315126219,5.772385609593056,-4.395076213712875e-06,71.20344550265034,4.905512691849684e-05,3.349217396035405,761.6984298824663,0.8326471944351852,0.3620326097059287,70.00000001316391,-1.0866255162484559e-10,120.00000000231074,0.4245281043148827,1.274,1.027093426565204,0.0,0.0,0.0,0.0024469331205246,-5.0245994431125096e-18,-7.32924164976824e-07,2.217344936947165e-11,1.895424184525467e-09,5.772385609594774,84.74112356985832,0.8326465040582279,71.28217104309611
0.06,31.22221596664444,131.01039206837547,3.015081730143309,4.056581213689704,3.169093567502233e-05,53.16249142470188,0.0001203825427859,3.3481235983850643,590.4875390737236,1.657216205300742,0.6755452977614796,69.99999964391398,-3.9285905645317736e-10,120.0000000287861,1.6816755551786196,1.274,1.027050317124926,0.0,0.0,0.0,0.0048701272653724,3.095757869075056e-13,-7.483541766772344e-06,3.074135420506017e-11,3.8518749565858254e-08,4.056581213813337,79.59316473687034,1.657221183301277,53.26781792157489
0.07,31.22221592883117,131.0103921460222,3.034593611434361,4.115662018628709,6.450869598349036e-05,81.18203554989698,0.0001593212642178,3.347059402768047,855.2937749779172,2.099899704220947,0.8579771146174259,69.99999543281565,-8.233801910783518e-10,120.00000006883089,2.700101932075157,1.274,1.027003201295312,0.0,0.0,0.0,0.006171060252819,3.4704292086287e-12,-2.6327204536316785e-05,1.9541142932033486e-10,1.7170712165327165e-07,4.115662019133419,76.90111966094352,2.099909837223217,81.2510043180746
0.08,31.22221588914193,131.01039222747755,3.0542761843835606,3.459696193892355,8.037433511260004e-05,16.298214211652088,0.0002413456836072,3.344878926597744,241.2171988638792,3.051964775152957,1.2149999716613011,69.99998042886442,-1.0128995578004475e-09,120.00000011111383,5.703497661025892,1.274,1.0269597189470347,0.0,0.0,0.0,0.0089689344021769,1.458982438104473e-11,-5.702803872814215e-05,7.043261397829576e-10,5.405702492731987e-07,3.459696194824858,71.30331929508368,3.051977400323993,16.63790856991177
0.09,31.2222158241468,131.01039236098703,3.0886872184095737,4.313676956300389,0.0001337561018991,50.35975918308536,0.0002293282821279,3.344215841840564,563.0937377043203,2.893161298572128,1.191209213966114,69.99994788602814,-7.098432023887522e-10,120.00000018106356,5.125380275808925,1.274,1.026918932011013,0.0,0.0,0.0,0.0085022553945842,3.8672912027154325e-11,-0.0001115933708951,2.016054215232918e-09,1.0027525988343615e-06,4.313676958370176,72.2316578138625,2.893182308931483,50.47067588835877
0.1,31.2222157788302,131.01039245392113,3.109877853389092,4.035124630954496,0.0001457499816535,47.804664812504015,0.0002878217657545,3.341734392237128,538.7437595981891,3.5677148583138303,1.4531247507621967,69.99988403958329,1.9248461973355822e-09,120.0000002323013,7.7939962029572305,1.274,1.0268846934974103,0.0,0.0,0.0,0.0104845969583028,8.579678749070606e-11,-0.0001726817043215,3.984565639703107e-09,1.913455350430327e-06,4.0351246335824245,68.43243098813296,3.567737752667411,47.92132267234452
0.11,31.222215703308,131.01039260899836,3.148841432727305,4.043401107254707,0.0001752764476999,37.67622367577205,0.0003286462930162,3.3392563999062723,442.86563930529127,4.034183355956686,1.6436552022667772,69.99978525353545,7.302513231814865e-09,120.00000031883242,9.96528118825134,1.274,1.026848594915519,0.0,0.0,0.0,0.0118554331868328,1.5870341853361987e-10,-0.0002596204409236,7.232030302688121e-09,3.252930323390323e-06,4.04340111104746,65.92012987243639,4.034210888316708,37.82391391539392
0.12,31.222215627491828,131.01039276462643,3.186995101203875,4.17874459224363,0.0002066711490009,41.15991989399172,0.0003576945202315,3.336766085769504,475.58594813540793,4.361857560629481,1.7865750500940407,69.99963665601238,1.781774420198147e-08,120.00000041104812,11.649831899889556,1.274,1.0268114448194128,0.0,0.0,0.0,0.0128183893919737,2.682972478760441e-10,-0.0003710216542429,1.2215991071490164e-08,5.026311388647148e-06,4.178744597345269,64.21681651392016,4.361890024457652,41.29495143136631
0.13,31.22221554594398,131.01039293200228,3.2277173449026786,4.202734874672792,0.0002327160860324,45.44886120763352,0.0003953741266062,3.333578629398489,515.9156326236897,4.792165672014363,1.9646716520715424,69.99942424225341,3.613383418913551e-08,120.00000051758742,14.061726603124043,1.274,1.026779572895131,0.0,0.0,0.0,0.0140829618979635,4.248908088871395e-10,-0.0005056103199642,1.908859219307828e-08,7.5253154423526356e-06,4.202734881104192,62.048594618540655,4.792202226971676,45.570952718869485
0.14,31.222215454191247,131.01039312033683,3.2737880595608355,4.184830647080848,0.000257138757548,42.32232525579263,0.0004369426767266,3.329727443445437,486.2390860568421,5.269261304374574,2.158791628597544,69.99913473613935,6.515851355725497e-08,120.00000064630268,17.000925061330125,1.274,1.0267449573927567,0.0,0.0,0.0,0.0154850332441425,6.382432869666793e-10,-0.0006690086306358,2.8426433029675884e-08,1.0948547100483978e-05,4.184830654966803,59.74181173116622,5.269301695636157,42.45310707234106
0.15,31.222215353826755,131.0103933263496,3.3242182719560263,4.21963947489699,0.0002846467688673,40.886944113003565,0.0004726792395108,3.325585650885676,472.5421858721398,5.6781946837482895,2.329510773545807,69.99875162806286,1.0876776246115984e-07,120.00000079954532,19.742017654108928,1.274,1.0267115958081523,0.0,0.0,0.0,0.0166867950518804,9.204756288136623e-10,-0.000865746478554,4.08948221429571e-08,1.526771148078443e-05,4.219639484480408,57.84996018384879,5.678239395958187,41.02196629910223
0.16,31.222215247130432,131.01039354534575,3.3775922280208457,4.253495568077899,0.0003118339050386,32.26872905470846,0.0005078415214353,3.32090791922544,391.1218908297597,6.081244877834229,2.4981889727471702,69.99825581174558,1.7187028096464329e-07,120.0000009800088,22.644030778355887,1.274,1.026675762255412,0.0,0.0,0.0,0.0178712695992133,1.2856146928958252e-09,-0.0010961187242953,5.6923362293832417e-08,2.0702404729358337e-05,4.253495579487569,56.06022383757386,6.081293860589489,32.43916312841722
0.17,31.22221513260033,131.01039378041813,3.4348437275053194,4.364838523348639,0.0003448792023946,40.840448242802736,0.0005326487904353,3.3162727284953744,471.78125980632416,6.362544479165355,2.6250789114832647,69.99762801982864,2.5997588617291615e-07,120.00000119506798,24.78723182122683,1.274,1.0266409836796937,0.0,0.0,0.0,0.0186979513961862,1.747791994374917e-09,-0.0013624931601664,7.706724512977917e-08,2.6923621797558364e-05,4.364838536947241,54.85936171416122,6.362598652663785,40.97486885600156
0.18,31.222215014088988,131.01039402363364,3.4935801365785646,4.353948305387995,0.0003681615230806,33.992183768165326,0.0005718025428208,3.310131992647221,407.1015672119096,6.81502088160835,2.810667639293692,69.99684761766231,3.794979223522764e-07,120.00000144728236,28.437950785509614,1.274,1.0266048342046536,0.0,0.0,0.0,0.020027681385988,2.3221419748804155e-09,-0.0016616990447559,1.0147209890543081e-07,3.517105786247627e-05,4.353948320923495,52.99157233768714,6.815078712285162,34.152972512863755
0.19,31.22221488419521,131.01039429023237,3.558399965607869,4.432620772533925,0.0003996774584738,38.45149959021069,0.0005986099513107,3.304145139297767,448.95313283182486,7.1223367465208405,2.946425726785696,69.99589577323147,5.440084577183829e-07,120.00000176148238,31.060341085698347,1.274,1.026566130444714,0.0,0.0,0.0,0.0209308229359413,3.022391489754689e-09,-0.0020041563310821,1.3135864879722746e-07,4.433199397898183e-05,4.432620790516937,51.77883352025967,7.122399527709208,38.59320142454953
0.2,31.222214751373183,131.01039456280608,3.624052454705669,4.443889400961181,0.0004246617145652,35.23432408779927,0.0006337972852267,3.2968110145188256,418.5156301991588,7.530482904611057,3.1167566004785483,69.99474776398331,7.478025600151903e-07,120.00000211715036,34.72195181863731,1.274,1.026529240027363,0.0,0.0,0.0,0.0221302820454282,3.866698391504749e-09,-0.0023849544920781,1.668144671071589e-07,5.57780533277244e-05,4.443889421210987,50.22448880200342,7.530549610317194,35.38822625098952
0.21,31.222214608673173,131.01039485566503,3.6948551453492566,4.493351735844891,0.0004538195602194,33.79371564104691,0.0006629296043866,3.2891790438445727,404.8187610144608,7.868284042829251,3.2629204975089228,69.99338155599101,1.0150082652278477e-06,120.00000255293388,37.906665490338085,1.274,1.0264923657015164,0.0,0.0,0.0,0.0231230169900677,4.871073773182836e-09,-0.0028117605859743,2.089322918608601e-07,6.870935089180403e-05,4.493351758715364,48.992529909481824,7.868355328639073,33.95340801819282
0.22,31.22221446109996,131.01039515850383,3.767700382407304,4.5412639153933885,0.000482649303782,41.008966751568416,0.0006914639179131,3.2808061382386606,472.5421858721387,8.20057841132235,3.4071691679735228,69.9917708347139,1.3454961520984431e-06,120.00000305929996,41.175744234065135,1.274,1.0264494137127138,0.0,0.0,0.0,0.0240995709751246,6.054779813287368e-09,-0.0032829112061357,2.580881224843564e-07,8.3609968899004e-05,4.54126394098788,47.82515604752711,8.2006542256977,41.13999323561041
0.23,31.22221430675399,131.0103954752338,3.843768625625224,4.52371495179584,0.0005047555656171,33.98493478127787,0.0007294889663961,3.2705214710765107,406.340642146096,8.647938096586296,3.5908865300848416,69.98989017772566,1.7539876018835507e-06,120.00000365514876,45.79040229326471,1.274,1.0264133390858623,0.0,0.0,0.0,0.0254142776666487,7.436335125872812e-09,-0.0038001790077148,3.1489825108822685e-07,0.0001020628978177,4.523714979897577,46.31461705147579,8.648017383405135,34.14194053232237
0.24,31.222214142622448,131.0103958120587,3.92493179063287,4.57837522350066,0.0005351929930195,35.051650311058864,0.0007555049947555,3.26053011385611,416.2328240017099,8.954297884844461,3.72617527247482,69.98771316795013,2.25257161141768e-06,120.0000043564586,49.09180568115741,1.274,1.0263750048312463,0.0,0.0,0.0,0.0263146218848643,9.034877387788232e-09,-0.0043732521010013,3.809642748985157e-07,0.00012161410144,4.578375254714954,45.32798984252032,8.954381952763216,35.20297212911011
0.25,31.22221397517227,131.0103961556623,4.0071748888306855,4.6034117733065,0.0005618935542827,36.03738579534623,0.000785606492708,3.249069743648399,425.3640807915084,9.311611941121669,3.8789349536029696,69.98520781816889,2.8559738498748624e-06,120.00000517181904,53.08749562138344,1.274,1.0263373768840591,0.0,0.0,0.0,0.0273647110956883,1.0873791100894836e-08,-0.0049950711786164,4.5609738277273444e-07,0.0001444478241125,4.603411807525074,44.2165428352526,9.311700203154778,36.183554686886296
0.26,31.22221379934012,131.01039651647062,4.09364247475714,4.621386912291471,0.0005881033207375,39.29107511182762,0.0008162761165496,3.236407051295005,455.80158342417656,9.67833954512075,4.034902068846398,69.98234620927953,3.5784678110229355e-06,120.00000612171208,57.350948423913096,1.274,1.0263006300381676,0.0,0.0,0.0,0.0284424679130479,1.2973286442992724e-08,-0.0056712051373577,5.414206381221602e-07,0.0001704578711045,4.621386949630312,43.12063533194282,9.678431924174348,39.42414126789902
0.27,31.222213616776543,131.01039689108487,4.183310605341074,4.617158109135719,0.0006115457810536,35.90419462403674,0.0008503454714941,3.221982799915672,423.8421996598744,10.088790784535757,4.205862468567124,69.97909721779352,4.436165972465058e-06,120.000007221354,62.31798301949865,1.274,1.026260090595354,0.0,0.0,0.0,0.0296487219805601,1.5355910600537293e-08,-0.0064045199323113,6.379142666348734e-07,0.0002006609239367,4.617158149547818,41.94410287616451,10.08888684592241,36.048472443180565
0.28,31.22221342607797,131.0103972823952,4.277051150896916,4.642105655370123,0.0006389739579882,41.51133203546672,0.0008785747638736,3.2071101123224945,476.3468732012228,10.432377224420517,4.35383399240675,69.97542808435722,5.446665372087172e-06,120.00000849080963,66.63429581008447,1.274,1.0262212716723291,0.0,0.0,0.0,0.0306584788590473,1.8045308789081613e-08,-0.0072006835403936,7.469524967369969e-07,0.0002332868227611,4.642105699250441,41.0023231023774,10.432477594215127,41.63503624837164
0.29,31.22221323001776,131.01039768469093,4.373143569786686,4.62134615173668,0.0006600657405645,33.17552944492765,0.0009148746278066,3.1894209319791806,397.9703104221098,10.876662296046485,4.536381530986506,69.9713027936179,6.629751536885327e-06,120.00000994797426,72.43000748232016,1.274,1.026183007522519,0.0,0.0,0.0,0.0319641703260467,2.1067646517035105e-08,-0.0080566154554079,8.688043379161898e-07,0.000272130659453,4.621346198772975,39.83162628795024,10.876765978930557,33.32848872465723
0.3,31.22221302403368,131.01039810736614,4.4744193758467325,4.664362353358112,0.0006905183788532,31.08096762732793,0.0009381960428197,3.172549142946348,378.1859457108735,11.168362145070317,4.66647911311536,69.96668711012893,8.005507138509574e-06,120.00001161892672,76.36634300732833,1.274,1.0261430389738484,0.0,0.0,0.0,0.0328214509167604,2.4447409007156216e-08,-0.0089829108229115,1.0056222251461646e-06,0.0003115527202986,4.664362404357781,39.09908960432563,11.168470611443622,31.242464973103964
0.31,31.22221281503337,131.01039853619727,4.576593712520673,4.700143580504286,0.0007196683316923,32.79732593144512,0.0009620705970519,3.154230688182399,394.1656220930229,11.470279728974068,4.800072153432283,69.96154070456518,9.597499105113692e-06,120.00001352112182,80.55022837857167,1.274,1.0261054058068628,0.0,0.0,0.0,0.0337087616009043,2.8214060606649844e-08,-0.0099686353219717,1.1565909895184251e-06,0.0003550834484269,4.700143635477137,38.36463422765983,11.47039277421126,32.94865339301887
0.32,31.222212598991007,131.01039897947376,4.68216432480395,4.718667719113184,0.0007464384342556,35.7316568886908,0.0009885845337584,3.133859770838664,421.5593934624264,11.808280530415894,4.946054328851105,69.95582953472353,1.14278227255889e-05,120.00001568218067,85.36654007972253,1.274,1.026068246703101,0.0,0.0,0.0,0.0347021168382987,3.2392058795580455e-08,-0.0110163301561155,1.3226102501723267e-06,0.0004039614423012,4.718667778018562,37.5686120062341,11.808397780690962,35.8688218659563
0.33,31.222212376029034,131.0103994369436,4.791055524254013,4.72141404831576,0.0007708346814671,35.42013590291081,0.0010176135371143,3.1111955852784385,418.5156301991632,12.181577273013426,5.104163223586657,69.94951809396906,1.351997394754887e-05,120.00001812674968,90.84831229869296,1.274,1.0260310883392356,0.0,0.0,0.0,0.0357992034445943,3.700677535501642e-08,-0.0121310534481307,1.5051409581878843e-06,0.0004588955105349,4.721414111097893,36.7208578211118,12.181698355442045,35.55651229220977
0.34,31.222212145785647,131.0103999093516,4.903491659547144,4.73024573449122,0.0007962944975467,27.63851074646407,0.0010446307681611,3.0871492806781062,345.4656368807584,12.53557620048282,5.2556261014174765,69.94256797855994,1.5899658158227497e-05,120.000020882338,96.20413272674828,1.274,1.0259901535019136,0.0,0.0,0.0,0.0368395817555172,4.208561016221623e-08,-0.0133180771902383,1.7057647550599631e-06,0.0005184333231541,4.730245801363397,35.94841996438923,12.535701282129995,27.810389570354005
0.35,31.222211909310875,131.01040039453565,5.018822212845608,4.780248518778662,0.0008286678570753,30.332092807652543,0.0010618579815451,3.063967690608957,370.5765700527057,12.774786382148209,5.367579971644358,69.93493776125636,1.8594985713558667e-05,120.00002397748868,99.9096898192772,1.274,1.025950003202184,0.0,0.0,0.0,0.0375426220587071,4.7658312175989686e-08,-0.0145774693288123,1.9252724355785177e-06,0.0005782798420984,4.780248590437683,35.44790728185619,12.774916548990808,30.486451961956565
0.36,31.22221166933814,131.0104008868675,5.135354490370708,4.798132156899578,0.0008554457330409,34.32674769697476,0.0010851169437774,3.0374319611165923,407.8625232777224,13.09301701329486,5.506730645516068,69.92658597246795,2.163521613217148e-05,120.0000274401514,104.94818266210537,1.274,1.0259105142325406,0.0,0.0,0.0,0.0384778908056978,5.3755109608570216e-08,-0.0158991451700967,2.162609490834569e-06,0.0006464142451675,4.798132232978766,34.796094028187134,13.09315138639638,34.46087058603792
0.37,31.222211421355144,131.01040139563804,5.255882891363927,4.797392186816851,0.0008791822061288,32.551601855236584,0.00111162791192,3.0078619428913056,391.1218908297639,13.457513730739372,5.661815946371007,69.91747693543164,2.5047738471809164e-05,120.0000313040604,110.87154396328836,1.274,1.025872170958032,0.0,0.0,0.0,0.0395491312153729,6.040098808671168e-08,-0.0172926678053148,2.420031948898497e-06,0.0007226353721561,4.797392267189059,34.07332166419882,13.457651832357364,32.69027405888565
0.38,31.22221116634284,131.01040191882743,5.379799334000849,4.811698494594017,0.0009057112478668,34.02947987649063,0.0011338447913587,2.9774881690446744,404.81876101445977,13.77554886562956,5.800899861213392,69.90756948297444,2.886339581486796e-05,120.00003560072224,116.17243393848278,1.274,1.02583050512925,0.0,0.0,0.0,0.0404838339452728,6.762496638941508e-08,-0.0187646375218858,2.69955777313946e-06,0.0008026686661094,4.8116985796350695,33.46655348088405,13.775691134419684,34.15949264475229
0.39,31.222210906095896,131.01040245274032,5.505993307722699,4.813508003664984,0.000929862892873,29.00025983045028,0.0011579891265804,2.9442136901860865,357.6406249338268,14.124492165837273,5.950648592462506,69.8968186645841,3.311602501056718e-05,120.00004036395212,122.13093644173792,1.274,1.02579027384009,0.0,0.0,0.0,0.0415093739609825,7.545934774906889e-08,-0.020311592409804,3.0013532510753577e-06,0.0008908380763632,4.813508093268025,32.821616487639595,14.124638228358922,29.149330452482886
0.4,31.222210638473225,131.0104030017851,5.635788650457906,4.841647069358873,0.0009592124397379,27.71178845184976,0.0011749448424961,2.91135549588368,345.4656368807565,14.390874239274588,6.07193451174791,69.8851815212744,3.783947407715338e-05,120.00004563180136,126.77947425345651,1.274,1.0257493418632293,0.0,0.0,0.0,0.0422922854866381,8.39343718693383e-08,-0.021938519432511,3.3271332720311508e-06,0.0009803271643914,4.841647164150728,32.348088166612904,14.391024912012275,27.864299944624147
0.41,31.22221036681104,131.01040355909262,5.767123077463226,4.86553909860892,0.0009876699832274,31.306062598221665,0.0011918093836199,2.876450850006428,378.9468707766882,14.663028799871563,6.195223154320929,69.87261222561014,4.307011032901644e-05,120.0000514391194,131.6183642808765,1.274,1.025708445186429,0.0,0.0,0.0,0.0430921644173401,9.308325447883581e-08,-0.0236371933433427,3.6760977501392174e-06,0.0010761942383903,4.865539198612839,31.87689439156756,14.663183942709727,31.437931330109585
0.42,31.22221008906472,131.01040412887247,5.901259531771367,4.867510642114694,0.0010118258958528,35.308283402190774,0.0012128114559048,2.8374461227958245,416.23282400171047,14.9952917972178,6.33928625560071,69.85906967380902,4.884273094936628e-05,120.00005782486392,137.64909586091787,1.274,1.0256701057426505,0.0,0.0,0.0,0.0440686959134695,1.0293499639582845e-07,-0.0254093547296826,4.049238334851429e-06,0.0011830797791891,4.867510747027452,31.315270489291198,14.995450734457847,35.422111438762386
0.43,31.222209804115888,131.01040471342728,6.038886819939341,4.854590670645608,0.0010330089741511,31.00586934514032,0.0012363751872706,2.794478603999558,375.90313951343126,15.369430568701889,6.497852263156962,69.8445117629242,5.519340856908871e-05,120.00006482835984,144.60167924299955,1.274,1.0256308158337524,0.0,0.0,0.0,0.0451682983415116,1.135186446762958e-07,-0.0272634397889413,4.449073329427772e-06,0.0013010625065656,4.854590780289497,30.70250814963406,15.369592833372094,31.13154422839874
0.44,31.22220951192321,131.01040531284193,6.180028459770617,4.866912332640401,0.0010595850174406,28.57707721036899,0.0012525768202179,2.752165534925872,353.07501253892326,15.659290812546615,6.627318538707029,69.82889155423543,6.216182865383864e-05,120.00007249162944,150.1053167542629,1.274,1.025586171750536,0.0,0.0,0.0,0.0460202245100907,1.2486676023179565e-07,-0.0292060158163984,4.8779154055816594e-06,0.001420032405556,4.866912447705031,30.24619499837236,15.659457251771938,28.709297424144207
0.45,31.222209215425703,131.01040592106523,6.322872201489905,4.881836476567178,0.0010866574689855,33.31904824532484,0.0012669045761511,2.7082028218433374,397.2093853562887,15.934249290371609,6.751662050993672,69.81215834018458,6.97909417564726e-05,120.00008085697964,155.42080512416243,1.274,1.0255397023523487,0.0,0.0,0.0,0.0468283602442113,1.3701614206272197e-07,-0.0312276295846745,5.334643585560923e-06,0.0015449645531859,4.8818365972149325,29.82567893138932,15.934419982127675,33.428929688274074
0.46,31.22220891307435,131.0104065412864,6.468371919199588,4.869610441729251,0.0011078049156487,38.95909776354321,0.0012868374716666,2.6582856015412624,449.7140588976424,16.292139278621757,6.904766425053949,69.79426683863348,7.812149592850748e-05,120.00008996920153,162.4785746623087,1.274,1.02549635315424,0.0,0.0,0.0,0.0478802236363867,1.499987870203256e-07,-0.0333272350234362,5.819761874615242e-06,0.0016858511402973,4.869610567434908,29.29014635640275,16.292313292210977,39.04968351401366
0.47,31.22220860266524,131.01040717804253,6.6178810515614845,4.838450928223533,0.0011247917292402,26.253747818137555,0.0013104398935566,2.6026193242279367,331.0078106302504,16.710658191447514,7.078951441335346,69.77517236812905,8.719457259907165e-05,120.0000998741591,170.9309671061642,1.274,1.025453319323251,0.0,0.0,0.0,0.0491102725711187,1.6384464803343264e-07,-0.0355167087264168,6.3368207228363735e-06,0.0018427306558807,4.838451058652396,28.68386015667837,16.710834873319172,26.382435512333956
0.48,31.222208284201663,131.0104078313267,6.771393590864176,4.869339340099417,0.0011561785713505,25.860860976019296,0.0013165328518772,2.5543454292827983,327.20312230115803,16.911139899671,7.177575416403102,69.75482343794755,9.70562828082882e-05,120.00011062072316,175.0543877818846,1.274,1.0254092882449153,0.0,0.0,0.0,0.0496995461609974,1.7858865391586845e-07,-0.0378054080201581,6.88909442277235e-06,0.0019849793891693,4.869339477030596,28.40887970825325,16.911321511776286,25.986704537635287
0.49,31.22220796480208,131.01040848648364,6.924537656029012,4.881367714530694,0.0011829003785372,32.565703383222065,0.0013261973190012,2.5011623511055703,389.6000096981238,17.169005224738054,7.296160258358563,69.73316318155707,0.0001077573203115,120.000122255028,180.4309832312717,1.274,1.025367445590036,0.0,0.0,0.0,0.05045746454003,1.942747077649401e-07,-0.0401641298712614,7.47069711110948e-06,0.002140948887153,4.881367857509675,28.058569663954906,17.169191034294997,32.66161128464712
0.5,31.222207637929923,131.01040915697027,7.081324512896956,4.862566137860805,0.001202418260511,33.47759680712428,0.0013425340759632,2.4399894027711366,397.970310422106,17.52898693231981,7.450304424940405,69.71015149227495,0.0001193385310595,120.0001348274002,188.0736471953394,1.274,1.0253278572281015,0.0,0.0,0.0,0.0515154948878309,2.109295159784217e-07,-0.0426011733481599,8.084173008518589e-06,0.0023184335011768,4.862566286171007,27.57768313050809,17.529175807738486,33.56639745442473
0.51,31.22220730314019,131.01040984370235,7.24202048914867,4.8479762258125,0.001223054804074,25.49162310288008,0.0013562860883156,2.3767006597692686,323.39843497208153,17.86914397471067,7.597652147346554,69.68574349602717,0.0001318441288964,120.00014838524436,195.4407439266201,1.274,1.025286455263166,0.0,0.0,0.0,0.0525152689856776,2.2858192086249162e-07,-0.0451315948093539,8.734206149830708e-06,0.002503767471626,4.847976379721193,27.13799345359824,17.86933609171003,25.602178740977283
0.52,31.222206962738102,131.01041054193402,7.405210501673173,4.865306299521403,0.0012516517170965,30.733671928447727,0.0013599291289974,2.317711624364424,372.098451184342,18.08534843773428,7.701914987606457,69.65988568649581,0.0001453248538387,120.00016298000436,200.19561780583155,1.274,1.0252426840672306,0.0,0.0,0.0,0.0531507657929359,2.4726951523704535e-07,-0.0477531686556663,9.421346966092632e-06,0.0026812161964639,4.865306460134566,26.8699055233151,18.085545046726228,30.820940596104087
0.53,31.222206619320115,131.01041124632013,7.569307468221277,4.848802699234936,0.0012715119568563,32.301199055744725,0.0013711327835325,2.2490252325653923,386.55624643486095,18.41963113311156,7.8474319110539055,69.6325258319474,0.0001598315062727,120.0001786629144,207.6614205945027,1.274,1.0251993415311351,0.0,0.0,0.0,0.0541332845214831,2.67031759303889e-07,-0.0504479325599339,1.0141887756417996e-05,0.0028848299490111,4.848802865552398,26.45837260670532,18.419830861742675,32.37940050117613
0.54,31.22220626697288,131.01041196903336,7.737918664599091,4.831496690588052,0.0012913635058467,28.31291960103712,0.0013809098107221,2.177242866245296,349.2703242098436,18.75116898748492,7.992112829440902,69.60362200959217,0.0001754082864028,120.00019548734956,215.20067397992847,1.274,1.0251561018460285,0.0,0.0,0.0,0.0551077428911958,2.878941684235108e-07,-0.0532336286085667,1.090122304443916e-05,0.003098869611663,4.831496862756785,26.061835558272342,18.751371834390056,28.396510432451375
0.55,31.222205908994248,131.01041270328463,7.909026079894722,16.926145910542473,21.867809829269504,30.9209585032238,-1.5629167197966192,1.284649892361431,365.2500005919912,23.311818853880887,8.113323699629928,69.57312211246325,0.0001921068626005,120.00021350480982,332.60755958266367,1.274,1.025112921033824,0.0,10.025614263783408,0.0,0.068511152573491,3.0989272306468813e-07,-0.0561100530405476,1.1700476995263424e-05,0.0040606783378885,27.39650053572576,44.75010101150643,26.664016837543148,30.987073252842908
0.56,31.222205546564343,131.01041344664463,8.081909946161325,-16.767215274977428,22.028619613983487,28.64787853495385,-1.3991612523363737,2.787121098756765,346.22656194657776,18.90856653645164,8.24370876953435,69.54097415464405,0.0002099796112633,120.00023276987916,218.8214034054107,1.274,1.0250709539098009,0.0,10.062191141780394,75.00003213914121,0.0555705336225241,3.3292051977349045e-07,-0.0690085882480278,0.0189385669121715,0.0040507579147041,27.428656578523988,48.65095112544831,22.28419366563453,28.817124089378595
0.57,31.22220518105916,131.01041420589075,8.258547605517315,-16.47873696478081,21.79141176549972,28.318686056468504,-1.6638983676452688,2.9484344286331536,343.1828296833045,19.143898002598227,8.386410552459981,69.50143310747288,0.0292380856677736,120.03121933929825,224.2982908202273,1.274,1.0250279191823897,0.0,10.098482259245095,75.00003213914121,0.0562622632136077,3.7173617555009603e-07,-0.0605656829240519,0.0314632825807515,0.0035993507054498,27.076231540223898,48.12402126321548,22.4849559235326,28.520340168424106
0.58,31.22220480756113,131.01041497794205,8.436822078344496,-16.213663289070954,21.53522692475965,37.2330971471153,-1.938385888997353,3.1167114617816165,426.12500585731766,19.387183057623908,8.523585661313227,69.46671553858633,0.0773270004126651,120.08256501125,230.03144548728488,1.274,1.024981594484354,0.0,10.134876624800247,75.00003213914121,0.0569773715712647,4.136421811474865e-07,-0.0520178875615145,0.04418146694986,0.0031305969838935,26.722401205948444,47.58555427948746,22.69084187709962,37.41356376178552
0.59,31.222204429958456,131.01041576257953,8.61789398649897,-15.83416009738536,21.139497335958687,30.189086610180063,-2.237487781860976,3.290900428657112,360.68438819710633,19.752567315293646,8.708591803216537,69.43686326227926,0.144705485613281,120.15452171228452,238.7796638479201,1.274,1.0249386802161349,0.0,10.170968860437254,75.00003213914121,0.0580513250944932,4.586884915923661e-07,-0.0433489108327896,0.0570914588289116,0.00265799359102,26.19276622132391,46.78173178723707,22.998326073606957,30.450243472955446
0.6,31.222204042816248,131.0104165687451,8.803840360815258,-15.587041427643872,20.896271491028497,26.82571718864719,-2.53290919076076,3.474178639674036,329.4859594986072,19.98430135263504,8.84131793285834,69.41191966307169,0.2316268514588284,120.24736578212276,244.41081608346084,1.274,1.024891335813742,0.0,10.206991300760247,75.00003213914121,0.0587324973832384,5.069128544152117e-07,-0.0344942860518727,0.0702781380316148,0.0021398363715284,25.859023949002985,46.28076358426488,23.194396201545324,27.168081435285213
0.61,31.22220365361056,131.01041738137516,8.99031275457372,-15.353406159608388,20.665656111270685,31.40179108638254,-2.835411243383489,3.663203233819597,372.0984511843332,20.20313694362333,8.968924686921044,69.3919565952213,0.3385022900106822,120.36154031629718,249.78843102266103,1.274,1.0248423929069768,0.0,10.243336288704011,75.00003213914121,0.0593757651495514,5.583850467074537e-07,-0.0255315241255088,0.0836392943066801,0.0016011506907756,25.542837240607323,45.81007394367015,23.37936350272965,31.741630365880482
0.62,31.22220325878141,131.01041820771795,9.179443643850217,-15.051913780413024,20.349804559286603,39.00573823295719,-3.1593070809301254,3.8597269548892617,442.86563930529206,20.499912991711145,9.126844749154118,69.37699300118248,0.4656157044529144,120.49735050405364,257.1762463251044,1.274,1.0247996097896497,0.0,10.279150445964278,75.00003213914121,0.0602481000756967,6.131489369023609e-07,-0.0164704815068127,0.0971614337241139,0.001048062264786,25.120190328123503,45.17895996627975,23.62967004479941,39.32335601771411
0.63,31.22220285638668,131.0104190516791,9.37237099826524,-14.68594805209646,19.950510183795537,22.11085047502232,-3.510313844679019,4.067180051908222,286.11251274707456,20.880670760850307,9.317169789877532,69.36703323748927,0.6132602451563066,120.65510937648472,266.8134161339178,1.274,1.024756158874558,0.0,10.314830766974378,75.00003213914121,0.0613672594702096,6.712411442785677e-07,-0.0072729273789173,0.1108952945216082,0.0004713835494702,24.594198272381373,44.38857935005019,23.95154588129808,22.754207645874644
0.64,31.22220244551896,131.01041991501123,9.569605560910851,-14.537779735140049,19.814554527431223,21.682243048777924,-3.824944494817216,4.272896176735501,282.3078244179702,20.9975373511444,9.40513276034198,69.36209378522483,0.7818375886747407,120.83524382579084,269.8033090442491,1.274,1.024708534665538,0.0,10.350606140586796,75.00003213914121,0.0617108619137645,7.327091779916599e-07,0.0021020953724806,0.124895962380369,-0.0001370040100544,24.40152837355321,44.12536691367296,24.048329595231703,22.427828823848998
0.65,31.222202036380185,131.010420777175,9.765116658157035,-14.330073327197656,19.602991463063727,38.30108864816421,-4.158326831346693,4.484776344190718,436.7781447787504,21.186090585768124,9.520655224080564,69.36220380001095,0.971866250200986,121.03830339967004,274.66545636429595,1.274,1.0246641738210605,0.0,10.38655498364441,75.00003213914121,0.0622651491186651,7.976407018754069e-07,0.0115081848710236,0.1389658997557476,-0.0007567666794482,24.114717070439674,43.71865603549742,24.205597380242125,38.786315789569954
0.66,31.222201619800583,131.01042165650705,9.964300118463882,-13.94601760078216,19.16897499436699,32.533812846169184,-4.550690691024861,4.716209256531178,383.5125151715984,21.605323928822983,9.724908851050222,69.36729962867554,1.183593632738068,121.26454574130968,285.6377813819953,1.274,1.0246195561629028,0.0,10.421585515920516,75.00003213914121,0.0634974033375494,8.660569191237568e-07,0.0209802808489195,0.1531514764197841,-0.0014069158424946,23.549979126620745,42.87596942505714,24.560520995287263,33.187352919844834
0.67,31.222201191576143,131.01042256113817,10.169557365389588,-13.682062623223617,18.88047926707472,22.33265861738819,-4.922987007025779,4.947409951748618,289.15624401033847,21.87068906687836,9.869652150120585,69.37732672871269,1.4173703412149328,121.51433655265232,292.69173546765546,1.274,1.024572383541697,0.0,10.456680289490905,75.00003213914121,0.0642774524125957,9.379745212374168e-07,0.0306350906318608,0.1676112233549012,-0.0020795488005575,23.169389186640764,42.32953528610352,24.783044670942367,23.397869715484973
0.68,31.222200761763567,131.0104234711395,10.375016012444144,-13.49885174051619,18.69072726753596,27.878161037701727,-5.276195156553157,5.175392809855875,340.89999248584934,22.02289095268664,9.97077178080986,69.39228361417102,1.673826025581986,121.78833735999405,296.773839586873,1.274,1.0245245285832842,0.0,10.492230466429678,75.00003213914121,0.0647249202804744,1.0134823160054211e-06,0.0403855475862682,0.1822263681620211,-0.0027604457494161,22.91350569930009,41.98762820422608,24.90702816402659,28.84119950540153
0.69,31.222200328879246,131.01042438946405,10.581549606566204,-13.227146590336828,18.386378831990832,34.32254775838654,-5.667742366591233,5.418161355952454,401.0140726853658,22.29953819621254,10.11913843563021,69.41210783908325,1.95344175222598,122.08704853707884,304.27066535764,1.274,1.024479631064582,0.0,10.527210573762408,75.00003213914121,0.0655381347589649,1.0926428771159138e-06,0.0501680913627938,0.1969090271941363,-0.0034721121697318,22.515507080296743,41.4220543635407,25.138349225707252,35.20677577739709
0.7,31.22219988711753,131.01042532718583,10.792457902500884,-12.914245217927537,18.025755637992567,28.695569350336424,-6.088042064095648,5.674488915185677,349.270324209851,22.64121567580096,10.291783209892223,69.43668961745315,2.2565954215237647,122.4108579242628,313.6599243744312,1.274,1.0244351749185203,0.0,10.561826018365602,75.00003213914121,0.066542480014078,1.1754746411950044e-06,0.0600413257495439,0.211739300212984,-0.0042190193602803,22.04876640584195,40.74858592381512,25.42621602023461,29.878081949193632
0.71,31.222199437995265,131.01042628114038,11.006823421019655,-12.67226974343524,17.752668104296486,23.473429798404588,-6.489058559913856,5.926949405196436,301.3312640634036,22.876228820063307,10.423541013386068,69.46593813133896,2.5838236381020696,122.76032056886989,320.1986333241663,1.274,1.0243880468141104,0.0,10.596622258347267,75.00003213914121,0.0672333456929164,1.262020862753974e-06,0.0700316260314835,0.2267534909932026,-0.0049720009800231,21.692280661688567,40.25929411701117,25.620406662032245,25.064686647679803
0.72,31.222198985772945,131.01042724318688,11.222221636230596,-12.457154419171498,17.5117837294218,28.759646464878166,-6.883324899809537,6.178613002881221,350.7922053414578,23.065678596442385,10.537727102663828,69.49976237269516,2.935755532878233,123.13608792031968,325.5173185513723,1.274,1.024337302174265,0.0,10.631347558725247,75.00003213914121,0.0677903042239809,1.3523570944245426e-06,0.0800782884549075,0.241866984215101,-0.0057322430822776,21.37675915308705,39.84303618464702,25.773796049442364,30.210473102890827
0.73,31.22219852896553,131.0104282160682,11.439482334526769,-12.18099403936438,17.18874084516093,36.423255138558055,-7.315873052884022,6.447193618170014,422.3203185282354,23.354427755263067,10.688744014368227,69.53802382673483,3.3129216372722228,123.53870376835644,333.7113878454402,1.274,1.024292465384646,0.0,10.665703266911915,75.00003213914121,0.0686391096819312,1.4465346495383998e-06,0.0901523229444611,0.2570387664657922,-0.0065340231943452,20.960390128982404,39.26480525048768,26.014110664347317,37.705991817807714
0.74,31.22219806377865,131.0104292065422,11.660675940151064,-11.8586928232146,16.801420943423686,22.5487664865022,-7.787393147422746,6.7345029227891935,294.4828134710563,23.727474760244373,10.870548515013924,69.58055377854592,3.715819741941633,123.96867473194142,344.450152799114,1.274,1.0242470321640116,0.0,10.699826128893802,75.00003213914121,0.0697356759842904,1.5445754119723568e-06,0.1002957006842171,0.2723270428799314,-0.0073851467887813,20.46584485882154,38.55925253090784,26.328974606873288,24.787978774244333
0.75,31.222197589948767,131.01043021474666,11.885887176081953,-11.664415489259753,16.580139421070612,26.34173835777063,-8.188963259599964,6.994505991659833,330.24688556441737,23.871255611699496,10.966526921158213,69.62718987455887,4.145072607218329,124.42663862931984,348.62977496175006,1.274,1.0241984712898409,0.0,10.73402664984136,75.00003213914121,0.070158429968503,1.6465163721958678e-06,0.1105413354093616,0.2877778661681801,-0.0081887171956567,20.17746378701145,38.2062861893003,26.439461092240776,28.458204670071648
0.76,31.222197116811184,131.01043122395893,12.110003250075492,-11.403677216164848,16.268088629093384,28.318677930389832,-8.637951670721622,7.275761990079839,349.2703242098581,24.13477208310585,11.106271188989172,69.67776938582244,4.601410615357444,124.9133458545518,356.36168703396527,1.274,1.0241522053390697,0.0,10.768243919393472,75.00003213914121,0.0709330931676835,1.7524612749890809e-06,0.1207699616389348,0.3032226807460817,-0.0090450023935293,19.778066792164893,37.67017638604243,26.65596092649064,30.487676876521128
0.77,31.222196633835,131.01043225263345,12.338725605056032,-11.135925103924285,15.944089434773016,26.34088788393017,-9.098806236164307,7.56376883200103,331.76876669606884,24.409836865296555,11.249585829922804,69.73205119574274,5.085321224480905,125.42928567904391,364.5229006380852,1.274,1.0241065975906936,0.0,10.801782868516828,75.00003213914121,0.071741705061763,1.8624152040182617e-06,0.1310317943237941,0.3187317917628497,-0.0099251843510586,19.364844463086538,37.1163622016963,26.88212969253285,28.876309466082954
0.78,31.22219614524112,131.01043329305662,12.569715402227178,-10.88613055077828,15.641288903940293,21.393862603545976,-9.552590584800225,7.849927523174598,286.8734378128874,24.649225450213425,11.379112006873056,69.7898024726657,5.59743229490202,125.9750953358519,371.6995061443654,1.274,1.0240588105546735,0.0,10.83549858921756,75.00003213914121,0.0724454686225286,1.9764199663167912e-06,0.1413226891086871,0.3342991766760488,-0.0108094240184363,18.97872763842709,36.61386573379256,27.075749938098756,24.709728976646243
0.79,31.22219565163212,131.01043434406793,12.802631088473108,-10.662994941011693,15.372313763269112,30.67792161366009,-9.9865970024164,8.127735322879964,373.6203323159581,24.829306411940983,11.486435719009531,69.85076975129512,6.138387119363563,126.55142682517136,377.1419933521278,1.274,1.0240083170932772,0.0,10.8690394043434,75.00003213914121,0.0729749285221333,2.094527265340673e-06,0.1516174462857728,0.3498884587390703,-0.01168130692325,18.63491117040953,36.19127140121323,27.21511839363173,33.27051360741724
0.8,31.22219515413273,131.0104354036806,13.03686279300522,-10.365619202057978,14.999569738911376,30.98155832831952,-10.491560246804102,8.439303885288972,377.42502064505805,25.166411567553915,11.64969366308532,69.91466826525655,6.708790503442398,127.15888969311192,387.44364042368335,1.274,1.0239625010683884,0.0,10.902323594585862,75.00003213914121,0.0739658977211422,2.2167878984648822e-06,0.1618801476680494,0.3654478534723933,-0.0126410394685455,18.164855058931792,35.552037127965754,27.495717691068844,33.78093608726138
0.81,31.222194645707027,131.01043648302348,13.276022582231109,-10.086222670251908,14.648373427506195,19.666545706915088,-10.988276440854076,8.748404827752598,273.9374926939922,25.465769245078736,11.798368671795286,69.98117726799283,7.3091768791963005,127.7980174575766,396.7067332618428,1.274,1.0239149950770308,0.0,10.935269875461156,75.00003213914121,0.0748459334673264,2.3431909367154887e-06,0.1721720456340062,0.3810649277590911,-0.013604336490294,17.722188636078634,34.965912185595215,27.741745778848763,24.167122836884285
0.82,31.222194132126447,131.0104375724543,13.517065783958326,-9.875118124332683,14.388848971065588,25.475222321559915,-11.41608701388112,9.025087291002777,328.725004432774,25.603906966444004,11.88878738086432,70.04998508833833,7.940241571039315,128.4695140548772,401.0129529664199,1.274,1.0238644186635044,0.0,10.968415739926282,75.00003213914121,0.0752521359324323,2.4737925880078305e-06,0.1824647803341241,0.3966988262775332,-0.0144954987357545,17.392359313336964,34.58767267641473,27.84041933874036,29.338817216302868
0.83,31.22219361714488,131.01043866615967,13.75808717662088,-9.603914262077808,14.043781229359553,32.593735028150384,-11.909428930193371,9.33341064520918,395.6875032246518,25.880844467795544,12.027580458473496,70.12074563602002,8.602621169729323,129.1740202313337,409.72527311393446,1.274,1.0238188483711983,0.0,11.001334296662796,75.00003213914121,0.0760662864670623,2.608674895870312e-06,0.192678184008006,0.412233217329418,-0.0154720837803338,16.958919718850236,34.02825981404722,28.064813750886916,35.93464365762806
0.84,31.22219309160706,131.01043977786924,14.003669997927377,-9.302552887317914,13.6538053515622,19.43043285459477,-12.445069034658207,9.663192595063936,275.45937482564227,26.234275117369016,12.19208423359952,70.19305673957176,9.296753562024756,129.911965295196,420.98222830041857,1.274,1.0237739661568126,0.0,11.033772876099016,75.00003213914121,0.0771052667155766,2.7478121576639007e-06,0.202861934052535,0.4277397655685124,-0.0165119060540149,16.47169338715749,33.37521244686063,28.35876794789225,25.015970005650846
0.85,31.22219255742805,131.0104409040922,14.252759582428045,-9.085288884339027,13.379376218952869,21.17882361921043,-12.874652008695543,9.940929555408776,292.9609323393965,26.36651330903235,12.278472055361688,70.26651852035566,10.023194028864108,130.6839037837029,425.2268135091465,1.274,1.0237227741398531,0.0,11.066350289316592,75.00003213914121,0.0774941463172836,2.89121071947949e-06,0.2130355396844521,0.4432469896257145,-0.0174269728020448,16.125814382301577,32.98920679232443,28.44909292408672,26.7043313839578
0.86,31.22219202392603,131.0104420312676,14.500757804381475,-8.832065876752642,13.052147968720323,26.79324693602895,-13.348123740849724,10.23998335811216,346.2265619465616,26.58903172025616,12.395326982170868,70.34071778389905,10.782537906885468,131.49043342784918,432.4241470296486,1.274,1.023674789281455,0.0,11.098898150655156,75.00003213914121,0.0781483716019582,3.038975987950211e-06,0.2230963240738092,0.4586047594118127,-0.0184035575358889,15.716481794231,32.49120242804352,28.621571808833096,31.637126101314493
0.87,31.22219148103108,131.0104431735923,14.7525677585763,-8.550828306950079,12.68297361787548,24.64607450948208,-13.861726375540645,10.55913225981391,327.9640783669946,26.88637366926048,12.536742262894569,70.41517828232756,11.575094627786424,132.3318495536605,442.1390270643488,1.274,1.0236288969245204,0.0,11.130813662341442,75.00003213914121,0.0790225199654805,3.191081031367105e-06,0.233070781225362,0.4738515199329164,-0.0194409017902749,15.256951324804987,31.90440840308536,28.86238035607036,30.1839646321941
0.88,31.22219092996921,131.010444328732,15.00750096433555,-8.288409720718287,12.338102227756524,20.840125187824658,-14.34681962477482,10.863806422826832,294.4828134710421,27.12800478013688,12.657988913745047,70.48941616658485,12.401208835963104,133.2084869206517,450.11083232667744,1.274,1.0235805388426191,0.0,11.162763267401012,75.00003213914121,0.0797329343024173,3.347510505705038e-06,0.242975550171888,0.4890120139278879,-0.0204487205088758,14.827672130660773,31.38046738044323,29.051125532012108,27.534784204396466
0.89,31.222190374139988,131.01044549186776,15.263900714800048,-8.03832310540507,12.008770556906155,22.884147560914062,-14.806941887807897,11.155233337780691,315.02813424808807,27.327172479225617,12.76387576590689,70.56293466152415,13.261229700899294,134.1206875498681,456.73307213772,1.274,1.0235293752791452,0.0,11.194654959504476,75.00003213914121,0.0803185478937193,3.5083001253708457e-06,0.2527764051934643,0.5040357690602103,-0.0214292143485346,14.417872226026766,30.90060500280926,29.199725244991484,29.45112847547514
0.9,31.222189813009884,131.01044666357143,15.52200134149632,-7.770790338003373,11.652148820672696,25.33094255115284,-15.292815065062236,11.459231502553145,339.3781423542166,27.576815668931296,12.885547378773316,70.63520528651514,14.15536447717195,135.06864598620953,465.1044896203941,1.274,1.0234837388140003,0.0,11.226282740671284,75.00003213914121,0.081052521691578,3.6734696439831e-06,0.2624453168337754,0.5188812826251701,-0.0224515948454269,13.975763008117246,30.36342806008587,29.394540416446244,31.730755266351704
0.91,31.222189243744968,131.01044784705556,15.783066267476954,-7.494174666891522,11.28002560028286,18.4388896886178,-15.793261738412038,11.770238264590777,277.7421810230785,27.854730946245084,13.015287082434916,70.70567282971713,15.083680613809213,136.05241238419327,474.5143455359104,1.274,1.023436404813438,0.0,11.257679819456108,75.00003213914121,0.0818695987784381,3.8429924131220056e-06,0.2719880339395512,0.5335572313554869,-0.0235018543187864,13.515669431752604,29.795643438592343,29.615169388847235,26.9807019569959
0.92,31.22218866686743,131.01044904121693,16.046788442190948,-7.247622920151702,10.949813078834811,22.27431638754937,-16.22527021547931,12.044831004319196,315.0281342480675,28.02291277827999,13.107868692171277,70.77376889263725,16.046186000658675,137.07197830908223,480.24954427219086,1.274,1.0233859136578225,0.0,11.28900078606114,75.00003213914121,0.0823641577000868,4.0168500514337535e-06,0.2814010134961764,0.5480586288233574,-0.0244613993050091,13.106666516449096,29.33795436043099,29.73245457494361,30.074615841612665
0.93,31.222188087206646,131.0104502401876,16.310960033788838,-6.974428716648005,10.578370155469983,26.84351916485612,-16.707044030556336,12.344370104532343,359.16250706547066,28.2832387100588,13.2292353484373,70.83890959327456,17.042792774592783,138.1272390341895,489.2013771758774,1.274,1.0233407575091376,0.0,11.320207415473144,75.00003213914121,0.0831295481414385,4.195081481429364e-06,0.290632977173001,0.5623090199291955,-0.0254979565171544,12.648718090661134,28.78531922705412,29.93546111864226,33.94235281577601
0.94,31.222187497410708,131.01045145208073,16.57882608582547,-6.687778045947078,10.184788373292855,18.349189331950488,-17.216541924811935,12.657662832078882,283.06875048378083,28.594573671867856,13.365506447132487,70.90048376247208,18.073168811567232,139.2178370890242,500.0178084443143,1.274,1.0232914783978162,0.0,11.351042281864853,75.00003213914121,0.0840448718509196,4.377616920160318e-06,0.2997021466773356,0.5763359396538217,-0.0265823672385822,12.164858450526287,28.18318785316956,30.18598460546163,28.165910128365528
0.95,31.22218689884525,131.0104526747441,16.849691129403702,-6.436057048115658,9.841110975985556,24.55792189694813,-17.630062291753962,12.919202309663754,342.421873617488,28.762020579042208,13.454673157088482,70.95787714985958,19.136921381112625,140.34335746830968,505.8779014840597,1.274,1.0232418269359267,0.0,11.381887593870076,75.00003213914121,0.0845372884112088,4.564407119489338e-06,0.3086101209407144,0.5901424119190571,-0.0275320426613723,11.741456760637828,27.716225589396664,30.30026914229094,32.87577242629823
0.96,31.22218629826795,131.01045390087265,17.120597916853104,-6.151644705791579,9.446355284689298,23.730170103971183,-18.122398566111155,13.221195872658935,337.09533515678265,29.065029607418538,13.5852275544305,71.01046860073932,20.233541022558647,141.50326878604403,516.5794944587344,1.274,1.0231951201821403,0.0,11.412659469320811,75.00003213914121,0.0854281532265411,4.755497548166026e-06,0.3172970625129979,0.6036383353303377,-0.028604502460906,11.257557172925129,27.122602496827884,30.542146482400057,32.65489738547051
0.97,31.222185684938488,131.0104551411282,17.396114073418147,-5.875863654466964,9.062586416288124,13.466863481043118,-18.582533443574675,13.504850962380075,245.0218871929888,29.328546212033444,13.701912981216724,71.05761868252381,21.362209593311263,142.69672093580667,525.9751228317604,1.274,1.0231476260761452,0.0,11.44302500923514,75.00003213914121,0.0862029511889565,4.950768891838543e-06,0.3257905537473645,0.6168658861119719,-0.0296356944892791,10.787383256799057,26.56476554941727,30.74616557022847,26.627954497383424
0.98,31.222185065874296,131.01045638798763,17.673177376702608,-5.629296190192025,8.721306795721718,21.31073754537636,-18.936909537813303,13.730382814283535,319.593746642963,29.44800913009186,13.773062812009188,71.09869538967608,22.522045850664608,143.9228054213447,530.2546108652781,1.274,1.0230935628253934,0.0,11.473500144671068,75.00003213914121,0.0865543491709372,5.150198967677254e-06,0.3340626945245382,0.6297834038029384,-0.0305111409208772,10.368456591595512,26.13039352017981,30.812664772363767,31.642969042079642
0.99,31.22218444495025,131.01045763785953,17.95017935679242,-5.347610669943747,8.32471013901421,23.436676055108084,-19.39316912420188,14.008701307967266,341.66094855170127,29.73660678240837,13.894456400151542,71.13306441874683,23.71193487906343,145.18037541275626,540.6844029599267,1.274,1.0230490803133316,0.0,11.50373819065006,75.00003213914121,0.0874028760246865,5.353812657935024e-06,0.3420598561632922,0.6423092321620514,-0.0315468858172938,9.884134215426114,25.549666879813632,31.03965327480777,33.49054352392355
1.0,31.222183810359496,131.0104589009752,18.231927640874822,-5.066897610529677,7.927709865811,20.177806382476746,-19.837125758594336,14.278824241358937,314.2672081822764,30.021290469343647,14.01296567259736,71.16009151767157,24.930441106993094,146.4679542745567,551.0715402709887,1.274,1.022999484445133,0.0,11.53357493494276,75.00003213914121,0.0882399088090697,5.56143436152116e-06,0.3498141129713413,0.6544932443605436,-0.032570011089432,9.39988845578752,24.973397550093125,31.262602585350603,31.694482966071963
1.01,31.222183168796807,131.01046017080753,18.51559504709593,-4.796319263883408,7.544316841589602,21.05079186773025,-20.231154642465903,14.520271477872488,324.92031610370094,30.250609728269207,14.113474046408964,71.1791626761581,26.17606383518416,147.78400580014244,559.5072301956284,1.274,1.0229507481225095,0.0,11.563531851995556,75.00003213914121,0.0889142187414251,5.772994407513305e-06,0.357308090022471,0.6663097323730826,-0.0335209542444475,8.93242569883236,24.44239132847593,31.43224682470208,32.60787849917539
1.02,31.22218252094968,131.01046144664727,18.80088775130872,-4.520157396480284,7.150417538177672,16.369115559866042,-20.634673751066543,14.76488534981678,284.59063161543185,30.512242711382125,14.22200995863086,71.18967903212997,27.447088162278224,149.12677666492186,569.2116740048625,1.274,1.0229039803623294,0.0,11.593307364499344,75.00003213914121,0.0896835131757404,5.988446239285172e-06,0.3645130138550092,0.6777146839997293,-0.0344917047373099,8.453050751466293,23.886192872167864,31.632514410988215,30.19502516008949
1.03,31.222181863449578,131.0104627307782,19.089088651331405,-4.254558501422953,6.7714618317953,12.013274044397248,-20.97347100926765,14.97235965068632,247.3046933904342,30.703478088818564,14.308677826453128,71.19106189084765,28.741550563996423,150.49425994409145,576.3531442917241,1.274,1.022853416101322,0.0,11.62287442537382,75.00003213914121,0.0902458977651413,6.207672952461673e-06,0.3714212281461781,0.688697011886482,-0.0353646827787554,7.991844419234669,23.38303893193125,31.764662440570017,28.431967799501304
1.04,31.222181201122147,131.0104640192418,19.37826711557112,-3.993622201628496,6.398434413096769,22.39781398395869,-21.26758665146289,15.153262928434703,345.4656368807608,30.85650536297296,14.383191230820362,71.18276099601549,30.057309920803075,151.88426980756654,582.0964247763097,1.274,1.0228049544826707,0.0,11.652366837516164,75.00003213914121,0.0906959826100067,6.430618446143676e-06,0.3780025333698546,0.6992103969153208,-0.0361696958717685,7.538076969700097,22.9065828244643,31.85948136324435,34.40339649824958
1.05,31.22218053307864,131.01046531253263,19.6687480160028,-3.708533157679226,5.985303016515847,10.654340245881627,-21.67592987681412,15.39391002844299,240.4562587980608,31.188848593270087,14.506886698307795,71.16425880198396,31.39198697317209,153.29437699900276,594.6864211306602,1.274,1.022755494436122,0.0,11.681586335330508,75.00003213914121,0.0916731336910395,6.657191596230395e-06,0.384236388620958,0.7092232774107499,-0.0371611482778018,7.037541641046662,22.30253381243196,32.12730878172177,28.641462393938156
1.06,31.22217984989231,131.01046661631125,19.96401603460248,-3.451488406897941,5.615805660755897,17.72318866550171,-21.90260825171871,15.53331245890964,308.1796836557233,31.29842497173504,14.566809509033966,71.1350780363316,32.743007554522514,154.72195370621455,598.8554245914271,1.274,1.0227013895379469,0.0,11.710567981737432,75.00003213914121,0.0919955171726528,6.88713057205481e-06,0.3901433949987914,0.7187694735045161,-0.0378639324808441,6.588768009911588,21.854262317406636,32.17914193434471,32.17327245785455
1.07,31.22217916886901,131.0104679193115,20.25755614129561,-3.17518387989722,5.213444116102689,21.80349938749259,-22.23401597276036,15.727194535284443,348.5093681440431,31.57495190970569,14.671473087070714,71.09478632950264,34.10774969710327,156.16432797744056,609.4669683419451,1.274,1.0226540159946436,0.0,11.73966483638067,75.00003213914121,0.0928086207106526,7.120472278074418e-06,0.3956687137857318,0.7277627804192,-0.0387383518782301,6.101962560644847,21.29366175604996,32.39274821451645,34.88679835937992
1.08,31.222178472090626,131.01046923209935,20.555963977331213,-2.8968445404080705,4.806207282514271,11.951530516709436,-22.569104386282465,15.920535633746416,261.0015785751465,31.880697589010296,14.782261656023255,71.04300157226479,35.48332684275611,157.61855343890767,621.3094530775664,1.274,1.0226061614050743,0.0,11.768235669158768,75.00003213914121,0.093707618051529,7.356934030931151e-06,0.4008284112395675,0.7362297790808447,-0.0396223834297342,5.609959113416843,20.71747199607007,32.63476979264264,30.09430194166565
1.09,31.22217776603072,131.0104705501365,20.856758324255207,-2.635240214361692,4.4250273401773885,10.06227758822586,-22.759641454928104,16.032302951605452,246.54375332456465,32.02261603972297,14.847546321736242,70.97939545091704,36.866835219312726,159.08166930785688,626.8352326951415,1.274,1.0225512795791307,0.0,11.796930281721286,75.00003213914121,0.0941250814750442,7.5963360519515585e-06,0.4056105392316695,0.7441530296170341,-0.0402724244418148,5.148936133172594,20.247381463219305,32.71700692579772,29.60211896725387
1.1,31.222177058211223,131.01047186947818,21.15724218056808,-2.37131475240988,4.038744968402888,27.919043910006145,-22.945898727236656,16.138880881406852,413.1890617384087,32.18869616621403,14.918114020889568,70.90369671067627,38.25529247179247,160.5506340328871,633.3357737976958,1.274,1.0224981043155532,0.0,11.82550568318832,75.00003213914121,0.0946135668158719,7.838647565818153e-06,0.4099790432831542,0.7514745125694359,-0.0409161013112881,4.682443496814297,19.762798244269177,32.82257550600951,39.57841276950974
1.11,31.222176341163173,131.01047319367342,21.46004652451819,-2.0872666059944955,3.6164627738058113,17.891613763239295,-23.325910073352663,16.348439452676242,324.1593910379213,32.634485905791394,15.060011220594994,70.81569860451263,39.64558906289479,162.02227215236388,650.9807836814407,1.274,1.0224548851875197,0.0,11.853710960748652,75.00003213914121,0.0959242228118431,8.083665395741897e-06,0.4139264495310574,0.7581829650555874,-0.0418809500570881,4.174888874100818,19.11711667491553,33.20218142184044,33.63747012396875
1.12,31.222175602656645,131.01047452721917,21.76929483632912,-1.8221619777761104,3.224991867010642,1.0628722023843893,-23.50203615661004,16.4436533188285,172.7328179403806,32.844804169513964,15.139140597081578,70.7152594772676,41.03460990711272,163.493401121867,659.3789388660086,1.274,1.0223979224661404,0.0,11.881800204773308,75.00003213914121,0.0965427590017443,8.330949656166466e-06,0.4174686115121708,0.7643074565621059,-0.0425103005409289,3.703692672498356,18.61329643923757,33.35111725871217,28.70312065429518
1.13,31.22217486495739,131.0104758603171,22.077261167949462,-1.5692837617991156,2.853861468977906,22.01396145741562,-23.49829317876228,16.437555168903312,367.5328077894322,32.856567108137206,15.166815599458117,70.60229834687529,42.419338693209255,164.96094004883213,659.8318010735529,1.274,1.0223460397860296,0.0,11.910150988419725,75.00003213914121,0.0965776701605737,8.580514758927203e-06,0.4205661661690817,0.7697829906224323,-0.0428397908536215,3.2565533600632333,18.22067075204922,33.30466527983201,36.15214379942615
1.14,31.222174126905365,131.01047719401603,22.384425275433617,-1.2963321160214372,2.444999565480056,7.754120160023572,-23.782486649489783,16.58559976989145,239.6953177322812,33.26917622334221,15.293892476874817,70.47680691789444,43.79671148991532,166.4217528399964,676.488086628872,1.274,1.0223022138470996,0.0,11.93805504747163,75.00003213914121,0.0977908207611235,8.832334740313731e-06,0.4231947817873853,0.7745675011272246,-0.0436475994095286,2.7672151373735843,17.616021882999675,33.653119304869215,30.013583098594992
1.15,31.22217336174564,131.0104785368212,22.69962076818822,-1.0393632289137844,2.06442957940776,7.211089026423561,-23.7944879768946,16.58178405872119,237.4125115347709,33.366835814726805,15.34109831170705,70.33885045089896,45.163693908832286,167.87272795558744,680.4448921015822,1.274,1.0222426194541194,0.0,11.96556924718206,75.00003213914121,0.0980782284631619,9.085796150514288e-06,0.4253711653779178,0.7786943113033536,-0.0439995195689236,2.311207016591265,17.180995960903367,33.691045493814286,29.885331278064296
1.16,31.22217260416019,131.01047987700753,23.01130432434246,-0.7813517627565683,1.6800169773872105,34.50767322384224,-23.831702915291327,16.588565814737358,490.043774385954,33.53064881572812,15.403526439571229,70.18855394145143,46.51744170038189,169.31094711338355,687.1219494109964,1.274,1.02219674531104,0.0,11.993480940020364,75.00003213914121,0.0985600858356359,9.340975961129734e-06,0.4270656768485368,0.7821111241628202,-0.0443903415821974,1.8527797071245156,16.716433819689748,33.7945074520336,45.09889234732996
