Time,Latitude,Longitude,Altitude,Angle of Attack,Angle of Sideslip,X-Acceleration,Y-Acceleration,Z-Acceleration,Thrust,True Velocity,Ground Velocity,Pitch,Roll,Yaw,Dynamic Pressure,cp,cg,parachute_deploy_gain,Wind Speed,Wind Direction,Mach,omega_x,omega_y,omega_z,Cmq,Angle of Attack(total),Angle of Attack(gust),True Velocity(gust),Acceleration
0.0,31.222216000000007,131.010392,3.000000004412624,0.0,0.0,0.0,0.0,0.0,2.2828121974499247,0.0,0.0,69.99999999623412,0.0,119.9999999935444,0.0,1.274,1.0271675151847728,0.0,0.0,0.0,0.0,0.0,0.0,0.0,-0.0,0.0,90.0,0.0,0.0
0.01,31.22221599999084,131.01039200000497,3.000002745347096,0.0,0.0,0.0,0.0,0.0,34.242186961749226,3.465174813755316e-14,2.8705476994166025e-14,69.9999999962611,-2.1713911667908447e-11,119.99999999352175,7.352495975525499e-28,1.274,1.0271659134330349,0.0,0.0,0.0,1.0183245502395064e-16,-3.3305335486039093e-18,7.169286865560398e-18,5.624298769768554e-18,-7.715917190115602e-34,0.0,89.99999999999979,3.465174813755316e-14,0.0
0.02,31.222215999994315,131.0103920000094,3.0000030495639742,0.0,0.0,0.0,0.0,0.0,25.871876237766216,3.8197434737535036e-11,2.4171837235633357e-11,69.99999999628672,-1.1921727947863515e-11,119.99999999353136,8.93414285188691e-22,1.274,1.027164492361118,0.0,0.0,0.0,1.1225230367947217e-13,-6.657678965418802e-18,1.4338573731120796e-17,1.1241821275959074e-17,-1.7010872994127372e-30,0.0,89.99999999975682,3.8197434737535036e-11,0.0
0.03,31.222215999994315,131.0103920000094,3.0000030495639742,0.0,0.0,9.81877837424427,-2.5122800045972096e-05,3.3498614629347925,180.34219359854663,1.2659015405517447e-10,1.1364406173918436e-10,69.99999999631459,-1.6431898037347223e-11,119.99999999352724,9.812605835254651e-21,1.274,1.0271551940870716,0.0,0.0,0.0,3.720154642239108e-13,-9.991600645811728e-18,2.150108433310316e-17,1.6859343782149594e-17,-8.453698244545225e-30,0.0,89.99999999919412,1.2659015405517447e-10,10.374487003414373
0.04,31.222215999994315,131.0103920000094,3.0000030495639742,18.83801224594347,-0.0001111777826462,48.68248476615645,-1.016330065874988e-05,3.3497854396877287,548.635972453808,0.1556173050466994,0.0975908358443652,69.99999999633813,-2.0932768807056278e-11,119.99999999352085,0.0148286043323172,1.274,1.027133720825283,0.0,0.0,0.0,0.0004573186944143,-1.3322134194415637e-17,-1.04744143520903e-11,1.336824254131964e-11,5.0626055458604615e-15,18.83801224625964,89.06236267790787,0.1555998412814392,48.79759610369246
0.05,31.22221599164764,131.01039201704114,3.002326315126219,5.772385609593056,-4.395076213712875e-06,71.20344550265034,4.905512691849684e-05,3.349217396035405,761.6984298824663,0.8326471944351852,0.3620326097059287,70.00000001316391,-1.0866255162484559e-10,120.00000000231074,0.4245281043148827,1.274,1.027093426565204,0.0,0.0,0.0,0.0024469331205246,-5.0245994431125096e-18,-7.32924164976824e-07,2.217344936947165e-11,1.895424184525467e-09,5.772385609594774,84.74112356985832,0.8326465040582279,71.28217104309611
0.06,31.22221596664444,131.01039206837547,3.015081730143309,4.056581213689704,3.169093567502233e-05,53.16249142470188,0.0001203825427859,3.3481235983850643,590.4875390737236,1.657216205300742,0.6755452977614796,69.99999964391398,-3.9285905645317736e-10,120.0000000287861,1.6816755551786196,1.274,1.027050317124926,0.0,0.0,0.0,0.0048701272653724,3.095757869075056e-13,-7.483541766772344e-06,3.074135420506017e-11,3.8518749565858254e-08,4.056581213813337,79.59316473687034,1.657221183301277,53.26781792157489
0.07,31.22221592883117,131.0103921460222,3.034593611434361,4.115662018628709,6.450869598349036e-05,81.18203554989698,0.0001593212642178,3.347059402768047,855.2937749779172,2.099899704220947,0.8579771146174259,69.99999543281565,-8.233801910783518e-10,120.00000006883089,2.700101932075157,1.274,1.027003201295312,0.0,0.0,0.0,0.006171060252819,3.4704292086287e-12,-2.6327204536316785e-05,1.9541142932033486e-10,1.7170712165327165e-07,4.115662019133419,76.90111966094352,2.099909837223217,81.2510043180746
0.08,31.22221588914193,131.01039222747755,3.0542761843835606,3.459696193892355,8.037433511260004e-05,16.298214211652088,0.0002413456836072,3.344878926597744,241.2171988638792,3.051964775152957,1.2149999716613011,69.99998042886442,-1.0128995578004475e-09,120.00000011111383,5.703497661025892,1.274,1.0269597189470347,0.0,0.0,0.0,0.0089689344021769,1.458982438104473e-11,-5.702803872814215e-05,7.043261397829576e-10,5.405702492731987e-07,3.459696194824858,71.30331929508368,3.051977400323993,16.63790856991177
0.09,31.2222158241468,131.01039236098703,3.0886872184095737,4.313676956300389,0.0001337561018991,50.35975918308536,0.0002293282821279,3.344215841840564,563.0937377043203,2.893161298572128,1.191209213966114,69.99994788602814,-7.098432023887522e-10,120.00000018106356,5.125380275808925,1.274,1.026918932011013,0.0,0.0,0.0,0.0085022553945842,3.8672912027154325e-11,-0.0001115933708951,2.016054215232918e-09,1.0027525988343615e-06,4.313676958370176,72.2316578138625,2.893182308931483,50.47067588835877
0.1,31.2222157788302,131.01039245392113,3.109877853389092,4.035124630954496,0.0001457499816535,47.804664812504015,0.0002878217657545,3.341734392237128,538.7437595981891,3.5677148583138303,1.4531247507621967,69.99988403958329,1.9248461973355822e-09,120.0000002323013,7.7939962029572305,1.274,1.0268846934974103,0.0,0.0,0.0,0.0104845969583028,8.579678749070606e-11,-0.0001726817043215,3.984565639703107e-09,1.913455350430327e-06,4.0351246335824245,68.43243098813296,3.567737752667411,47.92132267234452
0.11,31.222215703308,131.01039260899836,3.148841432727305,4.043401107254707,0.0001752764476999,37.67622367577205,0.0003286462930162,3.3392563999062723,442.86563930529127,4.034183355956686,1.6436552022667772,69.99978525353545,7.302513231814865e-09,120.00000031883242,9.96528118825134,1.274,1.026848594915519,0.0,0.0,0.0,0.0118554331868328,1.5870341853361987e-10,-0.0002596204409236,7.232030302688121e-09,3.252930323390323e-06,4.04340111104746,65.92012987243639,4.034210888316708,37.82391391539392
0.12,31.222215627491828,131.01039276462643,3.186995101203875,4.17874459224363,0.0002066711490009,41.15991989399172,0.0003576945202315,3.336766085769504,475.58594813540793,4.361857560629481,1.7865750500940407,69.99963665601238,1.781774420198147e-08,120.00000041104812,11.649831899889556,1.274,1.0268114448194128,0.0,0.0,0.0,0.0128183893919737,2.682972478760441e-10,-0.0003710216542429,1.2215991071490164e-08,5.026311388647148e-06,4.178744597345269,64.21681651392016,4.361890024457652,41.29495143136631
0.13,31.22221554594398,131.01039293200228,3.2277173449026786,4.202734874672792,0.0002327160860324,45.44886120763352,0.0003953741266062,3.333578629398489,515.9156326236897,4.792165672014363,1.9646716520715424,69.99942424225341,3.613383418913551e-08,120.00000051758742,14.061726603124043,1.274,1.026779572895131,0.0,0.0,0.0,0.0140829618979635,4.248908088871395e-10,-0.0005056103199642,1.908859219307828e-08,7.5253154423526356e-06,4.202734881104192,62.048594618540655,4.792202226971676,45.570952718869485
0.14,31.222215454191247,131.01039312033683,3.2737880595608355,4.184830647080848,0.000257138757548,42.32232525579263,0.0004369426767266,3.329727443445437,486.2390860568421,5.269261304374574,2.158791628597544,69.99913473613935,6.515851355725497e-08,120.00000064630268,17.000925061330125,1.274,1.0267449573927567,0.0,0.0,0.0,0.0154850332441425,6.382432869666793e-10,-0.0006690086306358,2.8426433029675884e-08,1.0948547100483978e-05,4.184830654966803,59.74181173116622,5.269301695636157,42.45310707234106
0.15,31.222215353826755,131.0103933263496,3.3242182719560263,4.21963947489699,0.0002846467688673,40.886944113003565,0.0004726792395108,3.325585650885676,472.5421858721398,5.6781946837482895,2.329510773545807,69.99875162806286,1.0876776246115984e-07,120.00000079954532,19.742017654108928,1.274,1.0267115958081523,0.0,0.0,0.0,0.0166867950518804,9.204756288136623e-10,-0.000865746478554,4.08948221429571e-08,1.526771148078443e-05,4.219639484480408,57.84996018384879,5.678239395958187,41.02196629910223
0.16,31.222215247130432,131.01039354534575,3.3775922280208457,4.253495568077899,0.0003118339050386,32.26872905470846,0.0005078415214353,3.32090791922544,391.1218908297597,6.081244877834229,2.4981889727471702,69.99825581174558,1.7187028096464329e-07,120.0000009800088,22.644030778355887,1.274,1.026675762255412,0.0,0.0,0.0,0.0178712695992133,1.2856146928958252e-09,-0.0010961187242953,5.6923362293832417e-08,2.0702404729358337e-05,4.253495579487569,56.06022383757386,6.081293860589489,32.43916312841722
0.17,31.22221513260033,131.01039378041813,3.4348437275053194,4.364838523348639,0.0003448792023946,40.840448242802736,0.0005326487904353,3.3162727284953744,471.78125980632416,6.362544479165355,2.6250789114832647,69.99762801982864,2.5997588617291615e-07,120.00000119506798,24.78723182122683,1.274,1.0266409836796937,0.0,0.0,0.0,0.0186979513961862,1.747791994374917e-09,-0.0013624931601664,7.706724512977917e-08,2.6923621797558364e-05,4.364838536947241,54.85936171416122,6.362598652663785,40.97486885600156
0.18,31.222215014088988,131.01039402363364,3.4935801365785646,4.353948305387995,0.0003681615230806,33.992183768165326,0.0005718025428208,3.310131992647221,407.1015672119096,6.81502088160835,2.810667639293692,69.99684761766231,3.794979223522764e-07,120.00000144728236,28.437950785509614,1.274,1.0266048342046536,0.0,0.0,0.0,0.020027681385988,2.3221419748804155e-09,-0.0016616990447559,1.0147209890543081e-07,3.517105786247627e-05,4.353948320923495,52.99157233768714,6.815078712285162,34.152972512863755
0.19,31.22221488419521,131.01039429023237,3.558399965607869,4.432620772533925,0.0003996774584738,38.45149959021069,0.0005986099513107,3.304145139297767,448.95313283182486,7.1223367465208405,2.946425726785696,69.99589577323147,5.440084577183829e-07,120.00000176148238,31.060341085698347,1.274,1.026566130444714,0.0,0.0,0.0,0.0209308229359413,3.022391489754689e-09,-0.0020041563310821,1.3135864879722746e-07,4.433199397898183e-05,4.432620790516937,51.77883352025967,7.122399527709208,38.59320142454953
0.2,31.222214751373183,131.01039456280608,3.624052454705669,4.443889400961181,0.0004246617145652,35.23432408779927,0.0006337972852267,3.2968110145188256,418.5156301991588,7.530482904611057,3.1167566004785483,69.99474776398331,7.478025600151903e-07,120.00000211715036,34.72195181863731,1.274,1.026529240027363,0.0,0.0,0.0,0.0221302820454282,3.866698391504749e-09,-0.0023849544920781,1.668144671071589e-07,5.57780533277244e-05,4.443889421210987,50.22448880200342,7.530549610317194,35.38822625098952
0.21,31.222214608673173,131.01039485566503,3.6948551453492566,4.493351735844891,0.0004538195602194,33.79371564104691,0.0006629296043866,3.2891790438445727,404.8187610144608,7.868284042829251,3.2629204975089228,69.99338155599101,1.0150082652278477e-06,120.00000255293388,37.906665490338085,1.274,1.0264923657015164,0.0,0.0,0.0,0.0231230169900677,4.871073773182836e-09,-0.0028117605859743,2.089322918608601e-07,6.870935089180403e-05,4.493351758715364,48.992529909481824,7.868355328639073,33.95340801819282
0.22,31.22221446109996,131.01039515850383,3.767700382407304,4.5412639153933885,0.000482649303782,41.008966751568416,0.0006914639179131,3.2808061382386606,472.5421858721387,8.20057841132235,3.4071691679735228,69.9917708347139,1.3454961520984431e-06,120.00000305929996,41.175744234065135,1.274,1.0264494137127138,0.0,0.0,0.0,0.0240995709751246,6.054779813287368e-09,-0.0032829112061357,2.580881224843564e-07,8.3609968899004e-05,4.54126394098788,47.82515604752711,8.2006542256977,41.13999323561041
0.23,31.22221430675399,131.0103954752338,3.843768625625224,4.52371495179584,0.0005047555656171,33.98493478127787,0.0007294889663961,3.2705214710765107,406.340642146096,8.647938096586296,3.5908865300848416,69.98989017772566,1.7539876018835507e-06,120.00000365514876,45.79040229326471,1.274,1.0264133390858623,0.0,0.0,0.0,0.0254142776666487,7.436335125872812e-09,-0.0038001790077148,3.1489825108822685e-07,0.0001020628978177,4.523714979897577,46.31461705147579,8.648017383405135,34.14194053232237
0.24,31.222214142622448,131.0103958120587,3.92493179063287,4.57837522350066,0.0005351929930195,35.051650311058864,0.0007555049947555,3.26053011385611,416.2328240017099,8.954297884844461,3.72617527247482,69.98771316795013,2.25257161141768e-06,120.0000043564586,49.09180568115741,1.274,1.0263750048312463,0.0,0.0,0.0,0.0263146218848643,9.034877387788232e-09,-0.0043732521010013,3.809642748985157e-07,0.00012161410144,4.578375254714954,45.32798984252032,8.954381952763216,35.20297212911011
0.25,31.22221397517227,131.0103961556623,4.0071748888306855,4.6034117733065,0.0005618935542827,36.03738579534623,0.000785606492708,3.249069743648399,425.3640807915084,9.311611941121669,3.8789349536029696,69.98520781816889,2.8559738498748624e-06,120.00000517181904,53.08749562138344,1.274,1.0263373768840591,0.0,0.0,0.0,0.0273647110956883,1.0873791100894836e-08,-0.0049950711786164,4.5609738277273444e-07,0.0001444478241125,4.603411807525074,44.2165428352526,9.311700203154778,36.183554686886296
0.26,31.22221379934012,131.01039651647062,4.09364247475714,4.621386912291471,0.0005881033207375,39.29107511182762,0.0008162761165496,3.236407051295005,455.80158342417656,9.67833954512075,4.034902068846398,69.98234620927953,3.5784678110229355e-06,120.00000612171208,57.350948423913096,1.274,1.0263006300381676,0.0,0.0,0.0,0.0284424679130479,1.2973286442992724e-08,-0.0056712051373577,5.414206381221602e-07,0.0001704578711045,4.621386949630312,43.12063533194282,9.678431924174348,39.42414126789902
0.27,31.222213616776543,131.01039689108487,4.183310605341074,4.617158109135719,0.0006115457810536,35.90419462403674,0.0008503454714941,3.221982799915672,423.8421996598744,10.088790784535757,4.205862468567124,69.97909721779352,4.436165972465058e-06,120.000007221354,62.31798301949865,1.274,1.026260090595354,0.0,0.0,0.0,0.0296487219805601,1.5355910600537293e-08,-0.0064045199323113,6.379142666348734e-07,0.0002006609239367,4.617158149547818,41.94410287616451,10.08888684592241,36.048472443180565
0.28,31.22221342607797,131.0103972823952,4.277051150896916,4.642105655370123,0.0006389739579882,41.51133203546672,0.0008785747638736,3.2071101123224945,476.3468732012228,10.432377224420517,4.35383399240675,69.97542808435722,5.446665372087172e-06,120.00000849080963,66.63429581008447,1.274,1.0262212716723291,0.0,0.0,0.0,0.0306584788590473,1.8045308789081613e-08,-0.0072006835403936,7.469524967369969e-07,0.0002332868227611,4.642105699250441,41.0023231023774,10.432477594215127,41.63503624837164
0.29,31.22221323001776,131.01039768469093,4.373143569786686,4.62134615173668,0.0006600657405645,33.17552944492765,0.0009148746278066,3.1894209319791806,397.9703104221098,10.876662296046485,4.536381530986506,69.9713027936179,6.629751536885327e-06,120.00000994797426,72.43000748232016,1.274,1.026183007522519,0.0,0.0,0.0,0.0319641703260467,2.1067646517035105e-08,-0.0080566154554079,8.688043379161898e-07,0.000272130659453,4.621346198772975,39.83162628795024,10.876765978930557,33.32848872465723
0.3,31.22221302403368,131.01039810736614,4.4744193758467325,4.664362353358112,0.0006905183788532,31.08096762732793,0.0009381960428197,3.172549142946348,378.1859457108735,11.168362145070317,4.66647911311536,69.96668711012893,8.005507138509574e-06,120.00001161892672,76.36634300732833,1.274,1.0261430389738484,0.0,0.0,0.0,0.0328214509167604,2.4447409007156216e-08,-0.0089829108229115,1.0056222251461646e-06,0.0003115527202986,4.664362404357781,39.09908960432563,11.168470611443622,31.242464973103964
0.31,31.22221281503337,131.01039853619727,4.576593712520673,4.700143580504286,0.0007196683316923,32.79732593144512,0.0009620705970519,3.154230688182399,394.1656220930229,11.470279728974068,4.800072153432283,69.96154070456518,9.597499105113692e-06,120.00001352112182,80.55022837857167,1.274,1.0261054058068628,0.0,0.0,0.0,0.0337087616009043,2.8214060606649844e-08,-0.0099686353219717,1.1565909895184251e-06,0.0003550834484269,4.700143635477137,38.36463422765983,11.47039277421126,32.94865339301887
0.32,31.222212598991007,131.01039897947376,4.68216432480395,4.718667719113184,0.0007464384342556,35.7316568886908,0.0009885845337584,3.133859770838664,421.5593934624264,11.808280530415894,4.946054328851105,69.95582953472353,1.14278227255889e-05,120.00001568218067,85.36654007972253,1.274,1.026068246703101,0.0,0.0,0.0,0.0347021168382987,3.2392058795580455e-08,-0.0110163301561155,1.3226102501723267e-06,0.0004039614423012,4.718667778018562,37.5686120062341,11.808397780690962,35.8688218659563
0.33,31.222212376029034,131.0103994369436,4.791055524254013,4.72141404831576,0.0007708346814671,35.42013590291081,0.0010176135371143,3.1111955852784385,418.5156301991632,12.181577273013426,5.104163223586657,69.94951809396906,1.351997394754887e-05,120.00001812674968,90.84831229869296,1.274,1.0260310883392356,0.0,0.0,0.0,0.0357992034445943,3.700677535501642e-08,-0.0121310534481307,1.5051409581878843e-06,0.0004588955105349,4.721414111097893,36.7208578211118,12.181698355442045,35.55651229220977
0.34,31.222212145785647,131.0103999093516,4.903491659547144,4.73024573449122,0.0007962944975467,27.63851074646407,0.0010446307681611,3.0871492806781062,345.4656368807584,12.53557620048282,5.2556261014174765,69.94256797855994,1.5899658158227497e-05,120.000020882338,96.20413272674828,1.274,1.0259901535019136,0.0,0.0,0.0,0.0368395817555172,4.208561016221623e-08,-0.0133180771902383,1.7057647550599631e-06,0.0005184333231541,4.730245801363397,35.94841996438923,12.535701282129995,27.810389570354005
0.35,31.222211909310875,131.01040039453565,5.018822212845608,4.780248518778662,0.0008286678570753,30.332092807652543,0.0010618579815451,3.063967690608957,370.5765700527057,12.774786382148209,5.367579971644358,69.93493776125636,1.8594985713558667e-05,120.00002397748868,99.9096898192772,1.274,1.025950003202184,0.0,0.0,0.0,0.0375426220587071,4.7658312175989686e-08,-0.0145774693288123,1.9252724355785177e-06,0.0005782798420984,4.780248590437683,35.44790728185619,12.774916548990808,30.486451961956565
0.36,31.22221166933814,131.0104008868675,5.135354490370708,4.798132156899578,0.0008554457330409,34.32674769697476,0.0010851169437774,3.0374319611165923,407.8625232777224,13.09301701329486,5.506730645516068,69.92658597246795,2.163521613217148e-05,120.0000274401514,104.94818266210537,1.274,1.0259105142325406,0.0,0.0,0.0,0.0384778908056978,5.3755109608570216e-08,-0.0158991451700967,2.162609490834569e-06,0.0006464142451675,4.798132232978766,34.796094028187134,13.09315138639638,34.46087058603792
0.37,31.222211421355144,131.01040139563804,5.255882891363927,4.797392186816851,0.0008791822061288,32.551601855236584,0.00111162791192,3.0078619428913056,391.1218908297639,13.457513730739372,5.661815946371007,69.91747693543164,2.5047738471809164e-05,120.0000313040604,110.87154396328836,1.274,1.025872170958032,0.0,0.0,0.0,0.0395491312153729,6.040098808671168e-08,-0.0172926678053148,2.420031948898497e-06,0.0007226353721561,4.797392267189059,34.07332166419882,13.457651832357364,32.69027405888565
0.38,31.22221116634284,131.01040191882743,5.379799334000849,4.811698494594017,0.0009057112478668,34.02947987649063,0.0011338447913587,2.9774881690446744,404.81876101445977,13.77554886562956,5.800899861213392,69.90756948297444,2.886339581486796e-05,120.00003560072224,116.17243393848278,1.274,1.02583050512925,0.0,0.0,0.0,0.0404838339452728,6.762496638941508e-08,-0.0187646375218858,2.69955777313946e-06,0.0008026686661094,4.8116985796350695,33.46655348088405,13.775691134419684,34.15949264475229
0.39,31.222210906095896,131.01040245274032,5.505993307722699,4.813508003664984,0.000929862892873,29.00025983045028,0.0011579891265804,2.9442136901860865,357.6406249338268,14.124492165837273,5.950648592462506,69.8968186645841,3.311602501056718e-05,120.00004036395212,122.13093644173792,1.274,1.02579027384009,0.0,0.0,0.0,0.0415093739609825,7.545934774906889e-08,-0.020311592409804,3.0013532510753577e-06,0.0008908380763632,4.813508093268025,32.821616487639595,14.124638228358922,29.149330452482886
0.4,31.222210638473225,131.0104030017851,5.635788650457906,4.841647069358873,0.0009592124397379,27.71178845184976,0.0011749448424961,2.91135549588368,345.4656368807565,14.390874239274588,6.07193451174791,69.8851815212744,3.783947407715338e-05,120.00004563180136,126.77947425345651,1.274,1.0257493418632293,0.0,0.0,0.0,0.0422922854866381,8.39343718693383e-08,-0.021938519432511,3.3271332720311508e-06,0.0009803271643914,4.841647164150728,32.348088166612904,14.391024912012275,27.864299944624147
0.41,31.22221036681104,131.01040355909262,5.767123077463226,4.86553909860892,0.0009876699832274,31.306062598221665,0.0011918093836199,2.876450850006428,378.9468707766882,14.663028799871563,6.195223154320929,69.87261222561014,4.307011032901644e-05,120.0000514391194,131.6183642808765,1.274,1.025708445186429,0.0,0.0,0.0,0.0430921644173401,9.308325447883581e-08,-0.0236371933433427,3.6760977501392174e-06,0.0010761942383903,4.865539198612839,31.87689439156756,14.663183942709727,31.437931330109585
0.42,31.22221008906472,131.01040412887247,5.901259531771367,4.867510642114694,0.0010118258958528,35.308283402190774,0.0012128114559048,2.8374461227958245,416.23282400171047,14.9952917972178,6.33928625560071,69.85906967380902,4.884273094936628e-05,120.00005782486392,137.64909586091787,1.274,1.0256701057426505,0.0,0.0,0.0,0.0440686959134695,1.0293499639582845e-07,-0.0254093547296826,4.049238334851429e-06,0.0011830797791891,4.867510747027452,31.315270489291198,14.995450734457847,35.422111438762386
0.43,31.222209804115888,131.01040471342728,6.038886819939341,4.854590670645608,0.0010330089741511,31.00586934514032,0.0012363751872706,2.794478603999558,375.90313951343126,15.369430568701889,6.497852263156962,69.8445117629242,5.519340856908871e-05,120.00006482835984,144.60167924299955,1.274,1.0256308158337524,0.0,0.0,0.0,0.0451682983415116,1.135186446762958e-07,-0.0272634397889413,4.449073329427772e-06,0.0013010625065656,4.854590780289497,30.70250814963406,15.369592833372094,31.13154422839874
0.44,31.22220951192321,131.01040531284193,6.180028459770617,4.866912332640401,0.0010595850174406,28.57707721036899,0.0012525768202179,2.752165534925872,353.07501253892326,15.659290812546615,6.627318538707029,69.82889155423543,6.216182865383864e-05,120.00007249162944,150.1053167542629,1.274,1.025586171750536,0.0,0.0,0.0,0.0460202245100907,1.2486676023179565e-07,-0.0292060158163984,4.8779154055816594e-06,0.001420032405556,4.866912447705031,30.24619499837236,15.659457251771938,28.709297424144207
0.45,31.222209215425703,131.01040592106523,6.322872201489905,4.881836476567178,0.0010866574689855,33.31904824532484,0.0012669045761511,2.7082028218433374,397.2093853562887,15.934249290371609,6.751662050993672,69.81215834018458,6.97909417564726e-05,120.00008085697964,155.42080512416243,1.274,1.0255397023523487,0.0,0.0,0.0,0.0468283602442113,1.3701614206272197e-07,-0.0312276295846745,5.334643585560923e-06,0.0015449645531859,4.8818365972149325,29.82567893138932,15.934419982127675,33.428929688274074
0.46,31.22220891307435,131.0104065412864,6.468371919199588,4.869610441729251,0.0011078049156487,38.95909776354321,0.0012868374716666,2.6582856015412624,449.7140588976424,16.292139278621757,6.904766425053949,69.79426683863348,7.812149592850748e-05,120.00008996920153,162.4785746623087,1.274,1.02549635315424,0.0,0.0,0.0,0.0478802236363867,1.499987870203256e-07,-0.0333272350234362,5.819761874615242e-06,0.0016858511402973,4.869610567434908,29.29014635640275,16.292313292210977,39.04968351401366
0.47,31.22220860266524,131.01040717804253,6.6178810515614845,4.838450928223533,0.0011247917292402,26.253747818137555,0.0013104398935566,2.6026193242279367,331.0078106302504,16.710658191447514,7.078951441335346,69.77517236812905,8.719457259907165e-05,120.0000998741591,170.9309671061642,1.274,1.025453319323251,0.0,0.0,0.0,0.0491102725711187,1.6384464803343264e-07,-0.0355167087264168,6.3368207228363735e-06,0.0018427306558807,4.838451058652396,28.68386015667837,16.710834873319172,26.382435512333956
0.48,31.222208284201663,131.0104078313267,6.771393590864176,4.869339340099417,0.0011561785713505,25.860860976019296,0.0013165328518772,2.5543454292827983,327.20312230115803,16.911139899671,7.177575416403102,69.75482343794755,9.70562828082882e-05,120.00011062072316,175.0543877818846,1.274,1.0254092882449153,0.0,0.0,0.0,0.0496995461609974,1.7858865391586845e-07,-0.0378054080201581,6.88909442277235e-06,0.0019849793891693,4.869339477030596,28.40887970825325,16.911321511776286,25.986704537635287
0.49,31.22220796480208,131.01040848648364,6.924537656029012,4.881367714530694,0.0011829003785372,32.565703383222065,0.0013261973190012,2.5011623511055703,389.6000096981238,17.169005224738054,7.296160258358563,69.73316318155707,0.0001077573203115,120.000122255028,180.4309832312717,1.274,1.025367445590036,0.0,0.0,0.0,0.05045746454003,1.942747077649401e-07,-0.0401641298712614,7.47069711110948e-06,0.002140948887153,4.881367857509675,28.058569663954906,17.169191034294997,32.66161128464712
0.5,31.222207637929923,131.01040915697027,7.081324512896956,4.862566137860805,0.001202418260511,33.47759680712428,0.0013425340759632,2.4399894027711366,397.970310422106,17.52898693231981,7.450304424940405,69.71015149227495,0.0001193385310595,120.0001348274002,188.0736471953394,1.274,1.0253278572281015,0.0,0.0,0.0,0.0515154948878309,2.109295159784217e-07,-0.0426011733481599,8.084173008518589e-06,0.0023184335011768,4.862566286171007,27.57768313050809,17.529175807738486,33.56639745442473
0.51,31.22220730314019,131.01040984370235,7.24202048914867,4.8479762258125,0.001223054804074,25.49162310288008,0.0013562860883156,2.3767006597692686,323.39843497208153,17.86914397471067,7.597652147346554,69.68574349602717,0.0001318441288964,120.00014838524436,195.4407439266201,1.274,1.025286455263166,0.0,0.0,0.0,0.0525152689856776,2.2858192086249162e-07,-0.0451315948093539,8.734206149830708e-06,0.002503767471626,4.847976379721193,27.13799345359824,17.86933609171003,25.602178740977283
0.52,31.222206962738102,131.01041054193402,7.405210501673173,4.865306299521403,0.0012516517170965,30.733671928447727,0.0013599291289974,2.317711624364424,372.098451184342,18.08534843773428,7.701914987606457,69.65988568649581,0.0001453248538387,120.00016298000436,200.19561780583155,1.274,1.0252426840672306,0.0,0.0,0.0,0.0531507657929359,2.4726951523704535e-07,-0.0477531686556663,9.421346966092632e-06,0.0026812161964639,4.865306460134566,26.8699055233151,18.085545046726228,30.820940596104087
0.53,31.222206619320115,131.01041124632013,7.569307468221277,4.848802699234936,0.0012715119568563,32.301199055744725,0.0013711327835325,2.2490252325653923,386.55624643486095,18.41963113311156,7.8474319110539055,69.6325258319474,0.0001598315062727,120.0001786629144,207.6614205945027,1.274,1.0251993415311351,0.0,0.0,0.0,0.0541332845214831,2.67031759303889e-07,-0.0504479325599339,1.0141887756417996e-05,0.0028848299490111,4.848802865552398,26.45837260670532,18.419830861742675,32.37940050117613
0.54,31.22220626697288,131.01041196903336,7.737918664599091,4.831496690588052,0.0012913635058467,28.31291960103712,0.0013809098107221,2.177242866245296,349.2703242098436,18.75116898748492,7.992112829440902,69.60362200959217,0.0001754082864028,120.00019548734956,215.20067397992847,1.274,1.0251561018460285,0.0,0.0,0.0,0.0551077428911958,2.878941684235108e-07,-0.0532336286085667,1.090122304443916e-05,0.003098869611663,4.831496862756785,26.061835558272342,18.751371834390056,28.396510432451375
0.55,31.222205908994248,131.01041270328463,7.909026079894722,11.26915367789886,12.12314324897902,30.280788740501023,-0.715987249178397,1.7136977663832424,365.2500005919912,20.6732111531256,8.113323699629928,69.57312211246325,0.0001921068626005,120.00021350480982,261.57466467513893,1.274,1.025112921033824,0.0,5.012807131891703,0.0,0.0607565429524601,3.0989272306468813e-07,-0.0561100530405476,1.1700476995263424e-05,0.003601060098754,16.494202625284505,36.86929337798087,22.56333263297584,30.33769214232267
0.56,31.222205546564343,131.01041344664463,8.081909946161325,-10.036895978856188,-0.03324014971465,28.09921669876356,-0.1642179422469521,2.634415779145616,346.22656194657776,17.77379010963398,8.246362755413777,69.54097415464405,0.0002099796112633,120.00023276987916,193.3448824319865,1.274,1.0250709539098009,0.0,5.031095570890197,120.00005142262596,0.0522355303339907,3.330095088065315e-07,-0.0638209163462282,0.0086918130477972,0.0035214183507285,10.036950456820309,28.50768509271981,17.768568759419484,28.22291787030604
0.57,31.222205178926508,131.01041420507835,8.258332077308209,-9.843007786890238,-0.0261524620161113,27.774308533036805,-0.1656084746128242,2.73230384751538,343.1828296833045,18.027819737918986,8.381746988369814,69.5044076151286,0.0135342732551156,120.01445598648584,198.90772193335127,1.274,1.0250279191823897,0.0,5.049241129622549,120.00005142262596,0.0529822054347826,3.64139685708125e-07,-0.0584459983653915,0.0086704633505263,0.0032708842203574,9.843042187369546,28.147412603704304,18.02371171893448,27.908871796802035
0.58,31.22220480371584,131.01041497446894,8.436492506043743,-9.665078279094867,-0.0305112982116815,36.69429206177589,-0.166584274548605,2.834041653188039,426.12500585731766,18.28906573004524,8.514513023174679,69.47091953977055,0.0267813003057201,120.0285999444548,204.7108406322984,1.274,1.024981594484354,0.0,5.067416257180974,120.00005142262596,0.0537500928742697,3.9291547084352674e-07,-0.0530208832403489,0.008652495253524,0.0030102199693925,9.665125981251006,27.779846464703656,18.284273026756097,36.80394832524685
0.59,31.22220442347493,131.01041575612217,8.617357522563891,-9.42051478699528,-0.0345533292124367,29.657559472905923,-0.1686282496152614,2.936166211836063,360.68438819710633,18.684190721381245,8.695031439145737,69.44053870116142,0.0399626328120254,120.04267668735544,213.64800475479825,1.274,1.0249386802161349,0.0,5.085451370921214,120.00005142262596,0.0549114454752674,4.193176309950877e-07,-0.0475363124772382,0.0086315548341081,0.0027570966609355,9.42057758347904,27.247224225525784,18.6787630974497,29.8030257087942
0.6,31.2222040331012,131.01041655820973,8.803062561747089,-9.255232747727655,-0.0387357335401104,26.302716044544223,-0.1693152005119066,3.0467113263288184,329.4859594986072,18.93151376913403,8.823195043550585,69.41329918601417,0.0530800915315078,120.05668785559256,219.3376554430728,1.274,1.024891335813742,0.0,5.103442877064134,120.00005142262596,0.0556384260590397,4.433141897192506e-07,-0.0419541371181769,0.0086073588429266,0.0024654977011155,9.255313101039116,26.91602144455508,18.925429174801486,26.47912364227768
0.61,31.222203640020386,131.0104173657786,8.98925260551776,-9.098808885285338,-0.0428665694725583,30.88894708857143,-0.1697917659492658,3.16070555653918,372.0984511843332,19.16410486406194,8.946210447372993,69.3892569159339,0.0661351550043561,120.0706347111577,224.75627528725343,1.274,1.0248423929069768,0.0,5.121593073903962,120.00005142262596,0.0563221137032539,4.648697826107432e-07,-0.036322060833681,0.0085799973153635,0.0021607062220537,9.09890901157051,26.609285904077726,19.15737139970313,31.05069952673349
0.62,31.22220324069601,131.0104181860951,9.178059936148603,-8.903186787359902,-0.0467315512107064,38.505206913760986,-0.1708951615929954,3.277058448432492,442.86563930529206,19.481520740146824,9.099521056893783,69.36844050285727,0.0791294125032418,120.08451864572667,232.25901810726464,1.274,1.0247996097896497,0.0,5.13947416563368,120.00005142262596,0.0572551011963813,4.839642692793624e-07,-0.0306467549459329,0.0085494044866671,0.0018532592636786,8.903308441424157,26.206020059612296,19.47418016606197,38.644783305153176
0.63,31.2222028332124,131.01041902307992,9.370622655544622,-8.670647566371606,-0.0502888312571878,21.624974698917768,-0.1726530671124556,3.397737158875178,286.11251274707456,19.88953431797985,9.285237022472526,69.35087473362016,0.0920643446420578,120.098340934352,242.0851082562744,1.274,1.024756158874558,0.0,5.157285492130924,120.00005142262596,0.0584543572923771,5.005756595009352e-07,-0.0249061097373243,0.0085153384953157,0.001537628112647,8.67079228512591,25.707978870141417,19.881634967852325,21.89095606891618
0.64,31.22220241669632,131.01041987851025,9.567451556569376,-8.566562118194465,-0.0544433091850613,21.21287998563252,-0.1718937672002353,3.522975672872924,282.3078244179702,20.00985982027961,9.368491357181256,69.33659706166006,0.1049411267600521,120.11210252552873,245.0184166714704,1.274,1.024708534665538,0.0,5.17514188033476,120.00005142262596,0.0588081185725116,5.146720727983114e-07,-0.0190764022360453,0.0084774992616113,0.0011848219942321,8.566733827945555,25.54964932433594,20.001307886557903,21.504120124843645
0.65,31.22220200121556,131.01042073173696,9.762516628726928,-8.428194430040417,-0.058340499575664,37.85081796718019,-0.1716927411800497,3.649855267471296,436.7781447787504,20.207720723489658,9.47936844892418,69.32565851148951,0.1177605866022008,120.12580398412388,249.8832606702876,1.274,1.0246641738210605,0.0,5.193082373922441,120.00005142262596,0.0593897539612741,5.262327280769338e-07,-0.0132463298152545,0.0084363744205337,0.0008308399114226,8.428394887489272,25.30510975190608,20.19855662082953,38.02677139405176
0.66,31.222201577759755,131.01042160123205,9.961212833655162,-8.187342950768647,-0.0614639277356593,32.10593783784173,-0.1734379870455232,3.7829047475901234,383.5125151715984,20.654940936826204,9.6791901629632,69.31805932666353,0.1305240507575117,120.139446429843,261.06108016991914,1.274,1.0246195561629028,0.0,5.210561270453471,120.00005142262596,0.0607042539246508,5.352556299125531e-07,-0.0073956282109963,0.0083917448353332,0.0004741275560674,8.18757208575334,24.79199184034723,20.645286207486205,32.328496616948456
0.67,31.22220114228208,131.01042249526236,10.165940948794823,-8.017330867432058,-0.0649578436009613,21.93005589248809,-0.173673516635713,3.9187623387993535,289.15624401033847,20.93488473218541,9.819402195863866,69.31381135209944,0.1432325339897296,120.1530306469298,268.18027138808367,1.274,1.024572383541697,0.0,5.228069887608548,120.00005142262596,0.0615271424746317,5.417201090300438e-07,-0.0014555307445302,0.0083429227327866,9.457570528129752e-05,8.017592293437636,24.47130187683989,20.92468118015876,22.27811060673738
0.68,31.222200704609648,131.01042339369738,10.370830186284008,-7.894972417875734,-0.0687413868705521,27.50385089372538,-0.1727978727794426,4.054659583537648,340.89999248584934,21.09233153835053,9.915904548129095,69.31296580666229,0.1558862665371085,120.16655656712804,272.2239376398361,1.274,1.0245245285832842,0.0,5.2458059925679805,120.00005142262596,0.0619900182866103,5.45600425763395e-07,0.004521110145048,0.0082901997163874,-0.0002959707299214,7.895269780854031,24.283612602855435,21.081533669141496,27.801653501680242
0.69,31.222200263289103,131.01042429951767,10.57675394698472,-7.72153756678277,-0.072034329070208,33.98025944996507,-0.1728871029835822,4.19619036420452,401.0140726853658,21.383322686428286,10.059936210696415,69.31554365039747,0.1684857531002526,120.18002442819764,279.78145546547705,1.274,1.024479631064582,0.0,5.263251920542052,120.00005142262596,0.0628453825216483,5.468917378747934e-07,0.0104957899235604,0.0082338283274892,-0.0006965636679854,7.721871527545993,23.961393083585737,21.372007563458485,34.238807453092775
0.7,31.222199812780502,131.0104252240432,10.787010340412596,-7.524710149019907,-0.0750107050079584,28.38929645086583,-0.1733878638202353,4.343906070100071,349.270324209851,21.743345246799315,10.228497052665924,69.32154379061252,0.1810316915954334,120.19343468184404,289.27606465333474,1.274,1.0244351749185203,0.0,5.280513323884085,120.00005142262596,0.0639036369920252,5.455910205545037e-07,0.0165024985088585,0.0081733694913814,-0.0011136219807927,7.52508186310735,23.577671636069685,21.731562596175472,28.72023217650435
0.71,31.222199354615302,131.01042616412755,11.000682029568065,-7.369582171733528,-0.078278497809249,23.20713252795676,-0.1728318219840414,4.491019657230622,301.3312640634036,21.988430897095387,10.356042791410047,69.33098459660621,0.1935242313916052,120.20678718921206,295.82804554172026,1.274,1.0243880468141104,0.0,5.297864982299764,120.00005142262596,0.0646240988822686,5.416848424281253e-07,0.0225559833982586,0.0081085192475827,-0.0015392488043724,7.369995595695789,23.314112254042406,21.97613494323798,23.638319072439792
0.72,31.22219889286353,131.01042711145195,11.215346122988382,-7.230414429523527,-0.0816367493118897,28.537544803803065,-0.171761044219399,4.63803319601334,350.7922053414578,22.184437672960893,10.466005181175712,69.34389288374928,0.205963129824512,120.22008139205424,301.1194186870007,1.274,1.024337302174265,0.0,5.315181270378821,120.00005142262596,0.0652003215923954,5.351648431129698e-07,0.0286195863711954,0.0080395417824052,-0.0019704056528394,7.230872835698468,23.10114617653385,22.171614206704746,28.91249413683815
0.73,31.222198426136067,131.01042806885212,11.431831912053577,-7.056304357934245,-0.0845390888821762,36.250104700562645,-0.1713719222428047,4.792456710173485,422.3203185282354,22.485817141740885,10.613288876073632,69.36027447544224,0.2183483398944582,120.2333169501791,309.3500813558951,1.274,1.024292465384646,0.0,5.332307283471673,120.00005142262596,0.0660862407780515,5.260349002515135e-07,0.0346755249331988,0.0079665369858775,-0.0024197280433565,7.056808193498223,22.79284143261657,22.472537777530537,36.56592813612659
0.74,31.22219795096112,131.01042904340267,11.652207649880166,-6.8560260669567485,-0.0870289036560599,22.429718860392164,-0.1714963872471015,4.955668171533322,294.4828134710563,22.875959335960555,10.791913933896591,69.3801250114802,0.2306798141082225,120.24649352973177,320.17124625352074,1.274,1.0242470321640116,0.0,5.349315087627049,120.00005142262596,0.0672330432038467,5.142980270239127e-07,0.0407477570871944,0.0078890835844231,-0.0028927351483184,6.856575769036708,22.411116479002743,22.86228887299847,22.971293959927884
0.75,31.22219746720066,131.0104300353711,11.876557457074744,-6.729956826121246,-0.0903304105298557,26.281727179468216,-0.169611420510295,5.10672966769619,330.24688556441737,23.02232034072308,10.883867344816071,69.40345385370176,0.2429569504369716,120.25961020554446,324.27429466878226,1.274,1.0241984712898409,0.0,5.36636536985236,120.00005142262596,0.0676633732887372,4.999485469698213e-07,0.046854809739029,0.0078067671435661,-0.0033474921169405,6.730560222187795,22.25338886661468,23.00813127889521,26.773805098806825
0.76,31.22219698342587,131.010431027283,12.0997748979809,-6.565970844310168,-0.093077073348139,28.32319032774861,-0.1685346515610698,5.267336677645852,349.2703242098581,23.29499006719175,11.02038639833502,69.43028096358519,0.255178601796976,120.27266546509188,331.9938878277988,1.274,1.0241522053390697,0.0,5.38342027027922,120.00005142262596,0.0684649311958881,4.82991830512729e-07,0.0529262012326407,0.0077204288856552,-0.0038259583308863,6.5666276361941645,21.987024202007238,23.280369561129945,28.80931012617835
0.77,31.22219649009508,131.01043203857887,12.327553990384828,-6.398174954582989,-0.0956865972998123,26.41577107448796,-0.1673787058111995,5.431053135604763,331.76876669606884,23.57937498444065,11.160790729662091,69.46058595556825,0.26734438378525,120.2856586356106,340.14187991939343,1.274,1.0241065975906936,0.0,5.400131969019938,120.00005142262596,0.0693009282200617,4.634433856526954e-07,0.0589907449159212,0.0076295384599577,-0.0043163201761847,6.398887448963314,21.715302761352543,23.56434457587122,26.968821169132998
0.78,31.222195991130995,131.01043306125516,12.557558798447507,-6.241060624409943,-0.0983568952823802,21.545059734356567,-0.165777326645164,5.593744517228147,286.8734378128874,23.82550912819543,11.287432969652835,69.49436492806025,0.2794532046665195,120.29858828155623,347.2724385786918,1.274,1.0240588105546735,0.0,5.416930369953365,120.00005142262596,0.0700245101298811,4.413131556981346e-07,0.0650452906271175,0.0075339917795377,-0.0048089021334096,6.241832543795641,21.480395976227577,23.81005927080116,22.259987843730784
0.79,31.22219548711181,131.01043409413143,12.7894484491208,-6.0994616510804605,-0.1011917035009901,30.911526096071743,-0.1635705884402875,5.752042772520608,373.6203323159581,24.00884737490223,11.391676536938636,69.53161218283394,0.2915037097860104,120.31145269715633,352.62969985358205,1.274,1.0240083170932772,0.0,5.43363993834798,120.00005142262596,0.070563536147014,4.1661532697271513e-07,0.0710747081871578,0.0074338976599987,-0.0052949835522622,6.100297819191061,21.3002705475227,23.99295222754947,31.44256982154025
0.8,31.2221949790612,131.01043513512198,13.0226143541277,-5.915680387025072,-0.1032665642018028,31.304302972726344,-0.1623551169981924,5.926482068642439,377.42502064505805,24.35648969453376,11.55343241477178,69.57231335285869,0.3034945011839418,120.32425013777016,362.90749339251965,1.274,1.0239625010683884,0.0,5.450231957947686,120.00005142262596,0.0715854674454095,3.8937185148412977e-07,0.0770577360201939,0.0073294997431814,-0.0058237059326315,5.916578445728379,20.99062548694493,24.34026862934305,31.86077421379147
0.81,31.222194460977228,131.01043619642186,13.260661366510764,-5.742429341737231,-0.1054139153819988,20.085390199468872,-0.1606578619464602,6.099532159402449,273.9374926939922,24.663856446085703,11.70064692678366,69.6164419039127,0.3154242653495903,120.33697896532864,372.116203488944,1.274,1.0239149950770308,0.0,5.466642739214865,120.00005142262596,0.0724890350226505,3.596040404589591e-07,0.0830292609545895,0.0072200248806167,-0.006354051393146,5.743393561892893,20.719328709833995,24.647298076319704,20.9917365402939
0.82,31.222193937941903,131.01043726769066,13.500550835643857,-5.608411359252141,-0.1081767327875472,25.996896342399424,-0.1576363726428585,6.25605811822699,328.725004432774,24.802169581028608,11.788314142383747,69.66399127152978,0.3272906626630051,120.34963644442315,376.2928391861166,1.274,1.0238644186635044,0.0,5.483151824059558,120.00005142262596,0.0728957456146929,3.273279649762949e-07,0.0889723722824613,0.007105601296367,-0.0068468908569562,5.60945120142996,20.582517888799725,24.7851772296733,26.739516297832957
0.83,31.222193413118195,131.01043834250498,13.74038243416452,-5.4403660226771136,-0.110238756175549,33.22553606338308,-0.1554226892433104,6.42782563292947,395.6875032246518,25.084938126372407,11.926150335632796,69.71494520718886,0.339091289951932,120.36221978370637,384.9130844219535,1.274,1.0238188483711983,0.0,5.499546265714505,120.00005142262596,0.0737270265950882,2.925716315561496e-07,0.0948408367321165,0.0069870159843952,-0.0073815398821233,5.44147944035124,20.3376450155376,25.06762187372912,33.84194653501548
0.84,31.22219287892922,131.0104394362442,13.98472874473854,-5.255405858303009,-0.1118673638287746,20.180168427956342,-0.1535180063120455,6.6100158362476655,275.45937482564227,25.4466976914304,12.091043923962562,69.76926099342822,0.3508243921101381,120.37472690569868,396.08580285125817,1.274,1.0237739661568126,0.0,5.5157001275312325,120.00005142262596,0.0747904786562279,2.55371532827883e-07,0.1006627715091254,0.0068635567982558,-0.0079474660713287,5.256592996157811,20.039320556552884,25.429125618175707,21.235702835423012
0.85,31.22219233715084,131.01044054528924,14.23253736963406,-5.118414333185297,-0.1143920505602703,22.05383421479991,-0.1499400729023905,6.765442778104833,292.9609323393965,25.57799432288442,12.17539199382256,69.82691200740729,0.36248719061121,120.38715464421604,400.1741702903197,1.274,1.0237227741398531,0.0,5.531922167096428,120.00005142262596,0.0751765832322571,2.1575566943792e-07,0.1064488292823632,0.0067347898073618,-0.0084474457116345,5.119689053007461,19.91347756867027,25.56002567353839,23.06870827729962
0.86,31.22219179536573,131.0104416542578,14.479222762943351,-4.961262166700731,-0.1164185269548312,27.80121972657392,-0.1467951312040007,6.931031716387966,346.2265619465616,25.802615283133004,12.291759533033346,69.88787772111219,0.3740761675993887,120.39949905174612,407.2238875264835,1.274,1.023674789281455,0.0,5.54813824589084,120.00005142262596,0.0758369804034707,1.73756003185516e-07,0.1121405916830882,0.0066019001565631,-0.008977063869798,4.962624473960096,19.72210284180384,25.784328316265007,28.65254906198337
0.87,31.22219124551956,131.01044277948128,14.729675349333604,-4.788394048952246,-0.1180057292663182,25.795148427701346,-0.1439297554942308,7.106311496952992,327.9640783669946,26.104279015779223,12.434252537157334,69.95210416451164,0.3855888769457919,120.41175735307904,416.7914018371701,1.274,1.0236288969245204,0.0,5.564036082690968,120.00005142262596,0.0767238230891875,1.294209353704272e-07,0.1177530243603276,0.0064644151043891,-0.0095363256291786,4.78984451570055,19.47975834656952,26.08574273227686,26.75649568372858
0.88,31.222190688779097,131.01044391858147,14.983208650410043,-4.626379834988658,-0.1197502604942804,22.138375167795008,-0.1405104132479189,7.273679075763972,294.4828134710421,26.34774095105253,12.556170397618644,70.01954592666036,0.3970220549041486,120.42392590766885,424.5917398718859,1.274,1.0235805388426191,0.0,5.57994306910697,120.00005142262596,0.0774396104507799,8.279400189459809e-08,0.1232952212372858,0.0063219215029315,-0.0100780464071812,4.627926028339444,19.28193673474437,26.32893063781552,23.303085751536862
0.89,31.22219012787019,131.01044506603162,15.238171266072891,-4.47149253924217,-0.1215922975274924,24.339592802597096,-0.1366495777484141,7.433669303693638,315.02813424808807,26.54694402491504,12.66242430744394,70.09016280691907,0.4083716547682276,120.43600025580842,431.0257394621207,1.274,1.0235293752791452,0.0,5.595820412630659,120.00005142262596,0.0780253199536225,3.3917293505718225e-08,0.128747902970953,0.0061747497998199,-0.0106030495017961,4.473142093346029,19.117047919831908,26.52784436581921,25.44983084855403
0.9,31.22218956242075,131.01044622258345,15.49479753390358,-4.306971649368231,-0.1231017771111402,26.95184211951471,-0.1328998764313502,7.599515299121627,339.3781423542166,26.79773905027419,12.785835392763088,70.1639035651336,0.4196336927229801,120.44797602498316,439.1973808207276,1.274,1.0234837388140003,0.0,5.611565501655095,120.00005142262596,0.078762670972002,-1.7159499516228636e-08,0.1340954607685858,0.0060231785973016,-0.0111475035186591,4.308727222950257,18.920324487183738,26.77840228322041,28.0030728455644
0.91,31.22218899040413,131.01044739233302,15.75434784695812,-4.137569176071198,-0.1243798754568756,20.23366063467088,-0.129103530063933,7.768409585250229,277.7421810230785,27.077095739899864,12.918395826524176,70.24070802185676,0.4308041750553053,120.45984885192732,448.3908789410455,1.274,1.023436404813438,0.0,5.627194988786218,120.00005142262596,0.0795839762477505,-7.038034883395864e-08,0.139341114355384,0.0058669471620594,-0.0117040433583246,4.139435002359497,18.70852122279341,27.05755821009561,21.674083092133625
0.92,31.222188412349325,131.01044857420237,16.016516920363706,-3.985119132422231,-0.1260633530055086,24.250941394273884,-0.1245121708745999,7.917962044447623,315.0281342480675,27.243358432065023,13.012003104775363,70.32051783981892,0.4418784384490739,120.47161367791254,453.9029052594278,1.274,1.0233859136578225,0.0,5.642786034230853,120.00005142262596,0.0800728861247839,-1.2568991859550945e-07,0.1444829108537387,0.0057059161552804,-0.0122101431138686,3.9871093330288505,18.57268805203724,27.22355646285737,25.511130604630516
0.93,31.222187831828183,131.01044976096543,16.2791042749006,-3.818035698047909,-0.1272159582823706,29.010283426647323,-0.1202322126681426,8.079796391127065,359.16250706547066,27.503681668742367,13.136903859961931,70.40327355895143,0.4528512663262733,120.4832648733872,462.6071993990645,1.274,1.0233407575091376,0.0,5.658319681653632,120.00005142262596,0.080838260108811,-1.8303344706440466e-07,0.1494927985411395,0.0055408197705209,-0.0127539226860861,3.820151375205212,18.37957563306615,27.48369864916345,30.11468263159088
0.94,31.22218724365096,131.01045096310995,16.545346645366344,-3.643701017545544,-0.128029308832342,20.71458924704797,-0.1159932922661126,8.248191851644888,283.06875048378083,27.81569762681462,13.278514950843292,70.4888996630371,0.4637179388635151,120.4947973667782,473.1507472228336,1.274,1.0232914783978162,0.0,5.67366769157934,120.00005142262596,0.0817555766427549,-2.4234186797868445e-07,0.1543809606763908,0.00537114223257,-0.0133200319385578,3.645946585729084,18.1583356399252,27.79558684674702,22.296643938927385
0.95,31.222186648976933,131.01045217828351,16.814552092125336,-3.488875277082012,-0.1294035306435794,27.129719409270347,-0.1108416463708171,8.389302431133363,342.421873617488,27.98023412707259,13.370025349603512,70.57732646133688,0.4744726813467486,120.50620498226137,478.7525243608976,1.274,1.0232418269359267,0.0,5.689020719310093,120.00005142262596,0.0822394302199505,-3.035500078756597e-07,0.1591483029652795,0.0051966056262712,-0.0138122267123617,3.4912712972734825,18.0307380996668,27.959907485292376,28.397435735948598
0.96,31.222186052527743,131.01045339694713,17.083772373302335,-3.316312432017171,-0.1300462182318936,26.51659474152991,-0.1061457270611758,8.55078151134684,337.09533515678265,28.282668543381327,13.506984340117931,70.66848477780907,0.4851089111850729,120.5174807069034,489.14534770166017,1.274,1.0231951201821403,0.0,5.704337069688283,120.00005142262596,0.0831285971728354,-3.665988365062544e-07,0.1637627189398433,0.005018221456024,-0.0143659561709902,3.3188584295522894,17.822998217919633,28.262240948729573,27.86138776257737
0.97,31.222185447083767,131.01045463367475,17.35756506379724,-3.1486816160625697,-0.1307654894526144,16.475804208870084,-0.1010476242302421,8.702254214072317,245.0218871929888,28.54442092153894,13.629645439288971,70.76228706203355,0.4956208614689324,120.52861842975985,498.22809484730266,1.274,1.0231476260761452,0.0,5.719450833319982,120.00005142262596,0.0838982005914198,-4.3140688248288934e-07,0.1682393158971128,0.0048351757268672,-0.01489485993991,3.151393075334969,17.64338721200755,28.52388034432068,18.63307713067606
0.98,31.22218483752864,131.01045587860065,17.63287742616494,-2.9971680001958134,-0.132036485423084,24.549038264616986,-0.0951521892839737,8.823164433554044,319.593746642963,28.65928471212809,13.70313261576994,70.85865440031341,0.5060012256880612,120.5396104211442,502.2326587846905,1.274,1.0230935628253934,0.0,5.734619436289064,120.00005142262596,0.0842360716827564,-4.979051508164943e-07,0.1725632955331135,0.0046478133700376,-0.0153387504862917,3.0000722908411013,17.551671048256804,28.638544487854688,26.08663574089782
0.99,31.22218422638809,131.0104571266301,17.908105063406342,-2.826826311413844,-0.1324194106897981,26.91175136935519,-0.089796300529598,8.970852623566278,341.66094855170127,28.945684680948272,13.832494249217923,70.95749940505983,0.5162426122301635,120.55044889085612,512.3071654040716,1.274,1.0230490803133316,0.0,5.749672089458064,120.00005142262596,0.0850781296960533,-5.660250219224724e-07,0.1767066925087192,0.0044572131373536,-0.0158635928510411,2.8299236147295064,17.363913447264697,28.924884307074805,28.367703853772262
1.0,31.22218360617501,131.01045839285942,18.188049195971875,-2.657258316116995,-0.1327115356376228,23.89669106527764,-0.0842059511304247,9.113802275778276,314.2672081822764,29.227688356084343,13.959555227099669,71.05871868227081,0.5263385385690533,120.5611270486846,522.3240654298097,1.274,1.022999484445133,0.0,5.764524671166315,120.00005142262596,0.0859072757376901,-6.356693744759222e-07,0.1806867229064654,0.0042623385851155,-0.0163784863292408,2.660567886921887,17.18270985362459,29.2068420954542,25.575776164830412
1.01,31.222182981350777,131.01045966828443,18.46989048460352,-2.493451836173566,-0.1331455918918122,25.01988566970461,-0.0782084372341677,9.24146321884004,324.92031610370094,29.453158616962128,14.067428173146116,71.1622186843845,0.53628057343591,120.571636058545,530.3994885004122,1.274,1.0229507481225095,0.0,5.779438119475836,120.00005142262596,0.0865702629096298,-7.067574720229678e-07,0.1844944155887204,0.0040633215565777,-0.0168521920172355,2.4970019253139064,17.036366762488758,29.43224417511851,26.67218472322652
1.02,31.222182352383623,131.01046095196048,18.753337016916035,-2.326959719036535,-0.1333231997364391,20.594613378724898,-0.072138222817917,9.370277800427624,284.59063161543185,29.711000108266184,14.18504845728869,71.26790073273644,0.5460598561849641,120.581966664866,539.7119860269785,1.274,1.0229039803623294,0.0,5.794260127278382,120.00005142262596,0.0873284033956701,-7.792092377871415e-07,0.1881152318405999,0.003860672372321,-0.0173328790991572,2.330773870551416,16.875611241450073,29.690057767923,22.62621069024888
1.03,31.22218171732632,131.0104622478073,19.03967351218005,-2.166266665108449,-0.1337017854579865,16.500378127352278,-0.0656596082616377,9.479479677030264,247.3046933904342,29.89738893641724,14.278886851125105,71.37565782239304,0.5556676204911088,120.59210974512013,546.4898500189573,1.274,1.022853416101322,0.0,5.808977095901073,120.00005142262596,0.0878765328529502,-8.529323165819531e-07,0.1915454853386409,0.0036542970943295,-0.0177591719675245,2.1703868118601046,16.756147039970386,29.876387128129437,19.029643309242356
1.04,31.222181079169868,131.01046354979687,19.3269723628254,-2.008218508377546,-0.1341321673948948,27.15088426133876,-0.058929229150314,9.574567347368305,345.4656368807608,30.04496877258771,14.359664050356924,71.48538082829342,0.565094325657906,120.6020553854844,551.8831162972159,1.274,1.0228049544826707,0.0,5.823656880894192,120.00005142262596,0.0883105962928697,-9.27842185129225e-07,0.1947701454337876,0.0034448379157121,-0.0181467849645644,2.012691145604482,16.65945757142364,30.023899360248,28.789691361943294
1.05,31.222180437431376,131.0104648589008,19.61556022438548,-1.838060278630668,-0.1336523123795055,15.67827268031062,-0.052547757427175,9.699902688802217,240.4562587980608,30.37314242952182,14.497208231668967,71.59695201836729,0.5743306992606768,120.61179399092616,563.9894885985484,1.274,1.022755494436122,0.0,5.83820167648534,120.00005142262596,0.0892754814959088,-1.0038466651482356e-06,0.197779366892184,0.0032327328112623,-0.0186279137727652,1.842911392401184,16.471603279563404,30.352148392425857,18.43635288437541
1.06,31.22217978687932,131.01046618564405,19.90893068574985,-1.6824347187525883,-0.1340338441034134,23.02060139172308,-0.0454099762204109,9.772773438264233,308.1796836557233,30.476572541453905,14.562692188340447,71.71024802785155,0.5833674645411993,120.62131599853424,567.8211525111961,1.274,1.0227013895379469,0.0,5.85263112927741,120.00005142262596,0.0895797891558665,-1.0808264586567935e-06,0.2005833509026866,0.0030168511568449,-0.0189558070245463,1.687763754348632,16.402355532561145,30.455518573658413,25.009143351546168
1.07,31.222179137372624,131.01046751018356,20.200560424037327,-1.5175565330773526,-0.1335680874095499,27.3776718217052,-0.0385554039193402,9.873134936487928,348.5093681440431,30.747831305189354,14.6803924773843,71.8251513138555,0.5921929566519825,120.63060934635416,577.9578064974023,1.274,1.0226540159946436,0.0,5.867119950620055,120.00005142262596,0.0903773974427189,-1.158711389187136e-06,0.2031556637064703,0.0027989761369311,-0.0193692378515823,1.52342183685722,16.250396593941325,30.72685049808476,29.103559822988334
1.08,31.222178479024272,131.01046885241067,20.4970634012404,-1.3520846936885411,-0.1328649849193295,17.804994824121067,-0.0315746066846453,9.972652784406234,261.0015785751465,31.04823181433424,14.806198180267748,71.94152921874154,0.6007975046565651,120.63966412678512,589.2892673456,1.274,1.0226061614050743,0.0,5.881347089995535,120.00005142262596,0.091260672893932,-1.2373757137341977e-06,0.2055041726734639,0.0025780840031337,-0.0197840069999813,1.3585959097936728,16.087850058775498,31.027361450012023,20.407661335907424
1.09,31.22217781561568,131.01047020471188,20.79595884102127,-1.195145993895016,-0.132744166727092,16.195617847313667,-0.0241209722923706,10.029965251271044,246.54375332456465,31.183707135526333,14.879861878011754,72.0592535716949,0.6091691512699386,120.64846804492822,594.4260110533061,1.274,1.0225512795791307,0.0,5.895638311293315,120.00005142262596,0.091659187289888,-1.3167127171005088e-06,0.2076228208259577,0.0023541479675901,-0.0200746093501215,1.2024942431335202,16.009482422086975,31.162855749230395,19.049903470076533
1.1,31.222177151151083,131.010471559036,21.0945392643672,-1.0374313460530389,-0.1323982928458031,34.332350259559114,-0.0166261083097945,10.08415858162645,413.1890617384087,31.343315336767382,14.960380849341275,72.17819273215801,0.6172951017825999,120.65700796071,600.509287040614,1.274,1.0224981043155532,0.0,5.909872090089374,120.00005142262596,0.0921286387707375,-1.3966411701278566e-06,0.2094952941053515,0.0021285572402019,-0.020358745881963,1.0458447255811816,15.921527093813609,31.32251828006824,35.7826886227393
1.11,31.222176481758684,131.0104729231665,21.39545101421283,-0.8712164189488484,-0.1307739908079855,24.58605015965069,-0.0093879810913363,10.190081412342904,324.1593910379213,31.78342310386581,15.126041291694488,72.29820572055434,0.6251640363152821,120.66527232710776,617.4739648354416,1.274,1.0224548851875197,0.0,5.923922430414967,120.00005142262596,0.0934225820510237,-1.477048455090844e-06,0.2111183235725776,0.0019013452807999,-0.0208039529778019,0.8809759175244083,15.703094706606564,31.762881191261247,26.614126132135638
1.12,31.22217580148093,131.0104743090701,21.70285558101071,-0.7140641300100716,-0.1300128558840682,8.036492925208755,-0.0016394306559913,10.237141911959444,172.7328179403806,31.98709509888633,15.218342840772667,72.41914968854739,0.6327639647809775,120.67324892820464,625.3945498036895,1.274,1.0223979224661404,0.0,5.937917056923944,120.00005142262596,0.094021571330443,-1.5577792414469275e-06,0.2124973307068762,0.001670688604601,-0.0210734054525746,0.7258030375434523,15.600545917362531,31.96667274476642,13.01477221276884
1.13,31.222175121627288,131.0104756940182,22.008976409313423,-0.5623932561668014,-0.1299320704896767,29.262864402254543,0.0063614835250389,10.232332170110556,367.5328077894322,31.991599584172555,15.249765164043376,72.54088487111312,0.6400790101663315,120.68092148637469,625.5523073876311,1.274,1.0223460397860296,0.0,5.952046432596664,120.00005142262596,0.0940351364650573,-1.6387631976766505e-06,0.2136154867763816,0.0014385235645439,-0.0211866534809112,0.5772070471993856,15.592476256761486,31.971189919760075,31.00025637204777
1.14,31.22217444145188,131.01047707951403,22.314290443834366,-0.4035956167681526,-0.1281226240739243,15.27670166463675,0.0141033512266877,10.304705430972202,239.6953177322812,32.3976396061636,15.401377453203208,72.66326187364572,0.6470957256634225,120.68827632284128,641.5133868644347,1.274,1.0223022138470996,0.0,5.965954025553569,120.00005142262596,0.0952289662694767,-1.719922848624614e-06,0.2144640732426523,0.0012065407985723,-0.0215401566368873,0.42344368830797,15.402185536887728,32.37751416820875,18.427283214677608
1.15,31.22217374830335,131.01047849096494,22.62773126702164,-0.2511442418310062,-0.1274436894661864,15.00111219043494,0.0221676308187223,10.299605589561931,237.4125115347709,32.48816730443665,15.457497810273995,72.78612631896048,0.6538029022510184,120.69530214805356,645.0840953213393,1.274,1.0222426194541194,0.0,5.979668111951843,120.00005142262596,0.0954953993239332,-1.801068491624324e-06,0.2150464941517989,0.0009720606315579,-0.0216583536890466,0.2816295797132017,15.35852797014178,32.468148513015365,18.1965857691603
1.16,31.22217305877957,131.01047989503354,22.937635728721368,-0.0992742260219636,-0.1263824932017648,42.559389367200495,0.0302224294849937,10.299097319349904,490.043774385954,32.6447502530217,15.53271439347472,72.9093257386007,0.6601837873018483,120.70198186722476,651.2979056122322,1.274,1.02219674531104,0.0,5.993586727091384,120.00005142262596,0.0959559932746653,-1.882145603703516e-06,0.2153529257073259,0.0007376132116928,-0.0217931024731332,0.1607105801010431,15.28717089195408,32.6248981535109,43.78782870042385
