Time,Latitude,Longitude,Altitude,Angle of Attack,Angle of Sideslip,X-Acceleration,Y-Acceleration,Z-Acceleration,Thrust,True Velocity,Ground Velocity,Pitch,Roll,Yaw,Dynamic Pressure,cp,cg,parachute_deploy_gain,Wind Speed,Wind Direction,Mach,omega_x,omega_y,omega_z,Cmq,Angle of Attack(total),Angle of Attack(gust),True Velocity(gust),Acceleration
0.0,31.222216000000007,131.010392,3.000000004412624,0.0,0.0,0.0,0.0,0.0,2.2828121974499247,0.0,0.0,69.99999999623412,0.0,119.9999999935444,0.0,1.274,1.0271675151847728,0,0.0,0.0,0.0,0.0,0.0,0.0,-0.0,0.0,90.0,0.0,0.0
0.01,31.22221599999084,131.01039200000497,3.000002745347096,0.0,0.0,0.0,0.0,0.0,34.242186961749226,3.465174813755316e-14,2.8705476994166025e-14,69.9999999962611,-2.1713911667908447e-11,119.99999999352175,7.352495975525499e-28,1.274,1.0271659134330349,0,0.0,0.0,1.0183245502395064e-16,-3.3305335486039093e-18,7.169286865560398e-18,5.624298769768554e-18,-7.715917190115602e-34,0.0,89.99999999999979,3.465174813755316e-14,0.0
0.02,31.222215999994315,131.0103920000094,3.0000030495639742,0.0,0.0,0.0,0.0,0.0,25.871876237766216,3.8197434737535036e-11,2.4171837235633357e-11,69.99999999628672,-1.1921727947863515e-11,119.99999999353136,8.93414285188691e-22,1.274,1.027164492361118,0,0.0,0.0,1.1225230367947217e-13,-6.657678965418802e-18,1.4338573731120796e-17,1.1241821275959074e-17,-1.7010872994127372e-30,0.0,89.99999999975682,3.8197434737535036e-11,0.0
0.03,31.222215999994315,131.0103920000094,3.0000030495639742,0.0,0.0,9.81877837424427,-2.5122800045972096e-05,3.3498614629347925,180.34219359854663,1.2659015405517447e-10,1.1364406173918436e-10,69.99999999631459,-1.6431898037347223e-11,119.99999999352724,9.812605835254651e-21,1.274,1.0271551940870716,0,0.0,0.0,3.720154642239108e-13,-9.991600645811728e-18,2.150108433310316e-17,1.6859343782149594e-17,-8.453698244545225e-30,0.0,89.99999999919412,1.2659015405517447e-10,10.374487003414373
0.04,31.222215999994315,131.0103920000094,3.0000030495639742,18.83801224594347,-0.0001111777826462,48.68248476615645,-1.016330065874988e-05,3.3497854396877287,548.635972453808,0.1556173050466994,0.0975908358443652,69.99999999633813,-2.0932768807056278e-11,119.99999999352085,0.0148286043323172,1.274,1.027133720825283,0,0.0,0.0,0.0004573186944143,-1.3322134194415637e-17,-1.04744143520903e-11,1.336824254131964e-11,5.0626055458604615e-15,18.83801224625964,89.06236267790787,0.1555998412814392,48.79759610369246
0.05,31.22221599164764,131.01039201704114,3.002326315126219,5.772385609593056,-4.395076213712875e-06,71.20344550265034,4.905512691849684e-05,3.349217396035405,761.6984298824663,0.8326471944351852,0.3620326097059287,70.00000001316391,-1.0866255162484559e-10,120.00000000231074,0.4245281043148827,1.274,1.027093426565204,0,0.0,0.0,0.0024469331205246,-5.0245994431125096e-18,-7.32924164976824e-07,2.217344936947165e-11,1.895424184525467e-09,5.772385609594774,84.74112356985832,0.8326465040582279,71.28217104309611
0.06,31.22221596664444,131.01039206837547,3.015081730143309,4.056581213689704,3.169093567502233e-05,53.16249142470188,0.0001203825427859,3.3481235983850643,590.4875390737236,1.657216205300742,0.6755452977614796,69.99999964391398,-3.9285905645317736e-10,120.0000000287861,1.6816755551786196,1.274,1.027050317124926,0,0.0,0.0,0.0048701272653724,3.095757869075056e-13,-7.483541766772344e-06,3.074135420506017e-11,3.8518749565858254e-08,4.056581213813337,79.59316473687034,1.657221183301277,53.26781792157489
0.07,31.22221592883117,131.0103921460222,3.034593611434361,4.115662018628709,6.450869598349036e-05,81.18203554989698,0.0001593212642178,3.347059402768047,855.2937749779172,2.099899704220947,0.8579771146174259,69.99999543281565,-8.233801910783518e-10,120.00000006883089,2.700101932075157,1.274,1.027003201295312,0,0.0,0.0,0.006171060252819,3.4704292086287e-12,-2.6327204536316785e-05,1.9541142932033486e-10,1.7170712165327165e-07,4.115662019133419,76.90111966094352,2.099909837223217,81.2510043180746
0.08,31.22221588914193,131.01039222747755,3.0542761843835606,3.459696193892355,8.037433511260004e-05,16.298214211652088,0.0002413456836072,3.344878926597744,241.2171988638792,3.051964775152957,1.2149999716613011,69.99998042886442,-1.0128995578004475e-09,120.00000011111383,5.703497661025892,1.274,1.0269597189470347,0,0.0,0.0,0.0089689344021769,1.458982438104473e-11,-5.702803872814215e-05,7.043261397829576e-10,5.405702492731987e-07,3.459696194824858,71.30331929508368,3.051977400323993,16.63790856991177
0.09,31.2222158241468,131.01039236098703,3.0886872184095737,4.313676956300389,0.0001337561018991,50.35975918308536,0.0002293282821279,3.344215841840564,563.0937377043203,2.893161298572128,1.191209213966114,69.99994788602814,-7.098432023887522e-10,120.00000018106356,5.125380275808925,1.274,1.026918932011013,0,0.0,0.0,0.0085022553945842,3.8672912027154325e-11,-0.0001115933708951,2.016054215232918e-09,1.0027525988343615e-06,4.313676958370176,72.2316578138625,2.893182308931483,50.47067588835877
0.1,31.2222157788302,131.01039245392113,3.109877853389092,4.035124630954496,0.0001457499816535,47.804664812504015,0.0002878217657545,3.341734392237128,538.7437595981891,3.5677148583138303,1.4531247507621967,69.99988403958329,1.9248461973355822e-09,120.0000002323013,7.7939962029572305,1.274,1.0268846934974103,0,0.0,0.0,0.0104845969583028,8.579678749070606e-11,-0.0001726817043215,3.984565639703107e-09,1.913455350430327e-06,4.0351246335824245,68.43243098813296,3.567737752667411,47.92132267234452
0.11,31.222215703308,131.01039260899836,3.148841432727305,4.043401107254707,0.0001752764476999,37.67622367577205,0.0003286462930162,3.3392563999062723,442.86563930529127,4.034183355956686,1.6436552022667772,69.99978525353545,7.302513231814865e-09,120.00000031883242,9.96528118825134,1.274,1.026848594915519,0,0.0,0.0,0.0118554331868328,1.5870341853361987e-10,-0.0002596204409236,7.232030302688121e-09,3.252930323390323e-06,4.04340111104746,65.92012987243639,4.034210888316708,37.82391391539392
0.12,31.222215627491828,131.01039276462643,3.186995101203875,4.17874459224363,0.0002066711490009,41.15991989399172,0.0003576945202315,3.336766085769504,475.58594813540793,4.361857560629481,1.7865750500940407,69.99963665601238,1.781774420198147e-08,120.00000041104812,11.649831899889556,1.274,1.0268114448194128,0,0.0,0.0,0.0128183893919737,2.682972478760441e-10,-0.0003710216542429,1.2215991071490164e-08,5.026311388647148e-06,4.178744597345269,64.21681651392016,4.361890024457652,41.29495143136631
0.13,31.22221554594398,131.01039293200228,3.2277173449026786,4.202734874672792,0.0002327160860324,45.44886120763352,0.0003953741266062,3.333578629398489,515.9156326236897,4.792165672014363,1.9646716520715424,69.99942424225341,3.613383418913551e-08,120.00000051758742,14.061726603124043,1.274,1.026779572895131,0,0.0,0.0,0.0140829618979635,4.248908088871395e-10,-0.0005056103199642,1.908859219307828e-08,7.5253154423526356e-06,4.202734881104192,62.048594618540655,4.792202226971676,45.570952718869485
0.14,31.222215454191247,131.01039312033683,3.2737880595608355,4.184830647080848,0.000257138757548,42.32232525579263,0.0004369426767266,3.329727443445437,486.2390860568421,5.269261304374574,2.158791628597544,69.99913473613935,6.515851355725497e-08,120.00000064630268,17.000925061330125,1.274,1.0267449573927567,0,0.0,0.0,0.0154850332441425,6.382432869666793e-10,-0.0006690086306358,2.8426433029675884e-08,1.0948547100483978e-05,4.184830654966803,59.74181173116622,5.269301695636157,42.45310707234106
0.15,31.222215353826755,131.0103933263496,3.3242182719560263,4.21963947489699,0.0002846467688673,40.886944113003565,0.0004726792395108,3.325585650885676,472.5421858721398,5.6781946837482895,2.329510773545807,69.99875162806286,1.0876776246115984e-07,120.00000079954532,19.742017654108928,1.274,1.0267115958081523,0,0.0,0.0,0.0166867950518804,9.204756288136623e-10,-0.000865746478554,4.08948221429571e-08,1.526771148078443e-05,4.219639484480408,57.84996018384879,5.678239395958187,41.02196629910223
0.16,31.222215247130432,131.01039354534575,3.3775922280208457,4.253495568077899,0.0003118339050386,32.26872905470846,0.0005078415214353,3.32090791922544,391.1218908297597,6.081244877834229,2.4981889727471702,69.99825581174558,1.7187028096464329e-07,120.0000009800088,22.644030778355887,1.274,1.026675762255412,0,0.0,0.0,0.0178712695992133,1.2856146928958252e-09,-0.0010961187242953,5.6923362293832417e-08,2.0702404729358337e-05,4.253495579487569,56.06022383757386,6.081293860589489,32.43916312841722
0.17,31.22221513260033,131.01039378041813,3.4348437275053194,4.364838523348639,0.0003448792023946,40.840448242802736,0.0005326487904353,3.3162727284953744,471.78125980632416,6.362544479165355,2.6250789114832647,69.99762801982864,2.5997588617291615e-07,120.00000119506798,24.78723182122683,1.274,1.0266409836796937,0,0.0,0.0,0.0186979513961862,1.747791994374917e-09,-0.0013624931601664,7.706724512977917e-08,2.6923621797558364e-05,4.364838536947241,54.85936171416122,6.362598652663785,40.97486885600156
0.18,31.222215014088988,131.01039402363364,3.4935801365785646,4.353948305387995,0.0003681615230806,33.992183768165326,0.0005718025428208,3.310131992647221,407.1015672119096,6.81502088160835,2.810667639293692,69.99684761766231,3.794979223522764e-07,120.00000144728236,28.437950785509614,1.274,1.0266048342046536,0,0.0,0.0,0.020027681385988,2.3221419748804155e-09,-0.0016616990447559,1.0147209890543081e-07,3.517105786247627e-05,4.353948320923495,52.99157233768714,6.815078712285162,34.152972512863755
0.19,31.22221488419521,131.01039429023237,3.558399965607869,4.432620772533925,0.0003996774584738,38.45149959021069,0.0005986099513107,3.304145139297767,448.95313283182486,7.1223367465208405,2.946425726785696,69.99589577323147,5.440084577183829e-07,120.00000176148238,31.060341085698347,1.274,1.026566130444714,0,0.0,0.0,0.0209308229359413,3.022391489754689e-09,-0.0020041563310821,1.3135864879722746e-07,4.433199397898183e-05,4.432620790516937,51.77883352025967,7.122399527709208,38.59320142454953
0.2,31.222214751373183,131.01039456280608,3.624052454705669,4.443889400961181,0.0004246617145652,35.23432408779927,0.0006337972852267,3.2968110145188256,418.5156301991588,7.530482904611057,3.1167566004785483,69.99474776398331,7.478025600151903e-07,120.00000211715036,34.72195181863731,1.274,1.026529240027363,0,0.0,0.0,0.0221302820454282,3.866698391504749e-09,-0.0023849544920781,1.668144671071589e-07,5.57780533277244e-05,4.443889421210987,50.22448880200342,7.530549610317194,35.38822625098952
0.21,31.222214608673173,131.01039485566503,3.6948551453492566,4.493351735844891,0.0004538195602194,33.79371564104691,0.0006629296043866,3.2891790438445727,404.8187610144608,7.868284042829251,3.2629204975089228,69.99338155599101,1.0150082652278477e-06,120.00000255293388,37.906665490338085,1.274,1.0264923657015164,0,0.0,0.0,0.0231230169900677,4.871073773182836e-09,-0.0028117605859743,2.089322918608601e-07,6.870935089180403e-05,4.493351758715364,48.992529909481824,7.868355328639073,33.95340801819282
0.22,31.22221446109996,131.01039515850383,3.767700382407304,4.5412639153933885,0.000482649303782,41.008966751568416,0.0006914639179131,3.2808061382386606,472.5421858721387,8.20057841132235,3.4071691679735228,69.9917708347139,1.3454961520984431e-06,120.00000305929996,41.175744234065135,1.274,1.0264494137127138,0,0.0,0.0,0.0240995709751246,6.054779813287368e-09,-0.0032829112061357,2.580881224843564e-07,8.3609968899004e-05,4.54126394098788,47.82515604752711,8.2006542256977,41.13999323561041
0.23,31.22221430675399,131.0103954752338,3.843768625625224,4.52371495179584,0.0005047555656171,33.98493478127787,0.0007294889663961,3.2705214710765107,406.340642146096,8.647938096586296,3.5908865300848416,69.98989017772566,1.7539876018835507e-06,120.00000365514876,45.79040229326471,1.274,1.0264133390858623,0,0.0,0.0,0.0254142776666487,7.436335125872812e-09,-0.0038001790077148,3.1489825108822685e-07,0.0001020628978177,4.523714979897577,46.31461705147579,8.648017383405135,34.14194053232237
0.24,31.222214142622448,131.0103958120587,3.92493179063287,4.57837522350066,0.0005351929930195,35.051650311058864,0.0007555049947555,3.26053011385611,416.2328240017099,8.954297884844461,3.72617527247482,69.98771316795013,2.25257161141768e-06,120.0000043564586,49.09180568115741,1.274,1.0263750048312463,0,0.0,0.0,0.0263146218848643,9.034877387788232e-09,-0.0043732521010013,3.809642748985157e-07,0.00012161410144,4.578375254714954,45.32798984252032,8.954381952763216,35.20297212911011
0.25,31.22221397517227,131.0103961556623,4.0071748888306855,4.6034117733065,0.0005618935542827,36.03738579534623,0.000785606492708,3.249069743648399,425.3640807915084,9.311611941121669,3.8789349536029696,69.98520781816889,2.8559738498748624e-06,120.00000517181904,53.08749562138344,1.274,1.0263373768840591,0,0.0,0.0,0.0273647110956883,1.0873791100894836e-08,-0.0049950711786164,4.5609738277273444e-07,0.0001444478241125,4.603411807525074,44.2165428352526,9.311700203154778,36.183554686886296
0.26,31.22221379934012,131.01039651647062,4.09364247475714,4.621386912291471,0.0005881033207375,39.29107511182762,0.0008162761165496,3.236407051295005,455.80158342417656,9.67833954512075,4.034902068846398,69.98234620927953,3.5784678110229355e-06,120.00000612171208,57.350948423913096,1.274,1.0263006300381676,0,0.0,0.0,0.0284424679130479,1.2973286442992724e-08,-0.0056712051373577,5.414206381221602e-07,0.0001704578711045,4.621386949630312,43.12063533194282,9.678431924174348,39.42414126789902
0.27,31.222213616776543,131.01039689108487,4.183310605341074,4.617158109135719,0.0006115457810536,35.90419462403674,0.0008503454714941,3.221982799915672,423.8421996598744,10.088790784535757,4.205862468567124,69.97909721779352,4.436165972465058e-06,120.000007221354,62.31798301949865,1.274,1.026260090595354,0,0.0,0.0,0.0296487219805601,1.5355910600537293e-08,-0.0064045199323113,6.379142666348734e-07,0.0002006609239367,4.617158149547818,41.94410287616451,10.08888684592241,36.048472443180565
0.28,31.22221342607797,131.0103972823952,4.277051150896916,4.642105655370123,0.0006389739579882,41.51133203546672,0.0008785747638736,3.2071101123224945,476.3468732012228,10.432377224420517,4.35383399240675,69.97542808435722,5.446665372087172e-06,120.00000849080963,66.63429581008447,1.274,1.0262212716723291,0,0.0,0.0,0.0306584788590473,1.8045308789081613e-08,-0.0072006835403936,7.469524967369969e-07,0.0002332868227611,4.642105699250441,41.0023231023774,10.432477594215127,41.63503624837164
0.29,31.22221323001776,131.01039768469093,4.373143569786686,4.62134615173668,0.0006600657405645,33.17552944492765,0.0009148746278066,3.1894209319791806,397.9703104221098,10.876662296046485,4.536381530986506,69.9713027936179,6.629751536885327e-06,120.00000994797426,72.43000748232016,1.274,1.026183007522519,0,0.0,0.0,0.0319641703260467,2.1067646517035105e-08,-0.0080566154554079,8.688043379161898e-07,0.000272130659453,4.621346198772975,39.83162628795024,10.876765978930557,33.32848872465723
0.3,31.22221302403368,131.01039810736614,4.4744193758467325,4.664362353358112,0.0006905183788532,31.08096762732793,0.0009381960428197,3.172549142946348,378.1859457108735,11.168362145070317,4.66647911311536,69.96668711012893,8.005507138509574e-06,120.00001161892672,76.36634300732833,1.274,1.0261430389738484,0,0.0,0.0,0.0328214509167604,2.4447409007156216e-08,-0.0089829108229115,1.0056222251461646e-06,0.0003115527202986,4.664362404357781,39.09908960432563,11.168470611443622,31.242464973103964
0.31,31.22221281503337,131.01039853619727,4.576593712520673,4.700143580504286,0.0007196683316923,32.79732593144512,0.0009620705970519,3.154230688182399,394.1656220930229,11.470279728974068,4.800072153432283,69.96154070456518,9.597499105113692e-06,120.00001352112182,80.55022837857167,1.274,1.0261054058068628,0,0.0,0.0,0.0337087616009043,2.8214060606649844e-08,-0.0099686353219717,1.1565909895184251e-06,0.0003550834484269,4.700143635477137,38.36463422765983,11.47039277421126,32.94865339301887
0.32,31.222212598991007,131.01039897947376,4.68216432480395,4.718667719113184,0.0007464384342556,35.7316568886908,0.0009885845337584,3.133859770838664,421.5593934624264,11.808280530415894,4.946054328851105,69.95582953472353,1.14278227255889e-05,120.00001568218067,85.36654007972253,1.274,1.026068246703101,0,0.0,0.0,0.0347021168382987,3.2392058795580455e-08,-0.0110163301561155,1.3226102501723267e-06,0.0004039614423012,4.718667778018562,37.5686120062341,11.808397780690962,35.8688218659563
0.33,31.222212376029034,131.0103994369436,4.791055524254013,4.72141404831576,0.0007708346814671,35.42013590291081,0.0010176135371143,3.1111955852784385,418.5156301991632,12.181577273013426,5.104163223586657,69.94951809396906,1.351997394754887e-05,120.00001812674968,90.84831229869296,1.274,1.0260310883392356,0,0.0,0.0,0.0357992034445943,3.700677535501642e-08,-0.0121310534481307,1.5051409581878843e-06,0.0004588955105349,4.721414111097893,36.7208578211118,12.181698355442045,35.55651229220977
0.34,31.222212145785647,131.0103999093516,4.903491659547144,4.73024573449122,0.0007962944975467,27.63851074646407,0.0010446307681611,3.0871492806781062,345.4656368807584,12.53557620048282,5.2556261014174765,69.94256797855994,1.5899658158227497e-05,120.000020882338,96.20413272674828,1.274,1.0259901535019136,0,0.0,0.0,0.0368395817555172,4.208561016221623e-08,-0.0133180771902383,1.7057647550599631e-06,0.0005184333231541,4.730245801363397,35.94841996438923,12.535701282129995,27.810389570354005
0.35,31.222211909310875,131.01040039453565,5.018822212845608,4.780248518778662,0.0008286678570753,30.332092807652543,0.0010618579815451,3.063967690608957,370.5765700527057,12.774786382148209,5.367579971644358,69.93493776125636,1.8594985713558667e-05,120.00002397748868,99.9096898192772,1.274,1.025950003202184,0,0.0,0.0,0.0375426220587071,4.7658312175989686e-08,-0.0145774693288123,1.9252724355785177e-06,0.0005782798420984,4.780248590437683,35.44790728185619,12.774916548990808,30.486451961956565
0.36,31.22221166933814,131.0104008868675,5.135354490370708,4.798132156899578,0.0008554457330409,34.32674769697476,0.0010851169437774,3.0374319611165923,407.8625232777224,13.09301701329486,5.506730645516068,69.92658597246795,2.163521613217148e-05,120.0000274401514,104.94818266210537,1.274,1.0259105142325406,0,0.0,0.0,0.0384778908056978,5.3755109608570216e-08,-0.0158991451700967,2.162609490834569e-06,0.0006464142451675,4.798132232978766,34.796094028187134,13.09315138639638,34.46087058603792
0.37,31.222211421355144,131.01040139563804,5.255882891363927,4.797392186816851,0.0008791822061288,32.551601855236584,0.00111162791192,3.0078619428913056,391.1218908297639,13.457513730739372,5.661815946371007,69.91747693543164,2.5047738471809164e-05,120.0000313040604,110.87154396328836,1.274,1.025872170958032,0,0.0,0.0,0.0395491312153729,6.040098808671168e-08,-0.0172926678053148,2.420031948898497e-06,0.0007226353721561,4.797392267189059,34.07332166419882,13.457651832357364,32.69027405888565
0.38,31.22221116634284,131.01040191882743,5.379799334000849,4.811698494594017,0.0009057112478668,34.02947987649063,0.0011338447913587,2.9774881690446744,404.81876101445977,13.77554886562956,5.800899861213392,69.90756948297444,2.886339581486796e-05,120.00003560072224,116.17243393848278,1.274,1.02583050512925,0,0.0,0.0,0.0404838339452728,6.762496638941508e-08,-0.0187646375218858,2.69955777313946e-06,0.0008026686661094,4.8116985796350695,33.46655348088405,13.775691134419684,34.15949264475229
0.39,31.222210906095896,131.01040245274032,5.505993307722699,4.813508003664984,0.000929862892873,29.00025983045028,0.0011579891265804,2.9442136901860865,357.6406249338268,14.124492165837273,5.950648592462506,69.8968186645841,3.311602501056718e-05,120.00004036395212,122.13093644173792,1.274,1.02579027384009,0,0.0,0.0,0.0415093739609825,7.545934774906889e-08,-0.020311592409804,3.0013532510753577e-06,0.0008908380763632,4.813508093268025,32.821616487639595,14.124638228358922,29.149330452482886
0.4,31.222210638473225,131.0104030017851,5.635788650457906,4.841647069358873,0.0009592124397379,27.71178845184976,0.0011749448424961,2.91135549588368,345.4656368807565,14.390874239274588,6.07193451174791,69.8851815212744,3.783947407715338e-05,120.00004563180136,126.77947425345651,1.274,1.0257493418632293,0,0.0,0.0,0.0422922854866381,8.39343718693383e-08,-0.021938519432511,3.3271332720311508e-06,0.0009803271643914,4.841647164150728,32.348088166612904,14.391024912012275,27.864299944624147
0.41,31.22221036681104,131.01040355909262,5.767123077463226,4.86553909860892,0.0009876699832274,31.306062598221665,0.0011918093836199,2.876450850006428,378.9468707766882,14.663028799871563,6.195223154320929,69.87261222561014,4.307011032901644e-05,120.0000514391194,131.6183642808765,1.274,1.025708445186429,0,0.0,0.0,0.0430921644173401,9.308325447883581e-08,-0.0236371933433427,3.6760977501392174e-06,0.0010761942383903,4.865539198612839,31.87689439156756,14.663183942709727,31.437931330109585
0.42,31.22221008906472,131.01040412887247,5.901259531771367,4.867510642114694,0.0010118258958528,35.308283402190774,0.0012128114559048,2.8374461227958245,416.23282400171047,14.9952917972178,6.33928625560071,69.85906967380902,4.884273094936628e-05,120.00005782486392,137.64909586091787,1.274,1.0256701057426505,0,0.0,0.0,0.0440686959134695,1.0293499639582845e-07,-0.0254093547296826,4.049238334851429e-06,0.0011830797791891,4.867510747027452,31.315270489291198,14.995450734457847,35.422111438762386
0.43,31.222209804115888,131.01040471342728,6.038886819939341,4.854590670645608,0.0010330089741511,31.00586934514032,0.0012363751872706,2.794478603999558,375.90313951343126,15.369430568701889,6.497852263156962,69.8445117629242,5.519340856908871e-05,120.00006482835984,144.60167924299955,1.274,1.0256308158337524,0,0.0,0.0,0.0451682983415116,1.135186446762958e-07,-0.0272634397889413,4.449073329427772e-06,0.0013010625065656,4.854590780289497,30.70250814963406,15.369592833372094,31.13154422839874
0.44,31.22220951192321,131.01040531284193,6.180028459770617,4.866912332640401,0.0010595850174406,28.57707721036899,0.0012525768202179,2.752165534925872,353.07501253892326,15.659290812546615,6.627318538707029,69.82889155423543,6.216182865383864e-05,120.00007249162944,150.1053167542629,1.274,1.025586171750536,0,0.0,0.0,0.0460202245100907,1.2486676023179565e-07,-0.0292060158163984,4.8779154055816594e-06,0.001420032405556,4.866912447705031,30.24619499837236,15.659457251771938,28.709297424144207
0.45,31.222209215425703,131.01040592106523,6.322872201489905,4.881836476567178,0.0010866574689855,33.31904824532484,0.0012669045761511,2.7082028218433374,397.2093853562887,15.934249290371609,6.751662050993672,69.81215834018458,6.97909417564726e-05,120.00008085697964,155.42080512416243,1.274,1.0255397023523487,0,0.0,0.0,0.0468283602442113,1.3701614206272197e-07,-0.0312276295846745,5.334643585560923e-06,0.0015449645531859,4.8818365972149325,29.82567893138932,15.934419982127675,33.428929688274074
0.46,31.22220891307435,131.0104065412864,6.468371919199588,4.869610441729251,0.0011078049156487,38.95909776354321,0.0012868374716666,2.6582856015412624,449.7140588976424,16.292139278621757,6.904766425053949,69.79426683863348,7.812149592850748e-05,120.00008996920153,162.4785746623087,1.274,1.02549635315424,0,0.0,0.0,0.0478802236363867,1.499987870203256e-07,-0.0333272350234362,5.819761874615242e-06,0.0016858511402973,4.869610567434908,29.29014635640275,16.292313292210977,39.04968351401366
0.47,31.22220860266524,131.01040717804253,6.6178810515614845,4.838450928223533,0.0011247917292402,26.253747818137555,0.0013104398935566,2.6026193242279367,331.0078106302504,16.710658191447514,7.078951441335346,69.77517236812905,8.719457259907165e-05,120.0000998741591,170.9309671061642,1.274,1.025453319323251,0,0.0,0.0,0.0491102725711187,1.6384464803343264e-07,-0.0355167087264168,6.3368207228363735e-06,0.0018427306558807,4.838451058652396,28.68386015667837,16.710834873319172,26.382435512333956
0.48,31.222208284201663,131.0104078313267,6.771393590864176,4.869339340099417,0.0011561785713505,25.860860976019296,0.0013165328518772,2.5543454292827983,327.20312230115803,16.911139899671,7.177575416403102,69.75482343794755,9.70562828082882e-05,120.00011062072316,175.0543877818846,1.274,1.0254092882449153,0,0.0,0.0,0.0496995461609974,1.7858865391586845e-07,-0.0378054080201581,6.88909442277235e-06,0.0019849793891693,4.869339477030596,28.40887970825325,16.911321511776286,25.986704537635287
0.49,31.22220796480208,131.01040848648364,6.924537656029012,4.881367714530694,0.0011829003785372,32.565703383222065,0.0013261973190012,2.5011623511055703,389.6000096981238,17.169005224738054,7.296160258358563,69.73316318155707,0.0001077573203115,120.000122255028,180.4309832312717,1.274,1.025367445590036,0,0.0,0.0,0.05045746454003,1.942747077649401e-07,-0.0401641298712614,7.47069711110948e-06,0.002140948887153,4.881367857509675,28.058569663954906,17.169191034294997,32.66161128464712
0.5,31.222207637929923,131.01040915697027,7.081324512896956,4.862566137860805,0.001202418260511,33.47759680712428,0.0013425340759632,2.4399894027711366,397.970310422106,17.52898693231981,7.450304424940405,69.71015149227495,0.0001193385310595,120.0001348274002,188.0736471953394,1.274,1.0253278572281015,0,0.0,0.0,0.0515154948878309,2.109295159784217e-07,-0.0426011733481599,8.084173008518589e-06,0.0023184335011768,4.862566286171007,27.57768313050809,17.529175807738486,33.56639745442473
0.51,31.22220730314019,131.01040984370235,7.24202048914867,4.8479762258125,0.001223054804074,25.49162310288008,0.0013562860883156,2.3767006597692686,323.39843497208153,17.86914397471067,7.597652147346554,69.68574349602717,0.0001318441288964,120.00014838524436,195.4407439266201,1.274,1.025286455263166,0,0.0,0.0,0.0525152689856776,2.2858192086249162e-07,-0.0451315948093539,8.734206149830708e-06,0.002503767471626,4.847976379721193,27.13799345359824,17.86933609171003,25.602178740977283
0.52,31.222206962738102,131.01041054193402,7.405210501673173,4.865306299521403,0.0012516517170965,30.733671928447727,0.0013599291289974,2.317711624364424,372.098451184342,18.08534843773428,7.701914987606457,69.65988568649581,0.0001453248538387,120.00016298000436,200.19561780583155,1.274,1.0252426840672306,0,0.0,0.0,0.0531507657929359,2.4726951523704535e-07,-0.0477531686556663,9.421346966092632e-06,0.0026812161964639,4.865306460134566,26.8699055233151,18.085545046726228,30.820940596104087
0.53,31.222206619320115,131.01041124632013,7.569307468221277,4.848802699234936,0.0012715119568563,32.301199055744725,0.0013711327835325,2.2490252325653923,386.55624643486095,18.41963113311156,7.8474319110539055,69.6325258319474,0.0001598315062727,120.0001786629144,207.6614205945027,1.274,1.0251993415311351,0,0.0,0.0,0.0541332845214831,2.67031759303889e-07,-0.0504479325599339,1.0141887756417996e-05,0.0028848299490111,4.848802865552398,26.45837260670532,18.419830861742675,32.37940050117613
0.54,31.22220626697288,131.01041196903336,7.737918664599091,4.831496690588052,0.0012913635058467,28.31291960103712,0.0013809098107221,2.177242866245296,349.2703242098436,18.75116898748492,7.992112829440902,69.60362200959217,0.0001754082864028,120.00019548734956,215.20067397992847,1.274,1.0251561018460285,0,0.0,0.0,0.0551077428911958,2.878941684235108e-07,-0.0532336286085667,1.090122304443916e-05,0.003098869611663,4.831496862756785,26.061835558272342,18.751371834390056,28.396510432451375
0.55,31.222205908994248,131.01041270328463,7.909026079894722,18.22227304405061,23.92206346522504,31.14972295702412,-1.799328987810296,1.1733806144452297,365.2500005919912,24.089588654520423,8.113323699629928,69.57312211246325,0.0001921068626005,120.00021350480982,355.171872308874,1.274,1.025112921033824,0,11.278816046756331,0.0,0.0707969418468491,3.0989272306468813e-07,-0.0561100530405476,1.1700476995263424e-05,0.0041961578129615,29.74335228186028,46.321371547591774,27.739031214257945,31.223703290482472
0.56,31.222205546564343,131.01041344664463,8.081909946161325,4.769191933856544,-30.39919081741299,29.064824154407383,1.456276697444702,1.8162807472635745,346.22656194657776,22.42300655865107,8.243352958320413,69.54097415464405,0.0002099796112633,120.00023276987916,307.7232246093376,1.274,1.0250709539098009,0,11.31996503450294,210.00008998959544,0.0658991488055674,3.328942889008732e-07,-0.0703538438275002,0.021798850319368,0.0048972944253999,30.735641327356426,12.10087437195413,17.868812312766526,29.157908373184515
0.57,31.222205181621927,131.01041420618407,8.258620404968442,4.767933474076185,-30.06019548248528,28.75532538508512,1.9225111995327024,1.7373314197811291,343.1828296833045,22.667710007256616,8.375016537071382,69.50066143418694,0.0336209205219168,120.03589793637576,314.470936288108,1.274,1.0250279191823897,0,11.360792541650731,210.00008998959544,0.0666184424798053,3.736958007339629e-07,-0.0733336300373819,-0.0008921034876991,0.0051603362621313,30.401027981167235,11.909353397636709,18.15952380267827,28.871839355617922
0.58,31.22220480255369,131.01041497189053,8.437099494985395,4.749008249788764,-29.748161837373768,37.692559545677405,2.4089664572516702,1.655466517697658,426.12500585731766,22.926826381584288,8.50457845206893,69.45864542009099,0.0321910467988667,120.03437135027758,321.6959988185771,1.274,1.024981594484354,0,11.401752964356744,210.00008998959544,0.0673800987951085,4.034326507070319e-07,-0.0764008911256061,-0.0238926820640711,0.0054375353661377,30.090553214784297,11.750158301196825,18.461128532716945,37.80572355990318
0.59,31.222204419714124,131.01041575039403,8.618404478011772,4.695892313771257,-29.26545851582902,30.670986678524933,2.9312841432976566,1.5578702403702491,360.68438819710633,23.30405662051406,8.681942050663968,69.41487503200456,-0.0043284771512444,119.99536680194672,332.3634571674373,1.274,1.0249386802161349,0,11.442402579684988,210.00008998959544,0.0684888882085351,4.220015748099884e-07,-0.0795474859319307,-0.047242425088186,0.005754533900501,29.60685307482495,11.475240351808678,18.90434699662536,30.85010227290719
0.6,31.22220402490319,131.01041654767323,8.804667442426647,4.675781214689846,-28.95892946346207,27.33055732225628,3.4566151619264374,1.4703345267485373,329.4859594986072,23.55170556853708,8.80689898176315,69.36927944323651,-0.0762258213444022,119.91855445727396,339.4588794993672,1.274,1.024891335813742,0,11.482978204331983,210.00008998959544,0.0692168554793526,4.292749760219621e-07,-0.0827956142254803,-0.0710784150988843,0.0060530476924332,29.301664743908617,11.308709482871365,19.194062580114117,27.58748693780107
0.61,31.2222036259929,131.01041734907537,8.99153121865158,4.656497166042551,-28.66272850873729,31.92926630458125,3.995956518929415,1.38128017353091,372.0984511843332,23.78695860162471,8.926796525520595,69.3217494716504,-0.1839744507736328,119.80340468502274,346.2681028168123,1.274,1.0248423929069768,0,11.52393293534808,210.00008998959544,0.0699083954589498,4.2507767249948497e-07,-0.0861200964667628,-0.0952317823800205,0.0063588712504508,29.006801160713817,11.143537095530716,19.470083371783247,32.20797494670896
0.62,31.22220321946213,131.01041816190408,9.181127853184416,4.6157155640524765,-28.25998312984151,39.55483430166934,4.568601784761106,1.280448680225634,442.86563930529206,24.097566664394247,9.077183369536865,69.27216387902843,-0.3277654691904958,119.64968761178906,355.363753305843,1.274,1.0247996097896497,0,11.56430397360296,210.00008998959544,0.0708214047615191,4.093156512025762e-07,-0.0895179052062591,-0.1196788025995173,0.0066959438326411,28.60374857228146,10.905477606177437,19.8363083587884,39.83838083711399
0.63,31.222202803405665,131.01041899011133,9.37459482442456,4.553495056766095,-27.752289879279367,22.68035903422783,5.184257121160214,1.1659787433083062,286.11251274707456,24.489597672685743,9.26024455627193,69.22037606556188,-0.5077279465529969,119.45723769446452,367.0134499242562,1.274,1.024756158874558,0,11.604540338441108,210.00008998959544,0.0719737191212029,3.819083963421176e-07,-0.0930027554826381,-0.1444998127151852,0.0070696530220143,28.094052810600516,10.598465308638762,20.29874866889773,23.294521120847865
0.64,31.22220237697828,131.01041983552628,9.57244188417726,4.550786539240932,-27.55513285639335,22.27209038416844,5.7530284259026025,1.078939043950898,282.3078244179702,24.62572651145932,9.340444492919511,69.16620326382979,-0.7240833408555485,119.22578839490888,371.0979306135165,1.274,1.024708534665538,0,11.64489321879238,210.00008998959544,0.0723739565972312,3.427444514885234e-07,-0.0965894110968277,-0.1697819085810187,0.0073829674246753,27.89932854984976,10.475997392741276,20.462309182948587,23.028405407460877
0.65,31.22220195014148,131.01042067729122,9.768643244039843,4.528739592199022,-27.2627427404513,38.9093908881468,6.35102377004648,0.9812045332353518,436.7781447787504,24.83152546414365,9.44863789046359,69.109424258898,-0.9771504444064252,118.95496645518033,377.31932327622354,1.274,1.0246641738210605,0,11.685452437834352,210.00008998959544,0.0729789524462845,2.916922887225209e-07,-0.1002273250308069,-0.1952010170671755,0.0077249155388629,27.607866374622816,10.28980051913729,20.708880851094456,39.43651815957309
0.66,31.222201514029173,131.01042153414252,9.968589051711971,4.453152033488009,-26.69863715726773,33.157704751392764,7.039251422140464,0.8510856604798148,383.5125151715984,25.26103028320749,9.646783103287907,69.04982000179272,-1.2667260024002256,118.64495455919844,390.47751167369313,1.274,1.0246195561629028,0,11.724990163794814,210.00008998959544,0.0742414189904984,2.287659365603059e-07,-0.1039287244437496,-0.2208299559231929,0.008148590966042,27.040538203596466,9.93582606694718,21.21735054514162,33.90735601261348
0.67,31.22220106476276,131.01042241462096,10.174674672217476,4.409845860921513,-26.30428227838797,22.970671069157635,7.70184774235117,0.736223899384628,289.15624401033847,25.541248969417826,9.784969734456748,68.98713549734164,-1.5926796860221963,118.29585464979392,399.18073609508434,1.274,1.024572383541697,0,11.764610083888712,210.00008998959544,0.0750651479223056,1.539490481660434e-07,-0.1077356688190777,-0.246922496227466,0.0085406103756367,26.64536805632514,9.678146802563097,21.553005233726974,24.238651234006824
0.68,31.22220061194528,131.0104232982038,10.381036478536474,4.387931533763836,-26.024033345182943,28.52825413984208,8.338029223970254,0.633461844018701,340.89999248584934,25.71173859047053,9.879140135990204,68.92105805537261,-1.9552153409256336,117.90740747925628,404.5196247666769,1.274,1.0245245285832842,0,11.8047438349056,210.00008998959544,0.0755663889517302,6.712562313527121e-08,-0.1116174439042014,-0.2732821824874231,0.008907219974842,26.365908647529643,9.481343844800747,21.76300553507967,29.72852652781544
0.69,31.22220015415441,131.01042418792588,10.588546917954512,4.337733599867224,-25.601280062879223,34.98122719386844,9.034749510847854,0.5111312200330568,401.0140726853658,26.00315980329188,10.021836564599388,68.85126460482488,-2.3541954840382,117.47971567036092,413.73313472707457,1.274,1.024479631064582,0,11.84425544934596,210.00008998959544,0.0764230501493919,-3.172409510751294e-08,-0.1155509576337483,-0.2997631729273371,0.009325447495728,25.9416999757003,9.19717825692214,22.11420673194898,36.13273045089312
0.7,31.2221996861632,131.01042509559778,10.800494751675371,4.2728056213920285,-25.10600185204299,29.35926488506758,9.778494393906705,0.3758742884223628,349.270324209851,26.35792724952213,10.18987858713684,68.77741938531884,-2.7892171490475905,117.01316260578383,425.0908184044733,1.274,1.0244351749185203,0,11.88336642073671,210.00008998959544,0.0774658936761103,-1.425468351308332e-07,-0.1195576682528386,-0.3264907604724875,0.0097802478218189,25.44374347315268,8.86817805444602,22.539278723829145,30.94715929910085
0.71,31.22219920954288,131.01042601811363,11.01596140680058,4.226864519016259,-24.7114684894986,24.13895703460588,10.494489046335724,0.252230253813432,301.3312640634036,26.60906777770804,10.316452842202224,68.69914306916372,-3.260006929599802,116.50798861471924,433.2210478240539,1.274,1.0243880468141104,0,11.922668932431217,210.00008998959544,0.078204185268884,-2.653366237342059e-07,-0.1236474546009478,-0.3535186222292721,0.0102109705252473,25.047971380259813,8.590678213498663,22.846627542148347,26.32274999241432
0.72,31.22219872814368,131.0104269468034,11.232530120736415,4.1870998904480015,-24.35117394275423,29.42315737243549,11.201226584885536,0.1326556912867841,350.7922053414578,26.815931799096628,10.425366157242545,68.61601965264077,-3.7663072861484106,115.9644122073332,439.9739686890621,1.274,1.024337302174265,0,11.961914850197724,210.00008998959544,0.0788123522367606,-4.001059345714681e-07,-0.1277977873076662,-0.3807052645581604,0.010635535890679,24.68689084782413,8.326468011417496,23.10497784022552,31.4834442890463
0.73,31.222198240700543,131.01042788468783,11.451026373070992,4.126669689062817,-23.88734293871262,37.07983466216698,11.969671425773589,-0.0047692003943077,422.3203185282354,27.11969806658693,10.573006152282838,68.52762237004411,-4.307588572218768,115.38293884638226,449.9888833996943,1.274,1.024292465384646,0,12.000752504112349,210.00008998959544,0.0797053214950544,-5.467945680821176e-07,-0.1319976408963089,-0.4079795717768033,0.0111092581263737,24.220568482865552,8.002725229007462,23.47524156364349,38.96392171432302
0.74,31.22219774416964,131.01042883947306,11.67350595194554,4.049684813683966,-23.341476648528896,23.193145124266408,12.801643748695524,-0.1592169296945856,294.4828134710563,27.50595750691769,10.75349961568844,68.4335080943787,-4.883150840958064,114.76425168272168,462.8884473791919,1.274,1.0242470321640116,0,12.039334596949654,210.00008998959544,0.0808407484305052,-7.052948560951514e-07,-0.1362625468323315,-0.4354291200133268,0.0116312938980678,23.67079900937245,7.633902697015027,23.940065113395463,26.492063216263457
0.75,31.222197238602643,131.01042981168624,11.900047117237012,4.010500989489072,-22.99115443931357,26.969681167022248,13.522488912209145,-0.2801930638098292,330.24688556441737,27.668452309248792,10.844829147288417,68.33319663755209,-5.492347255476817,114.10897115650296,468.3635531108562,1.274,1.0241984712898409,0,12.077979157650702,210.00008998959544,0.0813185328562397,-8.755270058965682e-07,-0.140604702509146,-0.4631209989283766,0.0120725781275629,23.31961266735796,7.360078330749291,24.153151197050125,30.171176920774254
0.76,31.222196731573973,131.01043078236043,12.125570973414977,3.9485725602700574,-22.52711955383968,28.924012456399016,14.319720433177825,-0.4228389177397924,349.2703242098581,27.948230516657897,10.982843313229852,68.22617256512771,-6.134546248140575,113.41769495131808,477.8731023907816,1.274,1.0241522053390697,0,12.116670594619572,210.00008998959544,0.0821410196238995,-1.0574570789704e-06,-0.1449783406005848,-0.4907787176018688,0.0125737073442701,22.85279639979414,7.026511952778257,24.500144349601385,32.27741753320193
0.77,31.222196214871435,131.01043177289162,12.355733491544932,3.8828232853099625,-22.04432371155624,26.917473797013507,15.136247941170565,-0.5703101118378601,331.76876669606884,28.2393328560859,11.125474619485228,68.11194069002806,-6.808646285891657,112.69152016283172,487.8689953885586,1.274,1.0241065975906936,0,12.154606544644857,210.00008998959544,0.0829967971037738,-1.25088887777701e-06,-0.1494018905604389,-0.5185077018521105,0.0130920252199667,22.366871566823345,6.6810121019424,24.86141914413894,30.886593385693466
0.78,31.22219569204581,131.0104327747014,12.588208281603496,3.820759544425584,-21.58271384516224,21.93545937970456,15.94103704489814,-0.71425584556983,286.8734378128874,28.495807807205296,11.254277383767382,67.98997171887089,-7.513615173125446,111.93146294536012,496.75998432720496,1.274,1.0240588105546735,0,12.192741093822177,210.00008998959544,0.0837508093408591,-1.455673042553346e-06,-0.1538734449284036,-0.5462902262483719,0.0136060249204624,21.902384572074286,6.34388335189719,25.18521160853432,27.125471455412793
0.79,31.22219516365682,131.01043378656783,12.822654139346303,3.765568239532728,-21.15737870255556,31.178080103390965,16.712775309225155,-0.8496099821062713,373.6203323159581,28.694281187143165,11.360035393026909,67.85972245331753,-8.248313674299132,111.13864812038447,503.692611832905,1.274,1.0240083170932772,0,12.230680539423236,210.00008998959544,0.0843343570261816,-1.6716491221614872e-06,-0.1583823390271077,-0.574060400701012,0.0141019424089303,21.474719279250746,6.0212445702251856,25.44590280612692,35.38518580694192
0.8,31.222194630601383,131.0104348062082,13.05846521625924,3.6848547879876072,-20.603459587439804,31.432362032058613,17.599418428701764,-1.0155331095455509,377.42502064505805,29.047044876187247,11.52720910764337,67.72064783491764,-9.011430893377211,110.31437898407655,516.1417116325005,1.274,1.0239625010683884,0,12.26829178338527,210.00008998959544,0.0853713795580881,-1.898624212158356e-06,-0.162913727909419,-0.6017277537806025,0.0146834002445151,20.91626564179128,5.643006702212095,25.879961362806263,36.03837148706237
0.81,31.2221940883544,131.01043584791765,13.29920245329622,3.608179678117127,-20.071359100642503,20.06058069702685,18.47124934166949,-1.177415394521361,273.9374926939922,29.36297414738455,11.67976920783872,67.57221052105119,-9.801456721965272,109.4601675548087,527.4181749533519,1.274,1.0239149950770308,0,12.305563279754276,210.00008998959544,0.086300153081244,-2.1363161398644136e-06,-0.1674906636733816,-0.629420973567051,0.0152597565741591,20.379924366125493,5.276864882143643,26.274262175329174,27.29469283863271
0.82,31.22219354105536,131.0104368999748,13.54185289872254,3.551892209793009,-19.644651849248728,25.805542995258303,19.227809607816663,-1.3103127765317977,328.725004432774,29.520656249334333,11.769365087925946,67.4138424580605,-10.616978043305668,108.57741457763952,533.0855388570704,1.274,1.0238644186635044,0,12.343053214813557,210.00008998959544,0.0867638310455414,-2.3845240370513485e-06,-0.1721010350145112,-0.6570653052824909,0.0157636335109804,19.95068631442925,4.956241481422519,26.494985545979944,32.207943603510515
0.83,31.22219299102913,131.0104379547552,13.784539943627994,3.474544257806261,-19.111966165751863,32.851630286202564,20.089866344580084,-1.4710092423436638,395.6875032246518,29.8151226796251,11.91340937325679,67.24498550697146,-11.456407598399252,107.6677026943998,543.7608875312884,1.274,1.0238188483711983,0,12.38028630657971,210.00008998959544,0.0876295339776312,-2.643038257976714e-06,-0.1767116222671363,-0.6844683099436174,0.016347013918603,19.41361609071996,4.600869088076945,26.868385488409157,38.53564856591223
0.84,31.222192432993204,131.01043903086853,14.031766517008675,3.3857942283460467,-18.522186671178687,19.60702912176332,21.018979785758663,-1.6490102522633414,275.45937482564227,30.18516596462444,12.087628262822504,67.06512333665084,-12.317844720815,106.73294856958634,557.3289330493674,1.274,1.0237739661568126,0,12.416982552353748,210.00008998959544,0.0887173745008411,-2.911483126143057e-06,-0.1813408580907138,-0.7117312493939018,0.016983048167318,18.818415548936105,4.236510432521875,27.32611929290153,28.791532384155516
0.85,31.22219186856708,131.01044012443123,14.282482077196867,3.3230728608330846,-18.0655411848498,21.266755082138623,21.76924567395657,-1.7835331196122284,292.9609323393965,30.33735195656692,12.175160350757997,66.87372488193445,-13.199467338142174,105.7749788987338,562.9493692832341,1.274,1.0237227741398531,0,12.453809587308358,210.00008998959544,0.0891649173414771,-3.189527176078991e-06,-0.1859953206335031,-0.7388860601191573,0.017506351269688,18.358597931786555,3.932686578814205,27.54640952592656,30.485339416275153
0.86,31.22219130280956,131.01044121650287,14.532176580248183,3.2470613401948665,-17.5425905434786,26.783486468741327,22.588275567201364,-1.9365267661797447,346.2265619465616,30.578854184396928,12.298273604246344,66.67025938613436,-14.099443942773064,104.79562593090918,571.9341103242242,1.274,1.023674789281455,0,12.490572174067308,210.00008998959544,0.0898749729667389,-3.4769391338356582e-06,-0.1906319100673378,-0.7656882529591824,0.0180851595111568,17.831272643865553,3.6283973884427,27.866122268782952,35.09039008670617
0.87,31.22219073064398,131.01044232756476,14.785647295511792,3.160577219292139,-16.966855329019268,24.529387903056943,23.46943424041209,-2.1059456845122426,327.9640783669946,30.894407575908662,12.4510576407185,66.45426641574946,-15.015604041728436,103.7970872936312,583.7847616663424,1.274,1.0236288969245204,0,12.52666507271042,210.00008998959544,0.090802682455121,-3.7732763255509512e-06,-0.1952595031709598,-0.792185118735917,0.0187148786846215,17.250207471187096,3.34015361622613,28.26804153329669,34.013823979226146
0.88,31.222190153196063,131.01044345513455,15.04220537255826,3.078846247903624,-16.41625109753054,20.607893218954946,24.298203593848868,-2.2639947371676112,294.4828134710421,31.1551816583186,12.5820766474583,66.2252943174755,-15.94582049919416,102.78151173180606,593.6669697312318,1.274,1.0235805388426191,0,12.562785810005227,210.00008998959544,0.0915693964647773,-4.07810768831465e-06,-0.1998833825332625,-0.8184010301554429,0.0193192935823974,16.694661477290257,3.102326063868524,28.611659792433777,31.94078322430278
0.89,31.222189572215143,131.01044459230334,15.300227884776422,2.9998887058256924,-15.880341767665872,22.5277805377468,25.07986742180196,-2.4123992311836995,315.02813424808807,31.37414053688139,12.696485280104447,65.9829066256056,-16.887988602944297,101.7510225278846,602.0259675114212,1.274,1.0235293752791452,0,12.598831127435467,210.00008998959544,0.0922132154028407,-4.391055301842728e-06,-0.2044875033019365,-0.8442450571921873,0.019902705307189,16.154037067124705,2.9242977438967808,28.91147748231733,33.798229478815344
0.9,31.22218898758979,131.0104457401623,15.559938838466085,2.9138578188323376,-15.309500748737428,24.84136073969805,25.898187204757225,-2.571358466611384,339.3781423542166,31.64329065984964,12.831081830472437,65.72671525318702,-17.839903424744353,100.70785280754788,612.3842296045615,1.274,1.0234837388140003,0,12.63457422996317,210.00008998959544,0.0930045597438866,-4.711694587210339e-06,-0.2090582203311908,-0.8696403586240867,0.0205216161495252,15.577814746897516,2.810396834068858,29.266993762287136,35.97806537678585
0.91,31.222188398540737,131.01044690448907,15.822554599717892,2.8235049690018084,-14.717821130665836,17.807131964190937,26.73389271502104,-2.736213680190435,277.7421810230785,31.94070775040755,12.97717376113913,65.45638255412246,-18.799298203095045,99.65430565565364,623.9342611395726,1.274,1.023436404813438,0,12.670051185234968,210.00008998959544,0.0938789930640901,-5.03952003983232e-06,-0.2135957833710077,-0.8945852394377903,0.0211635699186149,14.980330042231238,2.777878286793643,29.65417865158194,32.237894375905306
0.92,31.222187805645905,131.01044808423066,16.08776421208793,2.7421112685475744,-14.171190840313372,21.4925943324772,27.448245616229467,-2.8744440213399054,315.0281342480675,32.129395777176306,13.079842639598976,65.1716043002614,-19.763947782372828,98.59264241360611,631.3116720743246,1.274,1.0233859136578225,0,12.705429749321784,210.00008998959544,0.0944338607838008,-5.374026712230826e-06,-0.2180964916714173,-0.9190565341018996,0.0217366140160823,14.428716011770058,2.8430905831972044,29.92601664544761,34.97999752688825
0.93,31.22218721058837,131.01044926955856,16.35342863777077,2.650487398739296,-13.574749827993504,25.90306240023809,28.23745293355949,-3.0324311204557355,359.16250706547066,32.40984389946561,13.21949840400084,64.87211760833979,-20.73165815491985,97.52509551045524,642.3644532787041,1.274,1.0233407575091376,0,12.740666804442924,210.00008998959544,0.0952584319395976,-5.714772940741156e-06,-0.2225365965122163,-0.9429254705088866,0.0223721620304464,13.82631392906753,2.9897774394552905,30.297420163928503,38.43849669778884
0.94,31.22218661150933,131.01045047545622,16.622666611121932,2.5531552755017177,-12.95092891679094,17.241538233613095,29.063906271128648,-3.2012193606036767,283.06875048378083,32.74119804148635,13.379961833053704,64.55773599297727,-21.700171716876355,96.45397496045234,655.5495528603946,1.274,1.0232914783978162,0,12.775482164106768,210.00008998959544,0.0962326344284128,-6.061147259476777e-06,-0.2269211655971727,-0.966216545383045,0.0230455946015424,13.19597476691775,3.2130254859727985,30.72414980443986,33.94450019948441
0.95,31.22218600930156,131.01045169915284,16.8947893858861,2.466596807783444,-12.380575940391717,23.276458473177257,29.72123785511957,-3.332899590671764,342.421873617488,32.92957321833691,13.483026093415448,64.2283061889848,-22.66734953745411,95.38146914285694,663.0972795136951,1.274,1.0232418269359267,0,12.810275157229569,210.00008998959544,0.0967866022239559,-6.412562220248609e-06,-0.2312484267159915,-0.9889164654433756,0.0236195644139134,12.620133166945802,3.5112752365498903,30.999935333208004,37.897938181062536
0.96,31.22218540557402,131.0104529268853,17.16695707233972,2.367644814284533,-11.751223889734392,22.26685062174021,30.4996255245034,-3.495133924694161,337.09533515678265,33.25317935103251,13.640999447514767,63.88371951742029,-23.631140838871,94.30967953625652,676.1764474044293,1.274,1.0231951201821403,0,12.844958975302267,210.00008998959544,0.0977380455200998,-6.768554292316463e-06,-0.2354904055399815,-1.0108783823881833,0.0242885749987012,11.984079974305155,3.854193585141238,31.42021537150829,37.92434251107565
0.97,31.222184798582568,131.01045418054835,17.44352425869907,2.270686307449309,-11.132136279809174,11.815259273858471,31.213542967757554,-3.6448938938491606,245.0218871929888,33.53754300681062,13.783536437243264,63.523957682042486,-24.5894660828852,93.24075256724927,687.7722348741021,1.274,1.0231476260761452,0,12.879189837524295,210.00008998959544,0.0985741573567719,-7.128410367245793e-06,-0.239655848278422,-1.0321445924576729,0.0249289152895277,11.358495708127354,4.2421155857322805,31.79989205964525,33.57336545248278
0.98,31.22218418995025,131.0104554458494,17.7215515891008,2.1827851920973167,-10.557081244562436,19.46623437656267,31.740809470238275,-3.754206114009415,319.593746642963,33.678421242787614,13.867976928505058,63.14903210537576,-25.54041879851001,92.17665677569002,693.5439812609987,1.274,1.0230935628253934,0,12.913514662624964,210.00008998959544,0.0989885397677622,-7.49155619607712e-06,-0.2437302606782059,-1.0526374835448955,0.0254585514217856,10.777869400335836,4.675504186602264,32.0294861693559,37.42335273830638
0.99,31.222183580115704,131.01045671489763,17.999512184031396,2.081767811554529,-9.920889357698222,21.39312251202041,32.42534349558628,-3.902567869916868,341.66094855170127,33.9882232597297,14.021619696259863,62.759023678844734,-26.482157441900416,91.11930440300536,706.3433953075374,1.274,1.0230490803133316,0,12.947568791576566,210.00008998959544,0.0998994316738279,-7.857478563006571e-06,-0.2476878521386155,-1.072227127850308,0.0261092313710975,10.134811352741336,5.119500276988162,32.43762902815201,39.04226719339415
1.0,31.222182968380768,131.0104580117612,18.28194097171463,1.9802181372358385,-9.283243857757917,17.93094283112336,33.0765855856493,-4.0460391242555565,314.2672081822764,34.29421323897707,14.174339798596524,62.354103769577705,-27.412874204417207,90.07058853751435,719.0993091111906,1.274,1.022999484445133,0,12.981175063991968,210.00008998959544,0.100799129860509,-8.225367383056499e-06,-0.2515393912602215,-1.0909633719348335,0.0267532154205932,9.490284739836484,5.583860341635908,32.842376363480824,37.841110678900584
1.01,31.222182355763188,131.0104593228019,18.56614350555275,1.8811392206964133,-8.658763237553854,18.59757293807341,33.63197557032355,-4.17033626013412,324.92031610370094,34.54510786573158,14.304928992108774,61.934469676961776,-28.33096534289875,89.03219279115359,729.6396652895756,1.274,1.0229507481225095,0,13.014881702969964,210.00008998959544,0.1015368965029204,-8.594572060950208e-06,-0.2552746446532371,-1.1087914994618244,0.0273483743586911,8.859225879802548,6.070654098194962,33.190163760699775,38.65709772438161
1.02,31.22218174241224,131.01046064662492,18.85183713084048,1.779192617695004,-8.02264768185534,13.706861378798685,34.189258890081376,-4.298060806160389,284.59063161543185,34.82841004392549,14.44946175426134,61.50038031657788,-29.234938913162527,88.00569536209741,741.6358420770482,1.274,1.0229039803623294,0,13.048366216665192,210.00008998959544,0.1023699239780932,-8.96447778357876e-06,-0.2588780215037884,-1.1256343522134955,0.0279610963342032,8.216306101640587,6.566218701563523,33.57232936492556,37.0844549508829
1.03,31.22218112865921,131.0104619900957,19.140208059646145,1.6801820499708324,-7.400780789896322,9.141339332617806,34.625828485188975,-4.401121972794105,247.3046933904342,35.041370390215114,14.565405290876056,61.052164747502616,-30.12340259726713,86.99258381516061,750.7123292422261,1.274,1.022853416101322,0,13.081600138850556,210.00008998959544,0.1029962059909488,-9.33437023313008e-06,-0.2623431574054996,-1.1414578615020436,0.0285078300435768,7.588072849909451,7.0832472747888,33.882088396434774,36.081601373819325
1.04,31.22218051463167,131.01046334339085,19.429440987884288,1.5820762366561956,-6.78390492223312,19.316797196317783,34.9749935297104,-4.4872312855249055,345.4656368807608,35.216184307189906,14.665878384749725,60.59020474516638,-30.995102586366528,85.99421152276481,758.2002375105628,1.274,1.0228049544826707,0,13.114723615654963,210.00008998959544,0.103510369896084,-9.703634108319411e-06,-0.2656541765434843,-1.1561852080264496,0.0290108343721859,6.965100386387311,7.616019952506949,34.15305905868242,40.20602033199442
1.05,31.222179900515943,131.0104647083256,19.719831050110663,1.474627535878304,-6.128924345516518,7.364076173045498,35.49631338795396,-4.6161501071517055,240.4562587980608,35.57052935751392,14.842239237402952,60.11495051305484,-31.84889125462719,85.0118349232692,773.5134395791341,1.274,1.022755494436122,0,13.147533024807196,210.00008998959544,0.1045522332478699,-1.0071614060015673e-05,-0.2687993465191593,-1.169760950359379,0.0296488393899567,6.303168984934764,8.122608990554609,34.60963513710538,36.54485906156997
1.06,31.222179287798248,131.01046610407403,20.014572157397016,1.376594984327828,-5.514526187726858,14.22820884013674,35.705385334744406,-4.676501296877968,308.1796836557233,35.701856908353435,14.925481352155265,59.626911354100976,-32.68374516595098,84.04659327125428,779.2135981020978,1.274,1.0227013895379469,0,13.180069038719092,210.00008998959544,0.1049385924990213,-1.043741262128646e-05,-0.2717845949050574,-1.182203953116756,0.0300879437148588,5.683234778818617,8.677834537882775,34.8369738999949,38.71932505972731
1.07,31.222178674513305,131.01046749544375,20.30765231958025,1.2708169193999377,-4.8711925421913325,18.106488492108145,36.07003603686945,-4.775984462595999,348.5093681440431,36.00051005230402,15.08011266211816,59.12662206257862,-33.498813487210384,83.09945210738604,792.2823761121774,1.274,1.0226540159946436,0,13.212687609260614,210.00008998959544,0.1058167746730166,-1.0800596352672703e-05,-0.2745837531055537,-1.1933994663223857,0.0306512458673623,5.033845383300509,9.201758306161514,35.23626636816439,40.64114236586939
1.08,31.222178063615697,131.0104689188555,20.60510931451665,1.163742747790536,-4.225276379783585,8.057429038875872,36.42396313060459,-4.876494616078936,261.0015785751465,36.32834048705304,15.24841806532674,58.6146975468499,-34.29331968409983,82.17131659265898,806.7545037736807,1.274,1.0226061614050743,0,13.244732684042622,210.00008998959544,0.1067807294102201,-1.1160274844532768e-05,-0.2772005771492562,-1.2033568482691583,0.0312242433377332,4.382328339539257,9.720702755419705,35.66523703533334,37.62190123580691
1.09,31.22217745464487,131.0104703611377,20.90463811136513,1.0620075964249502,-3.601866156318332,5.979283922753649,36.52776967504435,-4.922649940574414,246.54375332456465,36.49215152671533,15.347231985860178,58.09177772952627,-35.066642232403915,81.26293718921313,814.0230913424875,1.274,1.0225512795791307,0,13.276853516026298,210.00008998959544,0.107262585516671,-1.1515730552053016e-05,-0.2796273767565628,-1.2120353016501848,0.0316387194214129,3.7549718738900255,10.279688359927446,35.92674429453756,37.339821586336306
1.1,31.22217684599067,131.0104718070352,21.20378952407492,0.9588850022512694,-2.975505572427741,23.6555494453182,36.609637087331,-4.96710413980525,413.1890617384087,36.68017230674161,15.457089009387929,57.558546199735616,-35.81827189372939,80.37495820556178,822.4093539099166,1.274,1.0224981043155532,0,13.308798245780125,210.00008998959544,0.1078156051519552,-1.1866494755571948e-05,-0.2818458772591893,-1.2193623064494878,0.0320531203409705,3.1260625567899494,10.834081672650042,36.21299104619801,43.869381928192766
1.11,31.2221762395781,131.01047327169783,21.5049335590481,0.8477417755510483,-2.327111880050676,13.45481752208539,36.98544074785145,-5.083537806581116,324.1593910379213,37.14831766790585,15.690297880676043,57.01574383078572,-36.54778791886003,79.50794509173372,843.5115750979265,1.274,1.0224548851875197,0,13.340323850041017,210.00008998959544,0.1091920159639822,-1.2211874387843516e-05,-0.2838504170317502,-1.225311515187386,0.0326921427015314,2.476634932898622,11.311925989963406,36.78287628239763,39.683715784895774
1.12,31.22217563959224,131.01047477984895,21.811722384853788,0.742980803459037,-1.702323859260236,-3.534085074444899,37.01696211873019,-5.123687203388577,172.7328179403806,37.38053333995074,15.821808329459268,56.464145605221,-37.254879154389904,78.66235853363948,854.0650201891015,1.274,1.0223979224661404,0,13.371689256647787,210.00008998959544,0.109874960153778,-1.2550849069573803e-05,-0.2856449575272976,-1.2298752695714217,0.033103503275049,1.857354180600381,11.8520165437042,37.11317227311014,37.53661429019788
1.13,31.222175039751537,131.0104762864194,22.11722859865035,0.6422358614894849,-1.0903458120159844,17.271776594990882,36.747857951783566,-5.096958941324524,367.5328077894322,37.41398765853209,15.865875416290312,55.90454719830669,-37.93934222737989,77.83855486054614,855.5693169048494,1.274,1.0223460397860296,0,13.403272111916143,210.00008998959544,0.1099736736721904,-1.2883100560607267e-05,-0.2872103440032447,-1.23298805577346,0.0333137278177073,1.265413410279738,12.449157062109697,37.24272687621455,40.92307810076468
1.14,31.222174439976303,131.01047779380684,22.421908090341205,0.5334972523303618,-0.4654074754496694,2.8776912756975244,36.91959170691765,-5.177223939611004,239.6953177322812,37.84873914212229,16.08982695874087,55.33779353565031,-38.601045091049336,77.03682833358307,875.5426913957674,1.274,1.0223022138470996,0,13.434359531583892,210.00008998959544,0.1112519530443926,-1.320829897903498e-05,-0.2885341767747586,-1.2346200904832592,0.0338551799641534,0.7079669318018497,12.920849639592207,37.77563391076932,37.39172377150604
1.15,31.222173850413395,131.01047935595568,22.73351694528655,0.4306278854609013,0.145192520243655,2.2195279012190814,36.64572077865365,-5.156496789023976,237.4125115347709,37.96796455587912,16.173658721958,54.76476143965609,-39.23994063021328,76.25739352771949,881.0410149422347,1.274,1.0222426194541194,0,13.465012972673865,210.00008998959544,0.1116027946747333,-1.3525286152264478e-05,-0.2896210059591622,-1.2347475353180437,0.0340887300467337,0.4544456477172464,13.487276646629615,37.990771319217465,37.07323312885662
1.16,31.222173258509915,131.0104809029208,23.04188005681512,0.3267548826741623,0.7518307543631834,29.41801008367265,36.39800964196631,-5.145342061571024,490.043774385954,38.15356138628272,16.288182378253914,54.18634774319074,-39.85605283246305,75.50040034379192,889.649210558975,1.274,1.02219674531104,0,13.496011812012634,210.00008998959544,0.1121487270740904,-1.3833949155595125e-05,-0.2904574957325334,-1.2333506165764252,0.034353283787659,0.8197634466643565,14.02727416369586,38.271655295950346,47.08193887373703
