Time,Latitude,Longitude,Altitude,Angle of Attack,Angle of Sideslip,X-Acceleration,Y-Acceleration,Z-Acceleration,Thrust,True Velocity,Ground Velocity,Pitch,Roll,Yaw,Dynamic Pressure,cp,parachute_deploy_gain,Wind Speed,Mach,omega_x,omega_y,omega_z,Cmq,Angle of Attack(total),Angle of Attack(gust),True Velocity(gust),Acceleration
0.0,31.222186000000004,131.010384,3.000000003643237,0.0,0.0,0.0,0.0,0.0,2.2828121974499247,0.0,0.0,69.99999999623421,0.0,113.69999999388332,0.0,15.288,0,0.0,0.0,0.0,0.0,0.0,-0.0,0.0,90.0,0.0,0.0
0.01,31.22218600000153,131.01038399999584,2.99999882256592,0.0,0.0,0.0,0.0,0.0,34.24218696174923,7.502283530665459e-11,7.190531319924593e-11,69.99999999623329,-4.83564628150269e-13,113.69999999388072,3.446445726795683e-21,15.288,0,0.0,2.204725565824978e-13,-3.659182332138578e-19,7.589415207398531e-19,4.811147140404426e-19,-1.5108918610345807e-31,0.0,89.9999999995224,7.502283530665459e-11,0.0
0.02,31.22218600000288,131.01038399999217,2.999997775701936,0.0,0.0,0.0,0.0,0.0,25.871876237766408,1.5320717031631675e-10,1.4674636035870463e-10,69.99999999623222,-9.67129256300373e-13,113.69999999387804,1.4372842949972735e-20,15.288,0,0.0,4.5023593667086093e-13,-7.284483346386986e-19,1.5178830414797062e-18,9.757819552369542e-19,-6.170906918166791e-31,0.0,89.99999999902465,1.5320717031631675e-10,0.0
0.03,31.22218599928065,131.01038400193067,3.000201659671132,18.81500467334555,-0.00012974450181,11.96616230539064,-1.8916256735984712e-05,3.349833086198469,180.34219359854663,0.0882870268161719,0.0553390044312322,69.99999999799445,-4.212591857125379e-12,113.69999999488518,0.0047728553458352,15.288,0,0.0,0.0002594525584132,3.2187251995663407e-17,-7.20264389268894e-10,1.2365134327422308e-11,1.6874092354518158e-13,18.815004673776716,89.46786891739345,0.0882666465974854,12.426199017587786
0.04,31.22218599548236,131.0103840121632,3.001799604587872,9.46752327608497,-4.6177622759613696e-05,55.21900012092241,3.931876292165237e-06,3.349616504302861,548.6359724538078,0.3767519978512604,0.1853356633749705,70.00000000507204,-2.4624598767003407e-11,113.70000000019972,0.086915163246288,15.288,0,0.0,0.0011071759353184,1.6174128009138757e-15,-1.3693172015529268e-08,2.7753303060112748e-11,1.3689612277852356e-11,9.467523276196548,87.63554493451223,0.3767447442872393,55.32050167054111
0.05,31.222185984749512,131.01038404118162,3.00777936418888,5.376730308971262,-2.257790939128127e-06,80.28807156553681,5.266841443842784e-05,3.348887800834877,761.6984298824644,1.018787885905993,0.4366201147110198,70.00000000894464,-1.1355399380652658e-10,113.70000001523856,0.635552918586145,15.288,0,0.0,0.0029939522895272,1.6418815498809788e-14,-9.32122351075408e-08,4.303264669380585e-11,2.5199270302492604e-10,5.3767303089717045,83.57022052969386,1.0187875312530217,80.35788377762394
0.06,31.22218596447235,131.01038409608267,3.0201664202003013,4.296730121134882,2.4863835723705905e-05,60.21296515808257,0.0001057204249726,3.347700952379021,590.4875390737208,1.721098934225416,0.7081674028809783,69.99999995523842,-3.0560354507026086e-10,113.70000004366592,1.8138247671743823,15.288,0,0.0,0.0050578622752421,8.328976953118383e-14,-3.2824985336199985e-07,5.923438275930214e-11,1.4991363363716091e-09,4.296730121206683,79.20467073327266,1.7211028398275985,60.305955550063224
0.07,31.22218593493329,131.01038417609837,3.038741944736831,3.8204913578752526,4.8016684030909405e-05,91.4060317508128,0.0001597686613101,3.346072557365335,855.2937749779139,2.4375792548422868,0.9844712334613328,69.99999973536046,-5.939103491363046e-10,113.7000000850886,3.6383156301599167,15.288,0,0.0,0.007163413150771,2.709313825263564e-13,-7.906546256197275e-07,7.920022733617308e-11,5.114174483651565e-09,3.820491358176508,74.87999294483174,2.437586797285377,91.46725557277466
0.08,31.222185894468456,131.01038428575305,3.0647976109320942,3.588632851766762,7.220043782492885e-05,19.18449428359557,0.0002119618497595,3.3440615022685813,241.2171988638848,3.1292508166901074,1.2522236515868983,69.99999919480445,-9.914748373602156e-10,113.7000001418522,5.996012698481753,15.288,0,0.0,0.0091960591623389,6.80386533246681e-13,-1.5973238302190878e-06,1.0839624626357699e-10,1.3263625118823921e-08,3.58863285249208,70.86684630658345,3.1292621579083604,19.473766155861934
0.09,31.22218584634549,131.01038441616095,3.0957981580345013,3.551302481506045,9.685468678862004e-05,57.102946699906326,0.0002554087225869,3.341892818148368,563.0937377043176,3.701810007254615,1.479132491047967,69.99999812344194,-1.4359264356978275e-09,113.7000002093888,8.390904013834115,15.288,0,0.0,0.010878666406854,1.440096519545733e-12,-2.748643691533636e-06,1.5214952332699618e-10,2.6999776649034504e-08,3.5513024828250237,67.68737872952666,3.701825221153239,57.20065357568538
0.1,31.222185790329306,131.01038456796124,3.1319266121977414,3.608446747536112,0.0001234669721807,54.26147302645416,0.0002914860332524,3.3396271157106168,538.7437595981919,4.174070299823608,1.6716491241860567,69.9999963052332,-1.902380107712657e-09,113.70000028805804,10.668380938744466,15.288,0,0.0,0.0122665227999911,2.687800116751415e-12,-4.315796035622946e-06,2.1749089204950437e-10,4.7802076800548326e-08,3.608446749645647,65.17160335282355,4.174089693970246,54.36414778470795
0.11,31.222185727066616,131.0103847393952,3.172681775073216,3.633547373470009,0.0001485939126744,42.987553988990406,0.0003293995000288,3.337005588796181,442.8656393052949,4.672024955140527,1.8729475711242067,69.99999349387662,-2.3433348587116544e-09,113.70000037699285,13.365573690709628,15.288,0,0.0,0.0137298902182575,4.5789425819531184e-12,-6.340230783164189e-06,3.1157625832417107e-10,7.860218435507205e-08,3.6335473765043056,62.62546922225161,4.672048296217748,43.116880735560244
0.12,31.22218565692512,131.0103849294629,3.2177790417108385,3.650108937861461,0.0001727442530266,46.86777100765684,0.000367618259785,3.334068179146888,475.58594813540446,5.17479364099247,2.0758708919414386,69.99998941286465,-2.702771525550512e-09,113.70000047573096,16.396890189902592,15.288,0,0.0,0.0152074069417046,7.288473386564583e-12,-8.86736416607888e-06,4.42271554299792e-10,1.217615295152289e-07,3.6501089419435786,60.16906436414164,5.174820775596283,46.986210423745625
0.13,31.222185580265183,131.0103851371844,3.2669395832841857,3.7280113734654137,0.0001995014041665,51.64515456841877,0.0003986198234033,3.3311573548369657,515.9156326236895,5.579364582999854,2.2451120211463422,69.99998375846928,-2.9114380666036422e-09,113.70000058383452,19.060875702782603,15.288,0,0.0,0.0163963474924215,1.100846422415094e-11,-1.1941028436408576e-05,6.179653149059831e-10,1.7678562106638216e-07,3.728011378795934,58.279338776943774,5.579395920607139,51.75247433579817
0.14,31.22218549718016,131.01038536230575,3.320091807147376,3.768719651034081,0.0002242721760019,48.1660778383537,0.0004326225136175,3.32784677779744,486.2390860568404,6.025734265159953,2.428648685938864,69.99997621008868,-2.890941335368725e-09,113.70000070125378,22.232643351545065,15.288,0,0.0,0.0177081261985351,1.5941871344608664e-11,-1.560901486259027e-05,8.477542742712431e-10,2.495765160917323e-07,3.7687196576976176,56.27980129251342,6.025769493750979,48.280903250602165
0.15,31.22218540777004,131.01038560455507,3.377159065217065,3.821894709649632,0.000249725644238,46.56959330999435,0.0004643042952466,3.324387732286376,472.54218587214,6.441023336496372,2.6014999612196745,69.99996641132823,-2.546763407193136e-09,113.70000082794672,25.402620271850456,15.288,0,0.0,0.0189285691155931,2.2314099732464315e-11,-1.992367942778425e-05,1.1417519574710292e-09,3.4051816697623295e-07,3.821894717796148,54.501255563441134,6.441062563308839,46.68809885900716
0.16,31.22218531193176,131.01038586421257,3.4382223512025254,3.8463320955387794,0.0002733212404609,36.974247749122085,0.0004987816203583,3.3205066466509234,391.1218908297564,6.895451966878468,2.7877331692857847,69.99995397923414,-1.77088415515292e-09,113.70000096417354,29.113317717489338,15.288,0,0.0,0.0202640360420561,3.0367358387834494e-11,-2.4945905791363795e-05,1.5114297685186711e-09,4.5643121540033697e-07,3.846332105235269,52.641145594326446,6.895494900078523,37.12304892183151
0.17,31.222185210004127,131.010386140357,3.503019838429153,3.8860314262554336,0.000297865039677,46.520531453299206,0.0005306403365217,3.31650761597812,471.78125980632376,7.314788342774694,2.9619016331667103,69.99993849340957,-4.3039914767238207e-10,113.70000110959404,32.761746921137856,15.288,0,0.0,0.0214963781445172,4.0366633128431416e-11,-3.0713078585132897e-05,1.96747427715988e-09,5.961228045584824e-07,3.886031437653654,51.00464968745696,7.314835131305714,46.63860064094784
0.18,31.22218510147516,131.01038643438045,3.571950002194137,3.9107265153396016,0.0003214293682635,38.895647526122765,0.0005639254295027,3.312149448254175,407.10156721191447,7.754626295791602,3.1430587898572058,69.9999195084231,1.6149322372810674e-09,113.70000126508234,36.81988229018681,15.288,0,0.0,0.0227889722876034,5.2593391349219385e-11,-3.731786027786564e-05,2.525509173087448e-09,7.6786585232224e-07,3.9107265285284982,49.36615848311875,7.754676785798701,39.036415444581515
0.19,31.222184986476247,131.0103867459258,3.644912152926752,3.920599115663931,0.0003437679584038,43.86258669386953,0.0005989384366483,3.307389681300437,448.9531328318269,8.219206165926856,3.332657190859447,69.99989653019398,4.538529095696477e-09,113.70000143063515,41.36350714675367,15.288,0,0.0,0.02415428010977,6.735860419174937e-11,-4.481243905342629e-05,3.199401151670645e-09,9.773118416308382e-07,3.92059913071168,47.71893898797248,8.21926016487149,43.987104227715655
0.2,31.222184864792144,131.01038707557822,3.722074668489528,3.943376465171875,0.000367328732016,40.28070981710589,0.0006315894240138,3.30251450988504,418.51563019916136,8.65238089736321,3.511445117640573,69.99986902534273,8.534090245934178e-09,113.7000016067622,45.83799876721736,15.288,0,0.0,0.025427299120469,8.499785987217288e-11,-5.328041996372527e-05,4.006766070954748e-09,1.2232205148646746e-06,3.9433764822533854,46.2587826635041,8.652438597225508,40.41586552155969
0.21,31.22218473678744,131.01038742234647,3.803156063113743,3.9664546506877016,0.000390962054969,38.67679184347145,0.0006636984664108,3.297405915846789,404.8187610144644,9.079179692250786,3.688002035198235,69.99983642883521,1.3827831253856693e-08,113.70000179318536,50.47126980736161,15.288,0,0.0,0.0266815841422463,1.0586558589671407e-10,-6.275155280099118e-05,4.961340042512481e-09,1.5117124669161171e-06,3.9664546699249135,44.88773728276958,9.079241104426773,38.817098210937615
0.22,31.2221846022986,131.01038778667507,3.8882846911135607,3.956175711337521,0.0004112685792646,46.713636108302936,0.0007011135033803,3.291572407481395,472.5421858721365,9.580256326712124,3.889976788904857,69.99979815126248,2.0662823443484168e-08,113.70000199039316,56.195522894218605,15.288,0,0.0,0.0281541581291438,1.3033127211465288e-10,-7.330053770532661e-05,6.0817207473359025e-09,1.8632831045819008e-06,3.956175732680424,43.35679625546934,9.580320928629488,46.8294591882524
0.23,31.222184460898035,131.01038816972698,3.977794004014759,3.9879066397329104,0.0004360962274406,38.89105719050748,0.0007308686121188,3.286096544282012,406.3406421461021,9.977039034039262,4.056142701351626,69.99975353557706,2.9316661139418326e-08,113.70000219928508,60.9462612310605,15.288,0,0.0,0.0293202403623685,1.5880617816859538e-10,-8.505067486192354e-05,7.393319440773217e-09,2.2514912291167663e-06,3.987906663538912,42.20670487756048,9.97710753587448,39.0296395118868
0.24,31.222184313516166,131.01038856897196,4.070963590490852,4.003523997322975,0.000459165577055,40.0792299321398,0.0007630441688766,3.280134925833028,416.2328240017114,10.408422364424831,4.234121060914368,69.99970190737699,4.010976417051318e-08,113.70000241888,66.32994780718496,15.288,0,0.0,0.030588009649109,1.91711512587616e-10,-9.795845222523724e-05,8.904557280909524e-09,2.7052895870113487e-06,4.003524023611085,41.011349410369874,10.408494489985014,40.21323112692186
0.25,31.22218416001652,131.01038898478134,4.167901030441617,4.0261356185860135,0.0004830526730531,41.17760020658354,0.0007934613160587,3.2740610008587527,425.36408079150686,10.816813039390448,4.4041629376391525,69.99964258149416,5.3372865854010094e-08,113.70000264972064,71.63651430352668,15.288,0,0.0,0.0317882126436337,2.2947426169209347e-10,-0.0001121037688082,1.0637152702866709e-08,3.217380562698304e-06,4.026135647516394,39.93186687113378,10.816888917126896,41.30755663120434
0.26,31.222184000702686,131.0103894163294,4.26837241014618,4.053359329950934,0.000507503069958,44.80261175215926,0.0008224724146494,3.2678597736729302,455.8015834241788,11.207047269494833,4.567925492611352,69.99957484039399,6.947299261165984e-08,113.70000289176392,76.89781807056055,15.288,0,0.0,0.0329350617559806,2.7254099134167665e-10,-0.0001275114371842,1.260720913253598e-08,3.7915697709142366e-06,4.053359361668992,38.945390435244384,11.207126987890645,44.921630958721536
0.27,31.22218383516388,131.01038986473338,4.372698316214008,4.0614460923241,0.0005296455772492,41.029837477288126,0.0008548809954683,3.2610328932384265,423.84219965987256,11.645685385842508,4.748226940060522,69.99949794024376,8.879821051920497e-08,113.70000314600205,83.0342688744587,15.288,0,0.0,0.0342241635563461,3.2137296827284217e-10,-0.0001442952656441,1.4842505534226832e-08,4.458527942364847e-06,4.061446126801262,37.8838346421185,11.645768582375233,41.15922617924542
0.28,31.222183663504484,131.01039032970942,4.48079961904222,4.081133040992532,0.0005533279247169,47.27661484082626,0.0008845140695959,3.254218495915602,476.3468732012221,12.047344998676092,4.915789434712848,69.99941106884992,1.1178948978424788e-07,113.70000341275257,88.85982357848233,15.288,0,0.0,0.0354045979054623,3.764736350660473e-10,-0.0001625146963723,1.7365685655384934e-08,5.194620655212288e-06,4.081133078439725,36.956255322213885,12.047431915223257,47.38848224631549
0.29,31.22218348566054,131.0103908114315,4.592727908358551,4.1001100265020245,0.0005770279952742,37.989969791857405,0.0009138463939581,3.247164755122801,397.97031042211177,12.446314684600782,5.082367374004485,69.99931338876085,1.3891902435864665e-07,113.70000369260468,94.8417675268915,15.288,0,0.0,0.0365771315767517,4.3836067907166327e-10,-0.0001822432988888,2.0202163500922312e-08,6.018074062137429e-06,4.100110067036654,36.07377590258778,12.446405323946324,38.12849176886316
0.3,31.222183301933686,131.01039130907952,4.708251093558373,4.112858061667493,0.0005998635114143,35.655053282557844,0.000944131403186,3.2397207148238625,378.1859457108711,12.860033399289696,5.253940723820665,69.99920403105713,1.707002607527005e-07,113.7000039856728,101.2505662360602,15.288,0,0.0,0.03779301412572,5.075709863465428e-10,-0.0002035013069687,2.3370674033523645e-08,6.94335970778e-06,4.112858105337573,35.19685285507256,12.860127625629724,35.80193592228613
0.31,31.222183112488807,131.0103918222051,4.827243246502713,4.136140889545823,0.0006242383343011,37.56633644061071,0.0009716215464757,3.232339252743767,394.1656220930212,13.2364445751808,5.4126574282679245,69.99908210036875,2.0768081583188525e-07,113.7000042923011,107.26326115439352,15.288,0,0.0,0.0388992619788015,5.846561731689753e-10,-0.0002263323252403,2.6893437641668458e-08,7.948283231812338e-06,4.1361409365698805,34.43286455705216,13.236542630309057,37.70514091683033
0.32,31.22218291741533,131.01039235056504,4.949637017503345,4.1622282001352975,0.0006491019906456,40.83513712643371,0.0009979686925508,3.224840963348891,421.55939346242695,13.59846554462374,5.566374262777002,69.99894668612772,2.504388718903276e-07,113.70000461297312,113.2095365840355,15.288,0,0.0,0.0399632243410653,6.701756367872645e-10,-0.00025078340164,3.0793566854276295e-08,9.047716714467492e-06,4.16222825066026,33.72644865222576,13.598567505326,40.96227562489027
0.33,31.222182716732533,131.01039289410716,5.075419569102976,4.187801887681037,0.0006739743721461,40.48743503284469,0.0010239291638211,3.217136801802925,418.5156301991682,13.956637761217308,5.718704299733134,69.99879684673242,2.995902922462564e-07,113.70000494831164,119.25032483364384,15.288,0,0.0,0.0410158804634189,7.647061680070125e-10,-0.0002769136723495,3.509664608790402e-08,1.0253455741189656e-05,4.187801941818244,33.053267359159875,13.956743628864118,40.61505097607
0.34,31.222182510255863,131.01039345333336,5.204736257784645,4.19642921746386,0.0006961879027693,31.814592723444047,0.0010535137542081,3.208669900766693,345.46563688075645,14.367047160772364,5.88887983533068,69.99863160305904,3.557915789971256e-07,113.70000529927128,126.36523219087664,15.288,0,0.0,0.042222056531773,8.688448410811866e-10,-0.0003048202762282,3.9835373705550826e-08,1.1618525957862828e-05,4.196429275109305,32.30947868183619,14.367156517712404,31.97598901989736
0.35,31.222182298183583,131.0103940277045,5.337435501771672,4.210915783240843,0.0007193441544952,34.813487415034444,0.0010813034848195,3.200164272309822,370.5765700527033,14.754132934586384,6.050986755458457,69.99844991734221,4.1975736284587617e-07,113.70000566632532,133.26448209504355,15.288,0,0.0,0.0433596939127697,9.832256819293898e-10,-0.0003345386312107,4.503361101379695e-08,1.309465610343774e-05,4.210915844572415,31.63649055965014,14.75424592890194,34.96026256388454
0.36,31.222182080444604,131.0103946174141,5.4735747500461605,4.22903876037745,0.0007431682866607,39.2632255716727,0.0011077666085529,3.1915717453569297,407.8625232777193,15.124417129017054,6.2072589919251575,69.99825073022951,4.922382611919288e-07,113.70000605036684,140.03566173682628,15.288,0,0.0,0.0444479595865755,1.1084921261805627e-09,-0.0003661511460057,5.0723697896912267e-08,1.4691545926915382e-05,4.229038825557203,31.017264542603208,15.124533865618538,39.39272792946638
0.37,31.22218185710795,131.01039522227452,5.613102797925907,4.249164960780052,0.0007674149135003,37.28328237034959,0.001133274451316,3.1828514669894137,391.1218908297666,15.483077353331511,6.359470679857624,69.99803294268581,5.740349991123437e-07,113.70000645214331,146.75405277514704,15.288,0,0.0,0.0455020695186381,1.245311285088233e-09,-0.0003997125883071,5.6934243389647934e-08,1.641828325195534e-05,4.2491650299519,30.439178816713017,15.483197898584232,37.418894813348615
0.38,31.2221816281124,131.0103958424523,5.756069531572451,4.260095806433531,0.0007900626414612,38.9278000801764,0.0011607546399008,3.1735466295306622,404.8187610144602,15.87126705947922,6.521735074464384,69.99779542676283,6.659911329739736e-07,113.70000687263192,154.20298254405043,15.288,0,0.0,0.0466429667223463,1.3943646956867835e-09,-0.0004353006984059,6.369875435270817e-08,1.8328108041903096e-05,4.260095879559656,29.83470194713067,15.87139116222873,39.05694584372078
0.39,31.22218139339905,131.0103964781077,5.9025231349944285,4.274091258047817,0.0008133283308351,33.320076729592266,0.0011870382950339,3.164143363712209,357.64062493382744,16.24457853509073,6.678818328235205,69.9975369905506,7.690136753559805e-07,113.70000731287368,161.54010621938565,15.288,0,0.0,0.0477401448128051,1.5563705124515804e-09,-0.0004730068442167,7.105463478762673e-08,2.0383860516746246e-05,4.274091335289374,29.274934656826048,16.244706292406182,33.46997636540994
0.4,31.22218115316572,131.01039712870306,6.0523126585892895,4.286421841403391,0.0008363022448449,31.88018820767003,0.0012133780841982,3.1544430614236454,345.465636880754,16.62063299903514,6.836764518435374,69.99725641601981,8.840594270905819e-07,113.70000777359816,169.10340080049767,15.288,0,0.0,0.0488453895716005,1.7320643186450851e-09,-0.0005128553637434,7.9027539265021e-08,2.2612406375611563e-05,4.286421922834417,28.730746964325096,16.620764365084565,32.03586915718869
0.41,31.22218090752676,131.01039779392735,6.205351877049411,4.30025870409831,0.0008595777771371,35.882550741685804,0.0012389121673015,3.1445895889870297,378.94687077668647,16.987310563534386,6.99141560549392,69.9969524610574,1.0121301778427253e-06,113.70000825570062,176.64448930727934,15.288,0,0.0,0.0499230826371405,1.922193031274436e-09,-0.0005548883906878,8.764667734700782e-08,2.5005077415911235e-05,4.300258789847355,28.21875643368965,16.987445585695873,36.020076248499606
0.42,31.222180656535848,131.0103984736348,6.36160173428776,4.322008670726048,0.0008844838439129,40.34064925656127,0.001261804338223,3.134918999355981,416.2328240017114,17.318628721060172,7.133856886815013,69.99662385300175,1.154276942054023e-06,113.70000876021427,183.59942989625057,15.288,0,0.0,0.0508968652507098,2.1275184665783874e-09,-0.0005991661829955,9.694534598491077e-08,2.752657757470936e-05,4.322008761057615,27.772396468009568,17.318767655457478,40.462275036947325
0.43,31.222180400205527,131.0103991677914,6.521055075967404,4.339436441324956,0.0009085827200945,35.541853595187746,0.0012854696362701,3.124839917627212,375.9031395134336,17.662848429084132,7.280642039343927,69.99626930133451,1.3115939750280808e-06,113.70000928827632,190.96736675963504,15.288,0,0.0,0.0519085689713619,2.3488101247838237e-09,-0.0006457514522491,1.0695800287133593e-07,3.0255957891170616e-05,4.339436536261635,27.322335771349252,17.662991148924057,35.67895714766603
0.44,31.22218013836212,131.0103998768696,6.683849332059896,4.342209064313268,0.0009296474314902,32.82948243168077,0.0013129688908547,3.113754688841357,353.0750125389216,18.063580761318697,7.446730341918701,69.99588746395321,1.4852372182848018e-06,113.7000098413532,199.7278270846888,15.288,0,0.0,0.0530863610987301,2.586862292117705e-09,-0.0006947575786514,1.1773083546077225e-07,3.329010177793299e-05,4.342209163639375,26.81344244367223,18.06372678999575,32.9768158972058
0.45,31.22217987077456,131.0104006014978,6.850166573233225,4.3420317510315165,0.0009500780330031,38.11022602597878,0.001341042003417,3.1022288449712887,397.2093853562869,18.47486275310604,7.616350301328129,69.99547690348253,1.6764536248320808e-06,113.70001042108892,208.92306716049887,15.288,0,0.0,0.0542951637545535,2.842521175226318e-09,-0.0007463379956615,1.2932090054593452e-07,3.657529369088674e-05,4.342031854775571,26.30944884471334,18.47501199101448,38.23628058998621
0.46,31.22217959739673,131.01040134180155,7.020045503401754,4.351169003849846,0.0009725797783515,44.3937050866137,0.0013660055515545,3.09098240974522,449.7140588976434,18.844323061800488,7.771531995684422,69.99503610583268,1.8865779683531e-06,113.70001102895836,217.3591612614144,15.288,0,0.0,0.0553810645782081,3.1166808800591503e-09,-0.000800596194505,1.417768495237597e-07,4.001824400409673e-05,4.351169112337076,25.873596578896564,18.844475834274814,44.50118229261506
0.47,31.22217931813738,131.01040209802923,7.193559875579052,4.358630093683735,0.0009947969928181,30.22514089990685,0.0013910994973101,3.079396422776949,331.0078106302534,19.2180591098146,7.9280875671397615,69.99456352718363,2.1170044481277104e-06,113.70001166656292,226.0625808853568,15.288,0,0.0,0.0564795377574197,3.4102493884459798e-09,-0.0008576351980594,1.551487523304888e-07,4.3718862242359527e-05,4.35863020698899,25.44665981168229,19.218215372160817,30.381603425148434
0.48,31.22217903348153,131.01040286886197,7.370336324605091,4.365514409145237,0.001016880998596,29.779838936311712,0.001416009414045,3.067527859335786,327.2031223011574,19.5915905767454,8.084483592791102,69.99405758812365,2.369198154608765e-06,113.70001233476164,234.93171707892955,15.288,0,0.0,0.057577416115756,3.7241711041759195e-09,-0.0009173883913609,1.6944871263079066e-07,4.767297940601472e-05,4.365514527349481,25.03354780044292,19.59175030803913,29.937410312943754
0.49,31.22217874361868,131.01040365378466,7.5502307795521535,4.3786401372577615,0.0010404145545081,37.2489281064929,0.0014385799934191,3.0558405437943126,389.60000969812296,19.93403005898306,8.23012235628909,69.99351671352461,2.644660619562788e-06,113.700013034871,243.21198709852868,15.288,0,0.0,0.0585839249886784,4.059374595909599e-09,-0.0009798792959512,1.8470833984680338e-07,5.180951737438081e-05,4.378640260624215,24.667474291142685,19.934193486919103,37.37406598941686
0.5,31.22217844858332,131.0104044527036,7.733219389747018,8.792382723097836,4.810950326070159,38.34570609754759,-0.335620823369704,2.7208955536413786,397.97031042210494,21.118248560534248,8.366361539570502,69.99293932307316,2.9449363413826395e-06,113.70001376847225,272.9624590874298,15.288,0,2.5051569778986185,0.0620643412188886,4.416751211901175e-09,-0.0010494275467989,1.0298120881856823e-05,5.878203036308751e-05,10.013450230853486,29.11600786213793,21.873063177418583,38.443583210601005
0.51,31.22217814871061,131.01040526533015,7.919252439376149,8.740506008587825,4.74343404595552,29.43638114523301,-0.3435774258098553,2.700971129027657,323.3984349720841,21.46263066625009,8.508900510683745,69.99230157954021,7.581128924344371e-05,113.7000917357748,281.9325855802618,15.288,0,2.515098703067593,0.0630765768665634,4.837188829984872e-09,-0.0011946893534156,9.068583026836776e-05,6.800869063175398e-05,9.93588053698234,28.72349381881172,22.206876693582952,29.562033512848817
0.52,31.222177844119383,131.0104060916308,8.108348617927508,8.686378294954654,4.675796507781169,35.274456498270084,-0.3517660660309944,2.680387339239527,372.0984511843415,21.815691893883205,8.654367125413527,69.99157938564936,0.000276547018507,113.70030579284996,291.2791959128716,15.288,0,2.5250061600502094,0.0641143261243781,5.356247635978788e-09,-0.0013447898417774,0.000173053388219,7.781117858943521e-05,9.85638913166594,28.33115519456996,22.54934931443841,35.37789559741952
0.53,31.2221775346797,131.01040693198445,8.30061989098129,8.634842523011006,4.610807823032814,37.01678205313644,-0.3599921844793765,2.659546868869868,386.5562464348624,22.165097843836087,8.798408683357481,69.9907698948352,0.0006083392060202,113.70065933300702,300.6787747224202,15.288,0,2.5348809011637474,0.0651413395929473,5.9765663479166e-09,-0.0014999484393734,0.0002574899338251,8.817724943615022e-05,9.780531106132395,27.953787957395832,22.888580370354244,37.113945323692086
0.54,31.22217722030336,131.0104077866482,8.496143704611507,8.585106416142047,4.547984456536021,32.563351555898045,-0.3682854706238731,2.6383933617365942,349.2703242098436,22.512502810528844,8.941596447829879,69.98987017211574,0.0010744540733612,113.70115583400175,310.17220164052105,15.288,0,2.5447300929126566,0.0661624792120967,6.700849343162993e-09,-0.0016603478809189,0.0003440632557165,9.913460554568416e-05,9.707374553959056,27.588763534383965,23.22614856914371,32.672138256810435
0.55,31.222176901275496,131.01040865486362,8.694707837173363,8.539328013519818,4.48837429604404,34.48799392240822,-0.3765442192105498,2.6171263773588302,365.2500005919907,22.85192500831006,9.081862102265957,69.988877236386,0.0016781723141181,113.70179878877111,319.5895811385618,15.288,0,2.554542209981161,0.0671601648565347,7.531839814445382e-09,-0.0018258806648184,0.0004326862979625,0.0001106596545193,9.639304036687092,27.242099127342453,23.55623632347584,34.589201505905784
0.56,31.222176577606927,131.0104095366177,8.896312665450273,8.498981703894353,4.43265238244036,32.21891555984876,-0.3846866906097972,2.595912560414347,346.2265619465787,23.178763949495018,9.217609708502287,69.98778811192408,0.0024227155221078,113.70259162807584,328.7904315354599,15.288,0,2.5643170822320545,0.0681208759382842,8.472219075136188e-09,-0.0019966578419158,0.0005233887209425,0.0001227381699816,9.577928682704094,26.91772307302256,23.87434899796976,32.325613153100655
0.57,31.22217624937892,131.0104104317055,9.10090379891147,8.456254351200263,4.376717373600331,31.863964619152924,-0.3930607341953076,2.574059081009694,343.1828296833023,23.513599877071904,9.355984508712496,69.98659979234684,0.0033112980321545,113.70353777520636,338.3516824115439,15.288,0,2.574050430062552,0.069105096393458,9.524672814810332e-09,-0.0021727184520906,0.0006161619957491,0.0001354876678335,9.514438990539784,26.59268589077632,24.20042462565553,31.970181703329807
0.58,31.222175916579666,131.0104113401752,9.3084990399118,8.406184600972491,4.318042545103984,41.82023918272797,-0.4019190272708453,2.5510476670541937,426.1250058573153,23.87070975804296,9.501938126525436,69.9853092194606,0.004347157209184,113.70464067847472,348.700122739136,15.288,0,2.5837422426923213,0.0701547857686594,1.0691900017814382e-08,-0.002354180088583,0.0007110385256615,0.000149029947384,9.443272939468615,26.252672567380877,24.548344404673543,41.899902009487334
0.59,31.22217557882285,131.01041226309368,9.519406933386374,8.367260469714346,4.266012143367568,33.98313282876148,-0.4103757945185514,2.528666721209785,360.68438819711065,24.198475309349977,9.63754822901742,69.98391315683091,0.0055337318671226,113.7059040015292,358.3345187157992,15.288,0,2.59340409880555,0.0711182410440512,1.1976716148508464e-08,-0.0025415126856131,0.0008082310238827,0.0001630947656299,9.385110667687409,25.95069438297419,24.86795996034509,34.07955223498288
0.6,31.2221752363269,131.01041319988357,9.733467086206335,8.314816499686252,4.208114736308864,30.25018585767597,-0.4196452688398123,2.504444492121478,329.4859594986058,24.56690591744094,9.78710924964764,69.98240830090447,0.0068744992156962,113.70733144846425,369.3215407503374,15.288,0,2.6030282337292454,0.0722012165470407,1.3382039293254998e-08,-0.0027346408471503,0.0009076696632902,0.0001781564583472,9.312350474714526,25.61595498951801,25.227320921645347,30.35658229757949
0.61,31.222174889054056,131.01041415066408,9.950717814723705,8.261205828632816,4.1506096397652605,35.37485596473724,-0.4291425816183561,2.479558287944699,372.0984511843297,24.94167165739948,9.938707448199953,69.98079125495148,0.0083730117761034,113.70892680436198,380.6674727222854,15.288,0,2.612617288091695,0.0733028186797436,1.4910819555536748e-08,-0.002933727624034,0.0010094071709575,0.0001940381383646,9.238803562085163,25.283815652895093,25.593077802838128,35.464246885907215
0.62,31.22217453712653,131.01041511511963,10.171073561180403,8.230524655420153,4.105377480462267,43.88270459476526,-0.4375747887693034,2.4566854941749385,442.86563930529206,25.24981000134401,10.067040668667111,69.97905852866693,0.0100328944956196,113.71069393166565,390.12312366291445,15.288,0,2.622174525420173,0.0742086124303924,1.6566085200407663e-08,-0.0031388297334733,0.0011134419552176,0.0002101640525659,9.191274738692057,25.02209124888322,25.894129528406737,43.95359527802575
0.63,31.22217418037371,131.01041609372948,10.394675183124567,8.193700025001078,4.057886385588273,25.067558817244688,-0.4464467137434955,2.432723296516553,286.11251274707894,25.577214341300927,10.201897639168008,69.97720665628525,0.0118576396348637,113.71263655534104,400.29726685631846,15.288,0,2.631683895833972,0.0751710358987546,1.8350722936314747e-08,-0.0033501946826321,0.0012198667773056,0.0002272199839656,9.137325618241949,24.748209878115823,26.214092905695345,25.189282688509582
0.64,31.222173819376344,131.01041708493048,10.621081319142975,8.146747453894783,4.006241848621456,24.617609502890254,-0.4560170355026416,2.407115000835097,282.30782441796754,25.937557864468328,10.348032645276596,69.97523222062624,0.0138507418275012,113.71475839400492,411.6469129326022,15.288,0,2.641153921949849,0.0762302746273428,2.0267765007798104e-08,-0.0035673860990747,0.0013284346803896,0.0002453539157731,9.072547835560226,24.45105026098489,26.566344203357737,24.739216879293217
0.65,31.222173454124498,131.01041808876448,10.850308140956674,8.116610056227366,3.963535155736844,43.190648384093045,-0.4647645468221071,2.3830483052751426,436.7781447787475,26.246243221323848,10.476111312709747,69.97313172260839,0.016015625986296,113.717063101878,421.494037579556,15.288,0,2.650568334613308,0.0771376978976983,2.232007523862597e-08,-0.0037905652080119,0.0014391977335255,0.0002638003433674,9.026832702375083,24.2058119543394,26.868337426757165,43.25883763056535
0.66,31.222173084132336,131.01041910656605,11.082740225276831,8.08307576445903,3.9198848501900025,36.799275741695766,-0.4738202180645579,2.358154290640143,383.51251517160017,26.56622560854569,10.607948552246008,69.97090163934462,0.018355736013687,113.71955435190571,431.82437884207405,15.288,0,2.659944134056841,0.0780783307386276,2.4510433162010703e-08,-0.0040203159121424,0.0015524122833617,0.0002831943466001,8.97772278902719,23.95582188902832,27.181479459402187,36.87779945130769
0.67,31.222172709589604,131.01042013783487,11.31823934589398,8.040702386104796,3.8727132310476735,25.461954051104907,-0.4835343206519899,2.33167585140683,289.1562440103425,26.91610475000736,10.749996882655587,69.96853823155134,0.0208747463888048,113.72223606216606,443.2635724251712,15.288,0,2.669289201028929,0.079106838259483,2.684196020317956e-08,-0.0042565771657348,0.0016680175752115,0.0003037787854544,8.919203158041059,23.686060039649533,27.523966026727216,25.573064380630253
0.68,31.222172330669256,131.01042118211575,11.556680149128514,8.001489192030448,3.827743108330392,31.694312453353927,-0.4931955292485202,2.3051139608270272,340.8999924858462,27.2568825836582,10.888742762954722,69.9660376929205,0.0235763189976755,113.725112140917,454.54830782323273,15.288,0,2.6785714539060583,0.0801086049525139,2.93177681582994e-08,-0.0044993229662285,0.001785971164228,0.0003251607588149,8.864538635268024,23.42968218149198,27.857695913499867,31.781853849221825
0.69,31.22217194745707,131.01042223919004,11.798004631435028,7.971651456584931,3.787868012841229,38.93764534262928,-0.5023931123603645,2.2793648092360668,401.0140726853634,27.566836642806248,11.01665459803966,69.96339633177487,0.0264640281806553,113.72818639558275,464.934185153638,15.288,0,2.6878132602560583,0.0810197876454967,3.194089225288355e-08,-0.0047485868587055,0.0019062597430266,0.0003470691652579,8.820569363368971,23.20336316858856,28.16140023467827,39.00753936870808
0.7,31.222171559827228,131.01042330941303,12.042318256931097,7.94156092617499,3.74848378386894,32.7194795683851,-0.5117176911292971,2.253163518534538,349.27032420985284,27.877882492253686,11.144793124318888,69.96061033939472,0.0295414197262708,113.73146261281524,475.47423850456767,15.288,0,2.6970202691576137,0.0819341868779952,3.47142790612554e-08,-0.0050046246840491,0.0020289755243092,0.0003699012679554,8.77663929951742,22.98049247200532,28.466272998379097,32.80095949911587
0.71,31.222171167839385,131.01042439263625,12.289582983532265,7.905833284489718,3.707049225021896,26.95578239651979,-0.5215278763515072,2.2257162290654544,301.33126406340574,28.208894325368263,11.279707896909084,69.95767580035623,0.0328121183472247,113.73494466380708,486.8209290361522,15.288,0,2.706162314491129,0.0829072748807796,3.764100709227795e-08,-0.0052674932169376,0.0021541150904516,0.0003939437910263,8.72680152531492,22.746463053975408,28.79079007690915,27.052541630439517
0.72,31.22217077150277,131.01042548884843,12.53979991689574,7.863411633720663,3.66313160273182,32.921387618959635,-0.5319337997899608,2.196771111379995,350.79220534145287,28.564756315883184,11.423089023528249,69.95458881006752,0.0362797919282261,113.7386364582474,499.1691357988669,15.288,0,2.7152664255489607,0.0839534071014767,4.072417664927016e-08,-0.0055373293249992,0.0022817127986751,0.0004193384179884,8.669913414367503,22.49847096897481,29.13976776724349,32.9988866424451
0.73,31.22217037082165,131.01042659805182,12.792974155131088,7.837593551263319,3.627461854562827,41.54932936054817,-0.5413258912716821,2.169866907898012,422.320318528234,28.86159972714325,11.545857268284545,69.951345170284,0.039948263883514,113.74254208356346,509.5853305269354,15.288,0,2.724335435396715,0.084826088683694,4.396700512346308e-08,-0.0058142959767714,0.0024118149062024,0.0004448778178967,8.631578878123285,22.299134086280304,29.431019523760565,41.60947159517725
0.74,31.22216996574044,131.01042772041,13.049156485464616,7.806563620998274,3.589919209123189,26.151790976727213,-0.5511869863684402,2.141740762914227,294.48281347105944,29.17728973897248,11.675010421347496,69.9479408977778,0.0438211762125413,113.74666542384004,520.7812392412027,15.288,0,2.7333497152143007,0.0857541696856907,4.73725707620408e-08,-0.0060985515259066,0.0025444637736508,0.0004717198785742,8.587787101364768,22.08956498540032,29.740824043719314,26.245133489466216
0.75,31.222169556620027,131.01042885495625,13.30807592826124,7.772274821082721,3.551419692000609,30.470840875911698,-0.5614077194846606,2.11262267527288,330.24688556441487,29.50541594226029,11.808337576591343,69.94437179469847,0.0479022207250866,113.75101042798192,532.5472160530463,15.288,0,2.7423110796944465,0.0867188097050702,5.094418535596253e-08,-0.0063898035127575,0.0026794940535059,0.0004997939320639,8.540688485936656,21.874993749247857,30.06291449685686,30.54914887326168
0.76,31.222169143357483,131.01043000198214,13.569819726423804,7.743816080016313,3.516076727497728,32.773267139215875,-0.5713183067516576,2.0840076330801334,349.27032420986166,29.81186577474373,11.93400506122286,69.94063379548444,0.0521950152448667,113.75558095641571,543.6533068757763,15.288,0,2.7512310532192608,0.0876197493556213,5.468487664172684e-08,-0.006688327502542,0.0028170030694068,0.0005285639089266,8.500240921510171,21.679506000224816,30.363823225102447,32.84442922933466
0.77,31.222168725902044,131.0104311616373,13.834434679620983,7.716826232915261,3.481876972738463,30.670333996108948,-0.581227160657482,2.0552119006969543,331.7687666960708,30.11250143346152,12.057510821120802,69.93672260906793,0.0567032380176536,113.76038094640384,554.6593659451764,15.288,0,2.7601105804829205,0.0885036087659247,5.8597757569240854e-08,-0.0069943208838897,0.0029570505640468,0.0005583058366089,8.461646522029275,21.49132928768573,30.659096813150185,30.744611046522095
0.78,31.22216830432317,131.01043233374483,14.101874635461712,7.684943322662529,3.4459474338502165,25.260167089959705,-0.5916211563733454,2.025126098967268,286.8734378128899,30.431880465924472,12.187377592526872,69.93263400107425,0.0614305453409266,113.7654143042846,566.4728610084657,15.288,0,2.768925117443548,0.0894425650920331,6.268601381947158e-08,-0.0073078124398129,0.0030996189652877,0.0005895013569854,8.417933022731384,21.293659625593406,30.972842357861925,25.348120102328505
0.79,31.22216787871356,131.0104335180649,14.372075557881908,7.650380119799236,3.409308847152479,35.7388870557069,-0.6023584078873045,1.9940636864773569,373.6203323159534,30.762128646975405,12.32087640251597,69.92836365517913,0.0663806267324199,113.7706849729444,578.8193327158364,15.288,0,2.777695169451263,0.0904134755931979,6.695287847579271e-08,-0.0076288259345293,0.0032446889530604,0.0006220588139277,8.37153077376739,21.092315266006334,31.297345658622422,35.79954152803991
0.8,31.222167448860286,131.01043471518628,14.64520921472539,7.625425151602406,3.377373366822665,36.20761857015716,-0.6124392811678526,1.964305163805805,377.42502064505743,31.05402218439133,12.440924519180978,69.9239070064287,0.0715572919257697,113.7761970336831,589.8404963083825,15.288,0,2.786427729025922,0.0912716659307217,7.140146013656763e-08,-0.0079578148732517,0.0033924330667065,0.0006550246701324,8.335845317389449,20.919342582148364,31.58423157779239,36.26603395977648
0.81,31.222167014870045,131.01043592483052,14.921200573447852,7.59447426438263,3.343235629243944,23.716152524539748,-0.6231221786302695,1.9329763230129275,273.9374926939919,31.36977425846992,12.569106900094829,69.91925958302272,0.0769642840193031,113.78195448875265,601.8803217754977,15.288,0,2.795118337631079,0.0921999879787785,7.603509444335339e-08,-0.0082947413865614,0.0035428026515844,0.0006896816945287,8.293835915398487,20.73386479051508,31.89463052827188,23.802952952985947
0.82,31.22216657693468,131.0104371464886,15.199909024768235,7.561120956014038,3.308480350530969,30.34198845626223,-0.6341354450057636,1.900682769042136,328.72500443277005,31.695445342778328,12.700598309949708,69.91441681726268,0.0826053426239496,113.78796134161256,614.4258087648514,15.288,0,2.8037530703344142,0.0931574720616507,8.085717431492538e-08,-0.0086394906067264,0.0036957162819914,0.0007257847292902,8.249421922620579,20.54528112670408,32.21485146123116,30.408074359141796
0.83,31.22216613504277,131.01043838020192,15.48135055651376,7.539202817225266,3.2790889367158105,38.443200748489936,-0.6442735621554414,1.8702159546064736,395.68750322465047,31.97319730600936,12.815327589237723,69.90937407938648,0.0884842188519625,113.79422160897796,625.2247049358964,15.288,0,2.812336445323493,0.0939741234339809,8.587093492297633e-08,-0.0089922520489688,0.0038512271583384,0.000762018705139,8.217655451617286,20.389233324366344,32.487994258713066,38.49405772230896
0.84,31.222165689093607,131.0104396262526,15.765609360730664,7.515035121800346,3.2491000829924994,23.91685850083786,-0.6546981657619597,1.838896367941332,275.4593748256452,32.2594352226768,12.932861124336604,69.90412672937488,0.0946045634982545,113.80073920545672,636.4520042169568,15.288,0,2.8208776150404087,0.0948157246035418,9.107950703214592e-08,-0.0093532709943066,0.0040094110763683,0.0007996860389094,8.183629062790901,20.230203254199008,32.76952917940254,23.996380770636645
0.85,31.22216523938509,131.01044088384344,16.052462860128816,7.481684821964778,3.2155592397765105,26.03905991633364,-0.6660625734372868,1.8051818872131369,292.96093233939376,32.58441785982165,13.063716499727036,69.89867019796888,0.1009699736649042,113.8075179812718,649.3219849072287,15.288,0,2.8293697509212388,0.0957712113738251,9.648635521070324e-08,-0.0097222403922766,0.0041701037860247,0.0008395829187761,8.139814566987942,20.05044344557783,33.08925161504035,26.11005481273583
0.86,31.22216478574865,131.01044215344024,16.342047525845526,7.4552586704731905,3.1853580730793385,32.48909309512564,-0.6769130015235395,1.7724687500448777,346.2265619465587,32.87924319254454,13.183971082080705,69.89299963765389,0.10758419247593,113.81456195290713,661.1069478318893,15.288,0,2.8378186554007163,0.096638069513842,1.0209458434042773e-07,-0.0100995934823519,0.0043334625592992,0.0008800369359019,8.103705832391643,19.891194091034,33.379340358763095,32.54444694299256
0.87,31.22216432821265,131.01044343497492,16.634347998127534,7.432083885144126,3.1568871737256807,30.286963615951912,-0.6875577710577309,1.740044369969534,327.964078366998,33.158964725148195,13.29884857017766,69.88711018387389,0.1144509086405452,113.8218750800776,672.384711881622,15.288,0,2.846223901160615,0.0974605433482668,1.0790749670659692e-07,-0.0104854262528641,0.0044994971172517,0.000921403919994,8.071297197152068,19.74288118177992,33.65459654095692,30.344697315544266
0.88,31.22216386681676,131.01044472834835,16.92934005642107,7.40434885841619,3.1268310602176967,26.241377992091333,-0.6987352130343444,1.7061572851596118,294.4828134710418,33.45794590906873,13.420286005689425,69.88099705468879,0.1215737456965957,113.82946124608236,684.5452326408982,15.288,0,2.8545734465387604,0.0983396335832517,1.1392841003551633e-07,-0.0108797784269126,0.0046681929566913,0.0009646505679129,8.034112011845465,19.58561409621297,33.94886361812623,26.30606626813391
0.89,31.222163401646423,131.0104460333378,17.226964358153364,7.372202393047254,3.0952808868118105,28.735061086273056,-0.7104603701500085,1.6707572098487251,315.028134248087,33.77630417614492,13.548330945043046,69.87465522716597,0.1289563713464992,113.83732439560497,697.6144072813195,15.288,0,2.8628742043752,0.0992756859547608,1.2016070118777512e-07,-0.0112826830050069,0.0048395329926383,0.0010098637860345,7.992320745432962,19.4198149117798,34.26227329952368,28.792358695036768
0.9,31.22216293263069,131.01044735014307,17.52728166602788,7.351353483337939,3.0687730364413497,31.69099878912628,-0.7211705223904343,1.6375763790554907,339.37814235421445,34.04254609846224,13.658142358546264,69.8680796424307,0.1366025236344543,113.84546854136026,708.6352131259399,15.288,0,2.871132577779808,0.1000585662045687,1.2660761780302173e-07,-0.0116944229127271,0.0050136054986842,0.0010549371549093,7.96291543893338,19.28500918052711,34.52435740112386,31.74147362004494
0.91,31.22216245984352,131.01044867857146,17.830240986244615,7.326018268176433,3.0407144018859014,24.231153827871,-0.7324178386105424,1.602908156813741,277.7421810230789,34.32815576333746,13.77455756617402,69.86126531532827,0.1445157559184406,113.85389750263376,720.5547219672785,15.288,0,2.879346128448129,0.1008983810375031,1.332725213050867e-07,-0.012114991484256,0.0051903754941438,0.0011020129742875,7.92881050611472,19.141334242218264,34.80556588867917,24.295155201797794
0.92,31.22216198348972,131.0104500180768,18.135691195335934,7.296368239983091,3.0111959528717978,28.755143926450422,-0.7442176156806952,1.5666979376584316,315.02813424806214,34.633067384115485,13.897568263229791,69.85420715717775,0.1526996284996962,113.8626151102572,733.3903641499478,15.288,0,2.8875109956673994,0.1017949375761858,1.4015898005675185e-07,-0.0125441728212527,0.0053697220593176,0.0011511538447155,7.890197332067798,18.98926082859064,35.10584722728556,28.807407112029907
0.93,31.22216150348242,131.01045136890028,18.44370450652585,7.27693387676561,2.9861625519052537,34.111873898540786,-0.75503819165846,1.5326503159251887,359.1625070654728,34.88876774015014,14.00335134078524,69.84690002317937,0.1611576928692965,113.8716251872098,744.2377542882758,15.288,0,2.8956313501227244,0.1025468589878397,1.4727008227453518e-07,-0.0129823049162341,0.0055517548069268,0.0012001208200963,7.86275566199855,18.864999788222697,35.35762073017477,34.15463424678585
0.94,31.222161019714765,131.0104527313356,18.754367738681832,7.248333294902205,2.957684296273479,24.89300159020993,-0.7669312375165758,1.4957912234859378,283.0687504837787,35.18679266687893,14.123730683591928,69.83933880633627,0.1698933902591233,113.88093143981192,756.984247646267,15.288,0,2.9037070931994826,0.1034231917052062,1.5460895841617597e-07,-0.0134296352346788,0.0057365435346993,0.0012520407817744,7.825567483302118,18.720214611419745,35.65117831940383,24.949691442531517
0.95,31.222160532478988,131.01045410460108,19.06746306085992,7.221082132587712,2.9300505119731066,32.097528237623926,-0.7787854302532261,1.4588088310538851,342.4218736174873,35.47749510167847,14.241457040618355,69.83151813695325,0.1789102963716684,113.89053772529496,769.5207165022201,15.288,0,2.911735000874196,0.1042780106338645,1.621793653321906e-07,-0.0138858531136032,0.0059239295931901,0.0013052299548717,7.789975055602427,18.581039173615164,35.937545777860194,32.14009876955889
0.96,31.22216004148481,131.01045548948431,19.38321724859225,7.198914812464214,2.904745656557195,31.458741462482244,-0.7901684497642912,1.4227696555016478,337.09533515678345,35.74210769679875,14.349985684530372,69.82343276208704,0.1882118918887953,113.90044779234856,781.0189405441495,15.288,0,2.9197213241976048,0.1050561533475097,1.6998409450918474e-07,-0.0143516139278354,0.0061141485275154,0.0013590306390681,7.759991452246445,18.456633496612746,36.198188647265205,31.50081037171772
0.97,31.22215954675457,131.01045688593,19.701618132091777,7.174311063504312,2.878731850466953,20.291890594433703,-0.8019152552660394,1.3856256948408632,245.02188719299323,36.017206106373045,14.462044460628132,69.81507713405523,0.1978017431402375,113.9106654956176,793.0635852128858,15.288,0,2.927665286032016,0.1058651256502372,1.7802658410140986e-07,-0.0148270144822445,0.0063072060939838,0.0014148122050178,7.727514017115538,18.32836368018016,36.46920602101622,20.354946586500752
0.98,31.222159048578654,131.01045829316092,20.022449227797104,7.141118360233232,2.849576181480413,29.34857284925864,-0.8147694111980157,1.3455200653828383,319.5937466429581,36.334252558280525,14.5886080927511,69.80644583012545,0.2076833191928472,113.9211945767492,807.062271636427,15.288,0,2.935561065169433,0.1067974047305531,1.8631075736605905e-07,-0.0153116422433015,0.0065029036839901,0.0014738717206842,7.68593254928244,18.18113897258185,36.781678432171454,29.390695836063717
0.99,31.22215854681144,131.01045971157407,20.3458264914373,7.122622587244278,2.826508074053313,32.03471004727516,-0.8259805378963223,1.3092677684672347,341.6609485517054,36.5758405857851,14.688784192522547,69.79753321079797,0.217860164087228,113.93203886628322,817.8049351918768,15.288,0,2.9434116398836534,0.107507897618564,1.948396296347656e-07,-0.0158059956307878,0.0067014096322036,0.0015315259742569,7.66026743178617,18.072012610749635,37.01964737418062,32.07209182063937
1.0,31.22215804145304,131.01046114117196,20.671753858332185,7.095777233337017,2.80039324695914,28.714619290226423,-0.8382777646873582,1.2700966267537703,314.2672081822764,36.85828031617396,14.803081735713146,69.788333785711,0.2283355627362826,113.9432019214483,830.4579313594688,15.288,0,2.9512189285454604,0.1083384752503764,2.036165731818791e-07,-0.0163101237730401,0.0069027098526831,0.0015925274370286,7.625753483452661,17.9444884151838,37.29798994166583,28.7549163802419
1.01,31.222157532685543,131.0104625814689,21.00009739532533,7.070425982361424,2.7751163299516195,30.015191346073987,-0.850485067665382,1.2309249031862592,324.9203161036979,37.13167433643586,14.914129384891304,69.77884181454002,0.2391129414700384,113.95468745529064,842.7967832416633,15.288,0,2.958981852086862,0.1091424735864566,2.1264529281803465e-07,-0.0168238699290585,0.0071067097906912,0.0016548221925574,7.592960980612843,17.8225991785441,37.56741817197755,30.05245767835038
1.02,31.22215702043408,131.01046403266895,21.33091804547912,7.0473252113944165,2.7509564442341445,25.12041205194424,-0.8624942069654999,1.192028256763128,284.59063161540416,37.3917026628928,15.020415662781351,69.76905172559088,0.2501955609546858,113.96649899745098,854.6149527510754,15.288,0,2.9667022796952844,0.1099071945410953,2.219289148928583e-07,-0.0173475123258319,0.0073134866289788,0.0017182230797029,7.562694359776499,17.708121868552947,37.8236558844177,25.163464174899214
1.03,31.22215650476784,131.0104654945884,21.664167016360576,7.01859711687313,2.724854294103197,20.592783635454943,-0.875310212971907,1.1508694542875892,247.30469339049705,37.67989499023956,15.136429829383983,69.75895780473495,0.2615866225922842,113.97864002719776,867.8116389755438,15.288,0,2.9743788440816807,0.1107547083263504,2.314709109105011e-07,-0.0178810294339466,0.0075229987655424,0.0017846596424168,7.526510176548627,17.581932738389384,38.1077527759606,20.6434833864444
1.04,31.22215598574949,131.01046696706177,21.99980083523709,6.9953734537704735,2.7011105629636902,32.53303633426048,-0.8875066304482974,1.1110465333359691,345.46563688072297,37.93724895703806,15.241593950476537,69.74855413368815,0.273289429990998,113.9911141367159,879.6780823254413,15.288,0,2.9820126244531724,0.1115115861594168,2.412747428925125e-07,-0.0184244862099578,0.0077352391700065,0.0018514006875649,7.496329363405039,17.470935823551,38.36138126650981,32.564099028602655
1.05,31.222155463096417,131.01046845084832,22.33803679687634,6.967636828547916,2.675865853399688,19.767522459605047,-0.9003826347932684,1.0692670591570073,240.45625879819983,38.21718145126099,15.354536468650496,69.7378349502809,0.2853071358509218,114.00392475033964,892.6789658200041,15.288,0,2.9896077459153543,0.1123348399083525,2.513430672974755e-07,-0.0189785718207498,0.0079504409588831,0.0019210880609295,7.461426435263421,17.350938965220294,38.63735269573105,19.816885858374054
1.06,31.222154937045083,131.01046994531555,22.67869952600232,6.93611049058971,2.64941482351138,28.010731117388648,-0.9138819664047536,1.0256530262178571,308.17968365593924,38.51655514544228,15.47418445325022,69.72679412818718,0.2976430635540611,114.01707548612195,906.68964869584,15.288,0,2.9971610516145057,0.1132152483469211,2.616799823904255e-07,-0.0195429467643686,0.0081684385311707,0.0019936474746136,7.4225803724344015,17.223700097548647,38.93257595762992,28.044396982451847
1.07,31.222154407481245,131.01047145077146,23.02187903257134,6.913581952252121,2.626605689696772,32.92478344794077,-0.9262389841899428,0.9847223812893042,348.5093681440308,38.76471840662213,15.575851109456917,69.71542542682427,0.3103005708019713,114.03057000005624,918.3806688962108,15.288,0,3.0046768006731006,0.1139451386841559,2.722886060592613e-07,-0.0201180760144118,0.0083893763369297,0.0020654735736536,7.393453336590934,17.119879169217274,39.177160165376335,32.95252588069448
1.08,31.2221538743046,131.01047296748433,23.367653719778943,6.889207501378952,2.6033069436685623,22.279276738645912,-0.9389276545617044,0.942707490529317,261.00157857466235,39.02100883535709,15.680257747993512,69.70372267019638,0.3232828369568632,114.04441176156509,930.5335350052104,15.288,0,3.012155462911013,0.1146989271505159,2.831721993682973e-07,-0.0207042634572036,0.0086133340055019,0.0021396385749172,7.362451394649346,17.013409652723464,39.42979464659569,22.318970732324768
1.09,31.222153337788978,131.01047449472165,23.71582001520116,6.855366184621687,2.576675069647861,20.522542633427623,-0.9530635377431476,0.896709398050546,246.54375332474407,39.329140004138246,15.802715768939583,69.69167959273453,0.3365930181370082,114.05860421842245,945.2559470070554,15.288,0,3.019592718351692,0.1156051066493719,2.943351109804732e-07,-0.0213010292947839,0.0088400937628777,0.0022186186328314,7.3214468030573405,16.886101995309875,39.73374676378004,20.56422072416998
1.1,31.22215279801033,131.01047603228076,24.066323819926737,6.826502272592503,2.55212643403032,40.82443955549656,-0.966590638252,0.8520241746887259,413.1890617385841,39.60771373555601,15.91476868874278,69.67928984031224,0.3502342435236313,114.073150793725,958.661851876429,15.288,0,3.026985314323639,0.116424414093147,3.05780917023278e-07,-0.0219084264844709,0.0090696418070307,0.0022979678900274,7.285851303700351,16.77242466189844,40.00846826619709,40.84476842481302
1.11,31.222152254568208,131.01047758123096,24.419468785345167,6.807483954435212,2.5314330877335585,29.986274937806165,-0.9787275429100836,0.8107102331489655,324.1593910376397,39.82725996615552,16.006064462207647,69.66654692723131,0.3642096556203007,114.08805492932672,969.2861844987048,15.288,0,3.0343441404193188,0.1170702231513078,3.175118533595058e-07,-0.0225275295605634,0.0093023456390847,0.0023759224435875,7.26084053708601,16.68387208684927,40.224767191590026,30.013194487276515
1.12,31.22215170752335,131.0104791414071,24.77521070848701,6.770225750309684,2.504203977614543,11.537512878352656,-0.9937058433189644,0.7617314415901458,172.73281794065943,40.1510629239186,16.133784863088565,69.65344442603164,0.3785222187030707,114.10331988036997,985.07754270002,15.288,0,3.041666031254304,0.1180224994332841,3.295318102672779e-07,-0.0231582584026637,0.0095381359928063,0.0024622172237504,7.216493404063643,16.553743454823692,40.54429713989309,11.60525266895584
1.13,31.22215115746524,131.01048071123716,25.133110736954244,6.7429431450102815,2.4808577186675924,35.28581896483479,-1.007266537532987,0.7161896048241706,367.5328077900705,40.414969904439324,16.240475569136606,69.63997544811974,0.3931752264028804,114.11894925665256,998.0353256875952,15.288,0,3.048946173501589,0.1187987236368022,3.418463083306585e-07,-0.0237995031596824,0.0097765657043818,0.0025469395802732,7.18286107440095,16.448913319643427,40.80454036822016,35.30745719315944
1.14,31.222150603731738,131.0104822924836,25.493666312224136,6.722628076855272,2.4602433495817566,19.705262102287705,-1.019797150364698,0.6731061392003198,239.69531773195544,40.63482840698317,16.331631201172915,69.62613351210497,0.4081714485448726,114.13494611529109,1008.888595844316,15.288,0,3.0561941399950743,0.1194454778457002,3.5445643122049346e-07,-0.024452955792278,0.0100182235135696,0.002631014511538,7.156725563418815,16.362198645000362,41.021163783038254,19.74311051031162
1.15,31.22215004680613,131.010483883855,25.85651689142304,6.683949423097966,2.433143066043064,19.429325264528654,-1.035344534620397,0.6217996460585749,237.41251153546767,40.96334730834316,16.460845771580175,69.61191208468152,0.4235135803667444,114.15131343651812,1025.2318526312924,15.288,0,3.063401215560264,0.1204116473753186,3.6736760673747483e-07,-0.0251174909057191,0.0102626567331468,0.0027242691015367,7.111151934757114,16.233759260166963,41.34542966256678,19.466824428757207
1.16,31.2221494868258,131.0104854849852,26.22156262043193,6.665320190281001,2.413489508200363,50.25508105822497,-1.0477263107471022,0.5785984657489918,490.0437743845894,41.16806317172772,16.546563574206743,69.59730418070657,0.4392046239736093,114.16805453284006,1035.4684170082076,15.288,0,3.0705704448320845,0.1210139076358618,3.805835869158457e-07,-0.0257930994068209,0.0105098281232519,0.0028114285550732,7.086968433539833,16.154127941414913,41.54706111315981,50.26933139375896
1.17,31.222148922916823,131.01048709819253,26.58945522895242,6.63703857001215,2.3905321101446644,9.221263170908594,-1.0617452006161985,0.5307977319710268,153.70937929486794,41.429092775134286,16.651954196309365,69.58230319180146,0.4552470902892801,114.18517219870176,1048.60393888397,15.288,0,3.0777112042289008,0.1217817122220746,3.9410463623560613e-07,-0.0264819924993174,0.0107605018039893,0.0029047169421647,7.052612159950739,16.053403985226694,41.80448774543571,9.297351427715979
1.18,31.222148356227112,131.0104887204226,26.9593408639731,6.595966319434488,2.3631943389773977,24.63998599567456,-1.078038923129805,0.476637634236296,280.02501822196746,41.7684666981877,16.784861865413955,69.56690216279365,0.4716436870173781,114.20266944033008,1065.8160917675627,15.288,0,3.084808240390978,0.1227798217220417,4.079390573446929e-07,-0.0271813508704413,0.0110136182995163,0.0030057432108374,7.004767192027062,15.924191552004736,42.13957115596085,24.66816290730203
1.19,31.22214778623749,131.01049035305206,27.33160769951274,6.582970472286444,2.3460351883016624,42.76281336893906,-1.0895880427989213,0.4348941743656214,428.4078130529292,41.92908067948839,16.85485936107515,69.55109392724873,0.488397184622866,114.22054933805714,1073.9902962414546,15.288,0,3.091873879959444,0.1232524697760443,4.2208772976938587e-07,-0.0278929018231155,0.0112697653082704,0.0030961772361539,6.986783154877223,15.862333628086397,42.29749205990731,42.77890300454911
1.2,31.22214721249721,131.01049199726793,27.706588974272552,6.547323850623162,2.321009459074429,4.7603482522354446,-1.1051282532798314,0.3821743883056155,117.1843741360236,42.23026956602068,16.974229827696234,69.53487182037321,0.505509746883914,114.23881432955208,1089.4360445895672,15.288,0,3.0989089672509915,0.1241383537711952,4.36552680840845e-07,-0.0286177157566763,0.0115292827622771,0.0031993367166835,6.944858747507378,15.748997461018115,42.59475317394847,4.901865073809677
1.21,31.222146636160776,131.0104936500067,28.08343021622103,6.512832096026949,2.296580622170625,34.41436364954448,-1.1205798941840583,0.3293835949363651,359.92343213200894,42.52288873472699,17.09059210120295,69.51822847632789,0.5229840506566337,114.25746740284087,1104.5460608571032,15.288,0,3.105899842512678,0.1249990565958664,4.513425001539905e-07,-0.0293529426897252,0.0117911179030511,0.0033041504622957,6.904239726141493,15.639829326854926,42.883538184965865,34.43417805400546
1.22,31.22214605634453,131.01049531360349,28.462785874931686,6.497558531540681,2.2790426938383246,25.029754753796983,-1.1325862150847448,0.2856274244324438,283.0687504825761,42.68785525339105,17.161914970248507,69.50115684195171,0.5408223407248415,114.27651109273552,1113.0922395859952,15.288,0,3.112851550290784,0.1254845246627142,4.664561639782224e-07,-0.0301012526575,0.0120561803189663,0.003401406103059,6.884040615008528,15.577021840877014,43.0457520481658,25.056994185165358
1.23,31.222145473396143,131.01049698712873,28.84439728398472,6.461178254813458,2.25429320957364,9.965732543050535,-1.1485179551102611,0.2309430839915501,159.79687382222795,42.98801686089175,17.280859294262157,69.48365017576688,0.559026435751982,114.29594748257549,1128.7594113834352,15.288,0,3.119766494237001,0.126367419090664,4.81899135234011e-07,-0.0308615989118705,0.0123240582427185,0.0035117168751135,6.841571473245414,15.466447409035364,43.34202905759436,10.03435365735485
