Time,Latitude,Longitude,Altitude,Angle of Attack,Angle of Sideslip,X-Acceleration,Y-Acceleration,Z-Acceleration,Thrust,True Velocity,Ground Velocity,Pitch,Roll,Yaw,Dynamic Pressure,cp,parachute_deploy_gain,Wind Speed,Mach,omega_x,omega_y,omega_z,Cmq,Angle of Attack(total),Angle of Attack(gust),True Velocity(gust),Acceleration
0.0,31.222186000000004,131.010384,3.000000003643237,0.0,0.0,0.0,0.0,0.0,2.2828121974499247,0.0,0.0,69.99999999623421,0.0,113.69999999388332,0.0,15.288,0.0,0.0,0.0,0.0,0.0,0.0,-0.0,0.0,90.0,0.0,0.0
0.01,31.22218600000153,131.01038399999584,2.99999882256592,0.0,0.0,0.0,0.0,0.0,34.24218696174923,7.502283530665459e-11,7.190531319924593e-11,69.99999999623329,-4.83564628150269e-13,113.69999999388072,3.446445726795683e-21,15.288,0.0,0.0,2.204725565824978e-13,-3.659182332138578e-19,7.589415207398531e-19,4.811147140404426e-19,-1.5108918610345807e-31,0.0,89.9999999995224,7.502283530665459e-11,0.0
0.02,31.22218600000288,131.01038399999217,2.999997775701936,0.0,0.0,0.0,0.0,0.0,25.871876237766408,1.5320717031631675e-10,1.4674636035870463e-10,69.99999999623222,-9.67129256300373e-13,113.69999999387804,1.4372842949972735e-20,15.288,0.0,0.0,4.5023593667086093e-13,-7.284483346386986e-19,1.5178830414797062e-18,9.757819552369542e-19,-6.170906918166791e-31,0.0,89.99999999902465,1.5320717031631675e-10,0.0
0.03,31.22218599928065,131.01038400193067,3.000201659671132,18.81500467334555,-0.00012974450181,11.96616230539064,-1.8916256735984712e-05,3.349833086198469,180.34219359854663,0.0882870268161719,0.0553390044312322,69.99999999799445,-4.212591857125379e-12,113.69999999488518,0.0047728553458352,15.288,0.0,0.0,0.0002594525584132,3.2187251995663407e-17,-7.20264389268894e-10,1.2365134327422308e-11,1.6874092354518158e-13,18.815004673776716,89.46786891739345,0.0882666465974854,12.426199017587786
0.04,31.22218599548236,131.0103840121632,3.001799604587872,9.46752327608497,-4.6177622759613696e-05,55.21900012092241,3.931876292165237e-06,3.349616504302861,548.6359724538078,0.3767519978512604,0.1853356633749705,70.00000000507204,-2.4624598767003407e-11,113.70000000019972,0.086915163246288,15.288,0.0,0.0,0.0011071759353184,1.6174128009138757e-15,-1.3693172015529268e-08,2.7753303060112748e-11,1.3689612277852356e-11,9.467523276196548,87.63554493451223,0.3767447442872393,55.32050167054111
0.05,31.222185984749512,131.01038404118162,3.00777936418888,5.376730308971262,-2.257790939128127e-06,80.28807156553681,5.266841443842784e-05,3.348887800834877,761.6984298824644,1.018787885905993,0.4366201147110198,70.00000000894464,-1.1355399380652658e-10,113.70000001523856,0.635552918586145,15.288,0.0,0.0,0.0029939522895272,1.6418815498809788e-14,-9.32122351075408e-08,4.303264669380585e-11,2.5199270302492604e-10,5.3767303089717045,83.57022052969386,1.0187875312530217,80.35788377762394
0.06,31.22218596447235,131.01038409608267,3.0201664202003013,4.296730121134882,2.4863835723705905e-05,60.21296515808257,0.0001057204249726,3.347700952379021,590.4875390737208,1.721098934225416,0.7081674028809783,69.99999995523842,-3.0560354507026086e-10,113.70000004366592,1.8138247671743823,15.288,0.0,0.0,0.0050578622752421,8.328976953118383e-14,-3.2824985336199985e-07,5.923438275930214e-11,1.4991363363716091e-09,4.296730121206683,79.20467073327266,1.7211028398275985,60.305955550063224
0.07,31.22218593493329,131.01038417609837,3.038741944736831,3.8204913578752526,4.8016684030909405e-05,91.4060317508128,0.0001597686613101,3.346072557365335,855.2937749779139,2.4375792548422868,0.9844712334613328,69.99999973536046,-5.939103491363046e-10,113.7000000850886,3.6383156301599167,15.288,0.0,0.0,0.007163413150771,2.709313825263564e-13,-7.906546256197275e-07,7.920022733617308e-11,5.114174483651565e-09,3.820491358176508,74.87999294483174,2.437586797285377,91.46725557277466
0.08,31.222185894468456,131.01038428575305,3.0647976109320942,3.588632851766762,7.220043782492885e-05,19.18449428359557,0.0002119618497595,3.3440615022685813,241.2171988638848,3.1292508166901074,1.2522236515868983,69.99999919480445,-9.914748373602156e-10,113.7000001418522,5.996012698481753,15.288,0.0,0.0,0.0091960591623389,6.80386533246681e-13,-1.5973238302190878e-06,1.0839624626357699e-10,1.3263625118823921e-08,3.58863285249208,70.86684630658345,3.1292621579083604,19.473766155861934
0.09,31.22218584634549,131.01038441616095,3.0957981580345013,3.551302481506045,9.685468678862004e-05,57.102946699906326,0.0002554087225869,3.341892818148368,563.0937377043176,3.701810007254615,1.479132491047967,69.99999812344194,-1.4359264356978275e-09,113.7000002093888,8.390904013834115,15.288,0.0,0.0,0.010878666406854,1.440096519545733e-12,-2.748643691533636e-06,1.5214952332699618e-10,2.6999776649034504e-08,3.5513024828250237,67.68737872952666,3.701825221153239,57.20065357568538
0.1,31.222185790329306,131.01038456796124,3.1319266121977414,3.608446747536112,0.0001234669721807,54.26147302645416,0.0002914860332524,3.3396271157106168,538.7437595981919,4.174070299823608,1.6716491241860567,69.9999963052332,-1.902380107712657e-09,113.70000028805804,10.668380938744466,15.288,0.0,0.0,0.0122665227999911,2.687800116751415e-12,-4.315796035622946e-06,2.1749089204950437e-10,4.7802076800548326e-08,3.608446749645647,65.17160335282355,4.174089693970246,54.36414778470795
0.11,31.222185727066616,131.0103847393952,3.172681775073216,3.633547373470009,0.0001485939126744,42.987553988990406,0.0003293995000288,3.337005588796181,442.8656393052949,4.672024955140527,1.8729475711242067,69.99999349387662,-2.3433348587116544e-09,113.70000037699285,13.365573690709628,15.288,0.0,0.0,0.0137298902182575,4.5789425819531184e-12,-6.340230783164189e-06,3.1157625832417107e-10,7.860218435507205e-08,3.6335473765043056,62.62546922225161,4.672048296217748,43.116880735560244
0.12,31.22218565692512,131.0103849294629,3.2177790417108385,3.650108937861461,0.0001727442530266,46.86777100765684,0.000367618259785,3.334068179146888,475.58594813540446,5.17479364099247,2.0758708919414386,69.99998941286465,-2.702771525550512e-09,113.70000047573096,16.396890189902592,15.288,0.0,0.0,0.0152074069417046,7.288473386564583e-12,-8.86736416607888e-06,4.42271554299792e-10,1.217615295152289e-07,3.6501089419435786,60.16906436414164,5.174820775596283,46.986210423745625
0.13,31.222185580265183,131.0103851371844,3.2669395832841857,3.7280113734654137,0.0001995014041665,51.64515456841877,0.0003986198234033,3.3311573548369657,515.9156326236895,5.579364582999854,2.2451120211463422,69.99998375846928,-2.9114380666036422e-09,113.70000058383452,19.060875702782603,15.288,0.0,0.0,0.0163963474924215,1.100846422415094e-11,-1.1941028436408576e-05,6.179653149059831e-10,1.7678562106638216e-07,3.728011378795934,58.279338776943774,5.579395920607139,51.75247433579817
0.14,31.22218549718016,131.01038536230575,3.320091807147376,3.768719651034081,0.0002242721760019,48.1660778383537,0.0004326225136175,3.32784677779744,486.2390860568404,6.025734265159953,2.428648685938864,69.99997621008868,-2.890941335368725e-09,113.70000070125378,22.232643351545065,15.288,0.0,0.0,0.0177081261985351,1.5941871344608664e-11,-1.560901486259027e-05,8.477542742712431e-10,2.495765160917323e-07,3.7687196576976176,56.27980129251342,6.025769493750979,48.280903250602165
0.15,31.22218540777004,131.01038560455507,3.377159065217065,3.821894709649632,0.000249725644238,46.56959330999435,0.0004643042952466,3.324387732286376,472.54218587214,6.441023336496372,2.6014999612196745,69.99996641132823,-2.546763407193136e-09,113.70000082794672,25.402620271850456,15.288,0.0,0.0,0.0189285691155931,2.2314099732464315e-11,-1.992367942778425e-05,1.1417519574710292e-09,3.4051816697623295e-07,3.821894717796148,54.501255563441134,6.441062563308839,46.68809885900716
0.16,31.22218531193176,131.01038586421257,3.4382223512025254,3.8463320955387794,0.0002733212404609,36.974247749122085,0.0004987816203583,3.3205066466509234,391.1218908297564,6.895451966878468,2.7877331692857847,69.99995397923414,-1.77088415515292e-09,113.70000096417354,29.113317717489338,15.288,0.0,0.0,0.0202640360420561,3.0367358387834494e-11,-2.4945905791363795e-05,1.5114297685186711e-09,4.5643121540033697e-07,3.846332105235269,52.641145594326446,6.895494900078523,37.12304892183151
0.17,31.222185210004127,131.010386140357,3.503019838429153,3.8860314262554336,0.000297865039677,46.520531453299206,0.0005306403365217,3.31650761597812,471.78125980632376,7.314788342774694,2.9619016331667103,69.99993849340957,-4.3039914767238207e-10,113.70000110959404,32.761746921137856,15.288,0.0,0.0,0.0214963781445172,4.0366633128431416e-11,-3.0713078585132897e-05,1.96747427715988e-09,5.961228045584824e-07,3.886031437653654,51.00464968745696,7.314835131305714,46.63860064094784
0.18,31.22218510147516,131.01038643438045,3.571950002194137,3.9107265153396016,0.0003214293682635,38.895647526122765,0.0005639254295027,3.312149448254175,407.10156721191447,7.754626295791602,3.1430587898572058,69.9999195084231,1.6149322372810674e-09,113.70000126508234,36.81988229018681,15.288,0.0,0.0,0.0227889722876034,5.2593391349219385e-11,-3.731786027786564e-05,2.525509173087448e-09,7.6786585232224e-07,3.9107265285284982,49.36615848311875,7.754676785798701,39.036415444581515
0.19,31.222184986476247,131.0103867459258,3.644912152926752,3.920599115663931,0.0003437679584038,43.86258669386953,0.0005989384366483,3.307389681300437,448.9531328318269,8.219206165926856,3.332657190859447,69.99989653019398,4.538529095696477e-09,113.70000143063515,41.36350714675367,15.288,0.0,0.0,0.02415428010977,6.735860419174937e-11,-4.481243905342629e-05,3.199401151670645e-09,9.773118416308382e-07,3.92059913071168,47.71893898797248,8.21926016487149,43.987104227715655
0.2,31.222184864792144,131.01038707557822,3.722074668489528,3.943376465171875,0.000367328732016,40.28070981710589,0.0006315894240138,3.30251450988504,418.51563019916136,8.65238089736321,3.511445117640573,69.99986902534273,8.534090245934178e-09,113.7000016067622,45.83799876721736,15.288,0.0,0.0,0.025427299120469,8.499785987217288e-11,-5.328041996372527e-05,4.006766070954748e-09,1.2232205148646746e-06,3.9433764822533854,46.2587826635041,8.652438597225508,40.41586552155969
0.21,31.22218473678744,131.01038742234647,3.803156063113743,3.9664546506877016,0.000390962054969,38.67679184347145,0.0006636984664108,3.297405915846789,404.8187610144644,9.079179692250786,3.688002035198235,69.99983642883521,1.3827831253856693e-08,113.70000179318536,50.47126980736161,15.288,0.0,0.0,0.0266815841422463,1.0586558589671407e-10,-6.275155280099118e-05,4.961340042512481e-09,1.5117124669161171e-06,3.9664546699249135,44.88773728276958,9.079241104426773,38.817098210937615
0.22,31.2221846022986,131.01038778667507,3.8882846911135607,3.956175711337521,0.0004112685792646,46.713636108302936,0.0007011135033803,3.291572407481395,472.5421858721365,9.580256326712124,3.889976788904857,69.99979815126248,2.0662823443484168e-08,113.70000199039316,56.195522894218605,15.288,0.0,0.0,0.0281541581291438,1.3033127211465288e-10,-7.330053770532661e-05,6.0817207473359025e-09,1.8632831045819008e-06,3.956175732680424,43.35679625546934,9.580320928629488,46.8294591882524
0.23,31.222184460898035,131.01038816972698,3.977794004014759,3.9879066397329104,0.0004360962274406,38.89105719050748,0.0007308686121188,3.286096544282012,406.3406421461021,9.977039034039262,4.056142701351626,69.99975353557706,2.9316661139418326e-08,113.70000219928508,60.9462612310605,15.288,0.0,0.0,0.0293202403623685,1.5880617816859538e-10,-8.505067486192354e-05,7.393319440773217e-09,2.2514912291167663e-06,3.987906663538912,42.20670487756048,9.97710753587448,39.0296395118868
0.24,31.222184313516166,131.01038856897196,4.070963590490852,4.003523997322975,0.000459165577055,40.0792299321398,0.0007630441688766,3.280134925833028,416.2328240017114,10.408422364424831,4.234121060914368,69.99970190737699,4.010976417051318e-08,113.70000241888,66.32994780718496,15.288,0.0,0.0,0.030588009649109,1.91711512587616e-10,-9.795845222523724e-05,8.904557280909524e-09,2.7052895870113487e-06,4.003524023611085,41.011349410369874,10.408494489985014,40.21323112692186
0.25,31.22218416001652,131.01038898478134,4.167901030441617,4.0261356185860135,0.0004830526730531,41.17760020658354,0.0007934613160587,3.2740610008587527,425.36408079150686,10.816813039390448,4.4041629376391525,69.99964258149416,5.3372865854010094e-08,113.70000264972064,71.63651430352668,15.288,0.0,0.0,0.0317882126436337,2.2947426169209347e-10,-0.0001121037688082,1.0637152702866709e-08,3.217380562698304e-06,4.026135647516394,39.93186687113378,10.816888917126896,41.30755663120434
0.26,31.222184000702686,131.0103894163294,4.26837241014618,4.053359329950934,0.000507503069958,44.80261175215926,0.0008224724146494,3.2678597736729302,455.8015834241788,11.207047269494833,4.567925492611352,69.99957484039399,6.947299261165984e-08,113.70000289176392,76.89781807056055,15.288,0.0,0.0,0.0329350617559806,2.7254099134167665e-10,-0.0001275114371842,1.260720913253598e-08,3.7915697709142366e-06,4.053359361668992,38.945390435244384,11.207126987890645,44.921630958721536
0.27,31.22218383516388,131.01038986473338,4.372698316214008,4.0614460923241,0.0005296455772492,41.029837477288126,0.0008548809954683,3.2610328932384265,423.84219965987256,11.645685385842508,4.748226940060522,69.99949794024376,8.879821051920497e-08,113.70000314600205,83.0342688744587,15.288,0.0,0.0,0.0342241635563461,3.2137296827284217e-10,-0.0001442952656441,1.4842505534226832e-08,4.458527942364847e-06,4.061446126801262,37.8838346421185,11.645768582375233,41.15922617924542
0.28,31.222183663504484,131.01039032970942,4.48079961904222,4.081133040992532,0.0005533279247169,47.27661484082626,0.0008845140695959,3.254218495915602,476.3468732012221,12.047344998676092,4.915789434712848,69.99941106884992,1.1178948978424788e-07,113.70000341275257,88.85982357848233,15.288,0.0,0.0,0.0354045979054623,3.764736350660473e-10,-0.0001625146963723,1.7365685655384934e-08,5.194620655212288e-06,4.081133078439725,36.956255322213885,12.047431915223257,47.38848224631549
0.29,31.22218348566054,131.0103908114315,4.592727908358551,4.1001100265020245,0.0005770279952742,37.989969791857405,0.0009138463939581,3.247164755122801,397.97031042211177,12.446314684600782,5.082367374004485,69.99931338876085,1.3891902435864665e-07,113.70000369260468,94.8417675268915,15.288,0.0,0.0,0.0365771315767517,4.3836067907166327e-10,-0.0001822432988888,2.0202163500922312e-08,6.018074062137429e-06,4.100110067036654,36.07377590258778,12.446405323946324,38.12849176886316
0.3,31.222183301933686,131.01039130907952,4.708251093558373,4.112858061667493,0.0005998635114143,35.655053282557844,0.000944131403186,3.2397207148238625,378.1859457108711,12.860033399289696,5.253940723820665,69.99920403105713,1.707002607527005e-07,113.7000039856728,101.2505662360602,15.288,0.0,0.0,0.03779301412572,5.075709863465428e-10,-0.0002035013069687,2.3370674033523645e-08,6.94335970778e-06,4.112858105337573,35.19685285507256,12.860127625629724,35.80193592228613
0.31,31.222183112488807,131.0103918222051,4.827243246502713,4.136140889545823,0.0006242383343011,37.56633644061071,0.0009716215464757,3.232339252743767,394.1656220930212,13.2364445751808,5.4126574282679245,69.99908210036875,2.0768081583188525e-07,113.7000042923011,107.26326115439352,15.288,0.0,0.0,0.0388992619788015,5.846561731689753e-10,-0.0002263323252403,2.6893437641668458e-08,7.948283231812338e-06,4.1361409365698805,34.43286455705216,13.236542630309057,37.70514091683033
0.32,31.22218291741533,131.01039235056504,4.949637017503345,4.1622282001352975,0.0006491019906456,40.83513712643371,0.0009979686925508,3.224840963348891,421.55939346242695,13.59846554462374,5.566374262777002,69.99894668612772,2.504388718903276e-07,113.70000461297312,113.2095365840355,15.288,0.0,0.0,0.0399632243410653,6.701756367872645e-10,-0.00025078340164,3.0793566854276295e-08,9.047716714467492e-06,4.16222825066026,33.72644865222576,13.598567505326,40.96227562489027
0.33,31.222182716732533,131.01039289410716,5.075419569102976,4.187801887681037,0.0006739743721461,40.48743503284469,0.0010239291638211,3.217136801802925,418.5156301991682,13.956637761217308,5.718704299733134,69.99879684673242,2.995902922462564e-07,113.70000494831164,119.25032483364384,15.288,0.0,0.0,0.0410158804634189,7.647061680070125e-10,-0.0002769136723495,3.509664608790402e-08,1.0253455741189656e-05,4.187801941818244,33.053267359159875,13.956743628864118,40.61505097607
0.34,31.222182510255863,131.01039345333336,5.204736257784645,4.19642921746386,0.0006961879027693,31.814592723444047,0.0010535137542081,3.208669900766693,345.46563688075645,14.367047160772364,5.88887983533068,69.99863160305904,3.557915789971256e-07,113.70000529927128,126.36523219087664,15.288,0.0,0.0,0.042222056531773,8.688448410811866e-10,-0.0003048202762282,3.9835373705550826e-08,1.1618525957862828e-05,4.196429275109305,32.30947868183619,14.367156517712404,31.97598901989736
0.35,31.222182298183583,131.0103940277045,5.337435501771672,4.210915783240843,0.0007193441544952,34.813487415034444,0.0010813034848195,3.200164272309822,370.5765700527033,14.754132934586384,6.050986755458457,69.99844991734221,4.1975736284587617e-07,113.70000566632532,133.26448209504355,15.288,0.0,0.0,0.0433596939127697,9.832256819293898e-10,-0.0003345386312107,4.503361101379695e-08,1.309465610343774e-05,4.210915844572415,31.63649055965014,14.75424592890194,34.96026256388454
0.36,31.222182080444604,131.0103946174141,5.4735747500461605,4.22903876037745,0.0007431682866607,39.2632255716727,0.0011077666085529,3.1915717453569297,407.8625232777193,15.124417129017054,6.2072589919251575,69.99825073022951,4.922382611919288e-07,113.70000605036684,140.03566173682628,15.288,0.0,0.0,0.0444479595865755,1.1084921261805627e-09,-0.0003661511460057,5.0723697896912267e-08,1.4691545926915382e-05,4.229038825557203,31.017264542603208,15.124533865618538,39.39272792946638
0.37,31.22218185710795,131.01039522227452,5.613102797925907,4.249164960780052,0.0007674149135003,37.28328237034959,0.001133274451316,3.1828514669894137,391.1218908297666,15.483077353331511,6.359470679857624,69.99803294268581,5.740349991123437e-07,113.70000645214331,146.75405277514704,15.288,0.0,0.0,0.0455020695186381,1.245311285088233e-09,-0.0003997125883071,5.6934243389647934e-08,1.641828325195534e-05,4.2491650299519,30.439178816713017,15.483197898584232,37.418894813348615
0.38,31.2221816281124,131.0103958424523,5.756069531572451,4.260095806433531,0.0007900626414612,38.9278000801764,0.0011607546399008,3.1735466295306622,404.8187610144602,15.87126705947922,6.521735074464384,69.99779542676283,6.659911329739736e-07,113.70000687263192,154.20298254405043,15.288,0.0,0.0,0.0466429667223463,1.3943646956867835e-09,-0.0004353006984059,6.369875435270817e-08,1.8328108041903096e-05,4.260095879559656,29.83470194713067,15.87139116222873,39.05694584372078
0.39,31.22218139339905,131.0103964781077,5.9025231349944285,4.274091258047817,0.0008133283308351,33.320076729592266,0.0011870382950339,3.164143363712209,357.64062493382744,16.24457853509073,6.678818328235205,69.9975369905506,7.690136753559805e-07,113.70000731287368,161.54010621938565,15.288,0.0,0.0,0.0477401448128051,1.5563705124515804e-09,-0.0004730068442167,7.105463478762673e-08,2.0383860516746246e-05,4.274091335289374,29.274934656826048,16.244706292406182,33.46997636540994
0.4,31.22218115316572,131.01039712870306,6.0523126585892895,4.286421841403391,0.0008363022448449,31.88018820767003,0.0012133780841982,3.1544430614236454,345.465636880754,16.62063299903514,6.836764518435374,69.99725641601981,8.840594270905819e-07,113.70000777359816,169.10340080049767,15.288,0.0,0.0,0.0488453895716005,1.7320643186450851e-09,-0.0005128553637434,7.9027539265021e-08,2.2612406375611563e-05,4.286421922834417,28.730746964325096,16.620764365084565,32.03586915718869
0.41,31.22218090752676,131.01039779392735,6.205351877049411,4.30025870409831,0.0008595777771371,35.882550741685804,0.0012389121673015,3.1445895889870297,378.94687077668647,16.987310563534386,6.99141560549392,69.9969524610574,1.0121301778427253e-06,113.70000825570062,176.64448930727934,15.288,0.0,0.0,0.0499230826371405,1.922193031274436e-09,-0.0005548883906878,8.764667734700782e-08,2.5005077415911235e-05,4.300258789847355,28.21875643368965,16.987445585695873,36.020076248499606
0.42,31.222180656535848,131.0103984736348,6.36160173428776,4.322008670726048,0.0008844838439129,40.34064925656127,0.001261804338223,3.134918999355981,416.2328240017114,17.318628721060172,7.133856886815013,69.99662385300175,1.154276942054023e-06,113.70000876021427,183.59942989625057,15.288,0.0,0.0,0.0508968652507098,2.1275184665783874e-09,-0.0005991661829955,9.694534598491077e-08,2.752657757470936e-05,4.322008761057615,27.772396468009568,17.318767655457478,40.462275036947325
0.43,31.222180400205527,131.0103991677914,6.521055075967404,4.339436441324956,0.0009085827200945,35.541853595187746,0.0012854696362701,3.124839917627212,375.9031395134336,17.662848429084132,7.280642039343927,69.99626930133451,1.3115939750280808e-06,113.70000928827632,190.96736675963504,15.288,0.0,0.0,0.0519085689713619,2.3488101247838237e-09,-0.0006457514522491,1.0695800287133593e-07,3.0255957891170616e-05,4.339436536261635,27.322335771349252,17.662991148924057,35.67895714766603
0.44,31.22218013836212,131.0103998768696,6.683849332059896,4.342209064313268,0.0009296474314902,32.82948243168077,0.0013129688908547,3.113754688841357,353.0750125389216,18.063580761318697,7.446730341918701,69.99588746395321,1.4852372182848018e-06,113.7000098413532,199.7278270846888,15.288,0.0,0.0,0.0530863610987301,2.586862292117705e-09,-0.0006947575786514,1.1773083546077225e-07,3.329010177793299e-05,4.342209163639375,26.81344244367223,18.06372678999575,32.9768158972058
0.45,31.22217987077456,131.0104006014978,6.850166573233225,4.3420317510315165,0.0009500780330031,38.11022602597878,0.001341042003417,3.1022288449712887,397.2093853562869,18.47486275310604,7.616350301328129,69.99547690348253,1.6764536248320808e-06,113.70001042108892,208.92306716049887,15.288,0.0,0.0,0.0542951637545535,2.842521175226318e-09,-0.0007463379956615,1.2932090054593452e-07,3.657529369088674e-05,4.342031854775571,26.30944884471334,18.47501199101448,38.23628058998621
0.46,31.22217959739673,131.01040134180155,7.020045503401754,4.351169003849846,0.0009725797783515,44.3937050866137,0.0013660055515545,3.09098240974522,449.7140588976434,18.844323061800488,7.771531995684422,69.99503610583268,1.8865779683531e-06,113.70001102895836,217.3591612614144,15.288,0.0,0.0,0.0553810645782081,3.1166808800591503e-09,-0.000800596194505,1.417768495237597e-07,4.001824400409673e-05,4.351169112337076,25.873596578896564,18.844475834274814,44.50118229261506
0.47,31.22217931813738,131.01040209802923,7.193559875579052,4.358630093683735,0.0009947969928181,30.22514089990685,0.0013910994973101,3.079396422776949,331.0078106302534,19.2180591098146,7.9280875671397615,69.99456352718363,2.1170044481277104e-06,113.70001166656292,226.0625808853568,15.288,0.0,0.0,0.0564795377574197,3.4102493884459798e-09,-0.0008576351980594,1.551487523304888e-07,4.3718862242359527e-05,4.35863020698899,25.44665981168229,19.218215372160817,30.381603425148434
0.48,31.22217903348153,131.01040286886197,7.370336324605091,4.365514409145237,0.001016880998596,29.779838936311712,0.001416009414045,3.067527859335786,327.2031223011574,19.5915905767454,8.084483592791102,69.99405758812365,2.369198154608765e-06,113.70001233476164,234.93171707892955,15.288,0.0,0.0,0.057577416115756,3.7241711041759195e-09,-0.0009173883913609,1.6944871263079066e-07,4.767297940601472e-05,4.365514527349481,25.03354780044292,19.59175030803913,29.937410312943754
0.49,31.22217874361868,131.01040365378466,7.5502307795521535,4.3786401372577615,0.0010404145545081,37.2489281064929,0.0014385799934191,3.0558405437943126,389.60000969812296,19.93403005898306,8.23012235628909,69.99351671352461,2.644660619562788e-06,113.700013034871,243.21198709852868,15.288,0.0,0.0,0.0585839249886784,4.059374595909599e-09,-0.0009798792959512,1.8470833984680338e-07,5.180951737438081e-05,4.378640260624215,24.667474291142685,19.934193486919103,37.37406598941686
0.5,31.22217844858332,131.0104044527036,7.733219389747018,12.84648864111527,-9.17013630342755,38.533994175402746,0.7067505291889054,2.375581725478592,397.97031042210494,22.2365691677019,8.366189013561664,69.99293932307316,2.9449363413826395e-06,113.70001376847225,302.6374653994347,15.288,0.0,5.010313955797237,0.0653509694426456,4.416703151082342e-09,-0.0010538516203957,2.098572043595796e-05,6.215577343386272e-05,15.738722843304531,17.6488600145113,20.80226930870718,38.61361925480322
0.51,31.222178148336607,131.01040526495913,7.919271181320106,12.73925737101319,-9.044763320943424,29.626028218377307,0.722772713755851,2.347687018321271,323.3984349720841,22.581109151778914,8.506029779685106,69.99227791056734,-8.265040794833573e-05,113.69992309629431,312.08285413505985,15.288,0.0,5.030199046697336,0.0663636759908174,4.7941821700619885e-09,-0.0012814478645329,-0.0001472658550034,7.674899173207675e-05,15.580168584515162,17.46502099426043,21.16625455906711,29.727690504441018
0.52,31.222177842587456,131.01040609018148,8.108415802380582,12.63001387231119,-8.921254863347698,35.465503808870565,0.7394380876950145,2.31888395069426,372.0984511843415,22.93437470813837,8.64882153525318,69.99148436701365,-0.000435787880577,113.69954770337364,321.91802099007487,15.288,0.0,5.050018689938212,0.0674020328011211,5.1576367951348435e-09,-0.0015158681224573,-0.0003195345527452,9.220763932957456e-05,15.421110709266696,17.278469176593507,21.53868281966978,35.54892335752707
0.53,31.222177531198927,131.01040692873923,8.300765686720602,12.525341815082152,-8.802332162773038,37.20921662167549,0.7561833765696969,2.289783054499612,386.5562464348624,23.284151434757813,8.79013785481049,69.99055467546864,-0.0010629315182454,113.69888070743364,331.80604242175053,15.288,0.0,5.069775777542618,0.068430143143339,5.5072722197782665e-09,-0.0017574185878894,-0.000496002873585,0.0001085290968429,15.268434630046924,17.098682362230175,21.90691688642952,37.28727291361551
0.54,31.222177214069006,131.01040778087616,8.496398616400711,12.424097964387746,-8.687150880491693,32.7571594334294,0.7730674995609423,2.2602997344217672,349.2703242098436,23.63205324665296,8.930549071018497,69.98948469984822,-0.0019706999507477,113.6979150607266,341.78910511316167,15.288,0.0,5.089484522630042,0.0694527502928659,5.843311498765289e-09,-0.002006347761155,-0.0006768065853832,0.0001257506006519,15.120729412959676,16.924325922853335,22.272701010425877,32.84414837372736
0.55,31.22217689146928,131.0104086458206,8.695102699795934,12.329212833779312,-8.577608954111493,34.6831644691554,0.7898883522344115,2.2307295852139903,365.2500005919907,23.97220772882843,9.067990520361406,69.98827024970716,-0.0031657357201179,113.69664368857067,351.6924785825336,15.288,0.0,5.109121749502965,0.0704525955528632,6.166021073055241e-09,-0.0022624653506607,-0.0008617717632767,0.0001438414600944,14.98145615661662,16.75886614912464,22.62986737197752,34.76380266434942
0.56,31.222176563397426,131.01040952354683,8.896878634760254,12.242662361623456,-8.47494396670467,32.415439282563504,0.8064830019872398,2.201316623687882,346.2265619465787,24.300091176623845,9.200866377678446,69.98690715711388,-0.0046545582068609,113.69505964672156,361.3719235810215,15.288,0.0,5.128687002199162,0.0714163840016521,6.4756776629858474e-09,-0.0025259115126864,-0.0010509577052431,0.000162784007021,14.852926787248869,16.604649690132288,22.97369916475905,32.500106362776414
0.57,31.222176229921885,131.0104104138374,9.101672346860932,12.15361659959545,-8.371802360311827,32.06181728569457,0.8235419091793088,2.171039466463756,343.1828296833023,24.635865622619427,9.336323341104748,69.98539122237125,-0.0064436664304405,113.693156011408,371.42036630771855,15.288,0.0,5.148171614848295,0.0724033704855233,6.772586551940178e-09,-0.0027967178806794,-0.0012443474606898,0.0001827231798524,14.72214743763848,16.44897426325155,23.32550028369744,32.14578916907129
0.58,31.222175891018143,131.010411316728,9.30950194858404,12.055245883476193,-8.26362760558583,42.019387512435245,0.8415678191630945,2.139140761053389,426.1250058573153,24.99354477866179,9.479313564143046,69.98371818202453,-0.0085395993125812,113.69092581535293,382.27606325293806,15.288,0.0,5.167575467525917,0.0734547408584649,7.057067497454522e-09,-0.0030750338613691,-0.001442005861358,0.0002038197430941,14.58096119370553,16.283747552722435,23.69999275045116,42.08221817478316
0.59,31.222175546286703,131.01041223327283,9.520676301952316,11.972957796128105,-8.167332324933833,34.18357523104325,0.8587999728294144,2.108246155266564,360.68438819711065,25.32249339729712,9.611909059528813,69.98188351972304,-0.0109492925378491,113.68836166828729,392.3968573422061,15.288,0.0,5.186920636436874,0.074421681202306,7.329420883073683e-09,-0.003361533848231,-0.0016443581479683,0.0002257374633885,14.45966599360901,16.138883784376276,24.043912166200204,34.25929151078466
0.6,31.22217519593279,131.01041316288163,9.735035321976053,11.87285106681265,-8.06035761143886,30.451874515788447,0.8776528789151661,2.0747358824086897,329.4859594986058,25.691411916744364,9.758409076124687,69.9798825976656,-0.0136797432630273,113.68545611511192,403.90533787383686,15.288,0.0,5.20619330014502,0.075506098906035,7.590021270724276e-09,-0.00365607649223,-0.0018512650314564,0.0002490886803382,14.317825643236564,15.974360452363513,24.429466021376538,30.535085804414372
0.61,31.222174839905502,131.0104141056607,9.952617644079895,11.771892899895905,-7.953984445447646,35.57776614078741,0.8969643890306161,2.0403397507441143,372.0984511843297,26.06662570174708,9.9068992802831,69.97771076366395,-0.0167381150605779,113.68220151412685,415.7805848871718,15.288,0.0,5.225397852519636,0.0766090262355673,7.839225588133557e-09,-0.0039588759000946,-0.0020628316940914,0.0002736518421332,14.175664457188049,15.8101420242722,24.82122595926291,35.647510081101245
0.62,31.22217447831372,131.01041506128155,10.173338013670255,11.702982491390497,-7.8697388388381215,44.08685806773641,0.9141603857103698,2.0089581112709807,442.86563930529206,26.376444102768783,10.03207584443999,69.97536313176983,-0.0201316851242362,113.6785901093387,425.71393115468544,15.288,0.0,5.244539438906516,0.0775197661928311,8.077436785923615e-09,-0.0042699874385378,-0.0022790541909472,0.0002986587969132,14.07223583289299,15.685235454404635,25.14415166039376,44.14207353748098
0.63,31.22217411097468,131.0104160302116,10.39733758151527,11.626292250747577,-7.78134466192153,25.272915244454044,0.9322347829741412,1.9760654660591168,286.11251274707894,26.70521703394404,10.163728856125708,69.97283495750338,-0.0238674487954576,113.67461444071756,436.383430039536,15.288,0.0,5.26358906390751,0.0784862206591782,8.305067211222327e-09,-0.0045897485909042,-0.0025001185508878,0.0003250185398504,13.960144846096677,15.552509304325415,25.486680208096917,25.367186311652613
0.64,31.22217373845633,131.01041701087513,10.624175289364768,11.536425541632264,-7.685346877638874,24.824124951636044,0.9517043218408688,1.9408596498702424,282.30782441796754,27.066415226857977,10.306622152249677,69.9701213843686,-0.0279524343196979,113.67026701325037,448.2579989478278,15.288,0.0,5.282561981619654,0.0795479801421856,8.522618357939706e-09,-0.004917486678019,-0.0027255299565692,0.0003529292051564,13.833017379356512,15.405400218414648,25.862820550549063,24.91806286433888
0.65,31.22217336073699,131.0104180033026,10.853867589233468,11.470032350005908,-7.605507252032811,43.39833135111599,0.9695375410741848,1.9079684489885809,436.7781447787475,27.376847736044773,10.431415873525468,69.96721772078727,-0.0323934982509202,113.66554050520662,458.5892499429584,15.288,0.0,5.301421900991583,0.0804605473266458,8.730546758623109e-09,-0.005253412841737,-0.00295539151977,0.0003813546609862,13.734252562842132,15.287540399866144,26.18568275133942,43.45107030565698
0.66,31.22217297732012,131.01041900881808,11.086799316249532,11.399577787061144,-7.523907806820237,37.008090707395766,0.9879881802445712,1.8739519807515084,383.51251517160017,27.69841518263066,10.559922855820345,69.96411905162361,-0.0371975092898166,113.66042759199436,469.4151654741924,15.288,0.0,5.320209656152246,0.0814058478786849,8.929316969424199e-09,-0.0055983577601375,-0.003190216660271,0.0004111591332604,13.631205710741066,15.16614152771777,26.519956253733927,37.06867403181962
0.67,31.22217258838312,131.01042002690923,11.322832532446858,11.317697342563363,-7.43584559621111,25.67185477513248,1.0077549542939872,1.8377215657907453,289.1562440103425,28.049436462077217,10.698600958670209,69.96082030608525,-0.0423718171337968,113.65492042274488,481.37741650382907,15.288,0.0,5.338937703101929,0.082437721544986,9.119447179035207e-09,-0.0059522027412683,-0.0034298834105178,0.0004426764158224,13.51518618708904,15.032339764773472,26.884692603470025,25.757269230195362
0.68,31.222172194086887,131.01042105710914,11.561842157475391,11.24063205919356,-7.351724198402578,31.905275062374244,1.0274184619836102,1.80145261821262,340.8999924858462,28.3915252702837,10.83393594442678,69.95731623519137,-0.047923687731245,113.6490112449667,493.1793826721761,15.288,0.0,5.357536727804035,0.0834433507702047,9.301498670084582e-09,-0.0063148811843723,-0.0036743057921067,0.000475366386972,13.405360873750968,14.905568537850977,27.23988529805287,31.972603851382665
0.69,31.22217179450573,131.01042209918788,11.80377046111712,11.176765954565752,-7.2768467138170205,39.149661217320286,1.0461608458873537,1.7664286292224889,401.0140726853634,28.70329671760034,10.958394671360018,69.95360175887586,-0.0538602776990002,113.64269240889078,504.058490867188,15.288,0.0,5.3760610505167366,0.0843598845305629,9.476031004002712e-09,-0.0066864140229952,-0.0039234562062654,0.0005088496931131,13.311592798730914,14.795739744144514,27.56332276397077,39.20345260367455
0.7,31.22217138950339,131.0104231534906,12.048723148005935,11.113035607710051,-7.202819422224704,32.93251723625909,1.0651582897524507,1.730827024419613,349.27032420985284,29.016160880371466,11.083039880827148,69.949671650363,-0.0601885949164556,113.63595643261878,515.0946737622229,15.288,0.0,5.394513387705988,0.0852796377381178,9.643632398096769e-09,-0.007067146149625,-0.0041775189879723,0.0005436736431774,13.2184440900134,14.687249326250924,27.887722398043422,32.99516655340887
0.71,31.22217097912868,131.01042421985815,12.296662435462537,11.042167454603357,-7.125007265558328,27.16979544598777,1.0851272936288,1.6935134181610676,301.33126406340574,29.34870132489217,11.214425613384934,69.94552065424125,-0.0669158156485524,113.6287956435117,526.9562924810532,15.288,0.0,5.4128385192867965,0.086257228461827,9.804915288758229e-09,-0.0074571314062409,-0.0044364865790632,0.0005802359062751,13.117334856796107,14.571454289552296,28.23239012937957,27.244142003698474
0.72,31.22217056337995,131.01042529826873,12.54758967661696,10.962781540794504,-7.042610475991013,33.13633029652133,1.1062895084717908,1.6541304596637727,350.79220534145287,29.70576193852865,11.354244499438892,69.94114334891509,-0.0740492268969144,113.62120225121508,539.8433368511469,15.288,0.0,5.431091332555472,0.0873068937428026,9.960514117152733e-09,-0.0078565400296833,-0.0047004271491044,0.0006187361271888,13.00667491392172,14.446565310955709,28.60229480427361,33.196030027313505
0.73,31.22217014225052,131.01042638871385,12.80151021307288,10.906168427974924,-6.975254964120534,41.76520672777241,1.1254292426345327,1.6177434583734418,422.320318528234,30.00467914950481,11.47340251486789,69.93653410945194,-0.0815963495912526,113.61316821386863,550.7490249886032,15.288,0.0,5.449275292187076,0.0881856807535486,1.0111083882819865e-08,-0.00826557901808,-0.0049694318606666,0.0006574839111182,12.923198826086477,14.35004601145224,28.91171312950636,41.81167513854058
0.74,31.222169715675047,131.0104274913476,13.058475062624025,10.842959996783476,-6.904427602478292,26.36855175660497,1.145505395092051,1.5796861517042935,294.48281347105944,30.32217547093584,11.598910939862732,69.9316874252575,-0.0895643880755891,113.60468582358249,562.4523804499886,15.288,0.0,5.4673427716936125,0.0891190812173093,1.0257309545586382e-08,-0.008684448011665,-0.0052435852194433,0.0006980953098017,12.832376864347069,14.246780968863929,29.24025347565064,26.44065265247487
0.75,31.22216928400289,131.01042860519183,13.318213497084592,10.775809780171892,-6.831820009630269,30.688444554989285,1.1663040283641,1.5402881959911312,330.24688556441487,30.65195211492467,11.72856413112992,69.92659766368403,-0.097960558859454,113.59574735894364,574.7387645438566,15.288,0.0,5.485313348653327,0.0900885827796415,1.0399946092952077e-08,-0.0091126958138438,-0.0055225545261348,0.0007404680483685,12.737335350603676,14.139854291294917,29.581353449661197,30.749201323252926
0.76,31.222168847122006,131.01042973052924,13.580812972026331,10.716864334750197,-6.764962746294255,32.991691438732325,1.1864844556171923,1.50168170602142,349.27032420986166,30.960364668115368,11.85051935463395,69.9212592973648,-0.1067920009502503,113.58634516953988,586.3479295873295,15.288,0.0,5.503202306772541,0.0909953019758974,1.0539704600067125e-08,-0.0095506912806273,-0.0058065335777943,0.0007838468792086,12.65229057107252,14.043810825284565,29.900194075902764,33.047155661238754
0.77,31.22216840497253,131.0104308675006,13.846320497797093,10.660250158401064,-6.700160873483328,30.88954449185457,1.206660800149908,1.4628923584182425,331.7687666960708,31.263045931020063,11.970277497957856,69.91566654599154,-0.1160658606363912,113.57647160581855,597.8534849364709,15.288,0.0,5.521002099120708,0.0918851847318283,1.0677353616045442e-08,-0.0099986892992253,-0.0060956411562489,0.0008286166348158,12.570338473322176,13.951606344920169,30.212984199759862,30.94769851302678
0.78,31.222167957614538,131.01043201591983,14.114690125726115,10.597479843547791,-6.632163199659522,25.480111631449525,1.2278099333005603,1.4223455742478568,286.8734378128899,31.58422524350756,12.096370159290124,69.90981371896592,-0.1257893011949569,113.56611898454564,610.1848932127809,15.288,0.0,5.538680996527443,0.0928294435780968,1.08136792970817e-08,-0.0104567017767546,-0.0063898408358166,0.0008754534192731,12.481545741970352,13.853062716351427,30.54477235073634,25.549298873276804
0.79,31.222167505131143,131.01043317553763,14.38585803738706,10.531519506500953,-6.562830467877276,35.95952181355639,1.2496477265693395,1.3804900536527067,373.6203323159534,31.916149073116497,12.226069119954374,69.90369486018817,-0.1359694992180553,113.55527961695805,623.0611252773914,15.288,0.0,5.556272610716952,0.0938052904949441,1.0949517914823664e-08,-0.0109247338809491,-0.0066890926115385,0.0009242259001433,12.389393286008708,13.75165642512605,30.887514818783515,36.00770169405973
0.8,31.22216704730188,131.01043434693543,14.659996171527284,10.478693012384555,-6.502110134707586,36.42892649891651,1.2701730798851274,1.3405562463296008,377.42502064505743,32.210219660130164,12.342272218307256,69.89730396805135,-0.1466138330670407,113.54394558568968,634.5788960344609,15.288,0.0,5.573790175876693,0.0946698911140464,1.1085674945193166e-08,-0.0114034043141087,-0.0069937408316917,0.0009735842936454,12.312904713806562,13.667014401283916,31.19106140839273,36.47570584054405
0.81,31.222166584224286,131.01043552982594,14.937029691365048,10.418244711593935,-6.437313810704771,23.93807582823836,1.2919040491211746,1.298474923476047,273.9374926939919,32.52785528065775,12.466587857169287,69.89063495365022,-0.1577295616964408,113.53210910113548,647.1389732489484,15.288,0.0,5.591224724903201,0.0956037610203381,1.122303787265614e-08,-0.0118926287136426,-0.007303686962947,0.0010253380752216,12.227867303544253,13.57415010018438,31.518810391998127,24.008051306957874
0.82,31.222166116080388,131.0104367236903,15.216818199289367,10.354934429945557,-6.371335765007688,30.56447808001216,1.3142944907942085,1.2551120633991744,328.72500443277005,32.855288886706965,12.594190514660148,69.88368169454571,-0.169323900154684,113.51976241443316,660.2153361144317,15.288,0.0,5.60853506843651,0.0965664374602667,1.1362522031545845e-08,-0.0123922135176774,-0.0076187659337051,0.001079136305591,12.139822580895784,13.478808582671544,31.856543129348037,30.618458429577508
0.83,31.22216564285068,131.01043792856203,15.49937785502498,10.307088170494948,-6.315220227527348,38.666243512441525,1.3349354968010068,1.2143999014552416,395.68750322465047,33.13539224093192,12.704984390431244,69.87643793043145,-0.1814040580673485,113.50689778216302,671.5022540628601,15.288,0.0,5.625756074842411,0.0973900121416039,1.1505050102356433e-08,-0.0129023984967921,-0.0079390823703139,0.0011331121804211,12.070069736650025,13.4030189746083,32.14540712631081,38.70833511357341
0.84,31.22216516442812,131.0104391447171,15.78479300063964,10.256560483533804,-6.257983236976576,24.140401878119043,1.3561499482114787,1.1725578957016172,275.4593748256452,33.42387726255682,12.818557927342503,69.86889756445397,-0.1939770275688083,113.49350767980876,683.2269588514838,15.288,0.0,5.64289339968084,0.0982382303278351,1.1651551714077934e-08,-0.0134235017817631,-0.0082647871733951,0.0011891074207455,11.99749317558763,13.324902995301612,32.44282884784742,24.206879962892774
0.85,31.222164681100583,131.01044037134844,16.07284125361212,10.194216075948088,-6.194176968594928,26.263036380540072,1.3792476705771777,1.127421849391842,292.96093233939376,33.75065548867033,12.945450205193326,69.86105430441745,-0.2070496808500245,113.47958471739976,696.6325268622154,15.288,0.0,5.65993334204153,0.0991990072654365,1.1803052132991048e-08,-0.0139550583095912,-0.0085955493362475,0.0012482463075447,11.911500138843188,13.233407274180276,32.77957062197442,26.323382839005518
0.86,31.22216419269392,131.01044160891627,16.363659214218888,10.14129845868614,-6.1365019202555855,32.713483965888315,1.401314579076414,1.0837725286844389,346.2265619465587,34.04763310872373,13.061702993104127,69.85290179723422,-0.2206291466075812,113.46512121489414,708.9262340025567,15.288,0.0,5.67688745751591,0.1000722041622511,1.1960518837661569e-08,-0.0144976513083308,-0.0089316820614142,0.0013081539877781,11.83673193917178,13.154150193921575,33.08555541751568,32.76141447846681
0.87,31.22216369922948,131.0104428573457,16.657231672727146,10.092923042437512,-6.08198584375354,30.51182950949188,1.422955454056531,1.040623136456148,327.964078366998,34.329674027907885,13.172547101385735,69.84443351840592,-0.2347223866135416,113.45010967667028,720.6996475341679,15.288,0.0,5.693744716401035,0.1009015080940787,1.2124999589495128e-08,-0.0150513823144062,-0.0092732011004119,0.0013693299753903,11.7674957323097,13.081247472405927,33.376111068474934,30.56271320993371
0.88,31.22216320074016,131.01044411653115,16.953534553631698,10.038819848439408,-6.024527050371527,26.466667839504648,1.4456628502053177,0.995500938162127,294.4828134710418,34.63075458169814,13.2899411689211,69.83564307000061,-0.2493362828639365,113.434542674807,733.3756750763998,15.288,0.0,5.71049398086922,0.1017867819865648,1.229755100141876e-08,-0.0156162734050169,-0.0096200736516889,0.0014331414208112,11.69189432746675,13.002286574111755,33.68616690403434,26.524808570864657
0.89,31.222162697304142,131.01044538624257,17.252508677303474,9.979210297373209,-5.964294054025856,28.960725481688243,1.4694683832054651,0.9483401857118644,315.028134248087,34.95100668838937,13.413937002112773,69.82652383686525,-0.2644776832561016,113.41841282153352,746.9809046598941,15.288,0.0,5.727152707275877,0.1027284141501697,1.2479276608522112e-08,-0.0161923403738662,-0.0099722634789089,0.0014997073956288,11.610200285955628,12.91747968800524,34.01582865325534,29.013484914135756
0.9,31.222162188845143,131.01044666667488,17.554214922656783,9.934662791007831,-5.913352218570815,31.916993352004404,1.4912405288319268,0.9043557111651364,339.37814235421445,35.219710579560214,13.51964567385062,69.81706898675496,-0.2801535942667578,113.40171255574975,758.4886790111353,15.288,0.0,5.743727119652206,0.1035185442204629,1.2671292836723228e-08,-0.0167799490024368,-0.010329944748629,0.0015660335241373,11.546162668026362,12.851704843784075,34.29249152213415,31.96460733685057
0.91,31.22216167543087,131.01044795762903,17.85860242503075,9.884483328472315,-5.859527139593958,24.457318915243768,1.5140989094182322,0.8583511960826266,277.7421810230789,35.50757023137874,13.63195280756394,69.80727198278593,-0.2963706498904302,113.38443469538296,770.9154522609188,15.288,0.0,5.760212300986755,0.1043649860515984,1.2874741818766691e-08,-0.0173790621421849,-0.0106930477919508,0.0016351561425581,11.475867620914748,12.779913135858028,34.588761415985616,24.519170271549942
0.92,31.22216115725776,131.01044925855064,18.165520220920754,9.828912357174447,-5.802983917648279,28.98141548126584,1.5380644109991763,0.8102741957218765,315.02813424806214,35.8145293073236,13.750856423009584,69.79712602355019,-0.3131354235865695,113.3665721297982,784.2789075934616,15.288,0.0,5.776600491826471,0.105267574534683,1.3090836035384097e-08,-0.0179893495370995,-0.0110613294354116,0.0017071585037444,11.39960246720796,12.702364144399668,34.904556320699285,29.03350873908268
0.93,31.22216063423527,131.01045056967735,18.475040601979224,9.78689987545276,-5.754714497297907,34.33822579046767,1.560063734715282,0.7652883629562299,359.1625070654728,36.07278411764309,13.852478609002404,69.78662430735761,-0.330454465913343,113.34811776036328,795.6067419521901,15.288,0.0,5.792899990393347,0.1060270182574152,1.3320757152732912e-08,-0.0186112526117483,-0.011435006598344,0.0017788588706118,11.339189505509491,12.642021104900826,35.17035474075527,34.38216420721635
0.94,31.222160106254364,131.0104518913009,18.787250436668494,9.733167815877689,-5.700056196786453,25.119350909153752,1.5842130882796457,0.7164656948871728,283.0687504837787,36.372926289789554,13.96871611309397,69.77576005286313,-0.3483340802718212,113.32906474682808,808.8771955411225,15.288,0.0,5.8091105598008514,0.1069095884903605,1.3565726790450873e-08,-0.0192450854875223,-0.0118142177145268,0.0018546898348846,11.26551605964727,12.568229897443798,35.47903975837298,25.179452819674818
0.95,31.222159573597366,131.0104532226295,19.101932063950425,9.681420220821188,-5.646941038114301,32.32382314381499,1.6082828041190191,0.6675527425969165,342.4218736174873,36.66582056652015,14.0822851686855,69.76452623104714,-0.3667807736560295,113.30940602484397,821.931828464217,15.288,0.0,5.825225716190242,0.1077708644044982,1.3827045806928835e-08,-0.0198903832985222,-0.0121986415002762,0.0019322558902901,11.194354830686198,12.497582968383124,35.780236473904736,32.37069265361499
0.96,31.22215903597566,131.01045456445274,19.41931224034306,9.636487982089738,-5.59811484625559,31.684937248162218,1.6314035793507589,0.6200293372781553,337.09533515678345,36.93287790877616,14.186618266932529,69.75291579613683,-0.3858008879136383,113.28913470006212,833.9231747681744,15.288,0.0,5.84125442218145,0.108556207662694,1.4105964332191534e-08,-0.0205480259456521,-0.0125887477152769,0.0020106204531132,11.131241907935031,12.435963687022616,36.05492651741808,31.732966492872702
0.97,31.222158493407665,131.01045591671135,19.739378866532768,9.588590039755674,-5.547950843228824,20.5179183942742,1.655249857636217,0.5710532027714255,245.02188719299323,37.210309062958494,14.294478035365136,69.74092153275697,-0.4054008328699025,113.26824379819072,846.4726807779141,15.288,0.0,5.857190151998553,0.1093720515486891,1.440381644400842e-08,-0.0212181145424652,-0.012984545528462,0.0020917200363068,11.064933472314996,12.371488461198188,36.34020016869616,20.59249691236339
0.98,31.222157946174136,131.0104572786186,20.06191561295517,9.52978251831925,-5.491952958931754,29.5743482931954,1.6813179451510547,0.5180554718799559,319.5937466429581,37.52928823134346,14.416880212420883,69.72853620249275,-0.4255868515908925,113.24672651501476,861.0207020299177,15.288,0.0,5.873032339412362,0.1103100266885628,1.4722006314849384e-08,-0.021900044461091,-0.0133856339653531,0.0021773856695908,10.986331729712276,12.294443318796896,36.66793467409404,29.62663140608229
0.99,31.22215739412912,131.01045865057105,20.3870384421758,9.490195629122775,-5.447223184885805,32.26021359255737,1.7040855437167106,0.4704731323712629,341.6609485517054,37.77352075401476,14.512805427723215,69.7157523806184,-0.4463652702285355,113.224575950843,872.2366040398083,15.288,0.0,5.88879271072194,0.1110283079039734,1.5061895146166145e-08,-0.0225944726498836,-0.0137923466526957,0.0022609770270109,10.929960677396204,12.241507612093184,36.91916134258717,32.30861546934518
1.0,31.222156837270777,131.01046003256954,20.7147513132588,9.44000573245969,-5.396832595380189,28.939762016972008,1.7290311731705217,0.4189333786058943,314.2672081822764,38.058217366276125,14.622889022970847,69.7025628658116,-0.4677418610081634,113.2017857885704,885.4062654004734,15.288,0.0,5.904466582053187,0.1118655348364266,1.5424903521180338e-08,-0.0233014340124696,-0.0142046534538125,0.0023492211153184,10.861644960195392,12.176360868455138,37.21173787438082,28.99439393352586
1.01,31.222156275774086,131.01046142412113,21.04492040528193,9.391933908980391,-5.347978477449469,30.239912905881663,1.7537927891995369,0.3674763183591154,324.9203161036979,38.33394851505454,14.729708558112923,69.6889601679992,-0.4897226264454631,113.17834945740287,898.2537613604146,15.288,0.0,5.9200517633711405,0.1126764185616818,1.5812508220513993e-08,-0.0240206783976641,-0.0146223610804696,0.0024392024966786,10.795949302985292,12.114481434764448,37.49510929933072,30.292955625810293
1.02,31.222155709564195,131.01046282543,21.37760664826152,9.346940961112423,-5.301179447448986,25.344652254023,1.7781524442269847,0.3164813247259367,284.59063161540416,38.59642895803912,14.831745333084456,69.67493682259409,-0.5123132479673143,113.1542607239958,910.567835524774,15.288,0.0,5.935551958024199,0.1134483631094067,1.6226179978274922e-08,-0.02475255588856,-0.0150456211198493,0.0025306514231018,10.733961362126228,12.057046317234317,37.76490919609724,25.408923322745572
1.03,31.222155138707148,131.01046423630933,21.71276128742891,9.294888527912988,-5.250763104874287,20.8164571933439,1.8041293810050745,0.2624521116809505,247.30469339049705,38.88681999473975,14.943544815015189,69.66048546918609,-0.5355192203973896,113.1295135368898,924.2914494569544,15.288,0.0,5.95096440097618,0.1143023559136754,1.666742744584499e-08,-0.025497003136606,-0.0154743472101659,0.0026262903688311,10.664100721603845,11.99165820227642,38.06318606146475,20.896139691738533
1.04,31.22215456326209,131.01046565659004,22.050340887714373,9.25008393728707,-5.2047051411774845,32.756093332194105,1.8288572434297712,0.2103482045411796,345.46563688072297,39.146639103362496,15.04445261858448,69.64559838463146,-0.5593461743577013,113.10410169958529,936.653495435459,15.288,0.0,5.966291218477276,0.1150664960912519,1.7137809738003342e-08,-0.0262540752317974,-0.0159085212795112,0.0027222518365982,10.602693902755636,11.935796197280096,38.33020984425212,32.80778285058913
1.05,31.222153982954303,131.0104670870396,22.39056259362721,9.19966045986914,-5.155847119705755,19.98987432610089,1.8549460781725848,0.1556378324589312,240.45625879819983,39.428838218887215,15.153167106726643,69.63026791726553,-0.5837994651486546,113.07801929809456,950.175358080872,15.288,0.0,5.981540624344205,0.1158964289418046,1.7638856332801757e-08,-0.0270246830484477,-0.0163486078371555,0.0028222630487089,10.535063031188717,11.873728322061003,38.62005221301106,20.076357330480242
1.06,31.22215339801217,131.0104685270172,22.73325114311992,9.144561139777386,-5.104734311413262,28.23229514399471,1.882283440279452,0.0984960533682358,308.17968365593924,39.73031590030014,15.268619959687989,69.61448609059472,-0.6088846956702255,113.05126014445077,964.72946509362,15.288,0.0,5.996706279801137,0.1167830387103832,1.8172236312325368e-08,-0.0278083253607645,-0.0167942711007207,0.0029262097900771,10.462292112301412,11.806572238527712,38.92952651145316,28.29514413322022
1.07,31.222152808324143,131.0104699768337,23.07849646847269,9.10114255715552,-5.060364873259397,33.145514048774906,1.9073194050550544,0.0451277823971523,348.5093681440308,39.9810076340804,15.36601334841842,69.59824473723198,-0.6346075082977873,113.02381799955488,976.9100456100392,15.288,0.0,6.011796668468677,0.1175203782588341,1.8739588685994572e-08,-0.028605601961113,-0.0172457962619705,0.0030289982984687,10.40299197026961,11.754398841127438,39.187160376547126,33.200376585020514
1.08,31.222152213793866,131.0104714367614,23.426376879298022,9.055516248899073,-5.015071917714935,22.499090486006548,1.93301641590852,-0.0096418179059664,261.00157857466235,40.239752262410605,15.466157800974024,69.58153579127475,-0.6609731481023791,112.99568703838322,989.5624095165724,15.288,0.0,6.026812700626228,0.118281397883267,1.934259267774864e-08,-0.0294168906040581,-0.0177033395778021,0.003134958199832,10.34134646267754,11.700180534517024,39.452992122569,22.58197772840844
1.09,31.222151614686016,131.01047290605857,23.776688914414,8.997974714472166,-4.96357533531936,20.741330368714475,1.9616176346826195,-0.0697774739261602,246.54375332474407,40.54992002301993,15.584448884754256,69.56435107711542,-0.6879867694108887,112.96686152223954,1004.8424719725303,15.288,0.0,6.04174571562952,0.1191935813601192,1.9983036798994e-08,-0.0302414997915466,-0.0181664607757903,0.00324756913282,10.266335941699133,11.6319391993111,39.771218297052286,20.834001010480986
1.1,31.222151011073844,131.0104743845197,24.129378487714565,8.946950197898673,-4.915940004373333,41.042141817178695,1.988991607627533,-0.1280212305692418,413.1890617385841,40.83077069787503,15.692294957670413,69.54668231074169,-0.7156534283595352,112.93733580724516,1018.7753337445414,15.288,0.0,6.056598539091064,0.1200195994597111,2.066269338523032e-08,-0.0310794647090343,-0.0186351271558095,0.0033605585943726,10.19889910459535,11.572333150568648,40.05952372021935,41.09050841729872
1.11,31.22215040257315,131.01047587323075,24.484748940252,8.908597472770515,-4.875451544801972,30.20284123579539,2.013563425184658,-0.1815645314038352,324.1593910376397,41.05304731978866,15.779276116535051,69.52852104092376,-0.7439781620905842,112.9071042599278,1029.8624921434632,15.288,0.0,6.07138495726589,0.1206734521894735,2.1383285431651115e-08,-0.031932208225691,-0.0191100708011649,0.0034714418280436,10.14599355930067,11.5290085025522,40.28813705155464,30.27043148124862
1.12,31.2221497892451,131.01047737202694,24.842756014254903,8.847215426361728,-4.822809035810169,11.752795288598476,2.043843405178,-0.2454878530438099,172.73281794065943,41.37877887172676,15.90288609256038,69.50985890953253,-0.7729656079138013,112.87616166212692,1046.234042162224,15.288,0.0,6.086098666532689,0.1216314157803119,2.214667604549296e-08,-0.0327995818925445,-0.0195911499608973,0.0035939049133875,10.067147791404835,11.45789645737375,40.62210807204478,11.931712251248108
1.13,31.222149171654884,131.0104788793115,25.20296120818637,8.798645883618105,-4.777357033209697,35.49977178830829,2.071263240727056,-0.3046160880965528,367.5328077900705,41.645068236302414,16.00536834171031,69.4906869438279,-0.8026210057001617,112.84450214058698,1059.7065925248776,15.288,0.0,6.100720080338056,0.1224146612963089,2.2954898002409925e-08,-0.033680041032461,-0.0200774621633008,0.0037139988763685,10.002976387075936,11.40321806509744,40.89551197991556,35.56144990569821
1.14,31.22214854917144,131.0104803968785,25.565861403625675,8.7590340630406,-4.736963986453548,19.91782003271764,2.096602233439706,-0.3602980632375745,239.69531773195544,41.86762643189318,16.092227465830266,69.47099673846789,-0.832948513538394,112.81212096727836,1071.0260196925524,15.288,0.0,6.115273809583896,0.1230693696990443,2.380969678996591e-08,-0.0345758376151118,-0.0205701825765161,0.003833023564267,9.949087965858244,11.360290946848991,41.12439324298131,20.03110357607302
1.15,31.22214792226024,131.01048192341835,25.9310962982008,8.696320312682081,-4.684504065290353,19.640334902486305,2.128002237228688,-0.4270853954790191,237.41251153546767,42.19805184592455,16.217395271725707,69.45077983179806,-0.8639520928404845,112.77901361114029,1087.959946070473,15.288,0.0,6.1297453983225525,0.1240411623867895,2.471314232066336e-08,-0.0354854099424689,-0.0210684007523093,0.003964764811086,9.86923091073758,11.28933426564588,41.46303120600505,19.759897533603343
1.16,31.222147291053226,131.01048345855943,26.29856606253121,8.659087160984804,-4.645869985455988,50.46453146342022,2.153025839012066,-0.4827379921785066,490.0437743845894,42.40556223997484,16.298811190886624,69.43002716207216,-0.8956362614966566,112.74517493554112,1098.6476355906425,15.288,0.0,6.144140908113846,0.124651656073242,2.5667259307070143e-08,-0.0364087053884047,-0.0215720346416464,0.0040877839516606,9.818311859523114,11.250611695263435,41.6765901215804,50.512745837610886
1.17,31.222146654723545,131.0104850046677,26.66892159101197,8.60978683972963,-4.601080771262802,9.42901667218255,2.181333514480521,-0.544551423685695,153.70937929486794,42.66897882884531,16.400030244237037,69.40873019192888,-0.9280045203163254,112.71060087939576,1112.2997044641745,15.288,0.0,6.15847904820706,0.1254264965182857,2.6673845115319285e-08,-0.037348664525196,-0.0220826117472347,0.0042192158886614,9.753907945559073,11.197564276750953,41.947019289701664,9.693353782810702
1.18,31.22214601436592,131.0104865586347,27.041309844829083,8.544509875529817,-4.548135182973863,24.84590780506024,2.214210008352777,-0.6148970524969865,280.02501822196746,43.01020450474471,16.52898724998165,69.3868799299855,-0.9610607051836008,112.6752870086204,1130.1206296935263,15.288,0.0,6.17272932479867,0.1264300689945578,2.7735294596743272e-08,-0.0383014482847734,-0.0225980044197699,0.0043612962637834,9.671636050933657,11.125174674402269,42.296535144628194,24.95195300981092
1.19,31.22214536948981,131.0104881218662,27.41611845500997,8.514702519093005,-4.514097995287079,42.966917985694366,2.2375301835655645,-0.6682834101580779,428.4078130529292,43.17388564226924,16.594607763902903,69.36446711260041,-0.9948087259751756,112.63922879971108,1138.6976508987627,15.288,0.0,6.186916343428791,0.1269117525184402,2.885355864265081e-08,-0.0392693376546583,-0.0231193816346122,0.0044883628807829,9.629483295101274,11.097655330555352,42.46554612078451,43.03032866744159
1.2,31.22214471967592,131.01048969558104,27.79368007054336,8.456526999621817,-4.465422192037593,4.962441712523959,2.268870669030928,-0.7364582533290164,117.1843741360236,43.47718951544115,16.709969779173843,69.34148316886173,-1.029251247921064,112.60242304609042,1154.711055909196,15.288,0.0,6.201041768613374,0.1278038737000449,3.0030654786338115e-08,-0.0402537270500162,-0.0236474217119861,0.0046330294104117,9.555510649159666,11.0353607681948,42.77647250811752,5.5059942446285755
1.21,31.222144066018554,131.01049127665453,28.17314113798896,8.39994340579372,-4.417846613976208,34.61436113279004,2.3000246787363574,-0.8046159639674039,359.92343213200894,43.771990307131645,16.822342023007433,69.3179185978196,-1.0643918910274863,112.56486550563544,1170.380715019524,15.288,0.0,6.21508254901612,0.1286710098074283,3.1269142487844496e-08,-0.0412507507514556,-0.0241800090123996,0.0047798010207866,9.483476663816688,10.975597689910243,43.07872401009897,34.700021858832784
1.22,31.22214340768896,131.01049286747735,28.55515511751053,8.367573455619679,-4.383088532004782,25.227629878255364,2.324240215858879,-0.8604419664509745,283.0687504825761,43.93996147919288,16.889337201660975,69.29376433426579,-1.100233376633981,112.5265528860878,1179.3371363700487,15.288,0.0,6.22906651258669,0.1291653304019191,3.2570934929839034e-08,-0.0422639405671576,-0.0247189569673042,0.0049158133811701,9.438798708255751,10.946852587559412,43.252138874062666,25.349078133787994
