Time,Latitude,Longitude,Altitude,Angle of Attack,Angle of Sideslip,X-Acceleration,Y-Acceleration,Z-Acceleration,Thrust,True Velocity,Ground Velocity,Pitch,Roll,Yaw,Dynamic Pressure,cp,parachute_deploy_gain,Wind Speed,Mach,omega_x,omega_y,omega_z,Cmq,Angle of Attack(total),Angle of Attack(gust),True Velocity(gust),Acceleration
0.0,31.222186000000004,131.010384,3.000000003643237,0.0,0.0,0.0,0.0,0.0,2.2828121974499247,0.0,0.0,69.99999999623421,0.0,113.69999999388332,0.0,15.288,0.0,0.0,0.0,0.0,0.0,0.0,-0.0,0.0,90.0,0.0,0.0
0.01,31.22218600000153,131.01038399999584,2.99999882256592,0.0,0.0,0.0,0.0,0.0,34.24218696174923,7.502283530665459e-11,7.190531319924593e-11,69.99999999623329,-4.83564628150269e-13,113.69999999388072,3.446445726795683e-21,15.288,0.0,0.0,2.204725565824978e-13,-3.659182332138578e-19,7.589415207398531e-19,4.811147140404426e-19,-1.5108918610345807e-31,0.0,89.9999999995224,7.502283530665459e-11,0.0
0.02,31.22218600000288,131.01038399999217,2.999997775701936,0.0,0.0,0.0,0.0,0.0,25.871876237766408,1.5320717031631675e-10,1.4674636035870463e-10,69.99999999623222,-9.67129256300373e-13,113.69999999387804,1.4372842949972735e-20,15.288,0.0,0.0,4.5023593667086093e-13,-7.284483346386986e-19,1.5178830414797062e-18,9.757819552369542e-19,-6.170906918166791e-31,0.0,89.99999999902465,1.5320717031631675e-10,0.0
0.03,31.22218599928065,131.01038400193067,3.000201659671132,18.81500467334555,-0.00012974450181,11.96616230539064,-1.8916256735984712e-05,3.349833086198469,180.34219359854663,0.0882870268161719,0.0553390044312322,69.99999999799445,-4.212591857125379e-12,113.69999999488518,0.0047728553458352,15.288,0.0,0.0,0.0002594525584132,3.2187251995663407e-17,-7.20264389268894e-10,1.2365134327422308e-11,1.6874092354518158e-13,18.815004673776716,89.46786891739345,0.0882666465974854,12.426199017587786
0.04,31.22218599548236,131.0103840121632,3.001799604587872,9.46752327608497,-4.6177622759613696e-05,55.21900012092241,3.931876292165237e-06,3.349616504302861,548.6359724538078,0.3767519978512604,0.1853356633749705,70.00000000507204,-2.4624598767003407e-11,113.70000000019972,0.086915163246288,15.288,0.0,0.0,0.0011071759353184,1.6174128009138757e-15,-1.3693172015529268e-08,2.7753303060112748e-11,1.3689612277852356e-11,9.467523276196548,87.63554493451223,0.3767447442872393,55.32050167054111
0.05,31.222185984749512,131.01038404118162,3.00777936418888,5.376730308971262,-2.257790939128127e-06,80.28807156553681,5.266841443842784e-05,3.348887800834877,761.6984298824644,1.018787885905993,0.4366201147110198,70.00000000894464,-1.1355399380652658e-10,113.70000001523856,0.635552918586145,15.288,0.0,0.0,0.0029939522895272,1.6418815498809788e-14,-9.32122351075408e-08,4.303264669380585e-11,2.5199270302492604e-10,5.3767303089717045,83.57022052969386,1.0187875312530217,80.35788377762394
0.06,31.22218596447235,131.01038409608267,3.0201664202003013,4.296730121134882,2.4863835723705905e-05,60.21296515808257,0.0001057204249726,3.347700952379021,590.4875390737208,1.721098934225416,0.7081674028809783,69.99999995523842,-3.0560354507026086e-10,113.70000004366592,1.8138247671743823,15.288,0.0,0.0,0.0050578622752421,8.328976953118383e-14,-3.2824985336199985e-07,5.923438275930214e-11,1.4991363363716091e-09,4.296730121206683,79.20467073327266,1.7211028398275985,60.305955550063224
0.07,31.22218593493329,131.01038417609837,3.038741944736831,3.8204913578752526,4.8016684030909405e-05,91.4060317508128,0.0001597686613101,3.346072557365335,855.2937749779139,2.4375792548422868,0.9844712334613328,69.99999973536046,-5.939103491363046e-10,113.7000000850886,3.6383156301599167,15.288,0.0,0.0,0.007163413150771,2.709313825263564e-13,-7.906546256197275e-07,7.920022733617308e-11,5.114174483651565e-09,3.820491358176508,74.87999294483174,2.437586797285377,91.46725557277466
0.08,31.222185894468456,131.01038428575305,3.0647976109320942,3.588632851766762,7.220043782492885e-05,19.18449428359557,0.0002119618497595,3.3440615022685813,241.2171988638848,3.1292508166901074,1.2522236515868983,69.99999919480445,-9.914748373602156e-10,113.7000001418522,5.996012698481753,15.288,0.0,0.0,0.0091960591623389,6.80386533246681e-13,-1.5973238302190878e-06,1.0839624626357699e-10,1.3263625118823921e-08,3.58863285249208,70.86684630658345,3.1292621579083604,19.473766155861934
0.09,31.22218584634549,131.01038441616095,3.0957981580345013,3.551302481506045,9.685468678862004e-05,57.102946699906326,0.0002554087225869,3.341892818148368,563.0937377043176,3.701810007254615,1.479132491047967,69.99999812344194,-1.4359264356978275e-09,113.7000002093888,8.390904013834115,15.288,0.0,0.0,0.010878666406854,1.440096519545733e-12,-2.748643691533636e-06,1.5214952332699618e-10,2.6999776649034504e-08,3.5513024828250237,67.68737872952666,3.701825221153239,57.20065357568538
0.1,31.222185790329306,131.01038456796124,3.1319266121977414,3.608446747536112,0.0001234669721807,54.26147302645416,0.0002914860332524,3.3396271157106168,538.7437595981919,4.174070299823608,1.6716491241860567,69.9999963052332,-1.902380107712657e-09,113.70000028805804,10.668380938744466,15.288,0.0,0.0,0.0122665227999911,2.687800116751415e-12,-4.315796035622946e-06,2.1749089204950437e-10,4.7802076800548326e-08,3.608446749645647,65.17160335282355,4.174089693970246,54.36414778470795
0.11,31.222185727066616,131.0103847393952,3.172681775073216,3.633547373470009,0.0001485939126744,42.987553988990406,0.0003293995000288,3.337005588796181,442.8656393052949,4.672024955140527,1.8729475711242067,69.99999349387662,-2.3433348587116544e-09,113.70000037699285,13.365573690709628,15.288,0.0,0.0,0.0137298902182575,4.5789425819531184e-12,-6.340230783164189e-06,3.1157625832417107e-10,7.860218435507205e-08,3.6335473765043056,62.62546922225161,4.672048296217748,43.116880735560244
0.12,31.22218565692512,131.0103849294629,3.2177790417108385,3.650108937861461,0.0001727442530266,46.86777100765684,0.000367618259785,3.334068179146888,475.58594813540446,5.17479364099247,2.0758708919414386,69.99998941286465,-2.702771525550512e-09,113.70000047573096,16.396890189902592,15.288,0.0,0.0,0.0152074069417046,7.288473386564583e-12,-8.86736416607888e-06,4.42271554299792e-10,1.217615295152289e-07,3.6501089419435786,60.16906436414164,5.174820775596283,46.986210423745625
0.13,31.222185580265183,131.0103851371844,3.2669395832841857,3.7280113734654137,0.0001995014041665,51.64515456841877,0.0003986198234033,3.3311573548369657,515.9156326236895,5.579364582999854,2.2451120211463422,69.99998375846928,-2.9114380666036422e-09,113.70000058383452,19.060875702782603,15.288,0.0,0.0,0.0163963474924215,1.100846422415094e-11,-1.1941028436408576e-05,6.179653149059831e-10,1.7678562106638216e-07,3.728011378795934,58.279338776943774,5.579395920607139,51.75247433579817
0.14,31.22218549718016,131.01038536230575,3.320091807147376,3.768719651034081,0.0002242721760019,48.1660778383537,0.0004326225136175,3.32784677779744,486.2390860568404,6.025734265159953,2.428648685938864,69.99997621008868,-2.890941335368725e-09,113.70000070125378,22.232643351545065,15.288,0.0,0.0,0.0177081261985351,1.5941871344608664e-11,-1.560901486259027e-05,8.477542742712431e-10,2.495765160917323e-07,3.7687196576976176,56.27980129251342,6.025769493750979,48.280903250602165
0.15,31.22218540777004,131.01038560455507,3.377159065217065,3.821894709649632,0.000249725644238,46.56959330999435,0.0004643042952466,3.324387732286376,472.54218587214,6.441023336496372,2.6014999612196745,69.99996641132823,-2.546763407193136e-09,113.70000082794672,25.402620271850456,15.288,0.0,0.0,0.0189285691155931,2.2314099732464315e-11,-1.992367942778425e-05,1.1417519574710292e-09,3.4051816697623295e-07,3.821894717796148,54.501255563441134,6.441062563308839,46.68809885900716
0.16,31.22218531193176,131.01038586421257,3.4382223512025254,3.8463320955387794,0.0002733212404609,36.974247749122085,0.0004987816203583,3.3205066466509234,391.1218908297564,6.895451966878468,2.7877331692857847,69.99995397923414,-1.77088415515292e-09,113.70000096417354,29.113317717489338,15.288,0.0,0.0,0.0202640360420561,3.0367358387834494e-11,-2.4945905791363795e-05,1.5114297685186711e-09,4.5643121540033697e-07,3.846332105235269,52.641145594326446,6.895494900078523,37.12304892183151
0.17,31.222185210004127,131.010386140357,3.503019838429153,3.8860314262554336,0.000297865039677,46.520531453299206,0.0005306403365217,3.31650761597812,471.78125980632376,7.314788342774694,2.9619016331667103,69.99993849340957,-4.3039914767238207e-10,113.70000110959404,32.761746921137856,15.288,0.0,0.0,0.0214963781445172,4.0366633128431416e-11,-3.0713078585132897e-05,1.96747427715988e-09,5.961228045584824e-07,3.886031437653654,51.00464968745696,7.314835131305714,46.63860064094784
0.18,31.22218510147516,131.01038643438045,3.571950002194137,3.9107265153396016,0.0003214293682635,38.895647526122765,0.0005639254295027,3.312149448254175,407.10156721191447,7.754626295791602,3.1430587898572058,69.9999195084231,1.6149322372810674e-09,113.70000126508234,36.81988229018681,15.288,0.0,0.0,0.0227889722876034,5.2593391349219385e-11,-3.731786027786564e-05,2.525509173087448e-09,7.6786585232224e-07,3.9107265285284982,49.36615848311875,7.754676785798701,39.036415444581515
0.19,31.222184986476247,131.0103867459258,3.644912152926752,3.920599115663931,0.0003437679584038,43.86258669386953,0.0005989384366483,3.307389681300437,448.9531328318269,8.219206165926856,3.332657190859447,69.99989653019398,4.538529095696477e-09,113.70000143063515,41.36350714675367,15.288,0.0,0.0,0.02415428010977,6.735860419174937e-11,-4.481243905342629e-05,3.199401151670645e-09,9.773118416308382e-07,3.92059913071168,47.71893898797248,8.21926016487149,43.987104227715655
0.2,31.222184864792144,131.01038707557822,3.722074668489528,3.943376465171875,0.000367328732016,40.28070981710589,0.0006315894240138,3.30251450988504,418.51563019916136,8.65238089736321,3.511445117640573,69.99986902534273,8.534090245934178e-09,113.7000016067622,45.83799876721736,15.288,0.0,0.0,0.025427299120469,8.499785987217288e-11,-5.328041996372527e-05,4.006766070954748e-09,1.2232205148646746e-06,3.9433764822533854,46.2587826635041,8.652438597225508,40.41586552155969
0.21,31.22218473678744,131.01038742234647,3.803156063113743,3.9664546506877016,0.000390962054969,38.67679184347145,0.0006636984664108,3.297405915846789,404.8187610144644,9.079179692250786,3.688002035198235,69.99983642883521,1.3827831253856693e-08,113.70000179318536,50.47126980736161,15.288,0.0,0.0,0.0266815841422463,1.0586558589671407e-10,-6.275155280099118e-05,4.961340042512481e-09,1.5117124669161171e-06,3.9664546699249135,44.88773728276958,9.079241104426773,38.817098210937615
0.22,31.2221846022986,131.01038778667507,3.8882846911135607,3.956175711337521,0.0004112685792646,46.713636108302936,0.0007011135033803,3.291572407481395,472.5421858721365,9.580256326712124,3.889976788904857,69.99979815126248,2.0662823443484168e-08,113.70000199039316,56.195522894218605,15.288,0.0,0.0,0.0281541581291438,1.3033127211465288e-10,-7.330053770532661e-05,6.0817207473359025e-09,1.8632831045819008e-06,3.956175732680424,43.35679625546934,9.580320928629488,46.8294591882524
0.23,31.222184460898035,131.01038816972698,3.977794004014759,3.9879066397329104,0.0004360962274406,38.89105719050748,0.0007308686121188,3.286096544282012,406.3406421461021,9.977039034039262,4.056142701351626,69.99975353557706,2.9316661139418326e-08,113.70000219928508,60.9462612310605,15.288,0.0,0.0,0.0293202403623685,1.5880617816859538e-10,-8.505067486192354e-05,7.393319440773217e-09,2.2514912291167663e-06,3.987906663538912,42.20670487756048,9.97710753587448,39.0296395118868
0.24,31.222184313516166,131.01038856897196,4.070963590490852,4.003523997322975,0.000459165577055,40.0792299321398,0.0007630441688766,3.280134925833028,416.2328240017114,10.408422364424831,4.234121060914368,69.99970190737699,4.010976417051318e-08,113.70000241888,66.32994780718496,15.288,0.0,0.0,0.030588009649109,1.91711512587616e-10,-9.795845222523724e-05,8.904557280909524e-09,2.7052895870113487e-06,4.003524023611085,41.011349410369874,10.408494489985014,40.21323112692186
0.25,31.22218416001652,131.01038898478134,4.167901030441617,4.0261356185860135,0.0004830526730531,41.17760020658354,0.0007934613160587,3.2740610008587527,425.36408079150686,10.816813039390448,4.4041629376391525,69.99964258149416,5.3372865854010094e-08,113.70000264972064,71.63651430352668,15.288,0.0,0.0,0.0317882126436337,2.2947426169209347e-10,-0.0001121037688082,1.0637152702866709e-08,3.217380562698304e-06,4.026135647516394,39.93186687113378,10.816888917126896,41.30755663120434
0.26,31.222184000702686,131.0103894163294,4.26837241014618,4.053359329950934,0.000507503069958,44.80261175215926,0.0008224724146494,3.2678597736729302,455.8015834241788,11.207047269494833,4.567925492611352,69.99957484039399,6.947299261165984e-08,113.70000289176392,76.89781807056055,15.288,0.0,0.0,0.0329350617559806,2.7254099134167665e-10,-0.0001275114371842,1.260720913253598e-08,3.7915697709142366e-06,4.053359361668992,38.945390435244384,11.207126987890645,44.921630958721536
0.27,31.22218383516388,131.01038986473338,4.372698316214008,4.0614460923241,0.0005296455772492,41.029837477288126,0.0008548809954683,3.2610328932384265,423.84219965987256,11.645685385842508,4.748226940060522,69.99949794024376,8.879821051920497e-08,113.70000314600205,83.0342688744587,15.288,0.0,0.0,0.0342241635563461,3.2137296827284217e-10,-0.0001442952656441,1.4842505534226832e-08,4.458527942364847e-06,4.061446126801262,37.8838346421185,11.645768582375233,41.15922617924542
0.28,31.222183663504484,131.01039032970942,4.48079961904222,4.081133040992532,0.0005533279247169,47.27661484082626,0.0008845140695959,3.254218495915602,476.3468732012221,12.047344998676092,4.915789434712848,69.99941106884992,1.1178948978424788e-07,113.70000341275257,88.85982357848233,15.288,0.0,0.0,0.0354045979054623,3.764736350660473e-10,-0.0001625146963723,1.7365685655384934e-08,5.194620655212288e-06,4.081133078439725,36.956255322213885,12.047431915223257,47.38848224631549
0.29,31.22218348566054,131.0103908114315,4.592727908358551,4.1001100265020245,0.0005770279952742,37.989969791857405,0.0009138463939581,3.247164755122801,397.97031042211177,12.446314684600782,5.082367374004485,69.99931338876085,1.3891902435864665e-07,113.70000369260468,94.8417675268915,15.288,0.0,0.0,0.0365771315767517,4.3836067907166327e-10,-0.0001822432988888,2.0202163500922312e-08,6.018074062137429e-06,4.100110067036654,36.07377590258778,12.446405323946324,38.12849176886316
0.3,31.222183301933686,131.01039130907952,4.708251093558373,4.112858061667493,0.0005998635114143,35.655053282557844,0.000944131403186,3.2397207148238625,378.1859457108711,12.860033399289696,5.253940723820665,69.99920403105713,1.707002607527005e-07,113.7000039856728,101.2505662360602,15.288,0.0,0.0,0.03779301412572,5.075709863465428e-10,-0.0002035013069687,2.3370674033523645e-08,6.94335970778e-06,4.112858105337573,35.19685285507256,12.860127625629724,35.80193592228613
0.31,31.222183112488807,131.0103918222051,4.827243246502713,4.136140889545823,0.0006242383343011,37.56633644061071,0.0009716215464757,3.232339252743767,394.1656220930212,13.2364445751808,5.4126574282679245,69.99908210036875,2.0768081583188525e-07,113.7000042923011,107.26326115439352,15.288,0.0,0.0,0.0388992619788015,5.846561731689753e-10,-0.0002263323252403,2.6893437641668458e-08,7.948283231812338e-06,4.1361409365698805,34.43286455705216,13.236542630309057,37.70514091683033
0.32,31.22218291741533,131.01039235056504,4.949637017503345,4.1622282001352975,0.0006491019906456,40.83513712643371,0.0009979686925508,3.224840963348891,421.55939346242695,13.59846554462374,5.566374262777002,69.99894668612772,2.504388718903276e-07,113.70000461297312,113.2095365840355,15.288,0.0,0.0,0.0399632243410653,6.701756367872645e-10,-0.00025078340164,3.0793566854276295e-08,9.047716714467492e-06,4.16222825066026,33.72644865222576,13.598567505326,40.96227562489027
0.33,31.222182716732533,131.01039289410716,5.075419569102976,4.187801887681037,0.0006739743721461,40.48743503284469,0.0010239291638211,3.217136801802925,418.5156301991682,13.956637761217308,5.718704299733134,69.99879684673242,2.995902922462564e-07,113.70000494831164,119.25032483364384,15.288,0.0,0.0,0.0410158804634189,7.647061680070125e-10,-0.0002769136723495,3.509664608790402e-08,1.0253455741189656e-05,4.187801941818244,33.053267359159875,13.956743628864118,40.61505097607
0.34,31.222182510255863,131.01039345333336,5.204736257784645,4.19642921746386,0.0006961879027693,31.814592723444047,0.0010535137542081,3.208669900766693,345.46563688075645,14.367047160772364,5.88887983533068,69.99863160305904,3.557915789971256e-07,113.70000529927128,126.36523219087664,15.288,0.0,0.0,0.042222056531773,8.688448410811866e-10,-0.0003048202762282,3.9835373705550826e-08,1.1618525957862828e-05,4.196429275109305,32.30947868183619,14.367156517712404,31.97598901989736
0.35,31.222182298183583,131.0103940277045,5.337435501771672,4.210915783240843,0.0007193441544952,34.813487415034444,0.0010813034848195,3.200164272309822,370.5765700527033,14.754132934586384,6.050986755458457,69.99844991734221,4.1975736284587617e-07,113.70000566632532,133.26448209504355,15.288,0.0,0.0,0.0433596939127697,9.832256819293898e-10,-0.0003345386312107,4.503361101379695e-08,1.309465610343774e-05,4.210915844572415,31.63649055965014,14.75424592890194,34.96026256388454
0.36,31.222182080444604,131.0103946174141,5.4735747500461605,4.22903876037745,0.0007431682866607,39.2632255716727,0.0011077666085529,3.1915717453569297,407.8625232777193,15.124417129017054,6.2072589919251575,69.99825073022951,4.922382611919288e-07,113.70000605036684,140.03566173682628,15.288,0.0,0.0,0.0444479595865755,1.1084921261805627e-09,-0.0003661511460057,5.0723697896912267e-08,1.4691545926915382e-05,4.229038825557203,31.017264542603208,15.124533865618538,39.39272792946638
0.37,31.22218185710795,131.01039522227452,5.613102797925907,4.249164960780052,0.0007674149135003,37.28328237034959,0.001133274451316,3.1828514669894137,391.1218908297666,15.483077353331511,6.359470679857624,69.99803294268581,5.740349991123437e-07,113.70000645214331,146.75405277514704,15.288,0.0,0.0,0.0455020695186381,1.245311285088233e-09,-0.0003997125883071,5.6934243389647934e-08,1.641828325195534e-05,4.2491650299519,30.439178816713017,15.483197898584232,37.418894813348615
0.38,31.2221816281124,131.0103958424523,5.756069531572451,4.260095806433531,0.0007900626414612,38.9278000801764,0.0011607546399008,3.1735466295306622,404.8187610144602,15.87126705947922,6.521735074464384,69.99779542676283,6.659911329739736e-07,113.70000687263192,154.20298254405043,15.288,0.0,0.0,0.0466429667223463,1.3943646956867835e-09,-0.0004353006984059,6.369875435270817e-08,1.8328108041903096e-05,4.260095879559656,29.83470194713067,15.87139116222873,39.05694584372078
0.39,31.22218139339905,131.0103964781077,5.9025231349944285,4.274091258047817,0.0008133283308351,33.320076729592266,0.0011870382950339,3.164143363712209,357.64062493382744,16.24457853509073,6.678818328235205,69.9975369905506,7.690136753559805e-07,113.70000731287368,161.54010621938565,15.288,0.0,0.0,0.0477401448128051,1.5563705124515804e-09,-0.0004730068442167,7.105463478762673e-08,2.0383860516746246e-05,4.274091335289374,29.274934656826048,16.244706292406182,33.46997636540994
0.4,31.22218115316572,131.01039712870306,6.0523126585892895,4.286421841403391,0.0008363022448449,31.88018820767003,0.0012133780841982,3.1544430614236454,345.465636880754,16.62063299903514,6.836764518435374,69.99725641601981,8.840594270905819e-07,113.70000777359816,169.10340080049767,15.288,0.0,0.0,0.0488453895716005,1.7320643186450851e-09,-0.0005128553637434,7.9027539265021e-08,2.2612406375611563e-05,4.286421922834417,28.730746964325096,16.620764365084565,32.03586915718869
0.41,31.22218090752676,131.01039779392735,6.205351877049411,4.30025870409831,0.0008595777771371,35.882550741685804,0.0012389121673015,3.1445895889870297,378.94687077668647,16.987310563534386,6.99141560549392,69.9969524610574,1.0121301778427253e-06,113.70000825570062,176.64448930727934,15.288,0.0,0.0,0.0499230826371405,1.922193031274436e-09,-0.0005548883906878,8.764667734700782e-08,2.5005077415911235e-05,4.300258789847355,28.21875643368965,16.987445585695873,36.020076248499606
0.42,31.222180656535848,131.0103984736348,6.36160173428776,4.322008670726048,0.0008844838439129,40.34064925656127,0.001261804338223,3.134918999355981,416.2328240017114,17.318628721060172,7.133856886815013,69.99662385300175,1.154276942054023e-06,113.70000876021427,183.59942989625057,15.288,0.0,0.0,0.0508968652507098,2.1275184665783874e-09,-0.0005991661829955,9.694534598491077e-08,2.752657757470936e-05,4.322008761057615,27.772396468009568,17.318767655457478,40.462275036947325
0.43,31.222180400205527,131.0103991677914,6.521055075967404,4.339436441324956,0.0009085827200945,35.541853595187746,0.0012854696362701,3.124839917627212,375.9031395134336,17.662848429084132,7.280642039343927,69.99626930133451,1.3115939750280808e-06,113.70000928827632,190.96736675963504,15.288,0.0,0.0,0.0519085689713619,2.3488101247838237e-09,-0.0006457514522491,1.0695800287133593e-07,3.0255957891170616e-05,4.339436536261635,27.322335771349252,17.662991148924057,35.67895714766603
0.44,31.22218013836212,131.0103998768696,6.683849332059896,4.342209064313268,0.0009296474314902,32.82948243168077,0.0013129688908547,3.113754688841357,353.0750125389216,18.063580761318697,7.446730341918701,69.99588746395321,1.4852372182848018e-06,113.7000098413532,199.7278270846888,15.288,0.0,0.0,0.0530863610987301,2.586862292117705e-09,-0.0006947575786514,1.1773083546077225e-07,3.329010177793299e-05,4.342209163639375,26.81344244367223,18.06372678999575,32.9768158972058
0.45,31.22217987077456,131.0104006014978,6.850166573233225,4.3420317510315165,0.0009500780330031,38.11022602597878,0.001341042003417,3.1022288449712887,397.2093853562869,18.47486275310604,7.616350301328129,69.99547690348253,1.6764536248320808e-06,113.70001042108892,208.92306716049887,15.288,0.0,0.0,0.0542951637545535,2.842521175226318e-09,-0.0007463379956615,1.2932090054593452e-07,3.657529369088674e-05,4.342031854775571,26.30944884471334,18.47501199101448,38.23628058998621
0.46,31.22217959739673,131.01040134180155,7.020045503401754,4.351169003849846,0.0009725797783515,44.3937050866137,0.0013660055515545,3.09098240974522,449.7140588976434,18.844323061800488,7.771531995684422,69.99503610583268,1.8865779683531e-06,113.70001102895836,217.3591612614144,15.288,0.0,0.0,0.0553810645782081,3.1166808800591503e-09,-0.000800596194505,1.417768495237597e-07,4.001824400409673e-05,4.351169112337076,25.873596578896564,18.844475834274814,44.50118229261506
0.47,31.22217931813738,131.01040209802923,7.193559875579052,4.358630093683735,0.0009947969928181,30.22514089990685,0.0013910994973101,3.079396422776949,331.0078106302534,19.2180591098146,7.9280875671397615,69.99456352718363,2.1170044481277104e-06,113.70001166656292,226.0625808853568,15.288,0.0,0.0,0.0564795377574197,3.4102493884459798e-09,-0.0008576351980594,1.551487523304888e-07,4.3718862242359527e-05,4.35863020698899,25.44665981168229,19.218215372160817,30.381603425148434
0.48,31.22217903348153,131.01040286886197,7.370336324605091,4.365514409145237,0.001016880998596,29.779838936311712,0.001416009414045,3.067527859335786,327.2031223011574,19.5915905767454,8.084483592791102,69.99405758812365,2.369198154608765e-06,113.70001233476164,234.93171707892955,15.288,0.0,0.0,0.057577416115756,3.7241711041759195e-09,-0.0009173883913609,1.6944871263079066e-07,4.767297940601472e-05,4.365514527349481,25.03354780044292,19.59175030803913,29.937410312943754
0.49,31.22217874361868,131.01040365378466,7.5502307795521535,4.3786401372577615,0.0010404145545081,37.2489281064929,0.0014385799934191,3.0558405437943126,389.60000969812296,19.93403005898306,8.23012235628909,69.99351671352461,2.644660619562788e-06,113.700013034871,243.21198709852868,15.288,0.0,0.0,0.0585839249886784,4.059374595909599e-09,-0.0009798792959512,1.8470833984680338e-07,5.180951737438081e-05,4.378640260624215,24.667474291142685,19.934193486919103,37.37406598941686
0.5,31.22217844858332,131.0104044527036,7.733219389747018,4.3941872902384,20.35678917001124,38.75053315538919,-1.4048750210244274,3.044247006427036,397.97031042210494,21.59974409954425,8.36606535597106,69.99293932307316,2.9449363413826395e-06,113.70001376847225,285.5514300615913,15.288,0.0,7.5154709336958545,0.0634794066464419,4.416640996685587e-09,-0.0010584230784109,3.2419929184031423e-05,6.0637617948895805e-05,20.805961701934265,41.91543959075793,24.730529793663347,38.89530734533095
0.51,31.222178149200143,131.0104052658351,7.919273464909315,4.405533283291802,20.079520554508232,29.841952983343955,-1.4383358665414097,3.031889621281885,323.3984349720841,21.93085688943208,8.513393398212466,69.99231623251903,0.0002903643217144,113.70032006919229,294.3679821011436,15.288,0.0,7.545298921286883,0.0644526480548929,4.9051127021188036e-09,-0.0011265143652212,0.0003678155560762,6.55267762089983e-05,20.537633782913613,41.38292596229143,25.02077296734689,30.030040336315356
0.52,31.222177845827705,131.0104060935336,8.108417033148609,4.41353189121692,19.801822370139423,35.68071130086816,-1.47282769948076,3.0191628172644025,372.0984511843415,22.27061858144509,8.663410325771867,69.99165338709763,0.0011113236795836,113.70119418821233,303.5540569256528,15.288,0.0,7.575028267412151,0.0654513141627539,5.610306963113207e-09,-0.0011975486440722,0.0007115237777673,7.073657417781538e-05,20.268431726400472,40.84882186299955,25.31952919603526,35.83849500865529
0.53,31.22217753835668,131.01040693619143,8.300762407967513,4.421682029418004,19.534541700741286,37.42366281598326,-1.5074903693674615,3.0062130024685048,386.5562464348624,22.6072762058564,8.812084647716317,69.9909490498684,0.0024792186720762,113.70265038674592,312.79509996856655,15.288,0.0,7.604663258124938,0.0664408643417954,6.5375002266795045e-09,-0.0012716596476114,0.0010639224921915,7.624821640585427e-05,20.009642790475706,40.333038654250025,25.61665197470512,37.574464499103044
0.54,31.222177226713576,131.0104077940803,8.49638690318112,4.429625882466707,19.27575037636826,32.97080104008665,-1.5424488112878407,2.9930117522963706,349.2703242098436,22.94238138842517,8.959988581594018,69.99020141837543,0.0044077902867207,113.70470329411204,322.1308308038065,15.288,0.0,7.634225176966277,0.0674258588051003,7.692090786839235e-09,-0.0013489662960771,0.0014252992954232,8.208087822426129e-05,19.75929990780203,39.83223265295812,25.913415603588493,33.14228400261222
0.55,31.22217691119799,131.01040866645576,8.695078162896634,4.438599368251944,19.029820504184343,34.89595355066228,-1.5772741113295847,2.979662505320261,365.2500005919907,23.270190045823213,9.105050202073356,69.98940864421208,0.0069108541423351,113.70736761923736,331.3957061416101,15.288,0.0,7.663679223871616,0.0683894160199219,9.079514106883335e-09,-0.0014294436847539,0.0017952920740612,8.821878967377155e-05,19.52191429375721,39.3546692139979,26.20473203116685,35.05843345727047
0.56,31.222176591834703,131.0104095533187,8.896836434619372,4.449484687928413,18.799605569649383,32.62732248581044,-1.6116212443727371,2.96625454694394,346.2265619465787,23.58625676175521,9.245673610305367,69.98856885887885,0.0100019923201726,113.71065782366152,340.45259356011184,15.288,0.0,7.693024683033775,0.0693184711536218,1.0705071220285352e-08,-0.0015131751642628,0.0021740283728978,9.465290066130888e-05,19.30044491785185,38.90587128949005,26.486589367236924,32.801496332723154
0.57,31.22217626871869,131.01041045447766,9.101607198539744,4.4581063250123885,18.568213145134,32.27275131048453,-1.6469573239746649,2.95242342807433,343.1828296833023,23.910247611704182,9.389002256369418,69.98768015519771,0.0136947714425596,113.71458835319012,349.8631571549908,15.288,0.0,7.722248526379654,0.0702708214713186,1.2574045708489137e-08,-0.0016002081742577,0.0025614754003456,0.0001014700138801,19.0775331504394,38.45486987321111,26.77614868222548,32.44934128259027
0.58,31.22217594185171,131.01041136999396,9.309408128727071,4.461744206120738,18.3251817037684,42.22933833923334,-1.6843489326647672,2.9378895331352965,426.1250058573153,24.25587566771645,9.539986597067887,69.98674057622378,0.0180028704797624,113.71917377420486,360.043780716393,15.288,0.0,7.751350547580991,0.0712867692582195,1.4691738624609228e-08,-0.0016906300365704,0.0029577722021713,0.0001087511940884,18.8423911932373,37.98218684796471,27.08556298196605,42.36490579247542
0.59,31.222175610861623,131.0104123009484,9.52054762194611,4.470580123930176,18.109385817140463,34.39247481943227,-1.7200582629504106,2.9236044498394853,360.68438819711065,24.57362538708979,9.680711715527982,69.9857480498279,0.0229408309555467,113.72442957255043,369.5311550582911,15.288,0.0,7.780363983487738,0.0722207913413153,1.7063723363693105e-08,-0.001784709985668,0.00336381535637,0.0001163045158302,18.63506559451929,37.56005614982089,27.37111458127103,34.559345879405015
0.6,31.22217527598096,131.01041324677735,9.734865140874376,4.471031301260812,17.86899539916207,30.659697950529285,-1.759210539643667,2.908243380063217,329.4859594986058,24.930706800365265,9.8354644722338,69.98470044320528,0.0285233732364869,113.73037142457616,380.3407315509506,15.288,0.0,7.80926781865808,0.0732704148745061,1.9695713968857472e-08,-0.0018824389905318,0.0037793147130872,0.0001244532533308,18.40213321026556,37.09202044476552,27.692281508985747,30.84752469320941
0.61,31.22217493718613,131.01041420761385,9.952398859657317,4.46991199735164,17.629942545938075,35.78446817379971,-1.7993377199769285,2.892431136120332,372.0984511843297,25.29419400637285,9.992332598496798,69.98359551238121,0.0347655602465733,113.73701537548344,391.5040633252335,15.288,0.0,7.8380687323966995,0.0743388726116972,2.2593505638164e-08,-0.0019839307201352,0.0042044950621127,0.0001330727184467,18.170309571460194,36.6262710698374,28.02000585410033,35.94623675142385
0.62,31.222174594613698,131.01041518315623,10.17306305944095,4.480801426275184,17.441673803742358,44.292343344330895,-1.834979732141878,2.877623261731704,442.86563930529206,25.59379198338388,10.126020255861016,69.9824310472856,0.0416827555957152,113.74437778301744,400.82486281853744,15.288,0.0,7.866774657108163,0.0752195692738357,2.576301285084619e-08,-0.0020892439697488,0.0046393530564821,0.0001417934834744,17.990699474748137,36.25593316331835,28.29140495936379,44.42363723498926
0.63,31.22217424810613,131.01041617389643,10.39699846053557,4.487498454410289,17.243835016435625,25.47713725667155,-1.8724913756759367,2.8621385269295407,286.11251274707894,25.9121353759601,10.266310329443405,69.98120473230694,0.0492897760725176,113.75247443305469,410.84920405162126,15.288,0.0,7.895341512790383,0.0761553656164791,2.9209851462401976e-08,-0.002198538910948,0.0050842817408726,0.0001510638331247,17.80099805860679,35.867975937533515,28.58008470032552,25.70569165952546
0.64,31.222173898257992,131.01041717828477,10.623763546397546,4.487697382712192,17.02849671051797,25.02705451665838,-1.9129653273088547,2.845664822479117,282.30782441796754,26.262479155914605,10.417944844296576,69.97991419086695,0.057601565921117,113.76132124741164,422.02485232212166,15.288,0.0,7.923792455111673,0.077185218033676,3.293988108470273e-08,-0.0023116133008648,0.0055382460550811,0.0001609772813342,17.59296442950824,35.44707397967996,28.898104834648297,25.260853160674753
0.65,31.22217354507204,131.01041819637527,10.853374345545,4.496753818594753,16.850232808673187,43.59987636111556,-1.9499748856386008,2.8299521125105462,436.7781447787475,26.563159401926782,10.551602515686808,69.97855714400322,0.0666326778046441,113.77093372492088,431.7342134201679,15.288,0.0,7.9520737946286655,0.0780691171210646,3.6958603366696335e-08,-0.0024285798028068,0.0060014680560223,0.0001710551738919,17.423103897307826,35.0967120238988,29.17199835216537,43.73511460735284
0.66,31.222173188074127,131.0104192295138,11.086215304406675,4.503206886178756,16.667897690066415,37.20819957598373,-1.9882995832284904,2.8137000732690494,383.51251517160017,26.87491877142161,10.689095471447036,69.97713110419146,0.0763978296450776,113.78132755380284,441.917926988568,15.288,0.0,7.980245375612454,0.0789855852913872,4.127140578047761e-08,-0.0025497803257852,0.0064750288550376,0.0001816955634729,17.248830209775477,34.73902283790781,29.456333110415542,37.3673702449238
0.67,31.222172827467272,131.01042027721283,11.32214803965084,4.50389818221119,16.47070025848191,25.87049227819288,-2.0294189940429463,2.796482673594409,289.1562440103425,27.21578238300245,10.836867605877815,69.97563358508368,0.086912702091693,113.79251943623004,453.18873609205184,15.288,0.0,8.00832651218756,0.079987598874811,4.58842820673368e-08,-0.0026752118838112,0.0069586762057534,0.0001930472264129,17.05892623500698,34.35325809016539,29.76750728642056,26.100215085572255
0.68,31.22217246343761,131.0104213390299,11.561047032522088,4.50576379964484,16.28253412865601,32.102373366882645,-2.0703262651151624,2.7791284711448787,340.8999924858462,27.54803135249133,10.981410220997258,69.97406190438332,0.0981929458168889,113.80452605558476,464.31063761518055,15.288,0.0,8.036214391793377,0.0809643018707481,5.080320038275827e-08,-0.0028048893387905,0.0074522347927465,0.0002048711922491,16.87818436359243,33.985119634040025,30.071398358293077,32.28888634948393
0.69,31.2221720960834,131.01042241475827,11.80285413328738,4.512457813197059,16.115563494939597,39.34513779391028,-2.109288108143656,2.762145214079037,401.0140726853634,27.850599630125657,11.115197040251072,69.9724134615096,0.1102539433494664,113.81736380326365,474.5549548022341,15.288,0.0,8.06398830528691,0.0818537803420732,5.6033971868420177e-08,-0.0029388595526898,0.0079556518749972,0.000217009073037,16.719258924904672,33.65789128696384,30.348780242290545,39.49833427536664
0.7,31.22217172529017,131.01042350476413,12.047674654903394,4.518430313314595,15.950529091182927,33.12631151748288,-2.148798079100694,2.744826181839218,349.27032420985284,28.15436914190281,11.249282581848924,69.97068557996556,0.1231108933829687,113.83104888035588,484.95205369212334,15.288,0.0,8.091654832586839,0.082746796954435,6.158219863432899e-08,-0.0030772917947356,0.0084693187454232,0.0002297041170017,16.562161913261626,33.33480891317853,30.6276345786992,33.30921672310197
0.71,31.22217135112958,131.01042460891043,12.295470404125744,4.520549975062145,15.776794066344676,27.36185713702158,-2.190373977696332,2.7267164477929446,301.33126406340574,28.47764481291548,11.390207781690906,69.9688754992822,0.1367793530844568,113.84559787063834,496.1408718165517,15.288,0.0,8.119128343647857,0.0836971508365892,6.745371551319663e-08,-0.0032202467869751,0.008993224146866,0.0002431292386041,16.395831240437747,32.995546535575166,30.92465937804549,27.58448742927105
0.72,31.222170973622617,131.01042572719706,12.546242336444784,4.518144061439678,15.59253110291493,33.32661897932057,-2.234482477074476,2.7076683197678286,350.79220534145287,28.825221004686576,11.539657816670196,69.96698036291374,0.151275188456698,113.86102768938387,508.3135660127079,15.288,0.0,8.146492484433256,0.0847189334621982,7.36544288777685e-08,-0.0033678296454022,0.0095275160762075,0.0002573690195933,16.218322685515318,32.6362504385396,31.24436937615708,33.51101180601739
0.73,31.22217059278565,131.0104268596379,12.799995375942796,4.525009048766448,15.442767182380296,41.95361181063448,-2.2743171068052326,2.689698514202836,422.320318528234,29.11562733563409,11.668587126167242,69.96499719981243,0.1666148204669776,113.8773558446495,518.5947669196627,15.288,0.0,8.173752448980306,0.0855726988608864,8.019043076644782e-08,-0.0035201604990399,0.0100723927935161,0.000271713703038,16.076576917703935,32.344010592632834,31.512108378104298,42.101217801353684
0.74,31.22217020857388,131.01042800640664,13.05678016564214,4.5282939898188586,15.285036552359038,26.555017942361463,-2.3161454806599298,2.6709459671560345,294.48281347105944,29.42446240476316,11.803962918523917,69.9629229976282,0.1828140753266417,113.89459921728468,529.641723776148,15.288,0.0,8.20083906129869,0.086480635507027,8.706754869730547e-08,-0.0036773583584688,0.0106280359394866,0.0002868512226817,15.926356083051097,32.03694719556098,31.797052626746424,26.789316157121064
0.75,31.222169821360808,131.0104291665485,13.316325539954333,4.529141832112,15.12321294376855,30.87291851419099,-2.359510438596506,2.651537350540734,330.24688556441487,29.745530443735543,11.943568573121407,69.96075479073866,0.1998888646081744,113.91277477169444,541.2497739070741,15.288,0.0,8.227777386322874,0.0874245338299556,9.429195940689626e-08,-0.0038392880795839,0.0111937524263737,0.0003027427896194,15.771680071324738,31.722378641256856,32.093591213207894,31.0762777277948
0.76,31.22216943105368,131.01043034036465,13.578718596583016,4.532999465695095,14.974573346638994,33.174088761516735,-2.4015768608185093,2.63233410439264,349.27032420986166,30.04563463630427,12.075589297217425,69.95848941401701,0.2178549841594137,113.9318993641594,552.2123460502382,15.288,0.0,8.25459240357256,0.0883068258882832,1.0186936779447053e-07,-0.0040061340941589,0.0117699556507059,0.0003190783299546,15.630602553658786,31.433906752788666,32.37114789617968,33.364905505823906
0.77,31.222169037611778,131.01043152801418,13.844005986020992,4.537289948369334,14.830649561832258,31.069792170754464,-2.4436460252710805,2.612943987075472,331.7687666960708,30.340185341141105,12.205516230128284,69.95612372877038,0.2367283635684609,113.95198998780964,563.0782383898592,15.288,0.0,8.281275735795028,0.0891728038343126,1.0980556318510905e-07,-0.0041780381700695,0.0123569006885576,0.0003360237816244,15.4942935680619,31.155154696157755,32.643851529112354,31.275083816199317
0.78,31.222168641115065,131.01043272932995,14.112141385825195,4.538198114065563,14.67939269781658,25.65815385497812,-2.4877836698626647,2.592717894716268,286.8734378128899,30.653105594117573,12.34185434446592,69.95365449251574,0.2565249802065189,113.97306369198417,574.7382003767372,15.288,0.0,8.307774176353345,0.090092779939314,1.1810648509497729e-07,-0.0043550466418724,0.0129545167138269,0.0003538632737771,15.350147075200995,30.862657724558726,32.93379591414801,25.908533592531743
0.79,31.22216824166689,131.0104339440821,14.383060596839147,4.537033248289664,14.525076333799916,36.135301318881154,-2.53338731332347,2.5718351114950995,373.6203323159534,30.97675100134759,12.481874940380228,69.95107836575191,0.2772609896267784,113.99513771952512,586.9235444641117,15.288,0.0,8.334140840521066,0.0910442869502021,1.267781533267735e-07,-0.004537202547989,0.0135627259090564,0.0003725468812456,15.202613418829602,30.564578098396176,33.233984337347444,36.3151812404449
0.8,31.22216783906285,131.0104351728673,14.656935241702596,4.541290179178896,14.390506498756585,36.60233865363824,-2.576227547300437,2.551630502333851,377.42502064505743,31.26309703671055,12.608534745922348,69.94839191539279,0.2989529864800533,114.01822978243332,597.8089003437992,15.288,0.0,8.360395592963782,0.0918861752999422,1.35826324451011e-07,-0.0047247972632542,0.0141822591774267,0.0003915260420156,15.075620210572223,30.30573664127333,33.4998616047,36.78150298059516
0.81,31.222167433419884,131.01043641541668,14.9336901178187,4.54148332638221,14.24659613675716,24.10906944108425,-2.621628879870429,2.5304198605559,273.9374926939919,31.572827124910194,12.74337016007906,69.94559157165209,0.3216174428353637,114.04235747139636,609.696609531023,15.288,0.0,8.38652498988021,0.0927968007545581,1.4525719030204437e-07,-0.0049178399152533,0.014812914855094,0.0004115492303388,14.938660347914338,30.02901730144124,33.787688532217075,24.38284626473064
0.82,31.222167024940816,131.01043767123127,15.213184428955303,4.539803887802464,14.09999084601624,30.732990322418072,-2.6684375713198847,2.508551860290003,328.72500443277005,31.892350979882195,12.881559832160915,69.94267383479816,0.3452707840139229,114.06753832000356,622.0828798006221,15.288,0.0,8.412471529861184,0.0937362200866351,1.550769988131527e-07,-0.0051162937745446,0.0154543530845588,0.0004324782648284,14.798704324744111,29.74750884973342,34.08488469137313,30.950445645671063
0.83,31.222166613623404,131.01043894036096,15.495433999843824,4.544789643490772,13.97598674155886,38.83215788593721,-2.711561089938741,2.48767755268562,395.68750322465047,32.1651580313594,13.00308517897452,69.93963493122949,0.3699295718800623,114.09379002569716,632.7538356002088,15.288,0.0,8.438279283337003,0.0945383404258954,1.6529172023112433e-07,-0.0053202992515432,0.0161068019652186,0.0004535573986058,14.682365332745457,29.511182356133343,34.33879495115998,39.00612245826238
0.84,31.22216619937423,131.01044022309446,15.780522884285638,4.548038833323544,13.84941787458999,24.30365011925782,-2.7559110737489902,2.4662159208608334,275.4593748256452,32.44633379533109,13.127464791634848,69.93647127216177,0.3956099064317811,114.12112978211633,643.8471540009891,15.288,0.0,8.463960728238145,0.0953650659398764,1.759070479684197e-07,-0.0055300310030376,0.0167705846624228,0.0004755452112448,14.563187699008996,29.270346676068943,34.60067258432149,24.583422787195854
0.85,31.222165782502376,131.0104415186449,16.06822829815909,4.545238101859852,13.707801575431317,26.4235827008922,-2.8042526671044463,2.443242839001313,292.96093233939376,32.76549147758678,13.26517518023056,69.93317904346198,0.4223278303052679,114.14957473756787,656.5576870522262,15.288,0.0,8.489495318819348,0.0963034350269464,1.869293381686233e-07,-0.005745338477991,0.0174450120382211,0.0004989062233263,14.427999463394178,29.00013640275044,34.89822537535672,26.6840587494141
0.86,31.222165362845868,131.01044282748393,16.358686573360337,4.546386950238598,13.58024271999404,32.871216107533414,-2.8504331617042595,2.4207792540941964,346.2265619465587,33.055243737562805,13.392367257487296,69.92975428083872,0.4500999504474774,114.1791426463845,668.2025521650977,15.288,0.0,8.514900410530549,0.097155385332676,1.9836423944334896e-07,-0.0059665074784875,0.0181307512011208,0.0005226790023938,14.307478662600744,28.758341933634338,35.16850618152855,33.08325845189014
0.87,31.222164940441136,131.01044414955072,16.65188218902803,4.549239353943939,13.459940022963169,30.666555365749,-2.895754617327809,2.398404048145906,327.964078366998,33.33028676193031,13.514250927638283,69.92619310103048,0.4789426622374068,114.20985103113163,679.349521480806,15.288,0.0,8.540165309183646,0.0979641109834643,2.102177264280492e-07,-0.006193626049212,0.0188278470136038,0.0005470742859203,14.194480792600938,28.53156196852738,35.42517578233226,30.896202918521993
0.88,31.22216451533569,131.0104454847532,16.947790753558944,4.548923969127353,13.332895848387244,26.61831494638604,-2.943345069492563,2.37506400832429,294.4828134710418,33.62426067463227,13.64271965965443,69.92249139259236,0.5088722649105604,114.24171732911276,691.366479326578,15.288,0.0,8.56526200112419,0.0988284867102071,2.224958371773256e-07,-0.0064267488631103,0.0195362416737877,0.0005726562467862,14.07422474909007,28.29191040085169,35.6997366436349,26.885663462647564
0.89,31.222164087623337,131.010446832876,17.24635274736743,4.545509755511652,13.199506952531944,29.109223288697365,-2.9932719013954867,2.3507229975119555,315.028134248087,33.93730962633422,13.777813787375957,69.91864502579347,0.5399051303977946,114.27475905394483,704.2797474223393,15.288,0.0,8.590222178864,0.0997489367720801,2.3520464978744602e-07,-0.0066659263944055,0.0202558669394191,0.0005994809693654,13.94710251308956,28.040016633240853,35.99239205579246,29.35698308338165
0.9,31.22216365723944,131.01044819412468,17.54762878397499,4.548909995278887,13.087412854420124,32.06230039506528,-3.0389021661635462,2.3276397415222494,339.37814235421445,34.19936049780676,13.89479152212875,69.91464970702134,0.5720580844355025,114.30899420933012,715.1774006067553,15.288,0.0,8.615055199546644,0.1005195014569203,2.483500242588805e-07,-0.0069113591480808,0.0209870982441331,0.0006263345325061,13.842386757729937,27.83132456396968,36.23729648563185,32.289997518817344
0.91,31.222163224265216,131.0104495683127,17.851567695550262,4.549187795379708,12.968725294283535,24.599405186586488,-3.0868355703986605,2.3035660661300823,277.7421810230789,34.48046293396651,14.018390387526647,69.91050114637592,0.6053471979359901,114.34444000075908,726.9613319901315,15.288,0.0,8.639753702180606,0.1013460713889943,2.619379919470636e-07,-0.007163074199481,0.0217297898054457,0.0006544625054628,13.730555755460363,27.609936479743865,36.50023541251971,24.89911054623363
0.92,31.22216278891513,131.01045095490267,18.15801815775781,4.546435022496014,12.843823202882234,29.120220405171988,-3.1371229497453603,2.278466566162467,315.02813424806214,34.7805747325796,14.148591501068408,69.90619495272668,0.6397885974042867,114.38111369862834,739.6493177724825,15.288,0.0,8.664306058299097,0.102228523001946,2.759749618985949e-07,-0.0074209724385379,0.0224834380110802,0.0006839069598101,13.611992024766089,27.376517628122404,36.78122329467578,29.377205223450616
0.93,31.22216235110693,131.01045235413952,18.467052243585904,4.549909275340463,12.73788433063554,34.47362442183398,-3.18327905335114,2.2545968507869003,359.1625070654728,35.032466521969305,14.261683936532387,69.90172663522388,0.6753984365300884,114.41903260885545,750.3793841597718,15.288,0.0,8.68872474276171,0.1029692529584054,2.904664046163703e-07,-0.0076852898129662,0.0232485097414401,0.0007133744086127,13.513439171313168,27.181880517554557,37.01688719451906,34.693619777543404
0.94,31.222161910736784,131.01045376631927,18.77875664160589,4.54726376947088,12.61732563525346,25.25129955747588,-3.233991527818328,2.228923367670159,283.0687504837787,35.325962775624305,14.389340847640208,69.89709165775211,0.7121924692032267,114.45821361809335,762.9823206289878,15.288,0.0,8.713009420553185,0.1038322776484404,3.0541784793530026e-07,-0.0079562091425884,0.0240253033843879,0.0007446869729353,13.3992179456279,26.958221031693924,37.29190782017447,25.5549394427443
0.95,31.222161468108155,131.01045519067023,19.09291328620924,4.545209586833944,12.5003145460086,32.45223541788346,-3.284554567458376,2.2030830682692457,342.4218736174873,35.6123438438234,14.514387707036056,69.89228530810635,0.7501870049158988,114.4986742107846,775.3797824311331,15.288,0.0,8.737150377764694,0.1046743978355602,3.208360063555904e-07,-0.008233571342536,0.0248131530675269,0.0007768716367816,13.288635451947348,26.742212600885534,37.5603486068233,32.69234554647365
0.96,31.22216102292982,131.01045662797847,19.40974886735997,4.546164074653082,12.39314945646827,31.80970626487376,-3.333137478224826,2.177733305796125,337.09533515678345,35.87315745743601,14.630323317362157,69.88730280143238,0.7893981240440539,114.54043163523616,786.7547050321251,15.288,0.0,8.761166338243747,0.105441377188426,3.367257362586067e-07,-0.0085178107668209,0.0256130577854202,0.0008095521499544,13.188415272511406,26.546714234793903,37.80472440978125,32.05791229100032
0.97,31.222160575229097,131.01045807819273,19.729251062113708,4.545303176892547,12.282934660536608,20.638968550914303,-3.383271818384992,2.1516157347362608,245.02188719299323,36.14432572000088,14.749805032382785,69.88213920798454,0.8298421799928783,114.583503437416,798.6694431789875,15.288,0.0,8.785041407406164,0.1062388005802385,3.530930862771693e-07,-0.0088090203373785,0.026425045859821,0.0008435321740178,13.084825817282033,26.345572985422137,38.05898002624615,21.02481869868733
0.98,31.22216012530731,131.01045954054547,20.051203129380248,4.538634865902889,12.159368012127036,29.691637028312964,-3.438111245626068,2.1235768003137863,319.5937466429581,36.45680075726136,14.883727913230071,69.87678948136406,0.8715353086921364,114.62790694184936,812.5133293541821,15.288,0.0,8.808771685306905,0.1071576458791883,3.699450800418704e-07,-0.0091069767808147,0.0272482821781469,0.0008795757896062,12.966847292937032,26.117651720833305,38.35248513200398,29.965371627684128
0.99,31.22215967302007,131.01046101543406,20.37572091148956,4.541252295304078,12.061622710768072,32.37358495823425,-3.486011694947519,2.0978297089885256,341.6609485517054,36.69513856968553,14.991456208429572,69.87124852794058,0.914493933113743,114.6736597789729,823.1460764010912,15.288,0.0,8.832378741896758,0.1078585882931368,3.872869184855708e-07,-0.0094120213632028,0.0280834824397635,0.0009149521512916,12.876336352361635,25.942985960534813,38.57581085166768,32.628241909015514
1.0,31.22215921837036,131.01046250286308,20.702808199550752,4.538218298331185,11.950929882823631,29.049169396591047,-3.5385276735154134,2.070183651999013,314.2672081822764,36.9737079758192,15.113242727734503,69.8655111802604,0.9587334488447696,114.72077850136029,835.6650097323032,15.288,0.0,8.855855567613917,0.1086777927716909,4.051244791426244e-07,-0.0097242180355376,0.0289305910797101,0.0009524473928294,12.77186264763304,25.74233987380133,38.83737302832986,29.337025770876643
1.01,31.22215876154865,131.01046400235396,21.03233082971612,4.535928089551631,11.843771968231913,30.345263079576245,-3.5906782669181805,2.042444440286679,324.9203161036979,37.24343626584347,15.231822021687972,69.85957209800664,1.0042698742042964,114.76928033050469,847.8752298861804,15.288,0.0,8.879198894561021,0.1094710192861039,4.2346426647192533e-07,-0.0100435012252908,0.0297892128419443,0.000990864886172,12.67105226625936,25.549423854592984,39.09063057819825,30.62514556825599
1.02,31.222158302480885,131.0104655141107,21.3643496236987,4.534890291122479,11.741337566303452,25.44584615696757,-3.642005012653191,2.014785208943192,284.59063161540416,37.50006043838543,15.345696557361844,69.85342589689094,1.0511186957761744,114.8191819308948,859.5725633619802,15.288,0.0,8.902414305426749,0.1102257372420526,4.423116654234297e-07,-0.0103700780505476,0.0306596782409836,0.0010301007425952,12.575191269416592,25.36673010885167,39.331503998458246,25.78399981760837
1.03,31.222157841240485,131.0104670379528,21.698815611058208,4.52994488561608,11.63063595796882,20.913435796602585,-3.696765186500028,1.9856192467237008,247.30469339049705,37.78447004362427,15.469243376197776,69.84706711496793,1.0992950905798708,114.87049964638256,872.6323885403325,15.288,0.0,8.925497670427013,0.1110621352908617,4.616726777549538e-07,-0.0107039680192794,0.0315418155250348,0.0010712970123432,12.470338576365686,25.16746741314247,39.59888507031849,21.33027316880158
1.04,31.22215737789472,131.01046857371827,22.03568513409557,4.528403592593837,11.529933294604476,32.84874223503811,-3.748916149779291,1.9571953420319192,345.46563688072297,38.03856258061863,15.582039340242943,69.84049009220853,1.1488147198728165,114.92325034631652,884.3797705524771,15.288,0.0,8.948452203050621,0.1118094295929794,4.815532689702949e-07,-0.0110452446876998,0.0324355994464776,0.0011128513115156,12.37611122600924,24.98933703946461,39.83748126396683,33.119855862139914
1.05,31.22215691215347,131.0104701221582,22.37517546463454,4.523678287887321,11.422836886924124,20.078124521228126,-3.803961911768935,1.927449548118081,240.45625879819983,38.3149490269945,15.702569755134943,69.83368910815116,1.1996927822690082,114.97745041779643,897.2489277253607,15.288,0.0,8.97129026253652,0.1126222632181247,5.019578360451193e-07,-0.0113943789110145,0.0333420200140151,0.0011563317523255,12.274889519563008,24.798455145414,40.09738138738333,20.525990165560138
1.06,31.22215644426277,131.0104716826484,22.717110970864898,4.516231342666208,11.310594741295922,28.316079383635376,-3.861663997655731,1.8964506793875344,308.17968365593924,38.61055825230599,15.829755511688482,69.82665820450411,1.2519451592422617,115.03311698515728,911.1174025913592,15.288,0.0,8.994002349429596,0.1134916095070667,5.228935611623081e-07,-0.0117511894980226,0.0342603813677322,0.0012017031196153,12.167997101653835,24.597302427103887,40.375705476965074,28.641042677781133
1.07,31.222155974106364,131.0104732554939,23.061581555307,4.51454123048177,11.213816186561264,33.224692949845945,-3.914542350569444,1.8670465940056904,348.5093681440308,38.85573822651429,15.939130800074874,69.81939124720996,1.305587969299151,115.09026743677973,922.6949413035976,15.288,0.0,9.016601227083166,0.1142127338079576,5.443656861613045e-07,-0.012116007191595,0.0351912992972067,0.001246836752746,12.077654816975528,24.42879249579422,40.60597624624697,33.50656243797822
1.08,31.222155501580783,131.01047484095895,23.408665532608715,4.511436562838073,11.114943100716625,22.57358036612064,-3.968841557082624,1.836863551359936,261.00157857466235,39.108971797106,16.051237814148298,69.8118820675101,1.3606366296978645,115.14891842540024,934.7298848220644,15.288,0.0,9.03908828562476,0.1149575399770832,5.663797083065021e-07,-0.0124890626777963,0.0361351151142103,0.0012935602838324,11.984947080257532,24.256438305962515,40.8439727827346,22.993309930439505
1.09,31.222155026970423,131.01047643832018,23.75815903802708,4.501825551112256,11.001879912465776,20.811092456999106,-4.029288197641124,1.8040575786119373,246.54375332474407,39.413396024524125,16.18122346077648,69.80412435680665,1.4171065187766008,115.20908657362126,949.3065261373648,15.288,0.0,9.061450536669716,0.1158528263609911,5.889432503448344e-07,-0.012870083675629,0.0370909119013156,0.0013433558714938,11.87678387997607,24.0548263698143,41.13096685252972,21.27419461179112
1.1,31.222154550355096,131.0104780473776,24.11000778072705,4.495336880345295,10.897679880168509,41.10705949829754,-4.0871762398265465,1.7719803096729512,413.1890617385841,39.6887243066158,16.300901429967052,69.79611166550215,1.475012960151341,115.27078845832412,962.583369642252,15.288,0.0,9.083692245332749,0.1166625971456857,6.120623905667767e-07,-0.013259138419777,0.0380586360028629,0.0013935854931983,11.778077426921662,23.87217115690081,41.39022542358988,41.34773590451894
1.11,31.222154071318133,131.01047966918384,24.46451549153623,4.4952616904226,10.809872489852848,30.26276127322624,-4.139190448398128,1.741950952382598,324.1593910376397,39.905835488756566,16.40005026560366,69.78783737164946,1.534371395261398,115.33404079539748,973.1103717302816,15.288,0.0,9.105834145251034,0.1173012515698503,6.357405339705262e-07,-0.0136569569481892,0.0390398476053918,0.0014432007035625,11.697020470940917,23.72449611859879,41.59379059371685,30.594149940289217
1.12,31.22215358992084,131.0104813035732,24.82163779742841,4.482758884992515,10.694228160335472,11.80772493786387,-4.203256898064938,1.7069348583384896,172.73281794065943,40.22591160585146,16.53523414312511,69.7792948091456,1.595196562785821,115.39885956451973,988.7492740308218,15.288,0.0,9.12785471080957,0.1182425761957634,6.599843303593869e-07,-0.014063526419019,0.0400342579206256,0.0014980338056021,11.585665561219724,23.51863458615755,41.89602026129733,12.649243588847275
1.13,31.222153106779377,131.01048294899823,25.180935337988814,4.476775014211428,10.595084855389867,35.54956515069804,-4.261329551240499,1.6740066593180023,367.5328077900705,40.48690826186817,16.64960315735351,69.77047690713182,1.6575046742114816,115.46526232798664,1001.586878117468,15.288,0.0,9.149743748187824,0.1190102487464779,6.848036327265868e-07,-0.0144781613055969,0.0410399794879107,0.0015521529743525,11.49209651632856,23.347992622519595,42.141711517271695,35.84316964560251
1.14,31.222152621199736,131.0104846071895,25.542905824981656,4.475325235862011,10.507561158285,19.96233649632661,-4.315052809690769,1.642553854504036,239.69531773195544,40.70443103757385,16.748625648342426,69.76137678904978,1.7213097554875476,115.53326433505464,1012.3429801027949,15.288,0.0,9.171535602280873,0.1196501402376821,7.101994941373909e-07,-0.0149020006252777,0.0420595096375041,0.0016061187877731,11.41105802807971,23.202503995685863,42.345718568471526,20.489327522101345
1.15,31.22215213368504,131.0104862768737,25.907188288034234,4.461283860767801,10.392411235914524,19.67959099985717,-4.381575869002255,1.6057216215705534,237.41251153546767,41.02935605142964,16.88523389305089,69.75198745479805,1.7866255708836094,115.6028805691302,1028.533645952844,15.288,0.0,9.193204092004768,0.120605748863081,7.361815437962223e-07,-0.0153343478682524,0.0430909360162338,0.0016658512211269,11.299842086009672,22.9987457268924,42.652855887630935,20.225302246034822
1.16,31.22215164437941,131.01048795768995,26.273682613510235,4.460660515171936,10.308959758993357,50.49831547445015,-4.434698250590925,1.5739929116720304,490.0437743845894,41.231988667903,16.97886819801581,69.74230149819925,1.8534672607022105,115.67412749597544,1038.6814504052156,15.288,0.0,9.214758344239316,0.1212018885220436,7.627560653304469e-07,-0.0157752318259482,0.0441341065216643,0.0017221498652292,11.223051183753356,22.86291495998872,42.842593299792725,50.717096407590994
1.17,31.22215115236025,131.0104896519084,26.643041015109947,4.453325536277247,10.211430152852724,9.457279979706913,-4.49477477202581,1.5392030645106345,153.70937929486794,41.490309527015214,17.091932002004892,69.73231168649627,1.9218479131224608,115.74701941123192,1051.699706052089,15.288,0.0,9.23622650313146,0.1219617339411866,7.899224128079081e-07,-0.0162261455316288,0.0451922618356468,0.0017824097230012,11.130808828506147,22.697590291096702,43.08583922647303,10.583585920641632
1.18,31.222150658832675,131.01049135652863,27.014408701406023,4.43710113597744,10.095226863498803,24.86864283866426,-4.564507265217465,1.500195688517282,280.02501822196746,41.82615511799901,17.232102746296743,69.7220104494763,1.9917815190264487,115.8215715862794,1068.7565700593157,15.288,0.0,9.257562753329688,0.1229494751951656,8.176958429209855e-07,-0.0166852706226868,0.0462609193900047,0.0018476138397506,11.018041278776714,22.49255962158091,43.40371750375763,25.328535494874476
1.19,31.22215016324833,131.01049307289793,27.38817406700401,4.43988470375376,10.02238100982624,42.98385225818808,-4.614145203771589,1.4691105646738452,428.4078130529292,41.985259757453846,17.310217569158404,69.71138997176658,2.0632823959262487,115.89779965998736,1076.864364971724,15.288,0.0,9.278804098920576,0.1234176895603957,8.460768684003253e-07,-0.0171537835462754,0.0473425746198711,0.0019066509095039,10.95258641311839,22.38112188965596,43.551555428061874,43.255753105991175
1.2,31.2221496651242,131.01049480217108,27.76467059206898,4.4270260725603165,9.916007702762265,4.9736121784146885,-4.680714820457257,1.4308124931478692,117.1843741360236,42.28343950001848,17.436998507445132,69.70044270031526,2.136362304702656,115.97571656293783,1092.1749821919532,15.288,0.0,9.299953067272542,0.124294731385385,8.750682666026583e-07,-0.0176324364247543,0.0484386718723172,0.0019737009107411,10.85032838635994,22.19802433518417,43.833278383817365,6.978046554894224
1.21,31.22214916567956,131.0104965413456,28.14304276377089,4.414790735701756,9.812173790194056,34.619675032986414,-4.746925588074328,1.3923509065512447,359.92343213200894,42.57320729845744,17.560760452496897,69.68916048322657,2.211035269173047,116.05533765415372,1107.1553498421931,15.288,0.0,9.320975017839707,0.1251470557907071,9.04685788720696e-07,-0.0181193737798431,0.049544755855347,0.0020420316802485,10.75072760197742,22.020678025384136,44.10697710703966,34.971328870594434
1.22,31.222148663973726,131.01049829270033,28.52394560414868,4.4156310840818165,9.737746676123235,25.226858832460447,-4.798558889779009,1.359658088764773,283.0687504825761,42.736680081552926,17.640159664964614,69.67753529427112,2.2873135039129355,116.1366763850581,1115.6333705127136,15.288,0.0,9.34190873774189,0.1256281360481149,9.34926100932444e-07,-0.0186164118144913,0.0506646861440098,0.002106026297879,10.683320679173203,21.90759071423097,44.25892863468129,25.715155921944323
1.23,31.22214816036845,131.0105000553182,28.90712006501079,4.401793868290167,9.632520593746438,10.154476481875172,-4.866831868172733,1.3197381838072249,159.79687382222795,43.03399614365409,17.766403353795504,69.66555923520382,2.3652074342711766,116.21974431639184,1131.1684922051836,15.288,0.0,9.36269554855098,0.1265026691752353,9.657987309295022e-07,-0.0191228936649574,0.0517967223505828,0.0021782931770458,10.58197900600517,21.728124105276176,44.53995140821596,11.337599125379962
