Time,Latitude,Longitude,Altitude,Angle of Attack,Angle of Sideslip,X-Acceleration,Y-Acceleration,Z-Acceleration,Thrust,True Velocity,Ground Velocity,Pitch,Roll,Yaw,Dynamic Pressure,cp,parachute_deploy_gain,Wind Speed,Mach,omega_x,omega_y,omega_z,Cmq,Angle of Attack(total),Angle of Attack(gust),True Velocity(gust),Acceleration
0.0,31.222186000000004,131.010384,3.000000003643237,0.0,0.0,0.0,0.0,0.0,2.2828121974499247,0.0,0.0,69.99999999623421,0.0,113.69999999388332,0.0,15.288,0.0,0.0,0.0,0.0,0.0,0.0,-0.0,0.0,90.0,0.0,0.0
0.01,31.22218600000153,131.01038399999584,2.99999882256592,0.0,0.0,0.0,0.0,0.0,34.24218696174923,7.502283530665459e-11,7.190531319924593e-11,69.99999999623329,-4.83564628150269e-13,113.69999999388072,3.446445726795683e-21,15.288,0.0,0.0,2.204725565824978e-13,-3.659182332138578e-19,7.589415207398531e-19,4.811147140404426e-19,-1.5108918610345807e-31,0.0,89.9999999995224,7.502283530665459e-11,0.0
0.02,31.22218600000288,131.01038399999217,2.999997775701936,0.0,0.0,0.0,0.0,0.0,25.871876237766408,1.5320717031631675e-10,1.4674636035870463e-10,69.99999999623222,-9.67129256300373e-13,113.69999999387804,1.4372842949972735e-20,15.288,0.0,0.0,4.5023593667086093e-13,-7.284483346386986e-19,1.5178830414797062e-18,9.757819552369542e-19,-6.170906918166791e-31,0.0,89.99999999902465,1.5320717031631675e-10,0.0
0.03,31.22218599928065,131.01038400193067,3.000201659671132,18.81500467334555,-0.00012974450181,11.96616230539064,-1.8916256735984712e-05,3.349833086198469,180.34219359854663,0.0882870268161719,0.0553390044312322,69.99999999799445,-4.212591857125379e-12,113.69999999488518,0.0047728553458352,15.288,0.0,0.0,0.0002594525584132,3.2187251995663407e-17,-7.20264389268894e-10,1.2365134327422308e-11,1.6874092354518158e-13,18.815004673776716,89.46786891739345,0.0882666465974854,12.426199017587786
0.04,31.22218599548236,131.0103840121632,3.001799604587872,9.46752327608497,-4.6177622759613696e-05,55.21900012092241,3.931876292165237e-06,3.349616504302861,548.6359724538078,0.3767519978512604,0.1853356633749705,70.00000000507204,-2.4624598767003407e-11,113.70000000019972,0.086915163246288,15.288,0.0,0.0,0.0011071759353184,1.6174128009138757e-15,-1.3693172015529268e-08,2.7753303060112748e-11,1.3689612277852356e-11,9.467523276196548,87.63554493451223,0.3767447442872393,55.32050167054111
0.05,31.222185984749512,131.01038404118162,3.00777936418888,5.376730308971262,-2.257790939128127e-06,80.28807156553681,5.266841443842784e-05,3.348887800834877,761.6984298824644,1.018787885905993,0.4366201147110198,70.00000000894464,-1.1355399380652658e-10,113.70000001523856,0.635552918586145,15.288,0.0,0.0,0.0029939522895272,1.6418815498809788e-14,-9.32122351075408e-08,4.303264669380585e-11,2.5199270302492604e-10,5.3767303089717045,83.57022052969386,1.0187875312530217,80.35788377762394
0.06,31.22218596447235,131.01038409608267,3.0201664202003013,4.296730121134882,2.4863835723705905e-05,60.21296515808257,0.0001057204249726,3.347700952379021,590.4875390737208,1.721098934225416,0.7081674028809783,69.99999995523842,-3.0560354507026086e-10,113.70000004366592,1.8138247671743823,15.288,0.0,0.0,0.0050578622752421,8.328976953118383e-14,-3.2824985336199985e-07,5.923438275930214e-11,1.4991363363716091e-09,4.296730121206683,79.20467073327266,1.7211028398275985,60.305955550063224
0.07,31.22218593493329,131.01038417609837,3.038741944736831,3.8204913578752526,4.8016684030909405e-05,91.4060317508128,0.0001597686613101,3.346072557365335,855.2937749779139,2.4375792548422868,0.9844712334613328,69.99999973536046,-5.939103491363046e-10,113.7000000850886,3.6383156301599167,15.288,0.0,0.0,0.007163413150771,2.709313825263564e-13,-7.906546256197275e-07,7.920022733617308e-11,5.114174483651565e-09,3.820491358176508,74.87999294483174,2.437586797285377,91.46725557277466
0.08,31.222185894468456,131.01038428575305,3.0647976109320942,3.588632851766762,7.220043782492885e-05,19.18449428359557,0.0002119618497595,3.3440615022685813,241.2171988638848,3.1292508166901074,1.2522236515868983,69.99999919480445,-9.914748373602156e-10,113.7000001418522,5.996012698481753,15.288,0.0,0.0,0.0091960591623389,6.80386533246681e-13,-1.5973238302190878e-06,1.0839624626357699e-10,1.3263625118823921e-08,3.58863285249208,70.86684630658345,3.1292621579083604,19.473766155861934
0.09,31.22218584634549,131.01038441616095,3.0957981580345013,3.551302481506045,9.685468678862004e-05,57.102946699906326,0.0002554087225869,3.341892818148368,563.0937377043176,3.701810007254615,1.479132491047967,69.99999812344194,-1.4359264356978275e-09,113.7000002093888,8.390904013834115,15.288,0.0,0.0,0.010878666406854,1.440096519545733e-12,-2.748643691533636e-06,1.5214952332699618e-10,2.6999776649034504e-08,3.5513024828250237,67.68737872952666,3.701825221153239,57.20065357568538
0.1,31.222185790329306,131.01038456796124,3.1319266121977414,3.608446747536112,0.0001234669721807,54.26147302645416,0.0002914860332524,3.3396271157106168,538.7437595981919,4.174070299823608,1.6716491241860567,69.9999963052332,-1.902380107712657e-09,113.70000028805804,10.668380938744466,15.288,0.0,0.0,0.0122665227999911,2.687800116751415e-12,-4.315796035622946e-06,2.1749089204950437e-10,4.7802076800548326e-08,3.608446749645647,65.17160335282355,4.174089693970246,54.36414778470795
0.11,31.222185727066616,131.0103847393952,3.172681775073216,3.633547373470009,0.0001485939126744,42.987553988990406,0.0003293995000288,3.337005588796181,442.8656393052949,4.672024955140527,1.8729475711242067,69.99999349387662,-2.3433348587116544e-09,113.70000037699285,13.365573690709628,15.288,0.0,0.0,0.0137298902182575,4.5789425819531184e-12,-6.340230783164189e-06,3.1157625832417107e-10,7.860218435507205e-08,3.6335473765043056,62.62546922225161,4.672048296217748,43.116880735560244
0.12,31.22218565692512,131.0103849294629,3.2177790417108385,3.650108937861461,0.0001727442530266,46.86777100765684,0.000367618259785,3.334068179146888,475.58594813540446,5.17479364099247,2.0758708919414386,69.99998941286465,-2.702771525550512e-09,113.70000047573096,16.396890189902592,15.288,0.0,0.0,0.0152074069417046,7.288473386564583e-12,-8.86736416607888e-06,4.42271554299792e-10,1.217615295152289e-07,3.6501089419435786,60.16906436414164,5.174820775596283,46.986210423745625
0.13,31.222185580265183,131.0103851371844,3.2669395832841857,3.7280113734654137,0.0001995014041665,51.64515456841877,0.0003986198234033,3.3311573548369657,515.9156326236895,5.579364582999854,2.2451120211463422,69.99998375846928,-2.9114380666036422e-09,113.70000058383452,19.060875702782603,15.288,0.0,0.0,0.0163963474924215,1.100846422415094e-11,-1.1941028436408576e-05,6.179653149059831e-10,1.7678562106638216e-07,3.728011378795934,58.279338776943774,5.579395920607139,51.75247433579817
0.14,31.22218549718016,131.01038536230575,3.320091807147376,3.768719651034081,0.0002242721760019,48.1660778383537,0.0004326225136175,3.32784677779744,486.2390860568404,6.025734265159953,2.428648685938864,69.99997621008868,-2.890941335368725e-09,113.70000070125378,22.232643351545065,15.288,0.0,0.0,0.0177081261985351,1.5941871344608664e-11,-1.560901486259027e-05,8.477542742712431e-10,2.495765160917323e-07,3.7687196576976176,56.27980129251342,6.025769493750979,48.280903250602165
0.15,31.22218540777004,131.01038560455507,3.377159065217065,3.821894709649632,0.000249725644238,46.56959330999435,0.0004643042952466,3.324387732286376,472.54218587214,6.441023336496372,2.6014999612196745,69.99996641132823,-2.546763407193136e-09,113.70000082794672,25.402620271850456,15.288,0.0,0.0,0.0189285691155931,2.2314099732464315e-11,-1.992367942778425e-05,1.1417519574710292e-09,3.4051816697623295e-07,3.821894717796148,54.501255563441134,6.441062563308839,46.68809885900716
0.16,31.22218531193176,131.01038586421257,3.4382223512025254,3.8463320955387794,0.0002733212404609,36.974247749122085,0.0004987816203583,3.3205066466509234,391.1218908297564,6.895451966878468,2.7877331692857847,69.99995397923414,-1.77088415515292e-09,113.70000096417354,29.113317717489338,15.288,0.0,0.0,0.0202640360420561,3.0367358387834494e-11,-2.4945905791363795e-05,1.5114297685186711e-09,4.5643121540033697e-07,3.846332105235269,52.641145594326446,6.895494900078523,37.12304892183151
0.17,31.222185210004127,131.010386140357,3.503019838429153,3.8860314262554336,0.000297865039677,46.520531453299206,0.0005306403365217,3.31650761597812,471.78125980632376,7.314788342774694,2.9619016331667103,69.99993849340957,-4.3039914767238207e-10,113.70000110959404,32.761746921137856,15.288,0.0,0.0,0.0214963781445172,4.0366633128431416e-11,-3.0713078585132897e-05,1.96747427715988e-09,5.961228045584824e-07,3.886031437653654,51.00464968745696,7.314835131305714,46.63860064094784
0.18,31.22218510147516,131.01038643438045,3.571950002194137,3.9107265153396016,0.0003214293682635,38.895647526122765,0.0005639254295027,3.312149448254175,407.10156721191447,7.754626295791602,3.1430587898572058,69.9999195084231,1.6149322372810674e-09,113.70000126508234,36.81988229018681,15.288,0.0,0.0,0.0227889722876034,5.2593391349219385e-11,-3.731786027786564e-05,2.525509173087448e-09,7.6786585232224e-07,3.9107265285284982,49.36615848311875,7.754676785798701,39.036415444581515
0.19,31.222184986476247,131.0103867459258,3.644912152926752,3.920599115663931,0.0003437679584038,43.86258669386953,0.0005989384366483,3.307389681300437,448.9531328318269,8.219206165926856,3.332657190859447,69.99989653019398,4.538529095696477e-09,113.70000143063515,41.36350714675367,15.288,0.0,0.0,0.02415428010977,6.735860419174937e-11,-4.481243905342629e-05,3.199401151670645e-09,9.773118416308382e-07,3.92059913071168,47.71893898797248,8.21926016487149,43.987104227715655
0.2,31.222184864792144,131.01038707557822,3.722074668489528,3.943376465171875,0.000367328732016,40.28070981710589,0.0006315894240138,3.30251450988504,418.51563019916136,8.65238089736321,3.511445117640573,69.99986902534273,8.534090245934178e-09,113.7000016067622,45.83799876721736,15.288,0.0,0.0,0.025427299120469,8.499785987217288e-11,-5.328041996372527e-05,4.006766070954748e-09,1.2232205148646746e-06,3.9433764822533854,46.2587826635041,8.652438597225508,40.41586552155969
0.21,31.22218473678744,131.01038742234647,3.803156063113743,3.9664546506877016,0.000390962054969,38.67679184347145,0.0006636984664108,3.297405915846789,404.8187610144644,9.079179692250786,3.688002035198235,69.99983642883521,1.3827831253856693e-08,113.70000179318536,50.47126980736161,15.288,0.0,0.0,0.0266815841422463,1.0586558589671407e-10,-6.275155280099118e-05,4.961340042512481e-09,1.5117124669161171e-06,3.9664546699249135,44.88773728276958,9.079241104426773,38.817098210937615
0.22,31.2221846022986,131.01038778667507,3.8882846911135607,3.956175711337521,0.0004112685792646,46.713636108302936,0.0007011135033803,3.291572407481395,472.5421858721365,9.580256326712124,3.889976788904857,69.99979815126248,2.0662823443484168e-08,113.70000199039316,56.195522894218605,15.288,0.0,0.0,0.0281541581291438,1.3033127211465288e-10,-7.330053770532661e-05,6.0817207473359025e-09,1.8632831045819008e-06,3.956175732680424,43.35679625546934,9.580320928629488,46.8294591882524
0.23,31.222184460898035,131.01038816972698,3.977794004014759,3.9879066397329104,0.0004360962274406,38.89105719050748,0.0007308686121188,3.286096544282012,406.3406421461021,9.977039034039262,4.056142701351626,69.99975353557706,2.9316661139418326e-08,113.70000219928508,60.9462612310605,15.288,0.0,0.0,0.0293202403623685,1.5880617816859538e-10,-8.505067486192354e-05,7.393319440773217e-09,2.2514912291167663e-06,3.987906663538912,42.20670487756048,9.97710753587448,39.0296395118868
0.24,31.222184313516166,131.01038856897196,4.070963590490852,4.003523997322975,0.000459165577055,40.0792299321398,0.0007630441688766,3.280134925833028,416.2328240017114,10.408422364424831,4.234121060914368,69.99970190737699,4.010976417051318e-08,113.70000241888,66.32994780718496,15.288,0.0,0.0,0.030588009649109,1.91711512587616e-10,-9.795845222523724e-05,8.904557280909524e-09,2.7052895870113487e-06,4.003524023611085,41.011349410369874,10.408494489985014,40.21323112692186
0.25,31.22218416001652,131.01038898478134,4.167901030441617,4.0261356185860135,0.0004830526730531,41.17760020658354,0.0007934613160587,3.2740610008587527,425.36408079150686,10.816813039390448,4.4041629376391525,69.99964258149416,5.3372865854010094e-08,113.70000264972064,71.63651430352668,15.288,0.0,0.0,0.0317882126436337,2.2947426169209347e-10,-0.0001121037688082,1.0637152702866709e-08,3.217380562698304e-06,4.026135647516394,39.93186687113378,10.816888917126896,41.30755663120434
0.26,31.222184000702686,131.0103894163294,4.26837241014618,4.053359329950934,0.000507503069958,44.80261175215926,0.0008224724146494,3.2678597736729302,455.8015834241788,11.207047269494833,4.567925492611352,69.99957484039399,6.947299261165984e-08,113.70000289176392,76.89781807056055,15.288,0.0,0.0,0.0329350617559806,2.7254099134167665e-10,-0.0001275114371842,1.260720913253598e-08,3.7915697709142366e-06,4.053359361668992,38.945390435244384,11.207126987890645,44.921630958721536
0.27,31.22218383516388,131.01038986473338,4.372698316214008,4.0614460923241,0.0005296455772492,41.029837477288126,0.0008548809954683,3.2610328932384265,423.84219965987256,11.645685385842508,4.748226940060522,69.99949794024376,8.879821051920497e-08,113.70000314600205,83.0342688744587,15.288,0.0,0.0,0.0342241635563461,3.2137296827284217e-10,-0.0001442952656441,1.4842505534226832e-08,4.458527942364847e-06,4.061446126801262,37.8838346421185,11.645768582375233,41.15922617924542
0.28,31.222183663504484,131.01039032970942,4.48079961904222,4.081133040992532,0.0005533279247169,47.27661484082626,0.0008845140695959,3.254218495915602,476.3468732012221,12.047344998676092,4.915789434712848,69.99941106884992,1.1178948978424788e-07,113.70000341275257,88.85982357848233,15.288,0.0,0.0,0.0354045979054623,3.764736350660473e-10,-0.0001625146963723,1.7365685655384934e-08,5.194620655212288e-06,4.081133078439725,36.956255322213885,12.047431915223257,47.38848224631549
0.29,31.22218348566054,131.0103908114315,4.592727908358551,4.1001100265020245,0.0005770279952742,37.989969791857405,0.0009138463939581,3.247164755122801,397.97031042211177,12.446314684600782,5.082367374004485,69.99931338876085,1.3891902435864665e-07,113.70000369260468,94.8417675268915,15.288,0.0,0.0,0.0365771315767517,4.3836067907166327e-10,-0.0001822432988888,2.0202163500922312e-08,6.018074062137429e-06,4.100110067036654,36.07377590258778,12.446405323946324,38.12849176886316
0.3,31.222183301933686,131.01039130907952,4.708251093558373,4.112858061667493,0.0005998635114143,35.655053282557844,0.000944131403186,3.2397207148238625,378.1859457108711,12.860033399289696,5.253940723820665,69.99920403105713,1.707002607527005e-07,113.7000039856728,101.2505662360602,15.288,0.0,0.0,0.03779301412572,5.075709863465428e-10,-0.0002035013069687,2.3370674033523645e-08,6.94335970778e-06,4.112858105337573,35.19685285507256,12.860127625629724,35.80193592228613
0.31,31.222183112488807,131.0103918222051,4.827243246502713,4.136140889545823,0.0006242383343011,37.56633644061071,0.0009716215464757,3.232339252743767,394.1656220930212,13.2364445751808,5.4126574282679245,69.99908210036875,2.0768081583188525e-07,113.7000042923011,107.26326115439352,15.288,0.0,0.0,0.0388992619788015,5.846561731689753e-10,-0.0002263323252403,2.6893437641668458e-08,7.948283231812338e-06,4.1361409365698805,34.43286455705216,13.236542630309057,37.70514091683033
0.32,31.22218291741533,131.01039235056504,4.949637017503345,4.1622282001352975,0.0006491019906456,40.83513712643371,0.0009979686925508,3.224840963348891,421.55939346242695,13.59846554462374,5.566374262777002,69.99894668612772,2.504388718903276e-07,113.70000461297312,113.2095365840355,15.288,0.0,0.0,0.0399632243410653,6.701756367872645e-10,-0.00025078340164,3.0793566854276295e-08,9.047716714467492e-06,4.16222825066026,33.72644865222576,13.598567505326,40.96227562489027
0.33,31.222182716732533,131.01039289410716,5.075419569102976,4.187801887681037,0.0006739743721461,40.48743503284469,0.0010239291638211,3.217136801802925,418.5156301991682,13.956637761217308,5.718704299733134,69.99879684673242,2.995902922462564e-07,113.70000494831164,119.25032483364384,15.288,0.0,0.0,0.0410158804634189,7.647061680070125e-10,-0.0002769136723495,3.509664608790402e-08,1.0253455741189656e-05,4.187801941818244,33.053267359159875,13.956743628864118,40.61505097607
0.34,31.222182510255863,131.01039345333336,5.204736257784645,4.19642921746386,0.0006961879027693,31.814592723444047,0.0010535137542081,3.208669900766693,345.46563688075645,14.367047160772364,5.88887983533068,69.99863160305904,3.557915789971256e-07,113.70000529927128,126.36523219087664,15.288,0.0,0.0,0.042222056531773,8.688448410811866e-10,-0.0003048202762282,3.9835373705550826e-08,1.1618525957862828e-05,4.196429275109305,32.30947868183619,14.367156517712404,31.97598901989736
0.35,31.222182298183583,131.0103940277045,5.337435501771672,4.210915783240843,0.0007193441544952,34.813487415034444,0.0010813034848195,3.200164272309822,370.5765700527033,14.754132934586384,6.050986755458457,69.99844991734221,4.1975736284587617e-07,113.70000566632532,133.26448209504355,15.288,0.0,0.0,0.0433596939127697,9.832256819293898e-10,-0.0003345386312107,4.503361101379695e-08,1.309465610343774e-05,4.210915844572415,31.63649055965014,14.75424592890194,34.96026256388454
0.36,31.222182080444604,131.0103946174141,5.4735747500461605,4.22903876037745,0.0007431682866607,39.2632255716727,0.0011077666085529,3.1915717453569297,407.8625232777193,15.124417129017054,6.2072589919251575,69.99825073022951,4.922382611919288e-07,113.70000605036684,140.03566173682628,15.288,0.0,0.0,0.0444479595865755,1.1084921261805627e-09,-0.0003661511460057,5.0723697896912267e-08,1.4691545926915382e-05,4.229038825557203,31.017264542603208,15.124533865618538,39.39272792946638
0.37,31.22218185710795,131.01039522227452,5.613102797925907,4.249164960780052,0.0007674149135003,37.28328237034959,0.001133274451316,3.1828514669894137,391.1218908297666,15.483077353331511,6.359470679857624,69.99803294268581,5.740349991123437e-07,113.70000645214331,146.75405277514704,15.288,0.0,0.0,0.0455020695186381,1.245311285088233e-09,-0.0003997125883071,5.6934243389647934e-08,1.641828325195534e-05,4.2491650299519,30.439178816713017,15.483197898584232,37.418894813348615
0.38,31.2221816281124,131.0103958424523,5.756069531572451,4.260095806433531,0.0007900626414612,38.9278000801764,0.0011607546399008,3.1735466295306622,404.8187610144602,15.87126705947922,6.521735074464384,69.99779542676283,6.659911329739736e-07,113.70000687263192,154.20298254405043,15.288,0.0,0.0,0.0466429667223463,1.3943646956867835e-09,-0.0004353006984059,6.369875435270817e-08,1.8328108041903096e-05,4.260095879559656,29.83470194713067,15.87139116222873,39.05694584372078
0.39,31.22218139339905,131.0103964781077,5.9025231349944285,4.274091258047817,0.0008133283308351,33.320076729592266,0.0011870382950339,3.164143363712209,357.64062493382744,16.24457853509073,6.678818328235205,69.9975369905506,7.690136753559805e-07,113.70000731287368,161.54010621938565,15.288,0.0,0.0,0.0477401448128051,1.5563705124515804e-09,-0.0004730068442167,7.105463478762673e-08,2.0383860516746246e-05,4.274091335289374,29.274934656826048,16.244706292406182,33.46997636540994
0.4,31.22218115316572,131.01039712870306,6.0523126585892895,4.286421841403391,0.0008363022448449,31.88018820767003,0.0012133780841982,3.1544430614236454,345.465636880754,16.62063299903514,6.836764518435374,69.99725641601981,8.840594270905819e-07,113.70000777359816,169.10340080049767,15.288,0.0,0.0,0.0488453895716005,1.7320643186450851e-09,-0.0005128553637434,7.9027539265021e-08,2.2612406375611563e-05,4.286421922834417,28.730746964325096,16.620764365084565,32.03586915718869
0.41,31.22218090752676,131.01039779392735,6.205351877049411,4.30025870409831,0.0008595777771371,35.882550741685804,0.0012389121673015,3.1445895889870297,378.94687077668647,16.987310563534386,6.99141560549392,69.9969524610574,1.0121301778427253e-06,113.70000825570062,176.64448930727934,15.288,0.0,0.0,0.0499230826371405,1.922193031274436e-09,-0.0005548883906878,8.764667734700782e-08,2.5005077415911235e-05,4.300258789847355,28.21875643368965,16.987445585695873,36.020076248499606
0.42,31.222180656535848,131.0103984736348,6.36160173428776,4.322008670726048,0.0008844838439129,40.34064925656127,0.001261804338223,3.134918999355981,416.2328240017114,17.318628721060172,7.133856886815013,69.99662385300175,1.154276942054023e-06,113.70000876021427,183.59942989625057,15.288,0.0,0.0,0.0508968652507098,2.1275184665783874e-09,-0.0005991661829955,9.694534598491077e-08,2.752657757470936e-05,4.322008761057615,27.772396468009568,17.318767655457478,40.462275036947325
0.43,31.222180400205527,131.0103991677914,6.521055075967404,4.339436441324956,0.0009085827200945,35.541853595187746,0.0012854696362701,3.124839917627212,375.9031395134336,17.662848429084132,7.280642039343927,69.99626930133451,1.3115939750280808e-06,113.70000928827632,190.96736675963504,15.288,0.0,0.0,0.0519085689713619,2.3488101247838237e-09,-0.0006457514522491,1.0695800287133593e-07,3.0255957891170616e-05,4.339436536261635,27.322335771349252,17.662991148924057,35.67895714766603
0.44,31.22218013836212,131.0103998768696,6.683849332059896,4.342209064313268,0.0009296474314902,32.82948243168077,0.0013129688908547,3.113754688841357,353.0750125389216,18.063580761318697,7.446730341918701,69.99588746395321,1.4852372182848018e-06,113.7000098413532,199.7278270846888,15.288,0.0,0.0,0.0530863610987301,2.586862292117705e-09,-0.0006947575786514,1.1773083546077225e-07,3.329010177793299e-05,4.342209163639375,26.81344244367223,18.06372678999575,32.9768158972058
0.45,31.22217987077456,131.0104006014978,6.850166573233225,4.3420317510315165,0.0009500780330031,38.11022602597878,0.001341042003417,3.1022288449712887,397.2093853562869,18.47486275310604,7.616350301328129,69.99547690348253,1.6764536248320808e-06,113.70001042108892,208.92306716049887,15.288,0.0,0.0,0.0542951637545535,2.842521175226318e-09,-0.0007463379956615,1.2932090054593452e-07,3.657529369088674e-05,4.342031854775571,26.30944884471334,18.47501199101448,38.23628058998621
0.46,31.22217959739673,131.01040134180155,7.020045503401754,4.351169003849846,0.0009725797783515,44.3937050866137,0.0013660055515545,3.09098240974522,449.7140588976434,18.844323061800488,7.771531995684422,69.99503610583268,1.8865779683531e-06,113.70001102895836,217.3591612614144,15.288,0.0,0.0,0.0553810645782081,3.1166808800591503e-09,-0.000800596194505,1.417768495237597e-07,4.001824400409673e-05,4.351169112337076,25.873596578896564,18.844475834274814,44.50118229261506
0.47,31.22217931813738,131.01040209802923,7.193559875579052,4.358630093683735,0.0009947969928181,30.22514089990685,0.0013910994973101,3.079396422776949,331.0078106302534,19.2180591098146,7.9280875671397615,69.99456352718363,2.1170044481277104e-06,113.70001166656292,226.0625808853568,15.288,0.0,0.0,0.0564795377574197,3.4102493884459798e-09,-0.0008576351980594,1.551487523304888e-07,4.3718862242359527e-05,4.35863020698899,25.44665981168229,19.218215372160817,30.381603425148434
0.48,31.22217903348153,131.01040286886197,7.370336324605091,4.365514409145237,0.001016880998596,29.779838936311712,0.001416009414045,3.067527859335786,327.2031223011574,19.5915905767454,8.084483592791102,69.99405758812365,2.369198154608765e-06,113.70001233476164,234.93171707892955,15.288,0.0,0.0,0.057577416115756,3.7241711041759195e-09,-0.0009173883913609,1.6944871263079066e-07,4.767297940601472e-05,4.365514527349481,25.03354780044292,19.59175030803913,29.937410312943754
0.49,31.22217874361868,131.01040365378466,7.5502307795521535,4.3786401372577615,0.0010404145545081,37.2489281064929,0.0014385799934191,3.0558405437943126,389.60000969812296,19.93403005898306,8.23012235628909,69.99351671352461,2.644660619562788e-06,113.700013034871,243.21198709852868,15.288,0.0,0.0,0.0585839249886784,4.059374595909599e-09,-0.0009798792959512,1.8470833984680338e-07,5.180951737438081e-05,4.378640260624215,24.667474291142685,19.934193486919103,37.37406598941686
0.5,31.22217844858332,131.0104044527036,7.733219389747018,4.393247726981993,-26.332415076891444,39.145483906280255,1.90555981872645,3.0452696223375706,397.97031042210494,22.595977002668043,8.365996061088087,69.99293932307316,2.9449363413826395e-06,113.70001376847225,312.4995352086171,15.288,0.0,10.020627911594472,0.0664072317762449,4.416566661548473e-09,-0.0010631047813644,4.472187932587112e-05,6.371496092156185e-05,26.670541327848035,7.813245933454735,18.603772240339826,39.3099699256095
0.51,31.22217814772442,131.01040526515683,7.919298721598744,4.404069682304284,-25.984807905055703,30.23764376873497,1.9501091831287936,3.032796246904644,323.3984349720841,22.919276816739995,8.514782704502707,69.99231361596783,-0.0002469646652928,113.69974822868078,321.5001559483049,15.288,0.0,10.060403014122423,0.0673575177755471,4.7116260094949905e-09,-0.0011309455029776,-0.0004096382154857,6.874942242174693e-05,26.329777577067667,7.699311490900618,18.976081488276947,30.451861676854485
0.52,31.22217784003756,131.010406090877,8.108504362304878,4.411276621883864,-25.64039506426223,36.0774361885037,1.9964176104696671,3.019968404010328,372.0984511843415,23.25194214045285,8.666190088346827,69.99164829120666,-0.0012195856591545,113.69871356264626,330.8948020599229,15.288,0.0,10.100054285545236,0.0683353345513347,4.769381231672974e-09,-0.0012017507609682,-0.0008751481727326,7.41126282992212e-05,25.99176869727008,7.590005714733119,19.357449022697107,36.25861682927481
0.53,31.222177525375663,131.01040693023637,8.300949054798803,4.418648930440801,-25.30821684191081,37.821388667026426,2.0429685992317985,3.006915605816804,386.5562464348624,23.5818801615044,8.816277545535392,69.99094159426845,-0.0029328947988217,113.6968906324054,340.34573185092694,15.288,0.0,10.13958683432628,0.0693051427233908,4.585111395429512e-09,-0.0012756550484475,-0.0013523207466134,7.978518028295408e-05,25.66599274686817,7.487711859259182,19.73449253257672,37.9956932146293
0.54,31.22217720361344,131.01040778348016,8.496710219221768,4.425827997484517,-24.985976617703407,33.36949180654578,2.0899276603886627,2.993608960065975,349.2703242098436,23.91056443364968,8.965617241384043,69.99019169963398,-0.0054053320907904,113.69425980603695,349.89275138007457,15.288,0.0,10.179028686052696,0.0702712730661466,4.1540126164878795e-09,-0.0013527782744861,-0.0018415400618198,8.57864774196923e-05,25.350123802744715,7.391050915106614,20.108996595571,33.56862338045114
0.55,31.22217687499952,131.01040864983827,8.69557559208728,4.434046466426982,-24.679105094243656,35.2955788802592,2.1367276442126726,2.9801527752246564,365.2500005919907,24.232454917855712,9.112137362308207,69.9893967300879,-0.0086554394398081,113.69080134168236,359.3700026721494,15.288,0.0,10.218333074310356,0.071217443716511,3.471328968316435e-09,-0.0014330953898684,-0.002342327187185,9.210147942388994e-05,25.04969726869367,7.302455670360166,20.474633376608097,35.485557683116966
0.56,31.222176539509345,131.01040952928648,8.897545520264414,4.444182447062724,-24.39119345945825,33.02785270828788,2.1829116316892736,2.96663683901762,346.2265619465787,24.543245332134283,9.254242083656544,69.98855478237769,-0.0127014518139752,113.68649582349175,368.640079073379,15.288,0.0,10.257498708361666,0.0721309987577019,2.532455373883805e-09,-0.0015166905382812,-0.0028548534610894,9.872215737797156e-05,24.76838364458235,7.223390843966845,20.82656528197287,33.232590808523184
0.57,31.22217619718961,131.01041042160873,9.102565576346622,4.45206855539427,-24.10149504439684,32.67412636047397,2.2304200219675288,2.9526931330433377,343.1828296833023,24.86183278064252,9.399074614991791,69.98766390802763,-0.0175615863484836,113.68132385338536,378.2651279794372,15.288,0.0,10.296507908834815,0.0730674755041736,1.3328596557070183e-09,-0.0016036116869519,-0.0033790774108736,0.0001057327372121,24.48508553297641,7.143564505000246,21.186644267547607,32.88300022249392
0.58,31.222175847994247,131.01041132684216,9.310653525810388,4.454994045557388,-23.797082822502723,42.63148179411641,2.2806653282288853,2.93803989947814,426.1250058573153,25.20144812554962,9.55158490687466,69.98672210173208,-0.0232542122608174,113.6752658703714,388.6622313980847,15.288,0.0,10.335360114798666,0.074065759049497,-1.319780009460998e-10,-0.0016939470042132,-0.0039151858110592,0.000113212338159,24.18663058707195,7.05684077745442,21.569959724294318,42.79341950291411
0.59,31.22217549150133,131.01041224604222,9.522117855830771,4.463111353014424,-23.525976761228343,34.795368870752775,2.32870083365374,2.9236365700920555,360.68438819711065,25.514373155496283,9.693859138976462,69.98572719834438,-0.02979884062675,113.66830110026852,398.36606258666967,15.288,0.0,10.374096926480778,0.0749856084921503,-1.866871227285761e-09,-0.0017879677720038,-0.0044643718334375,0.0001209773910832,23.921920301842857,6.986028939840691,21.921889913764957,34.99554533391915
0.6,31.22217512789376,131.01041317862004,9.736798112535784,4.462880445152264,-23.224130499914708,31.06324045690665,2.381311649667948,2.9081478375700893,329.4859594986058,25.86542375244747,9.850182214089468,69.98467707386811,-0.0372152454874907,113.66040847837291,409.395222391208,15.288,0.0,10.41269452357266,0.0760175146958143,-3.876651067222421e-09,-0.0018856650821206,-0.005026252543524,0.0001293405875284,23.625710150315506,6.900787025630932,22.31646298082861,31.289820656271107
0.61,31.22217475709824,131.01041412468328,9.954732545565902,4.461096080681293,-22.92357760825571,36.18860015099212,2.4352322243379607,2.892203746121049,372.0984511843297,26.22287357889326,10.008642446979676,69.98356941121351,-0.0455236260339212,113.65156649477528,420.7799604101306,15.288,0.0,10.451159570587969,0.0770682358696472,-6.1662062162429155e-09,-0.0019871536158261,-0.0056011285281145,0.0001381825829825,23.330623021581832,6.816323793879557,22.71734665694439,36.3855737811556
0.62,31.22217437920093,131.01041508390472,10.175835517525847,4.471281618417433,-22.68573781041292,44.69708241630284,2.4832299178738912,2.8772694109461887,442.86563930529206,26.51874325548188,10.143947423265796,69.98240180709264,-0.054744614491381,113.64175317690092,430.31961488771776,15.288,0.0,10.489499226064751,0.0779379823453139,-8.740496757469333e-09,-0.0020924928956848,-0.0061889966181789,0.0001471462823413,23.09932543408184,6.760679501555473,23.04765574376585,44.85838033877236
0.63,31.222173993998403,131.01041605675283,10.400247821234384,4.477296653338248,-22.43581112048631,25.88239243599629,2.533720707200342,2.8616516201493307,286.11251274707894,26.832855304180647,10.28587663201822,69.98117196541187,-0.0648981114669295,113.63094732098016,440.56468721295823,15.288,0.0,10.527662295641909,0.0788613501544334,-1.1604166027306748e-08,-0.0022018442853845,-0.0067903820929729,0.0001566666278551,22.855550432271976,6.699121516788718,23.398021833086837,26.16308523145
0.64,31.22217360203684,131.01041704165323,10.627528015641149,4.476849585670684,-22.163877322326183,25.43273328210084,2.588154283280194,2.8450367749890786,282.30782441796754,27.17809540163185,10.439170260130863,69.9798773693445,-0.0760041569034502,113.61912758350776,451.9646474125286,15.288,0.0,10.565675219323436,0.0798762103132225,-1.4761902012600805e-08,-0.0023150049232014,-0.0074039104092486,0.0001668339620896,22.589144013165395,6.6274107023265545,23.78278251223255,25.721910874652792
0.65,31.222173203274444,131.01041803863734,10.857692199782775,4.485223755597322,-21.93785478694232,44.005965476980485,2.638011932564804,2.829185214476849,436.7781447787475,27.475357197649974,10.57451261024123,69.978515590992,-0.0880823272815637,113.60627310453566,461.8952795646342,15.288,0.0,10.603457275874856,0.0807500700890959,-1.8218135828660298e-08,-0.002432088632233,-0.0080298776350434,0.0001771848855757,22.369476695743103,6.576011313933363,24.112950772726364,44.17565385475768
0.66,31.222172797196343,131.0104190490302,11.0911248856302,4.49101091395871,-21.70659905121645,37.61461716492744,2.6896308634889854,2.812788621823611,383.51251517160017,27.783463163316394,10.713712013800423,69.97708409570504,-0.1011523726317409,113.5923628406886,472.3020733495703,15.288,0.0,10.64110484781106,0.0816558085101702,-2.1977190482010464e-08,-0.0025534394709291,-0.0086697241390276,0.0001881075117,22.144320375805965,6.521839404179196,24.454779252898465,37.8154111239974
0.67,31.22217238395892,131.0104200723205,11.327687750425712,4.49107200115641,-21.456595078137763,26.27714068531315,2.7449711134951964,2.795418914258792,289.1562440103425,28.11992638342068,10.863209915980052,69.97558018239611,-0.1152353647755957,113.57737433910556,483.7996918809727,15.288,0.0,10.678630231994978,0.0826448970257601,-2.6043840096466088e-08,-0.0026790549383492,-0.0093231164829368,0.0001997469357326,21.899840465198533,6.459030810260154,24.827759902925745,26.56759973945442
0.68,31.22217196370241,131.01042110804224,11.56725533300436,4.492306670783104,-21.217658741662746,32.50918675810402,2.800047155725204,2.777909073638763,340.8999924858462,28.44814971502952,11.009500743724356,69.97400109508641,-0.1303522972229198,113.56128522753438,495.1482943553172,15.288,0.0,10.715900073396243,0.0836097764317189,-3.042277013730316e-08,-0.0028089505578561,-0.0099898225355138,0.0002118714581151,21.66652825007425,6.4006890830605085,25.190942632433977,32.74758413332158
0.69,31.22217153648148,131.01042215596644,11.809769536250842,4.49834509094657,-21.00505866405856,39.7520728267242,2.852561542875112,2.760768977005529,401.0140726853634,28.747661276226367,11.145061038612912,69.9723440349781,-0.1465238392205296,113.54407347645588,505.6175754743096,15.288,0.0,10.753027023188809,0.0844902790708046,-3.5118487841587085e-08,-0.0029431740271371,-0.0106697733799629,0.0002243275860402,21.460020211450864,6.353442466326882,25.52160790766109,39.949796579225165
0.7,31.22217110214196,131.01042321643902,12.05533572772398,4.503668440351114,-20.79471320583479,33.53328760313676,2.905815655857677,2.7432882287061084,349.27032420985284,29.048425435901272,11.28094207914204,69.9706061127357,-0.1637703965141799,113.525717337664,516.2405031331132,15.288,0.0,10.78999946303325,0.0853744709046149,-4.0135274315474566e-08,-0.0030818959595854,-0.0113634917468714,0.000237352904348,21.25568796254804,6.306668562287628,25.853239111651668,33.77056073573951
0.71,31.22217066071393,131.0104242893016,12.303915758840231,4.505166431355581,-20.57334917571365,27.76877585522791,2.9618306825054623,2.7250099052708467,301.33126406340574,29.36824303854725,11.423681672165756,69.96878445451985,-0.1821128808406835,113.50619451193768,527.6579019918648,15.288,0.0,10.826730862794124,0.086314669550585,-4.5477569130248346e-08,-0.0032251779782701,-0.012070964033203,0.0002511165086057,21.039937751114667,6.254601599433219,26.205587172938884,28.058920728950778
0.72,31.22217021217728,131.010425374533,12.555510624777984,4.502173556864117,-20.33862112990576,33.733385391182644,3.0212251818774174,2.705785943169624,350.79220534145287,29.71182453476633,11.574963154063196,69.96687591840941,-0.2015725794500797,113.4854823099384,540.0632998735437,15.288,0.0,10.863319293736438,0.0873247198555423,-5.1149820396309895e-08,-0.0033731263073315,-0.0127923889839624,0.0002657021360069,20.81033685949948,6.196421103000334,26.583714590045936,33.97632071192994
0.73,31.222169756506304,131.01042647212554,12.810125293282436,4.508390154666238,-20.147027641312857,42.36019269697802,3.074963915021452,2.687641007534312,422.320318528234,29.9998530563488,11.7057551015079,69.96487734767517,-0.2221715452482493,113.46355721503876,550.5714136347003,15.288,0.0,10.899771357708328,0.0881715051254806,-5.715663181166675e-08,-0.0035258622728928,-0.0135280312395057,0.0002804187008346,20.624821459377777,6.156154766890062,26.899979678990643,42.55660633308504
0.74,31.222169293618887,131.01042758223372,13.067810437117997,4.511053355874806,-19.94528289123969,26.96130040665649,3.131359644976724,2.668706351007504,294.48281347105944,30.305887291382035,11.843011837138343,69.96278549708335,-0.2439310117872514,113.44039658512456,561.8477733509073,15.288,0.0,10.93597549872794,0.0890712184530737,-6.350227138099011e-08,-0.0036835060397834,-0.0142781345271219,0.0002959375980611,20.428775433969484,6.1109727860332175,27.235784008731592,27.27341427896537
0.75,31.222168823844623,131.01042870388028,13.328294928397863,4.511299737811435,-19.738301789667634,31.27881486472935,3.1898180414877126,2.649109279825704,330.24688556441487,30.62393518318215,11.984516459710033,69.9605971413032,-0.266872382742544,113.41597758427974,573.6880275590007,15.288,0.0,10.97200242837532,0.0900062489736805,-7.019124222445354e-08,-0.0038459227287732,-0.0150417770098333,0.0003122212383525,20.22722182137194,6.063101682581612,27.58441424306408,31.552448058055223
0.76,31.22216834705561,131.0104298373482,13.591665887605656,4.514534256720945,-19.547780679047246,33.57952720909292,3.246568573343876,2.6297141694636914,349.27032420986166,30.921625370522246,12.118461494629146,69.9583088232062,-0.2910168301910035,113.3902776327714,584.8808969666852,15.288,0.0,11.007867179566508,0.0908814548170694,-7.722760127748835e-08,-0.0040132982433018,-0.0158195102123308,0.0003289680009235,20.04244112699472,6.02162904093574,27.910289808284368,33.838443399493336
0.77,31.22216786317635,131.0104309827787,13.857969987018976,4.518198450449522,-19.363051651546083,31.47468087880525,3.303332136098394,2.610127176633176,331.7687666960708,31.213955348942832,12.2503351129829,69.9559171530569,-0.3163857692311175,113.3632738752612,595.9767416837456,15.288,0.0,11.043534756375562,0.0917409147126189,-8.461545568184527e-08,-0.0041857756546189,-0.0166116752000107,0.0003463407175532,19.863494826490744,5.9820070100207285,28.229980089994683,31.755004385170665
0.78,31.222167372250546,131.01043213998597,14.127160925980746,4.518508792917323,-19.16902532946649,26.06238612932175,3.3628660234883085,2.5896970409355062,286.8734378128899,31.524281102571248,12.388635553808609,69.95341849674,-0.3430006355617692,113.3349434418524,607.8702063364021,15.288,0.0,11.078979985221148,0.092653274320791,-9.235894252236065e-08,-0.0043634022787982,-0.0174181785037287,0.0003646179276447,19.674873038814336,5.937969724205206,28.569076567877115,26.405745007661213
0.79,31.222166874344776,131.0104333087212,14.399174514196035,4.5167653372104,-18.9710328812141,36.538780520473416,3.424365434179849,2.5686036945164807,373.6203323159534,31.8451627320164,12.530634916801136,69.95080927028184,-0.3708831318256077,113.30526316185924,620.2918499195684,15.288,0.0,11.1142513152422,0.0935966674082681,-1.0046224270496793e-07,-0.0045462221505496,-0.0182389176925696,0.0003837517368309,19.482040692854763,5.891816698685457,28.91935196222276,36.788673331470065
0.8,31.222166369225377,131.01043448956585,14.674182387133005,4.520396846855581,-18.797841404251816,37.00499171721391,3.4822083658225,2.548185800613475,377.42502064505743,32.129675373940614,12.659304850775047,69.94808562402625,-0.4000555256236058,113.27420926834375,631.4083710213001,15.288,0.0,11.149375105419937,0.094433176430446,-1.0892929268854618e-07,-0.0047345284812013,-0.0190748670952681,0.0004032067826916,19.31460714089437,5.855350153046059,29.229605100640025,37.25571684947858
0.81,31.222165856973973,131.0104356822328,14.95210934608268,4.5200007803923885,-18.612752908917304,24.51077724787613,3.5434673183791188,2.526754103934981,273.9374926939919,32.43709835827478,12.79616287322158,69.94524361184625,-0.4305398927728594,113.24175819439166,643.5318763251772,15.288,0.0,11.18431839320074,0.095337030385145,-1.1776427888422126e-07,-0.0049283312929959,-0.0199257595868913,0.000423716189954,19.134808716195817,5.813479889479702,29.564566054951054,24.894152892460017
0.82,31.22216533775564,131.01043688620362,15.232814594726207,4.517750324820384,-18.424163517191328,31.133646529189622,3.606613654036276,2.5046583109467413,328.72500443277005,32.75416260294874,12.936390344388832,69.94227933685808,-0.4623583142208144,113.20788635118171,656.1563893997278,15.288,0.0,11.21901826262332,0.096269230087322,-1.2697141578814973e-07,-0.0051275946286517,-0.0207911426336286,0.0004451451473758,18.951284994592505,5.769667899478343,29.909719972787435,31.441770330383697
0.83,31.222164811536725,131.01043810151185,15.51631395273058,4.522101469662304,-18.264066436205976,39.231690494634336,3.66487955907046,2.483553672109183,395.68750322465047,33.02558751335786,13.059989669760292,69.93918866692505,-0.4955329719627051,113.17257004654287,667.0580678547,15.288,0.0,11.253548797543868,0.0970672977137681,-1.3655460516771598e-07,-0.0053324602532014,-0.0216713202723774,0.0004667537478849,18.797017371837107,5.7369217422128775,30.205014931659328,39.48069047131169
0.84,31.222164278198967,131.0104393284333,15.802691473798562,4.524730760501339,-18.10066046353188,24.701944100944257,3.724791310970739,2.4618548391440447,275.4593748256452,33.30524248912157,13.18645996378932,69.9359674524816,-0.5300854946369616,113.13578616907468,678.3843060967753,15.288,0.0,11.28791210442996,0.0978895631349399,-1.4651746647527e-07,-0.0055431043042849,-0.0225667247432055,0.0004892866214446,18.6392368267851,5.702304604495568,30.50905601102545,25.102207909374723
0.85,31.222163738012995,131.0104405661611,16.091724350857895,4.521369877415077,-17.918147536780513,26.820514584784128,3.790028947260072,2.4386354736575377,292.96093233939376,33.62213974140595,13.326263110546508,69.93261144974497,-0.5660373860722104,113.09751173363976,691.3360991145188,15.288,0.0,11.322080678738082,0.098821298336314,-1.568640764321264e-07,-0.005759376695915,-0.0234764381876549,0.0005131997884725,18.46162780163926,5.659509065179347,30.85321769699489,27.196530385088984
0.86,31.222163190794607,131.01044181515527,16.383548905759874,4.521918024122576,-17.753341337399753,33.26669377950168,3.8524073455470274,2.415921337579461,346.2265619465587,33.910297178806104,13.455578454259593,69.92911623781629,-0.6034108976234128,113.05772295355727,703.2173172542272,15.288,0.0,11.356077553466022,0.0996685711806524,-1.6759790415616144e-07,-0.0059815650618873,-0.024401349726662,0.0005375512673933,18.30218521480961,5.6233596086398725,31.166018621521182,33.576042549480604
0.87,31.2221626365528,131.01044307534065,16.67814959468,4.524150010989694,-17.597594421198412,31.060526764942,3.913626105639051,2.393294897337692,327.964078366998,34.18407151932367,13.5796106247446,69.92547730634689,-0.6422280315910716,113.01639630029392,714.5977669164744,15.288,0.0,11.389850090032612,0.1004735780588249,-1.787226274594448e-07,-0.0062097583072343,-0.025341518103379,0.000562548098965,18.152005914149804,5.590322160179444,31.46310268468036,31.397462519701183
0.88,31.22216207530863,131.0104443466113,16.975502003051428,4.523246136984366,-17.43330375855612,27.01071256507641,3.977874132302421,2.3696998789262365,294.4828134710418,34.476450508483126,13.710236701752049,69.92169004760733,-0.6825106041673812,112.97350843639992,726.8533050932401,15.288,0.0,11.42343579114982,0.1013332762677335,-1.90241888085069e-07,-0.0064440102150393,-0.0262968585277126,0.0005887454186632,17.992894781845916,5.553402276925678,31.780091875454605,27.404699476582486
0.89,31.22216150712749,131.0104456287372,17.275546597273376,4.519276610638223,-17.260901522975235,29.499935248772218,4.0452444752494445,2.3450968687745526,315.028134248087,34.787590868225045,13.847494800179172,69.9177497256788,-0.72428053505568,112.9290359067662,740.0104765048029,15.288,0.0,11.45684012745137,0.1022481270084214,-2.021593115500893e-07,-0.0066843720754622,-0.0272672795256447,0.0006161993397555,17.82528226691799,5.512828160443608,32.117081358711154,29.868204865211197
0.9,31.222160931923604,131.01044692191263,17.578343960937232,4.522043673942432,-17.115432195862784,32.451150999334885,4.106936735028662,2.3217415564231003,339.37814235421445,35.0487527646406,13.966681486151712,69.91365142490108,-0.7675603363795466,112.88295461796037,751.1413437984057,15.288,0.0,11.490075480380249,0.1030160893156291,-2.144782885789372e-07,-0.006931046186992,-0.0282532821776495,0.0006437170165161,17.685439073368933,5.482486579761901,32.40007301134148,32.792295045970526
0.91,31.222160349753672,131.01044822593823,17.883842896287394,4.521720884150984,-16.96154626534357,24.986231251505924,4.171719329991997,2.297385128498149,277.7421810230789,35.32864128387621,14.092495446996388,69.90939020288656,-0.8123715132906623,112.83524154035344,763.1636187994842,15.288,0.0,11.523131943625108,0.1038391019396318,-2.272022661721608e-07,-0.0071840628242612,-0.0292546812408222,0.0006725242412156,17.53678924609218,5.448374092178773,32.70307289975978,25.436056548738144
0.92,31.22215976079949,131.0104495402595,18.191892029188185,4.5184010710156,-16.799714400239107,29.50489413200233,4.239650942546208,2.271994730965643,315.02813424806214,35.62723428739044,14.224914939287396,69.90496098234468,-0.8587356425291813,112.7858735594156,776.0954889506384,15.288,0.0,11.55599392247675,0.1047171002756292,-2.403349573749279e-07,-0.0074433237435084,-0.0302708055578436,0.0007026629524195,17.37980620888949,5.410729320014868,33.02599106209938,29.89440378921838
0.93,31.22215916496373,131.01045086511323,18.502563389770216,4.521231522225745,-16.661898864982177,34.85604437292056,4.302094580511862,2.2478301314366447,359.1625070654728,35.87851499156438,14.340272005420994,69.90035855227127,-0.9066743272504816,112.73482752399968,787.0582941251503,15.288,0.0,11.588677962537492,0.1054560450069873,-2.538792115969112e-07,-0.0077090665486542,-0.0313022768083574,0.0007328605316649,17.247627884882704,5.3821143701182725,33.298003367952894,35.19239388570307
0.94,31.222158562133085,131.01045220079027,18.81594361181411,4.518013270511206,-16.505467455541048,25.63131806068036,4.370620218817136,2.2218520398148964,283.0687504837787,36.170692524685805,14.470181317648867,69.89557762304328,-0.9562086257009216,112.68208085392304,799.905269005339,15.288,0.0,11.62118353231202,0.1063152047323779,-2.67837847708848e-07,-0.0079814756598634,-0.032349493860203,0.0007649129704352,17.096048207884458,5.345802704319494,33.6137309747603,26.096042096680524
0.95,31.22215795257273,131.0104535464989,19.131814571961705,4.515377081457577,-16.353457428376785,32.82972759435894,4.4389544541526895,2.195700409817656,342.4218736174873,36.455917533910885,14.597498553037264,69.89061269089737,-1.0073603241560425,112.62761018344844,812.5457081461831,15.288,0.0,11.653478750547484,0.1071539381731038,-2.82214652297488e-07,-0.0082603924779498,-0.0334115673650133,0.0007978615715198,16.948961236197334,5.310856465036244,33.92185869893263,33.201151047147874
0.96,31.222157335996044,131.010454903027,19.45040290139577,4.515708479871376,-16.213896180290114,32.18454961042509,4.5046605378349645,2.1700335852204446,337.09533515678345,36.71604259731973,14.715737931254,69.88545814311969,-1.0601508905535146,112.57139247642678,824.1574249398998,15.288,0.0,11.685598144158924,0.107918905016686,-2.970117352471505e-07,-0.0085462536315568,-0.0344898292923544,0.0008313371456122,16.814713045893683,5.280390439960473,34.20302658115796,32.570634718224724
0.97,31.222156712414247,131.01045627031465,19.7716962044904,4.514244052021433,-16.07044317790617,21.01102566393564,4.572453189880398,2.1435909565587323,245.02188719299323,36.9863790142456,14.837529986275827,69.88010818262359,-1.114602141882099,112.5134043138434,836.3126678080126,15.288,0.0,11.717550831650458,0.1087138948636248,-3.1223216709221866e-07,-0.0088391533406702,-0.0355843172446981,0.0008661330793338,16.676333840960393,5.248053142426515,34.49500814762077,21.60938476248803
0.98,31.2221560820915,131.01045764757484,20.095477680416447,4.507046077260291,-15.909965046280565,30.06076122190468,4.646530954975604,2.1152170734455185,319.5937466429581,37.29738470041634,14.97374094366109,69.87455689424606,-1.1707355785348947,112.4536226022524,850.4098819774518,15.288,0.0,11.749315615187276,0.1096284329849767,-3.278797922915796e-07,-0.0091388686827563,-0.0366939166777092,0.0009030035403368,16.520152343398376,5.208805514744102,34.83024635022474,30.4912078872535
0.99,31.222155444880528,131.01045903520293,20.421863080915536,4.509007010740381,-15.782287083596875,32.739666417619866,4.711372794584495,2.089132035258144,341.6609485517054,37.53548890856948,15.083831999265485,69.86879816439856,-1.2285730970604956,112.39202381518778,861.27546888465,15.288,0.0,11.780915922095236,0.1103287004850889,-3.439568143062523e-07,-0.0094457428113547,-0.0378195803318966,0.0009392543499213,16.398008931297447,5.1819393433341325,35.08764401833822,33.14283125213232
1.0,31.22215480077559,131.01046043319857,20.75085612838832,4.505388778583336,-15.638090654349917,29.41205236622448,4.782378300542328,2.0611380831995567,314.2672081822764,37.81320693085269,15.207958761412632,69.86282587588154,-1.2881351754989532,112.32858592453634,874.0398283621233,15.288,0.0,11.812342336907353,0.1111454144011748,-3.6046593120096323e-07,-0.0097598409544731,-0.0389612345136164,0.0009776368210827,16.25858667978589,5.148388572536232,35.387166222751105,29.86952053182382
1.01,31.222154149939165,131.01046184106826,21.082322567427404,4.502500729796014,-15.498348095206818,30.70481007684271,4.852908258638386,2.033043962666184,324.9203161036979,38.082255106634335,15.32889679575416,69.85663365791196,-1.3494431121395811,112.26328601560895,886.4937738839701,15.288,0.0,11.843590434554624,0.1119366538905009,-3.774103268679356e-07,-0.0100810982573327,-0.0401183498760221,0.0010169696154508,16.123716659480987,5.116284770738486,35.67735976633599,31.152357024403074
1.02,31.222153492295742,131.01046325901478,21.41632313512428,4.500843410189237,-15.364577604226692,25.801916767225585,4.922350613123835,2.0050230056913256,284.59063161540416,38.33842679697025,15.445153544012529,69.85021505461741,-1.412517474786754,112.1961019388509,898.4315965975094,15.288,0.0,11.87466759278816,0.1126900540266769,-3.947921288752496e-07,-0.0104097234079567,-0.0412913662629638,0.0010571509817865,15.99499025773632,5.086214584117572,35.95378655482806,26.343662647299233
1.03,31.222152827905493,131.01046468685024,21.75280876748082,4.495330582896692,-15.22023415120968,21.26587432875233,4.9963818472558845,1.975486021408244,247.30469339049705,38.62199510063021,15.571064152568384,69.84356348944057,-1.47737839525088,112.12701199513744,911.741691114778,15.288,0.0,11.905568241712446,0.1135239915652958,-4.126139322488552e-07,-0.0107457369654991,-0.0424800535676317,0.0010993105944385,15.855148888079134,5.051851598796472,36.25922545766458,21.934078224321507
1.04,31.222152156821046,131.0104661244046,22.091735701309705,4.493168667426914,-15.0885872116975,33.19741499938964,5.066944143818256,1.9466851832432075,345.46563688072297,38.87572567373096,15.686263997413366,69.83667213884543,-1.544046627207443,112.05599380855402,923.730503206046,15.288,0.0,11.9362966046254,0.1142702343877596,-4.308782230852453e-07,-0.0110892135646187,-0.0436843757306493,0.0011418646327861,15.728476392129508,5.0221348978380975,36.53291596125461,33.63825008529625
1.05,31.222151478780148,131.01046757244265,22.433321107883927,4.487865505283809,-14.948751240415945,20.42286632722793,5.141376762543543,1.916553402631672,240.45625879819983,39.15145224970377,15.809183574376297,69.82953407427065,-1.6125422814717487,111.98302567345064,936.8493726191084,15.288,0.0,11.966869100469523,0.1150811410630632,-4.49586026218287e-07,-0.0114406264830415,-0.0449056532973819,0.0011863662931661,15.593165851445749,4.98907566644991,36.82985760914725,21.147113301332222
1.06,31.222150793997024,131.01046903032324,22.77738924693632,4.479878540394734,-14.802311107354996,28.656734726343544,5.219362863033235,1.8851595726842767,308.17968365593924,39.44616592428143,15.938742672857735,69.82214207627268,-1.6828863513987324,111.90808492757328,950.9753500209556,15.288,0.0,11.997273006174613,0.1159478678235355,-4.687407385611632e-07,-0.0117997948769003,-0.0461429555126968,0.0012327812444851,15.45085897270826,4.953327947115472,37.14680312087066,29.189107908370847
1.07,31.22215010236397,131.01047049835523,23.12402990653145,4.477556765673778,-14.67554761066593,33.56112057646122,5.290923249974024,1.855355739028592,348.5093681440308,39.691186359932686,16.050557438954563,69.81448869742681,-1.7551001176549492,111.83114858656,962.7939784820014,15.288,0.0,12.027525283461948,0.116668536071689,-4.883439565768904e-07,-0.0121670512756658,-0.0473971014762915,0.0012790034668336,15.329046682244888,4.924904958629381,37.41108031521914,34.026240287507974
1.08,31.22214940379053,131.01047197680884,23.47332127592519,4.473836983900103,-14.546076177437676,22.90561486764127,5.364387204662257,1.8247646248503924,261.00157857466235,39.94416785278752,16.16510288868811,69.80656640868143,-1.829203893487856,111.75219467952812,975.0735829873746,15.288,0.0,12.05762773227536,0.1174126143476686,-5.083974240927425e-07,-0.0125426280175417,-0.0486685455269467,0.0013268433522539,15.204325068171936,4.895292982774276,37.68374145223952,23.596050696723772
1.09,31.222148698525547,131.01047346494187,23.825059382915818,4.463709521536089,-14.398461453895916,21.13855690726616,5.44606168880644,1.7915396804195445,246.54375332474407,40.24768365488482,16.297466145676687,69.79836748874986,-1.905217906074404,111.67120130895972,989.9146306234964,15.288,0.0,12.08756298317886,0.1183052438121194,-5.289046847101539e-07,-0.0129262528920032,-0.0499560618164111,0.0013777696017475,15.060512029207125,4.858687043126245,38.00970875282375,21.902232545257412
1.1,31.222147986637115,131.01047496254765,24.179189802348503,4.456651650440606,-14.262113958474965,41.42980456223109,5.524330355202837,1.7590373564818895,413.1890617385841,40.52252950917681,16.419561541783445,69.78988402167579,-1.9831622743584087,111.58814667438509,1003.446639541643,15.288,0.0,12.11733667314068,0.1191136099447541,-5.49867828927187e-07,-0.0133179950084342,-0.0512595749072984,0.0014291693095664,14.928414135549154,4.826266335855671,38.30530561445064,41.833493092970116
1.11,31.222147267767383,131.01047647070823,24.53601612669869,4.455897780828384,-14.146653729160947,30.58062995950263,5.594766359108998,1.7285787107766992,324.1593910376397,40.73993109993217,16.521214102264302,69.7811078626726,-2.0630572375236365,111.50300882853224,1014.2076530302596,15.288,0.0,12.14697639774686,0.1197531314494956,-5.712864803458326e-07,-0.013718587404426,-0.052581164834964,0.0014800046698905,14.818149562460691,4.801644061378916,38.54028915928838,31.136222052336375
1.12,31.222146541977583,131.0104779892572,24.895493840660944,4.442915946703321,-13.99564107429792,12.120514653125491,5.681300228861774,1.693119041890195,172.73281794065943,41.05901512657797,16.65876039356864,69.77203077191928,-2.1449220560796207,111.41576684627536,1030.1212884886836,15.288,0.0,12.1764695149341,0.1206915537094865,-5.931630647274578e-07,-0.0141280182661762,-0.0539204453342745,0.0015360600009919,14.67048534955313,4.763534957352962,38.88238243245924,13.492616493367985
1.13,31.22214580979188,131.0104795165992,25.25718346745496,4.436341402978339,-13.865671899979192,35.85713217672307,5.759844311166734,1.6597432047927452,367.5328077900705,41.3198018029224,16.775575711996225,69.76264403399628,-2.228777912514897,111.3263977324907,1043.212248327488,15.288,0.0,12.205796937452009,0.1214586228787526,-6.155027274355474e-07,-0.0145456002974476,-0.0552748905801375,0.0015914507200384,14.544831209858453,4.73335465252369,39.16298414979241,36.35470371126306
1.14,31.222145070630248,131.0104810545226,25.621582545660523,4.434218046476516,-13.75051254885734,20.264510207953062,5.832587646426278,1.6278377575507088,239.69531773195544,41.537661700693846,16.877115870745612,69.75293908706169,-2.314643030437548,111.23488162537762,1054.205083648542,15.288,0.0,12.234996438564384,0.1220995192356358,-6.383027529412502e-07,-0.0149724768034902,-0.056647831806296,0.0016467353486227,14.434673135884893,4.708718932626955,39.39841046613586,21.149924548006926
1.15,31.22214432492798,131.01048260171837,25.98832996765095,4.419714723386843,-13.60000068893982,19.97616244061941,5.922415602504017,1.5905383388516887,237.41251153546767,41.86165772430672,17.01607240863696,69.7429071887983,-2.402535234823593,111.14119906409069,1070.677216647999,15.288,0.0,12.264010340134975,0.1230524114343427,-6.615679592301491e-07,-0.0154079500273922,-0.058036714362853,0.0017077885522252,14.28724984034356,4.670816140249682,39.74537860119933,20.896216993277847
1.16,31.222143572807383,131.01048415781375,26.35732547653038,4.418391485422156,-13.489942129149858,50.78914719470324,5.994352684272366,1.55834274332005,490.0437743845894,42.06483073312969,17.112250820842057,69.73253911615963,-2.492474137649626,111.04532866018472,1081.057051512919,15.288,0.0,12.292862888656698,0.1236501537402711,-6.85300053152478e-07,-0.015852048924045,-0.059441327877776,0.0017654766185297,14.182330922856924,4.64816241183239,39.96535872505482,51.16540011545237
1.17,31.222142813519287,131.01048572516714,26.729221079968983,4.410467895710105,-13.36186208445258,9.742152186795437,6.075576463371741,1.523074800067748,153.70937929486794,42.32305596866858,17.227771146880663,69.72182577665428,-2.584476562112519,110.9472519750626,1094.3313606183383,15.288,0.0,12.321599489543216,0.1244097325568946,-7.094945424449486e-07,-0.0163062722969909,-0.0608659987751957,0.0018271475279458,14.058361142713943,4.618780341315266,40.24315289734688,11.581965094040008
1.18,31.22214204806936,131.01048730067487,27.10316187324116,4.393810897159262,-13.20987848442637,25.14736406904837,6.169697226865422,1.4835766772397811,280.02501822196746,42.657971995262656,17.370254779056197,69.71075766810127,-2.678560476760829,110.84694932133316,1111.679550641166,15.288,0.0,12.35015902239706,0.1253947561829673,-7.341609409102909e-07,-0.0167687964496935,-0.0623047367675985,0.0018937751047357,13.909099305610406,4.580567976459199,40.60130348396126,25.935614186861002
1.19,31.222141276014053,131.01048888573737,27.479536055905506,4.395811644756132,-13.113285186963212,43.25628500467313,6.236983712054742,1.4520053150452192,428.4078130529292,42.818133231820326,17.450996782856198,69.69932497364833,-2.7747442307926824,110.74440058193458,1120.0024266357934,15.288,0.0,12.378590787534453,0.1258660909593679,-7.592955371225292e-07,-0.0172408014514418,-0.0637608660001259,0.0019543204787553,13.818201810439351,4.563219175642983,40.77623899524571,43.72773122018641
1.2,31.22214049698596,131.01049048156767,27.85867690612348,4.382450289652262,-12.97379821264,5.239509462694433,6.3268820532567664,1.413204201518116,117.1843741360236,43.11586121479221,17.580150192106125,69.68751810081433,-2.8730427016093727,110.63958931434432,1135.5906768536777,15.288,0.0,12.40689812018732,0.1267418198990532,-7.848966210135647e-07,-0.0177230430887114,-0.065236315627362,0.0020228801106568,13.6819519259117,4.529942454500558,41.09531221754487,8.335408930620952
1.21,31.22213971197857,131.01049208504676,28.23972879877611,4.369697480529294,-12.83752284622104,34.878865774106664,6.416301329110165,1.3742330324159533,359.92343213200894,43.40531291420577,17.706287131069075,69.6753267660808,-2.973473718179392,110.53249589890147,1150.8469555758895,15.288,0.0,12.43503480464546,0.1275932303206482,-8.109738126015009e-07,-0.0182136597264517,-0.0667251280307968,0.0020927579402798,13.549004803576327,4.498082556583188,41.40562926029705,35.49074128362879
1.22,31.222138920254007,131.0104936985566,28.623346511085348,4.36976646290158,-12.738827747401157,25.479172520675423,6.486247867952962,1.3410326052425003,283.0687504825761,43.5698053009063,17.788309051106047,69.66274076338928,-3.076052632815604,110.42310333071428,1159.5434422485082,15.288,0.0,12.463056618930366,0.1280773227592596,-8.375197371982378e-07,-0.018714473459351,-0.068232450360092,0.0021583710906479,13.455734550284316,4.480468805832,41.58524008421391,26.325994989576166
