Time,Latitude,Longitude,Altitude,Angle of Attack,Angle of Sideslip,X-Acceleration,Y-Acceleration,Z-Acceleration,Thrust,True Velocity,Ground Velocity,Pitch,Roll,Yaw,Dynamic Pressure,cp,cg,parachute_deploy_gain,Wind Speed,Wind Direction,Mach,omega_x,omega_y,omega_z,Cmq,Angle of Attack(total),Angle of Attack(gust),True Velocity(gust),Acceleration
0.0,31.222216000000007,131.010392,3.000000004412624,0.0,0.0,0.0,0.0,0.0,2.2828121974499247,0.0,0.0,69.99999999623412,0.0,119.9999999935444,0.0,1.274,1.0271675151847728,0.0,0.0,0.0,0.0,0.0,0.0,0.0,-0.0,0.0,90.0,0.0,0.0
0.01,31.22221599999084,131.01039200000497,3.000002745347096,0.0,0.0,0.0,0.0,0.0,34.242186961749226,3.465174813755316e-14,2.8705476994166025e-14,69.9999999962611,-2.1713911667908447e-11,119.99999999352175,7.352495975525499e-28,1.274,1.0271659134330349,0.0,0.0,0.0,1.0183245502395064e-16,-3.3305335486039093e-18,7.169286865560398e-18,5.624298769768554e-18,-7.715917190115602e-34,0.0,89.99999999999979,3.465174813755316e-14,0.0
0.02,31.222215999994315,131.0103920000094,3.0000030495639742,0.0,0.0,0.0,0.0,0.0,25.871876237766216,3.8197434737535036e-11,2.4171837235633357e-11,69.99999999628672,-1.1921727947863515e-11,119.99999999353136,8.93414285188691e-22,1.274,1.027164492361118,0.0,0.0,0.0,1.1225230367947217e-13,-6.657678965418802e-18,1.4338573731120796e-17,1.1241821275959074e-17,-1.7010872994127372e-30,0.0,89.99999999975682,3.8197434737535036e-11,0.0
0.03,31.222215999994315,131.0103920000094,3.0000030495639742,0.0,0.0,9.81877837424427,-2.5122800045972096e-05,3.3498614629347925,180.34219359854663,1.2659015405517447e-10,1.1364406173918436e-10,69.99999999631459,-1.6431898037347223e-11,119.99999999352724,9.812605835254651e-21,1.274,1.0271551940870716,0.0,0.0,0.0,3.720154642239108e-13,-9.991600645811728e-18,2.150108433310316e-17,1.6859343782149594e-17,-8.453698244545225e-30,0.0,89.99999999919412,1.2659015405517447e-10,10.374487003414373
0.04,31.222215999994315,131.0103920000094,3.0000030495639742,18.83801224594347,-0.0001111777826462,48.68248476615645,-1.016330065874988e-05,3.3497854396877287,548.635972453808,0.1556173050466994,0.0975908358443652,69.99999999633813,-2.0932768807056278e-11,119.99999999352085,0.0148286043323172,1.274,1.027133720825283,0.0,0.0,0.0,0.0004573186944143,-1.3322134194415637e-17,-1.04744143520903e-11,1.336824254131964e-11,5.0626055458604615e-15,18.83801224625964,89.06236267790787,0.1555998412814392,48.79759610369246
0.05,31.22221599164764,131.01039201704114,3.002326315126219,5.772385609593056,-4.395076213712875e-06,71.20344550265034,4.905512691849684e-05,3.349217396035405,761.6984298824663,0.8326471944351852,0.3620326097059287,70.00000001316391,-1.0866255162484559e-10,120.00000000231074,0.4245281043148827,1.274,1.027093426565204,0.0,0.0,0.0,0.0024469331205246,-5.0245994431125096e-18,-7.32924164976824e-07,2.217344936947165e-11,1.895424184525467e-09,5.772385609594774,84.74112356985832,0.8326465040582279,71.28217104309611
0.06,31.22221596664444,131.01039206837547,3.015081730143309,4.056581213689704,3.169093567502233e-05,53.16249142470188,0.0001203825427859,3.3481235983850643,590.4875390737236,1.657216205300742,0.6755452977614796,69.99999964391398,-3.9285905645317736e-10,120.0000000287861,1.6816755551786196,1.274,1.027050317124926,0.0,0.0,0.0,0.0048701272653724,3.095757869075056e-13,-7.483541766772344e-06,3.074135420506017e-11,3.8518749565858254e-08,4.056581213813337,79.59316473687034,1.657221183301277,53.26781792157489
0.07,31.22221592883117,131.0103921460222,3.034593611434361,4.115662018628709,6.450869598349036e-05,81.18203554989698,0.0001593212642178,3.347059402768047,855.2937749779172,2.099899704220947,0.8579771146174259,69.99999543281565,-8.233801910783518e-10,120.00000006883089,2.700101932075157,1.274,1.027003201295312,0.0,0.0,0.0,0.006171060252819,3.4704292086287e-12,-2.6327204536316785e-05,1.9541142932033486e-10,1.7170712165327165e-07,4.115662019133419,76.90111966094352,2.099909837223217,81.2510043180746
0.08,31.22221588914193,131.01039222747755,3.0542761843835606,3.459696193892355,8.037433511260004e-05,16.298214211652088,0.0002413456836072,3.344878926597744,241.2171988638792,3.051964775152957,1.2149999716613011,69.99998042886442,-1.0128995578004475e-09,120.00000011111383,5.703497661025892,1.274,1.0269597189470347,0.0,0.0,0.0,0.0089689344021769,1.458982438104473e-11,-5.702803872814215e-05,7.043261397829576e-10,5.405702492731987e-07,3.459696194824858,71.30331929508368,3.051977400323993,16.63790856991177
0.09,31.2222158241468,131.01039236098703,3.0886872184095737,4.313676956300389,0.0001337561018991,50.35975918308536,0.0002293282821279,3.344215841840564,563.0937377043203,2.893161298572128,1.191209213966114,69.99994788602814,-7.098432023887522e-10,120.00000018106356,5.125380275808925,1.274,1.026918932011013,0.0,0.0,0.0,0.0085022553945842,3.8672912027154325e-11,-0.0001115933708951,2.016054215232918e-09,1.0027525988343615e-06,4.313676958370176,72.2316578138625,2.893182308931483,50.47067588835877
0.1,31.2222157788302,131.01039245392113,3.109877853389092,4.035124630954496,0.0001457499816535,47.804664812504015,0.0002878217657545,3.341734392237128,538.7437595981891,3.5677148583138303,1.4531247507621967,69.99988403958329,1.9248461973355822e-09,120.0000002323013,7.7939962029572305,1.274,1.0268846934974103,0.0,0.0,0.0,0.0104845969583028,8.579678749070606e-11,-0.0001726817043215,3.984565639703107e-09,1.913455350430327e-06,4.0351246335824245,68.43243098813296,3.567737752667411,47.92132267234452
0.11,31.222215703308,131.01039260899836,3.148841432727305,4.043401107254707,0.0001752764476999,37.67622367577205,0.0003286462930162,3.3392563999062723,442.86563930529127,4.034183355956686,1.6436552022667772,69.99978525353545,7.302513231814865e-09,120.00000031883242,9.96528118825134,1.274,1.026848594915519,0.0,0.0,0.0,0.0118554331868328,1.5870341853361987e-10,-0.0002596204409236,7.232030302688121e-09,3.252930323390323e-06,4.04340111104746,65.92012987243639,4.034210888316708,37.82391391539392
0.12,31.222215627491828,131.01039276462643,3.186995101203875,4.17874459224363,0.0002066711490009,41.15991989399172,0.0003576945202315,3.336766085769504,475.58594813540793,4.361857560629481,1.7865750500940407,69.99963665601238,1.781774420198147e-08,120.00000041104812,11.649831899889556,1.274,1.0268114448194128,0.0,0.0,0.0,0.0128183893919737,2.682972478760441e-10,-0.0003710216542429,1.2215991071490164e-08,5.026311388647148e-06,4.178744597345269,64.21681651392016,4.361890024457652,41.29495143136631
0.13,31.22221554594398,131.01039293200228,3.2277173449026786,4.202734874672792,0.0002327160860324,45.44886120763352,0.0003953741266062,3.333578629398489,515.9156326236897,4.792165672014363,1.9646716520715424,69.99942424225341,3.613383418913551e-08,120.00000051758742,14.061726603124043,1.274,1.026779572895131,0.0,0.0,0.0,0.0140829618979635,4.248908088871395e-10,-0.0005056103199642,1.908859219307828e-08,7.5253154423526356e-06,4.202734881104192,62.048594618540655,4.792202226971676,45.570952718869485
0.14,31.222215454191247,131.01039312033683,3.2737880595608355,4.184830647080848,0.000257138757548,42.32232525579263,0.0004369426767266,3.329727443445437,486.2390860568421,5.269261304374574,2.158791628597544,69.99913473613935,6.515851355725497e-08,120.00000064630268,17.000925061330125,1.274,1.0267449573927567,0.0,0.0,0.0,0.0154850332441425,6.382432869666793e-10,-0.0006690086306358,2.8426433029675884e-08,1.0948547100483978e-05,4.184830654966803,59.74181173116622,5.269301695636157,42.45310707234106
0.15,31.222215353826755,131.0103933263496,3.3242182719560263,4.21963947489699,0.0002846467688673,40.886944113003565,0.0004726792395108,3.325585650885676,472.5421858721398,5.6781946837482895,2.329510773545807,69.99875162806286,1.0876776246115984e-07,120.00000079954532,19.742017654108928,1.274,1.0267115958081523,0.0,0.0,0.0,0.0166867950518804,9.204756288136623e-10,-0.000865746478554,4.08948221429571e-08,1.526771148078443e-05,4.219639484480408,57.84996018384879,5.678239395958187,41.02196629910223
0.16,31.222215247130432,131.01039354534575,3.3775922280208457,4.253495568077899,0.0003118339050386,32.26872905470846,0.0005078415214353,3.32090791922544,391.1218908297597,6.081244877834229,2.4981889727471702,69.99825581174558,1.7187028096464329e-07,120.0000009800088,22.644030778355887,1.274,1.026675762255412,0.0,0.0,0.0,0.0178712695992133,1.2856146928958252e-09,-0.0010961187242953,5.6923362293832417e-08,2.0702404729358337e-05,4.253495579487569,56.06022383757386,6.081293860589489,32.43916312841722
0.17,31.22221513260033,131.01039378041813,3.4348437275053194,4.364838523348639,0.0003448792023946,40.840448242802736,0.0005326487904353,3.3162727284953744,471.78125980632416,6.362544479165355,2.6250789114832647,69.99762801982864,2.5997588617291615e-07,120.00000119506798,24.78723182122683,1.274,1.0266409836796937,0.0,0.0,0.0,0.0186979513961862,1.747791994374917e-09,-0.0013624931601664,7.706724512977917e-08,2.6923621797558364e-05,4.364838536947241,54.85936171416122,6.362598652663785,40.97486885600156
0.18,31.222215014088988,131.01039402363364,3.4935801365785646,4.353948305387995,0.0003681615230806,33.992183768165326,0.0005718025428208,3.310131992647221,407.1015672119096,6.81502088160835,2.810667639293692,69.99684761766231,3.794979223522764e-07,120.00000144728236,28.437950785509614,1.274,1.0266048342046536,0.0,0.0,0.0,0.020027681385988,2.3221419748804155e-09,-0.0016616990447559,1.0147209890543081e-07,3.517105786247627e-05,4.353948320923495,52.99157233768714,6.815078712285162,34.152972512863755
0.19,31.22221488419521,131.01039429023237,3.558399965607869,4.432620772533925,0.0003996774584738,38.45149959021069,0.0005986099513107,3.304145139297767,448.95313283182486,7.1223367465208405,2.946425726785696,69.99589577323147,5.440084577183829e-07,120.00000176148238,31.060341085698347,1.274,1.026566130444714,0.0,0.0,0.0,0.0209308229359413,3.022391489754689e-09,-0.0020041563310821,1.3135864879722746e-07,4.433199397898183e-05,4.432620790516937,51.77883352025967,7.122399527709208,38.59320142454953
0.2,31.222214751373183,131.01039456280608,3.624052454705669,4.443889400961181,0.0004246617145652,35.23432408779927,0.0006337972852267,3.2968110145188256,418.5156301991588,7.530482904611057,3.1167566004785483,69.99474776398331,7.478025600151903e-07,120.00000211715036,34.72195181863731,1.274,1.026529240027363,0.0,0.0,0.0,0.0221302820454282,3.866698391504749e-09,-0.0023849544920781,1.668144671071589e-07,5.57780533277244e-05,4.443889421210987,50.22448880200342,7.530549610317194,35.38822625098952
0.21,31.222214608673173,131.01039485566503,3.6948551453492566,4.493351735844891,0.0004538195602194,33.79371564104691,0.0006629296043866,3.2891790438445727,404.8187610144608,7.868284042829251,3.2629204975089228,69.99338155599101,1.0150082652278477e-06,120.00000255293388,37.906665490338085,1.274,1.0264923657015164,0.0,0.0,0.0,0.0231230169900677,4.871073773182836e-09,-0.0028117605859743,2.089322918608601e-07,6.870935089180403e-05,4.493351758715364,48.992529909481824,7.868355328639073,33.95340801819282
0.22,31.22221446109996,131.01039515850383,3.767700382407304,4.5412639153933885,0.000482649303782,41.008966751568416,0.0006914639179131,3.2808061382386606,472.5421858721387,8.20057841132235,3.4071691679735228,69.9917708347139,1.3454961520984431e-06,120.00000305929996,41.175744234065135,1.274,1.0264494137127138,0.0,0.0,0.0,0.0240995709751246,6.054779813287368e-09,-0.0032829112061357,2.580881224843564e-07,8.3609968899004e-05,4.54126394098788,47.82515604752711,8.2006542256977,41.13999323561041
0.23,31.22221430675399,131.0103954752338,3.843768625625224,4.52371495179584,0.0005047555656171,33.98493478127787,0.0007294889663961,3.2705214710765107,406.340642146096,8.647938096586296,3.5908865300848416,69.98989017772566,1.7539876018835507e-06,120.00000365514876,45.79040229326471,1.274,1.0264133390858623,0.0,0.0,0.0,0.0254142776666487,7.436335125872812e-09,-0.0038001790077148,3.1489825108822685e-07,0.0001020628978177,4.523714979897577,46.31461705147579,8.648017383405135,34.14194053232237
0.24,31.222214142622448,131.0103958120587,3.92493179063287,4.57837522350066,0.0005351929930195,35.051650311058864,0.0007555049947555,3.26053011385611,416.2328240017099,8.954297884844461,3.72617527247482,69.98771316795013,2.25257161141768e-06,120.0000043564586,49.09180568115741,1.274,1.0263750048312463,0.0,0.0,0.0,0.0263146218848643,9.034877387788232e-09,-0.0043732521010013,3.809642748985157e-07,0.00012161410144,4.578375254714954,45.32798984252032,8.954381952763216,35.20297212911011
0.25,31.22221397517227,131.0103961556623,4.0071748888306855,4.6034117733065,0.0005618935542827,36.03738579534623,0.000785606492708,3.249069743648399,425.3640807915084,9.311611941121669,3.8789349536029696,69.98520781816889,2.8559738498748624e-06,120.00000517181904,53.08749562138344,1.274,1.0263373768840591,0.0,0.0,0.0,0.0273647110956883,1.0873791100894836e-08,-0.0049950711786164,4.5609738277273444e-07,0.0001444478241125,4.603411807525074,44.2165428352526,9.311700203154778,36.183554686886296
0.26,31.22221379934012,131.01039651647062,4.09364247475714,4.621386912291471,0.0005881033207375,39.29107511182762,0.0008162761165496,3.236407051295005,455.80158342417656,9.67833954512075,4.034902068846398,69.98234620927953,3.5784678110229355e-06,120.00000612171208,57.350948423913096,1.274,1.0263006300381676,0.0,0.0,0.0,0.0284424679130479,1.2973286442992724e-08,-0.0056712051373577,5.414206381221602e-07,0.0001704578711045,4.621386949630312,43.12063533194282,9.678431924174348,39.42414126789902
0.27,31.222213616776543,131.01039689108487,4.183310605341074,4.617158109135719,0.0006115457810536,35.90419462403674,0.0008503454714941,3.221982799915672,423.8421996598744,10.088790784535757,4.205862468567124,69.97909721779352,4.436165972465058e-06,120.000007221354,62.31798301949865,1.274,1.026260090595354,0.0,0.0,0.0,0.0296487219805601,1.5355910600537293e-08,-0.0064045199323113,6.379142666348734e-07,0.0002006609239367,4.617158149547818,41.94410287616451,10.08888684592241,36.048472443180565
0.28,31.22221342607797,131.0103972823952,4.277051150896916,4.642105655370123,0.0006389739579882,41.51133203546672,0.0008785747638736,3.2071101123224945,476.3468732012228,10.432377224420517,4.35383399240675,69.97542808435722,5.446665372087172e-06,120.00000849080963,66.63429581008447,1.274,1.0262212716723291,0.0,0.0,0.0,0.0306584788590473,1.8045308789081613e-08,-0.0072006835403936,7.469524967369969e-07,0.0002332868227611,4.642105699250441,41.0023231023774,10.432477594215127,41.63503624837164
0.29,31.22221323001776,131.01039768469093,4.373143569786686,4.62134615173668,0.0006600657405645,33.17552944492765,0.0009148746278066,3.1894209319791806,397.9703104221098,10.876662296046485,4.536381530986506,69.9713027936179,6.629751536885327e-06,120.00000994797426,72.43000748232016,1.274,1.026183007522519,0.0,0.0,0.0,0.0319641703260467,2.1067646517035105e-08,-0.0080566154554079,8.688043379161898e-07,0.000272130659453,4.621346198772975,39.83162628795024,10.876765978930557,33.32848872465723
0.3,31.22221302403368,131.01039810736614,4.4744193758467325,4.664362353358112,0.0006905183788532,31.08096762732793,0.0009381960428197,3.172549142946348,378.1859457108735,11.168362145070317,4.66647911311536,69.96668711012893,8.005507138509574e-06,120.00001161892672,76.36634300732833,1.274,1.0261430389738484,0.0,0.0,0.0,0.0328214509167604,2.4447409007156216e-08,-0.0089829108229115,1.0056222251461646e-06,0.0003115527202986,4.664362404357781,39.09908960432563,11.168470611443622,31.242464973103964
0.31,31.22221281503337,131.01039853619727,4.576593712520673,4.700143580504286,0.0007196683316923,32.79732593144512,0.0009620705970519,3.154230688182399,394.1656220930229,11.470279728974068,4.800072153432283,69.96154070456518,9.597499105113692e-06,120.00001352112182,80.55022837857167,1.274,1.0261054058068628,0.0,0.0,0.0,0.0337087616009043,2.8214060606649844e-08,-0.0099686353219717,1.1565909895184251e-06,0.0003550834484269,4.700143635477137,38.36463422765983,11.47039277421126,32.94865339301887
0.32,31.222212598991007,131.01039897947376,4.68216432480395,4.718667719113184,0.0007464384342556,35.7316568886908,0.0009885845337584,3.133859770838664,421.5593934624264,11.808280530415894,4.946054328851105,69.95582953472353,1.14278227255889e-05,120.00001568218067,85.36654007972253,1.274,1.026068246703101,0.0,0.0,0.0,0.0347021168382987,3.2392058795580455e-08,-0.0110163301561155,1.3226102501723267e-06,0.0004039614423012,4.718667778018562,37.5686120062341,11.808397780690962,35.8688218659563
0.33,31.222212376029034,131.0103994369436,4.791055524254013,4.72141404831576,0.0007708346814671,35.42013590291081,0.0010176135371143,3.1111955852784385,418.5156301991632,12.181577273013426,5.104163223586657,69.94951809396906,1.351997394754887e-05,120.00001812674968,90.84831229869296,1.274,1.0260310883392356,0.0,0.0,0.0,0.0357992034445943,3.700677535501642e-08,-0.0121310534481307,1.5051409581878843e-06,0.0004588955105349,4.721414111097893,36.7208578211118,12.181698355442045,35.55651229220977
0.34,31.222212145785647,131.0103999093516,4.903491659547144,4.73024573449122,0.0007962944975467,27.63851074646407,0.0010446307681611,3.0871492806781062,345.4656368807584,12.53557620048282,5.2556261014174765,69.94256797855994,1.5899658158227497e-05,120.000020882338,96.20413272674828,1.274,1.0259901535019136,0.0,0.0,0.0,0.0368395817555172,4.208561016221623e-08,-0.0133180771902383,1.7057647550599631e-06,0.0005184333231541,4.730245801363397,35.94841996438923,12.535701282129995,27.810389570354005
0.35,31.222211909310875,131.01040039453565,5.018822212845608,4.780248518778662,0.0008286678570753,30.332092807652543,0.0010618579815451,3.063967690608957,370.5765700527057,12.774786382148209,5.367579971644358,69.93493776125636,1.8594985713558667e-05,120.00002397748868,99.9096898192772,1.274,1.025950003202184,0.0,0.0,0.0,0.0375426220587071,4.7658312175989686e-08,-0.0145774693288123,1.9252724355785177e-06,0.0005782798420984,4.780248590437683,35.44790728185619,12.774916548990808,30.486451961956565
0.36,31.22221166933814,131.0104008868675,5.135354490370708,4.798132156899578,0.0008554457330409,34.32674769697476,0.0010851169437774,3.0374319611165923,407.8625232777224,13.09301701329486,5.506730645516068,69.92658597246795,2.163521613217148e-05,120.0000274401514,104.94818266210537,1.274,1.0259105142325406,0.0,0.0,0.0,0.0384778908056978,5.3755109608570216e-08,-0.0158991451700967,2.162609490834569e-06,0.0006464142451675,4.798132232978766,34.796094028187134,13.09315138639638,34.46087058603792
0.37,31.222211421355144,131.01040139563804,5.255882891363927,4.797392186816851,0.0008791822061288,32.551601855236584,0.00111162791192,3.0078619428913056,391.1218908297639,13.457513730739372,5.661815946371007,69.91747693543164,2.5047738471809164e-05,120.0000313040604,110.87154396328836,1.274,1.025872170958032,0.0,0.0,0.0,0.0395491312153729,6.040098808671168e-08,-0.0172926678053148,2.420031948898497e-06,0.0007226353721561,4.797392267189059,34.07332166419882,13.457651832357364,32.69027405888565
0.38,31.22221116634284,131.01040191882743,5.379799334000849,4.811698494594017,0.0009057112478668,34.02947987649063,0.0011338447913587,2.9774881690446744,404.81876101445977,13.77554886562956,5.800899861213392,69.90756948297444,2.886339581486796e-05,120.00003560072224,116.17243393848278,1.274,1.02583050512925,0.0,0.0,0.0,0.0404838339452728,6.762496638941508e-08,-0.0187646375218858,2.69955777313946e-06,0.0008026686661094,4.8116985796350695,33.46655348088405,13.775691134419684,34.15949264475229
0.39,31.222210906095896,131.01040245274032,5.505993307722699,4.813508003664984,0.000929862892873,29.00025983045028,0.0011579891265804,2.9442136901860865,357.6406249338268,14.124492165837273,5.950648592462506,69.8968186645841,3.311602501056718e-05,120.00004036395212,122.13093644173792,1.274,1.02579027384009,0.0,0.0,0.0,0.0415093739609825,7.545934774906889e-08,-0.020311592409804,3.0013532510753577e-06,0.0008908380763632,4.813508093268025,32.821616487639595,14.124638228358922,29.149330452482886
0.4,31.222210638473225,131.0104030017851,5.635788650457906,4.841647069358873,0.0009592124397379,27.71178845184976,0.0011749448424961,2.91135549588368,345.4656368807565,14.390874239274588,6.07193451174791,69.8851815212744,3.783947407715338e-05,120.00004563180136,126.77947425345651,1.274,1.0257493418632293,0.0,0.0,0.0,0.0422922854866381,8.39343718693383e-08,-0.021938519432511,3.3271332720311508e-06,0.0009803271643914,4.841647164150728,32.348088166612904,14.391024912012275,27.864299944624147
0.41,31.22221036681104,131.01040355909262,5.767123077463226,4.86553909860892,0.0009876699832274,31.306062598221665,0.0011918093836199,2.876450850006428,378.9468707766882,14.663028799871563,6.195223154320929,69.87261222561014,4.307011032901644e-05,120.0000514391194,131.6183642808765,1.274,1.025708445186429,0.0,0.0,0.0,0.0430921644173401,9.308325447883581e-08,-0.0236371933433427,3.6760977501392174e-06,0.0010761942383903,4.865539198612839,31.87689439156756,14.663183942709727,31.437931330109585
0.42,31.22221008906472,131.01040412887247,5.901259531771367,4.867510642114694,0.0010118258958528,35.308283402190774,0.0012128114559048,2.8374461227958245,416.23282400171047,14.9952917972178,6.33928625560071,69.85906967380902,4.884273094936628e-05,120.00005782486392,137.64909586091787,1.274,1.0256701057426505,0.0,0.0,0.0,0.0440686959134695,1.0293499639582845e-07,-0.0254093547296826,4.049238334851429e-06,0.0011830797791891,4.867510747027452,31.315270489291198,14.995450734457847,35.422111438762386
0.43,31.222209804115888,131.01040471342728,6.038886819939341,4.854590670645608,0.0010330089741511,31.00586934514032,0.0012363751872706,2.794478603999558,375.90313951343126,15.369430568701889,6.497852263156962,69.8445117629242,5.519340856908871e-05,120.00006482835984,144.60167924299955,1.274,1.0256308158337524,0.0,0.0,0.0,0.0451682983415116,1.135186446762958e-07,-0.0272634397889413,4.449073329427772e-06,0.0013010625065656,4.854590780289497,30.70250814963406,15.369592833372094,31.13154422839874
0.44,31.22220951192321,131.01040531284193,6.180028459770617,4.866912332640401,0.0010595850174406,28.57707721036899,0.0012525768202179,2.752165534925872,353.07501253892326,15.659290812546615,6.627318538707029,69.82889155423543,6.216182865383864e-05,120.00007249162944,150.1053167542629,1.274,1.025586171750536,0.0,0.0,0.0,0.0460202245100907,1.2486676023179565e-07,-0.0292060158163984,4.8779154055816594e-06,0.001420032405556,4.866912447705031,30.24619499837236,15.659457251771938,28.709297424144207
0.45,31.222209215425703,131.01040592106523,6.322872201489905,4.881836476567178,0.0010866574689855,33.31904824532484,0.0012669045761511,2.7082028218433374,397.2093853562887,15.934249290371609,6.751662050993672,69.81215834018458,6.97909417564726e-05,120.00008085697964,155.42080512416243,1.274,1.0255397023523487,0.0,0.0,0.0,0.0468283602442113,1.3701614206272197e-07,-0.0312276295846745,5.334643585560923e-06,0.0015449645531859,4.8818365972149325,29.82567893138932,15.934419982127675,33.428929688274074
0.46,31.22220891307435,131.0104065412864,6.468371919199588,4.869610441729251,0.0011078049156487,38.95909776354321,0.0012868374716666,2.6582856015412624,449.7140588976424,16.292139278621757,6.904766425053949,69.79426683863348,7.812149592850748e-05,120.00008996920153,162.4785746623087,1.274,1.02549635315424,0.0,0.0,0.0,0.0478802236363867,1.499987870203256e-07,-0.0333272350234362,5.819761874615242e-06,0.0016858511402973,4.869610567434908,29.29014635640275,16.292313292210977,39.04968351401366
0.47,31.22220860266524,131.01040717804253,6.6178810515614845,4.838450928223533,0.0011247917292402,26.253747818137555,0.0013104398935566,2.6026193242279367,331.0078106302504,16.710658191447514,7.078951441335346,69.77517236812905,8.719457259907165e-05,120.0000998741591,170.9309671061642,1.274,1.025453319323251,0.0,0.0,0.0,0.0491102725711187,1.6384464803343264e-07,-0.0355167087264168,6.3368207228363735e-06,0.0018427306558807,4.838451058652396,28.68386015667837,16.710834873319172,26.382435512333956
0.48,31.222208284201663,131.0104078313267,6.771393590864176,4.869339340099417,0.0011561785713505,25.860860976019296,0.0013165328518772,2.5543454292827983,327.20312230115803,16.911139899671,7.177575416403102,69.75482343794755,9.70562828082882e-05,120.00011062072316,175.0543877818846,1.274,1.0254092882449153,0.0,0.0,0.0,0.0496995461609974,1.7858865391586845e-07,-0.0378054080201581,6.88909442277235e-06,0.0019849793891693,4.869339477030596,28.40887970825325,16.911321511776286,25.986704537635287
0.49,31.22220796480208,131.01040848648364,6.924537656029012,4.881367714530694,0.0011829003785372,32.565703383222065,0.0013261973190012,2.5011623511055703,389.6000096981238,17.169005224738054,7.296160258358563,69.73316318155707,0.0001077573203115,120.000122255028,180.4309832312717,1.274,1.025367445590036,0.0,0.0,0.0,0.05045746454003,1.942747077649401e-07,-0.0401641298712614,7.47069711110948e-06,0.002140948887153,4.881367857509675,28.058569663954906,17.169191034294997,32.66161128464712
0.5,31.222207637929923,131.01040915697027,7.081324512896956,4.862566137860805,0.001202418260511,33.47759680712428,0.0013425340759632,2.4399894027711366,397.970310422106,17.52898693231981,7.450304424940405,69.71015149227495,0.0001193385310595,120.0001348274002,188.0736471953394,1.274,1.0253278572281015,0.0,0.0,0.0,0.0515154948878309,2.109295159784217e-07,-0.0426011733481599,8.084173008518589e-06,0.0023184335011768,4.862566286171007,27.57768313050809,17.529175807738486,33.56639745442473
0.51,31.22220730314019,131.01040984370235,7.24202048914867,4.8479762258125,0.001223054804074,25.49162310288008,0.0013562860883156,2.3767006597692686,323.39843497208153,17.86914397471067,7.597652147346554,69.68574349602717,0.0001318441288964,120.00014838524436,195.4407439266201,1.274,1.025286455263166,0.0,0.0,0.0,0.0525152689856776,2.2858192086249162e-07,-0.0451315948093539,8.734206149830708e-06,0.002503767471626,4.847976379721193,27.13799345359824,17.86933609171003,25.602178740977283
0.52,31.222206962738102,131.01041054193402,7.405210501673173,4.865306299521403,0.0012516517170965,30.733671928447727,0.0013599291289974,2.317711624364424,372.098451184342,18.08534843773428,7.701914987606457,69.65988568649581,0.0001453248538387,120.00016298000436,200.19561780583155,1.274,1.0252426840672306,0.0,0.0,0.0,0.0531507657929359,2.4726951523704535e-07,-0.0477531686556663,9.421346966092632e-06,0.0026812161964639,4.865306460134566,26.8699055233151,18.085545046726228,30.820940596104087
0.53,31.222206619320115,131.01041124632013,7.569307468221277,4.848802699234936,0.0012715119568563,32.301199055744725,0.0013711327835325,2.2490252325653923,386.55624643486095,18.41963113311156,7.8474319110539055,69.6325258319474,0.0001598315062727,120.0001786629144,207.6614205945027,1.274,1.0251993415311351,0.0,0.0,0.0,0.0541332845214831,2.67031759303889e-07,-0.0504479325599339,1.0141887756417996e-05,0.0028848299490111,4.848802865552398,26.45837260670532,18.419830861742675,32.37940050117613
0.54,31.22220626697288,131.01041196903336,7.737918664599091,4.831496690588052,0.0012913635058467,28.31291960103712,0.0013809098107221,2.177242866245296,349.2703242098436,18.75116898748492,7.992112829440902,69.60362200959217,0.0001754082864028,120.00019548734956,215.20067397992847,1.274,1.0251561018460285,0.0,0.0,0.0,0.0551077428911958,2.878941684235108e-07,-0.0532336286085667,1.090122304443916e-05,0.003098869611663,4.831496862756785,26.061835558272342,18.751371834390056,28.396510432451375
0.55,31.222205908994248,131.01041270328463,7.909026079894722,14.193861641631903,17.30827178555825,30.54741720668075,-1.1206419029467845,1.502983954635326,365.2500005919912,21.8890205352718,8.113323699629928,69.57312211246325,0.0001921068626005,120.00021350480982,293.246240929438,1.274,1.025112921033824,0.0,7.519210697837553,0.0,0.0643296876565522,3.0989272306468813e-07,-0.0561100530405476,1.1700476995263424e-05,0.0038128415497007,22.245252871972426,41.161555875709446,24.566634922506456,30.604893351252613
0.56,31.222205546564343,131.01041344664463,8.081909946161325,-11.014962390302344,16.705786663762556,28.341035437089296,-1.0368784149888286,2.623842548848053,346.22656194657776,18.506762416900823,8.24480645417527,69.54097415464405,0.0002099796112633,120.00023276987916,209.62037143377165,1.274,1.0250709539098009,0.0,7.546643356335294,75.00003213914121,0.0543896683627424,3.3296850471894137e-07,-0.0663687823322451,0.0135876122741358,0.0038130178614745,19.92351579150806,43.04125914252416,21.09387771141373,28.48111578247886
0.57,31.222205179969823,131.01041420541662,8.258425056245468,-10.804694756771111,16.5133401576532,28.015883501396207,-1.2355264308671967,2.731046741771052,343.1828296833045,18.754402595884567,8.382523025758633,69.50294694945941,0.0210379424507234,120.02246589255763,215.26414334878675,1.274,1.0250279191823897,0.0,7.573861694433826,75.00003213914121,0.0551175697687941,3.677931646896401e-07,-0.0605228188936725,0.0229801453068395,0.0035236240163138,19.651305311684133,42.54540938528598,21.31254980409281,28.17578517505615
0.58,31.22220480631841,131.01041497628665,8.436643015047936,-10.613760687243497,16.308679968072752,36.93501347788274,-1.4414621250478612,2.842682227772148,426.12500585731766,19.00911142314357,8.516537051488976,69.46826182655627,0.0561645912834431,120.05997111884956,221.14719061238617,1.274,1.024981594484354,0.0,7.601138657571382,75.00003213914121,0.0558662493353949,4.051301111261617e-07,-0.0546186707129471,0.0325220809291751,0.0032230176954818,19.379349110678653,42.04143713474456,21.536420417314005,37.07227907638561
0.59,31.22220442808069,131.01041575954915,8.617605603392441,-10.34915144202626,15.993642371479044,29.89675915131769,-1.6659429824688303,2.955347167985353,360.68438819710633,19.392292363353388,8.698333891692947,69.43694210538594,0.1057597286091778,120.11293589597108,230.1487113921627,1.274,1.0249386802161349,0.0,7.628199702720948,75.00003213914121,0.0569925036417167,4.4502670386812403e-07,-0.0486446354945751,0.0422116479009551,0.0029283049690578,18.97627782208277,41.292884045248,21.87206858264405,30.088629923212757
0.6,31.222204040311983,131.01041656386153,8.803426723591283,-10.171431015810276,15.800885417602863,26.5398366508276,-1.8875906350877785,3.076850853074181,329.4859594986072,19.634154346649368,8.82779671507266,69.40901345152294,0.1700040693860808,120.18155843677188,235.92116264580744,1.274,1.024891335813742,0.0,7.655200922112189,75.00003213914121,0.0577034389672889,4.875190620363884e-07,-0.0425585476659891,0.0521143081816458,0.0025938416020314,18.72122799077576,40.82929673867206,22.0848103960318,26.78419196149748
0.61,31.22220365041861,131.01041737420158,8.989753747507297,-10.003134840347352,15.618711148932844,31.123292371098927,-2.1145166503613684,3.202231012078384,372.0984511843332,19.86212579590869,8.95212708908611,69.38452092789623,0.2491923552988907,120.26615782319668,241.4271926851821,1.274,1.0248423929069768,0.0,7.682442332205426,75.00003213914121,0.0583735541902467,5.326738722256675e-07,-0.0364124728092182,0.0621506487490918,0.0022449805517002,18.480015137511103,40.39598945148296,22.28523492234914,31.358966694332842
0.62,31.222203254846622,131.01041819782523,9.178718970307976,-9.791433156312996,15.369648691473245,38.73587135247413,-2.357510725117556,3.330654168071187,442.86563930529206,20.17175727046548,9.106772928053926,69.36347501994504,0.3435124386467771,120.36693801529104,249.0085819281782,1.274,1.0247996097896497,0.0,7.7092831248604465,75.00003213914121,0.0592836682423818,5.805323680598508e-07,-0.0302134706715902,0.0723099496416703,0.0018917909831671,18.159931749223396,39.81644950276108,22.55716559809201,38.9502097997143
0.63,31.222202851663123,131.0104190386444,9.3714604193055,-9.538814803625447,15.055586370792764,21.85096487323213,-2.620879194394828,3.464304651237088,286.11251274707456,20.5689548710815,9.293843321077166,69.34587718715825,0.4531507641605301,120.48410045802407,258.9066829765255,1.274,1.024756158874558,0.0,7.736021035552045,75.00003213914121,0.0604511412537944,6.311279808923409e-07,-0.0239369385557017,0.0826311463444966,0.0015282752990532,17.763781684066146,39.09260388431036,22.906759147966515,22.278578957362136
0.64,31.222202439970808,131.0104198984221,9.568488813763713,-9.427349124901191,14.949659790517256,21.433330759715886,-2.856806682610976,3.602126821702788,282.3078244179702,20.689350410148634,9.37845371863805,69.33173755695896,0.5783685281617583,120.61792544183056,261.94149621049286,1.274,1.024708534665538,0.0,7.762828678048723,75.00003213914121,0.0608051129429959,6.845037029474979e-07,-0.0175564945040397,0.0931563658924846,0.0011274497820502,17.616400508472584,38.85787898400926,23.01108293522718,21.92086516351087
0.65,31.222202029937247,131.010420756572,9.763774277381778,-9.277901759908318,14.784545724920584,38.06460653386086,-3.106766075311798,3.742201573699504,436.7781447787504,20.88460632853912,9.490691991002636,69.32107539877057,0.7195071022239699,120.768777873695,266.9039715158017,1.274,1.0246641738210605,0.0,7.789764498823491,75.00003213914121,0.0613790969303137,7.407404743313597e-07,-0.011169391625782,0.1037330391997671,0.0007240360907888,17.399422557579474,38.49253889169292,23.181271052451137,38.37408420591363
0.66,31.22220161243141,131.01042163148838,9.962711662398291,-9.01545265348316,14.445349900544713,32.31164943753015,-3.4010465290774143,3.890112513644284,383.5125151715984,21.320662224388297,9.691875495457548,69.31384942328648,0.8766905984899449,120.9367893868136,278.16054777607684,1.274,1.0246195561629028,0.0,7.816009863241587,75.00003213914121,0.062660789946284,7.998555705821212e-07,-0.0047531017580834,0.1143966376923209,0.0003145385704499,16.97687365516703,37.72849493538095,23.56577025348624,32.72220625562409
0.67,31.222201183287183,131.01042253135927,10.167701585158351,-8.830786103958115,14.220968979754716,22.126392356431108,-3.68018825225796,4.0407271740625,289.15624401033847,21.595570412695416,9.833455016623036,69.31002532067708,1.050113113677056,121.122165311239,285.3743688380938,1.274,1.024572383541697,0.0,7.842301639758378,75.00003213914121,0.063468883683495,8.618608655331667e-07,0.0017683822448621,0.1252688684881485,-0.0001185300270393,16.691562211652673,37.23949830535474,23.806529896421655,22.791412864892724
0.68,31.22220075250776,131.01042343617027,10.372873322407964,-8.698363466151381,14.074195279945892,27.68944854150516,-3.944905309778284,4.191161731414764,340.89999248584934,21.752251397015826,9.93133001305396,69.30960481072451,1.2401716810060508,121.32532675738646,289.52460374946,1.274,1.0245245285832842,0.0,7.868934817357785,75.00003213914121,0.063929513458712,9.26835601774078e-07,0.0083371429322566,0.1362580245462574,-0.0005628600988077,16.498916125348213,36.94000956593997,23.940855005559968,28.281330857911456
0.69,31.22220031861602,131.01042434888595,10.57910024216919,-8.509571015134641,13.83830527131258,34.1534648035211,-4.23837330955328,4.34846357725517,401.0140726853658,22.038307825538936,10.07670947693998,69.31255056634016,1.4471395783513892,121.54656140707785,297.18366720262435,1.274,1.024479631064582,0.0,7.895136602179535,75.00003213914121,0.064770379346415,9.948338658666669e-07,0.0149109708821799,0.1472963093608894,-0.0010198928994418,16.201725063411452,36.437647557762205,24.19095175708653,34.689077558782145
0.7,31.22219987586439,131.01042528068427,10.789680317709063,-8.294891027978679,13.559124499030233,28.54832646652698,-4.553398089932519,4.513028669502488,349.270324209851,22.391560832247176,10.246589878496268,69.31879537785011,1.6712019895452912,121.78606164906437,306.78095929815714,1.274,1.0244351749185203,0.0,7.921063307416259,75.00003213914121,0.065808742949548,1.0658676259841642e-06,0.021527584870831,0.1584449513265223,-0.0014960334255267,15.854463769412169,35.83902136965979,24.501598633721574,29.259319984862216
0.71,31.222199425771723,131.0104262284081,11.003696117551607,-8.125949934842021,13.348540675654576,23.350198006723176,-4.8538755076784845,4.676755720329517,301.3312640634036,22.63365470411073,10.375463916953082,69.3282859470388,1.9126544168604604,122.04413666282429,313.4441094791936,1.274,1.0243880468141104,0.0,7.947127003129478,75.00003213914121,0.0665204168613798,1.1399711949796592e-06,0.0282035071362679,0.169731456560158,-0.0019811186967446,15.588906090743556,35.4108863787601,24.711521841967635,24.303577894311257
0.72,31.222198972557727,131.01042718384133,11.218724693548351,-7.974425696336803,13.163293529465443,28.662738494472663,-5.1492145609008135,4.840423142902446,350.7922053414578,22.82827106975088,10.486751396577008,69.34097046994174,2.171851508726336,122.32115769185312,318.8510229086727,1.274,1.024337302174265,0.0,7.9731344778608895,75.00003213914121,0.0670925580274041,1.217208239625879e-06,0.0348984958707143,0.181090679113401,-0.0024724268791,15.35381219998162,35.051330083246604,24.877814980262,29.521122688662494
0.73,31.22219851475697,131.01042814976594,11.4355952296726,-7.784355297324304,12.91469541305566,36.35528198468272,-5.47325484267648,5.012846381260332,422.3203185282354,23.125480955197816,10.635292866245468,69.35676769475091,2.4490632908735845,122.6174044060554,327.20073912673115,1.274,1.024292465384646,0.0,7.998862158586848,75.00003213914121,0.0679662276787939,1.2976193350019825e-06,0.0415930901974557,0.1924909718256905,-0.0029850158640873,15.045084372516314,34.54614300532997,25.136982023269045,37.10514351947439
0.74,31.222198048639548,131.0104291330736,11.65637581495334,-7.56540184368047,12.616861610572744,22.512551280729635,-5.826527391775897,5.195502115116897,294.4828134710563,23.50941211457428,10.815093987809751,69.37557846182162,2.744525671665988,122.93311894867136,338.14818378055185,1.274,1.0242470321640116,0.0,8.024413857415825,75.00003213914121,0.0690947807482303,1.3812171699426284e-06,0.0483139513914127,0.2039765946716977,-0.0035248431917768,14.6796221338425,33.927342084632194,25.47528603044383,23.82764421512921
0.75,31.22219757396519,131.01043013395667,11.881150384050189,-7.427957862430442,12.44771680789951,26.33997872014173,-6.127223653234529,5.364141175613542,330.24688556441737,23.656180014209088,10.908330141170332,69.3973099657683,3.058558339485145,123.26863194290776,342.37605176636714,1.274,1.0241984712898409,0.0,8.050028600965442,75.00003213914121,0.0695263117765189,1.4680276000236057e-06,0.0550817522259215,0.2155824019404257,-0.004043602569146,14.465422172861622,33.6312568815994,25.59611777713594,27.570117142046904
0.76,31.22219709991795,131.01043113537463,12.10481244763722,-7.248709740185881,12.208793028327772,28.3543644129378,-6.463485444276121,5.543974465733137,349.2703242098581,23.92625980273933,11.046010781851823,69.42187162031031,3.3915508541847643,123.6243475921018,350.2308896330261,1.274,1.0241522053390697,0.0,8.075648557438257,75.00003213914121,0.0703202628352175,1.558137067255669e-06,0.0618186525435172,0.2271795053026866,-0.004589877778518,14.1703887079707,33.17049564731755,25.829532960800517,29.60544338845044
0.77,31.222196616159103,131.01043215619885,12.33305571521995,-7.065231380226483,11.96101565967072,26.4172124967941,-6.808635041736284,5.727512356313164,331.76876669606884,24.207965471758992,11.187520310396664,69.4491239170891,3.743703896734452,124.0004673715492,358.51875734246755,1.274,1.0241065975906936,0.0,8.100759018041195,75.00003213914121,0.0711483906062215,1.6515412646841264e-06,0.0685566333351673,0.238821297274755,-0.0051499738857778,13.865619484077378,32.695773034987816,26.073180426937864,27.875276232246627
0.78,31.222196126850008,131.0104331885929,12.56354404217434,-6.893406919031855,11.729882528661484,21.514066259940066,-7.148465789319192,5.910007585580823,286.8734378128874,24.452595829100176,11.315252461183956,69.47893566296513,4.115314186705278,124.3972944763082,365.79319891904566,1.274,1.0240588105546735,0.0,8.126000502821347,75.00003213914121,0.0718675580339899,1.7482687151520864e-06,0.075292334782653,0.2505029822047332,-0.0057129888310747,13.580972931961565,32.26946826471824,26.282277648692517,23.428269245502992
0.79,31.22219563258749,131.0104342313879,12.79593634267222,-6.738565087628364,11.525008101186415,30.845327375323752,-7.473452614580679,6.087638594235825,373.6203323159581,24.636015409882564,11.42060496827443,69.51116516915359,4.50668239022562,124.81513549577387,371.293143556755,1.274,1.0240083170932772,0.0,8.151109628706909,75.00003213914121,0.0724068283659941,1.8483564357047428e-06,0.0820090393670499,0.2621966538194263,-0.0062691713546558,13.327393958241537,31.91746258810924,26.434176050899943,32.316343520381594
0.8,31.22219513447644,131.0104352825551,13.029623837533231,-6.537317000750661,11.240809909131908,31.19981873143169,-7.851715971948475,6.28390810893419,377.42502064505805,24.9804217287335,11.583212074465342,69.54565354357838,4.918074783489833,125.25425957696916,381.7383405187809,1.274,1.0239625010683884,0.0,8.176034373744697,75.00003213914121,0.073419254181513,1.9518401058462327e-06,0.0886831890101328,0.2738627851467924,-0.006873995926027,12.982377435168193,31.370931838840438,26.73481876611064,32.780567928269264
0.81,31.22219462567136,131.01043635367466,13.268210633101235,-6.347616023648739,10.97348545683898,19.939453678634955,-8.223835182685342,6.478715637888056,273.9374926939922,25.28569488396949,11.73125711359994,69.58222174488861,5.349702071071462,125.7148759793486,391.1164522798179,1.274,1.0239149950770308,0.0,8.200696273111529,75.00003213914121,0.0743166739612965,2.0586992324290138e-06,0.0953535137353948,0.2855677594916506,-0.007481175560929,12.65762008986921,30.87451353537529,26.99888728477025,22.520813360778458
0.82,31.22219411181394,131.01043743480872,13.508658005190169,-6.200930439019992,10.776583393876596,25.806456231895083,-8.544321447389208,6.654817689507929,328.725004432774,25.42548179998248,11.819946948620313,69.62070060506224,5.801888392636409,126.19731452145578,395.443692891599,1.274,1.0238644186635044,0.0,8.22550622648663,75.00003213914121,0.0747277215766963,2.1689733313881137e-06,0.1020012573592391,0.297280375526132,-0.0080467950591375,12.414968135495563,30.5680798308564,27.10830037092884,27.986875687107688
0.83,31.22219359654998,131.01043851988555,13.749065743746891,-6.0168512284179245,10.51450864045792,32.987242585408914,-8.914056580441125,6.848488919426406,395.6875032246518,25.70714825738955,11.958502880221388,69.6609024077876,6.274913203420356,126.70185691595508,404.2444335314392,1.274,1.0238188483711983,0.0,8.250144758526467,75.00003213914121,0.0755557689394484,2.282724732406012e-06,0.1085749443430704,0.3089123278696901,-0.0086600762321522,12.097511381293875,30.09930356142109,27.34950878385957,34.84996956365137
0.84,31.222193071008487,131.01043962333384,13.994004990796348,-5.814196748169884,10.218467845995468,19.890449032742985,-9.31563571530624,7.054177256355664,275.45937482564227,26.06666139689519,12.123882317029164,69.70260664678835,6.768914265686028,127.22863355434936,415.6203937098049,1.274,1.0237739661568126,0.0,8.274422932012206,75.00003213914121,0.076612624180927,2.399919045623928e-06,0.1151057642837629,0.3205178607949217,-0.0093091593657034,11.741488331084394,29.547630620034365,27.663279052080888,23.0688631767697
0.85,31.22219253707552,131.01044074160853,14.242422810750485,-5.664133821879909,10.010810415832967,21.709373954168967,-9.637834032075263,7.229511032440991,292.9609323393965,26.19992779121076,12.209097742680408,69.74559879100799,7.284117102297714,127.77786841260328,419.8709776510046,1.274,1.0237227741398531,0.0,8.29880369630739,75.00003213914121,0.0770045237749189,2.520550308315149e-06,0.1216055073689065,0.3321184693725192,-0.0098848699401183,11.487880238453538,29.23936440831193,27.764433660637508,24.828423068732416
0.86,31.22219200375944,131.01044186037657,14.489734942202714,-5.491913498182822,9.76314296416452,27.39849020216947,-9.993128176232894,7.41657520237999,346.2265619465616,26.42513736314829,12.326062091725454,69.78966026786411,7.820780914404628,128.3498214262277,427.11011822669536,1.274,1.023674789281455,0.0,8.323173929701099,75.00003213914121,0.0776666566571237,2.644700552464228e-06,0.128008913571548,0.3436006100816963,-0.010494572969118,11.18871808106092,28.831324527936392,27.951317530255277,30.092282463076046
0.87,31.22219146134595,131.01044299474017,14.740829383960948,-5.302449141048206,9.483780221612792,25.330419344293286,-10.37872703041414,7.61479774507077,327.9640783669946,26.726370722547315,12.46887640432794,69.83453533271171,8.378971396588813,128.94454660931677,436.8927690935146,1.274,1.0236288969245204,0.0,8.347057806026575,75.00003213914121,0.0785522402648144,2.7723342160761e-06,0.134332459898592,0.354993401714229,-0.0111382712413852,10.85360147284849,28.344595152542787,28.20928626047625,28.413610534881546
0.88,31.222190911046404,131.01044414234687,14.995018902055795,-5.124877114536075,9.22315047209656,21.6079693295892,-10.743217667790992,7.804122588057076,294.4828134710421,26.97053400538808,12.59116719579414,69.87996791934323,8.95879248485038,129.56213931540225,444.90098732986536,1.274,1.0235805388426191,0.0,8.370965987154026,75.00003213914121,0.0792700948902389,2.903426071877905e-06,0.1405861021679353,0.3663155470460436,-0.0117630019122442,10.540564318583709,27.916356275828573,28.41305426615578,25.361888608213444
0.89,31.222190356140768,131.01044529807743,15.250652432415652,-4.955097613848495,8.974538296116922,23.73985373516859,-11.089301283424511,7.985153734401683,315.02813424808807,27.17125348997736,12.697828414645189,69.92569816172478,9.560367299396788,130.20271605540876,451.5366069368311,1.274,1.0235293752791452,0.0,8.394829660576914,75.00003213914121,0.0798602672931012,3.037996138155609e-06,0.1467480762731453,0.3775290412153661,-0.0123696571147051,10.241782158905426,27.529605952322456,28.57521326202458,27.391895489063693
0.9,31.22218979612219,131.01044646258032,15.507963628612387,-4.774750511563769,8.705430185006842,26.278983182667645,-11.455028435821252,8.172933749285017,339.3781423542166,27.42305491004188,12.82140155697744,69.97144973117001,10.183739644529608,130.86630980771207,459.93297909460335,1.274,1.0234837388140003,0.0,8.418494915961217,75.00003213914121,0.0806005823002589,3.1760504891414844e-06,0.1528006392677498,0.3886027418265601,-0.0129988772525858,9.920028780996114,27.092439616104866,28.78524544323164,29.809385764396495
0.91,31.222189228292564,131.01044763944384,15.76821082078311,-4.5890459476477945,8.42480071740995,19.483827033238786,-11.832065078823828,8.36424468607557,277.7421810230785,27.70328375795332,12.953928765983024,70.01693277421919,10.82888068000898,131.55287742747743,469.3691388519621,1.274,1.023436404813438,0.0,8.441986645966534,75.00003213914121,0.0814244571355767,3.3175546853461286e-06,0.1587470854011578,0.3995433431689975,-0.013642406771954,9.585643007931152,26.628990728981744,29.02188478766905,24.281224620254065
0.92,31.222188653171564,131.010448827576,16.0310878213481,-4.421907607457462,8.176115463333293,23.420508614670336,-12.158290815070272,8.53359358707984,315.0281342480675,27.8719423449134,13.047785455661076,70.06185274948764,11.495749216272417,132.26236407504908,475.0896137030732,1.274,1.0233859136578225,0.0,8.465420385946441,75.00003213914121,0.0819204151329965,3.4624819808047768e-06,0.1645849019993131,0.4103472642823847,-0.0142298475642192,9.288120084504111,26.26692159194379,29.151889219863488,27.733850775237105
0.93,31.222188075373783,131.01045002053138,16.29439612748555,-4.238721674206452,7.896425595556503,28.09543508371364,-12.522277877821391,8.716943838775785,359.16250706547066,28.133793074529567,13.172502512926688,70.10590851432183,12.184270921865776,132.99468129676643,484.04602900686086,1.274,1.0233407575091376,0.0,8.488767607771273,75.00003213914121,0.0826902849661552,3.6108562084227215e-06,0.170282252865863,0.4209572916221949,-0.0148603731041959,8.955800329496224,25.81997065048496,29.370237848935083,31.971018527424384
0.94,31.222187487908688,131.01045122743423,16.561366949405258,-4.0475897460504,7.600220276889343,19.711422358465803,-12.907560002514524,8.907763173463712,283.06875048378083,28.447021303772576,13.313620233606937,70.14878334775662,12.894241405093688,133.74960422800245,494.87161574311455,1.274,1.0232914783978162,0.0,8.511836115869148,75.00003213914121,0.0836111710031665,3.762606844901883e-06,0.175850160572524,0.4313943572534963,-0.0155167395111892,8.605236550373036,25.329349964393643,29.637363113139543,25.189154836295213
0.95,31.22218689210211,131.0104524460479,16.831307499462604,-3.877822324252832,7.341904866426209,26.03471547718544,-13.2216002707907,9.067507102320231,342.421873617488,28.614398364440103,13.405116853484364,70.19016097650476,13.625456782083669,134.52691071849333,500.6992349192317,1.274,1.0232418269359267,0.0,8.534911401606239,75.00003213914121,0.0841033799709233,3.917682045040624e-06,0.1812892519544337,0.4416609907550763,-0.0160903806810856,8.298111389495489,24.96305318907805,29.76450858240784,30.57510112410423
0.96,31.22218629437163,131.0104536681158,17.101274261022176,-3.688597516500404,7.045227838408144,25.32593871175728,-13.595275412665424,9.25039522481254,337.09533515678265,28.918617307989585,13.541386117615216,70.22972220354212,14.37767894556988,135.32634457897524,511.38911261890337,1.274,1.0231951201821403,0.0,8.557930853399379,75.00003213914121,0.0849977985645866,4.07611303016623e-06,0.1865629494551918,0.4516900002829581,-0.0167340593966733,7.948102095967704,24.48250789185693,30.022492473511925,30.196100691863276
0.97,31.222185684555203,131.01045490596815,17.375813918963665,-3.5047794235501977,6.757035153185309,15.185885853365448,-13.94555585210368,9.421826793586035,245.0218871929888,29.18268611709912,13.66342136784532,70.26713534295435,15.150509423614618,136.14748178917907,520.7574677197791,1.274,1.0231476260761452,0.0,8.580646010126948,75.00003213914121,0.0857742171233808,4.237788910025601e-06,0.1916877896472313,0.4615133052558154,-0.0173502862983964,7.608152817972893,24.035807884773835,30.24162010561625,22.668490847516157
0.98,31.22218506931439,131.01045615108356,17.65187866687984,-3.338615508618874,6.501022854881476,23.1567488574799,-14.217487258912069,9.558358968940007,319.593746642963,29.30115324409421,13.736853684703023,70.30207347876565,15.943559156579049,136.9899111411148,524.980160630626,1.274,1.0230935628253934,0.0,8.603442098573838,75.00003213914121,0.0861226858600125,4.402683971139223e-06,0.1966466276717538,0.4711001126143573,-0.0178709086182488,7.304913862497401,23.70310608177991,30.320141804704257,28.805106974021804
0.99,31.22218445230373,131.01045739922887,17.92786827128021,-3.151792766868589,6.203527686507417,25.413624339943183,-14.566436381029693,9.725282367277064,341.66094855170127,29.590070014414607,13.865248460286796,70.33420585331709,16.756335388866397,137.8531142373689,535.3698845533423,1.274,1.0230490803133316,0.0,8.626063365878998,75.00003213914121,0.0869721481297098,4.570814121824057e-06,0.201407351388592,0.480389826817071,-0.0184835427677924,6.955479698392178,23.23746136771127,30.56261510051404,30.864453470904163
1.0,31.222183822412045,131.01045866271397,18.208567465580668,-2.965812071874912,5.905910482440799,22.289482174464663,-14.907038502992794,9.886677456229656,314.2672081822764,29.87480278928343,13.991252555726584,70.36319718795761,17.5881850726633,138.7364056245092,545.708022278933,1.274,1.022999484445133,0.0,8.648383975447612,75.00003213914121,0.0878093225759433,4.742023521124006e-06,0.2059888922091304,0.4894201410884015,-0.0190853903366674,6.606408980472897,22.77681319677897,30.80085911386388,28.579489212703002
1.01,31.22218318596701,131.0104599339547,18.49116318365652,-2.786120865609447,5.6186923532951605,23.300646560055544,-15.211219331190796,10.030490692294029,324.92031610370094,30.103535569707464,14.098253933204516,70.38872145100311,18.438466678224927,139.63911537898983,554.0812667709847,1.274,1.0229507481225095,0.0,8.670794016517089,75.00003213914121,0.0884819060736287,4.916249047697496e-06,0.2103806025168131,0.4981723161241147,-0.0196410006471851,6.269551043657058,22.358553035187747,30.98470379548877,29.578912542323422
1.02,31.222182543618715,131.01046121214156,18.775363602600404,-2.6034570418476486,5.323734707477575,18.76045435331977,-15.523449037795286,10.175444430967971,284.59063161543185,30.36461289628508,14.214740896060793,70.4104559569966,19.306448715740054,140.56048142494083,563.7182567271749,1.274,1.0229039803623294,0.0,8.693065570486304,75.00003213914121,0.0892495645837491,5.093448772193923e-06,0.2145654463714423,0.5066140127755429,-0.0202048713371057,5.924577616702464,21.9178683057106,31.19966041165334,26.39075192069637
1.03,31.222181892220405,131.0104625002589,19.06244603131301,-2.427154484104288,5.04014181046931,14.548889001288115,-15.788308741423233,10.297832883999256,247.3046933904342,30.5547122413505,14.3077343792276,70.42808268861383,20.191284149944785,141.49962245674345,570.7829921464178,1.274,1.022853416101322,0.0,8.715178274123451,75.00003213914121,0.0898086073584062,5.273521816370169e-06,0.2185386991061353,0.514737463321128,-0.0207072836615601,5.592754530614951,21.526899274922865,31.345395199715263,23.811472575065157
1.04,31.22218123630341,131.01046379346332,19.350489801397213,-2.253747329835689,4.761130520018576,25.080021483414225,-16.020828098377617,10.403897337535051,345.4656368807608,30.70627603864149,14.38779342668738,70.44129262419932,21.092053581023087,142.45558379720893,576.4437205329339,1.274,1.0228049544826707,0.0,8.737233369163615,75.00003213914121,0.0902543879149424,5.456420890466065e-06,0.2222827240553245,0.5225087125615226,-0.0211659334676951,5.266501963374372,21.16135152581685,31.45329226537377,31.526425271131735
1.05,31.222180575040493,131.01046509245396,19.639818852386707,-2.0669640958806066,4.452186532954769,13.485668928957924,-16.339754005356674,10.544262919032008,240.4562587980608,31.03785645313244,14.523515848191089,70.44978619517457,22.007718771334712,143.42728805034537,588.9439774652612,1.274,1.022755494436122,0.0,8.759084721444545,75.00003213914121,0.091229293918744,5.642070219935631e-06,0.2257857328871957,0.5299048360719997,-0.0217310501576124,4.907718647882407,20.677775468035115,31.736500700270717,23.66500175201143
1.06,31.22217989965141,131.01046640497705,19.933902985309217,-1.896204126076936,4.1760807368952815,20.705052753838423,-16.524081589069503,10.624486483539776,308.1796836557233,31.145582311103983,14.588376763207744,70.45327695607659,22.9371437076376,144.41355737264854,593.022522441225,1.274,1.0227013895379469,0.0,8.780761625075284,75.00003213914121,0.0915462353568362,5.83025023186373e-06,0.2290588714295504,0.5369514844631662,-0.0221219701916874,4.585724652851366,20.339654663828945,31.80097888898512,28.541622149772376
1.07,31.22217922628328,131.01046771609077,20.2262574222726,-1.7151595649977085,3.875482657377924,24.937529892087017,-16.787749531142495,10.735857148772052,348.5093681440431,31.42074942374507,14.704403179445608,70.45149480670004,23.879183567391088,145.41320770707955,603.5304151776203,1.274,1.0226540159946436,0.0,8.802524424144696,75.00003213914121,0.0923553389457317,6.020997683012841e-06,0.2320713721907361,0.543585218381031,-0.0226102906821328,4.237528780325575,19.896840319246817,32.02904472688117,31.921271280416583
1.08,31.222178538252447,131.01046904036068,20.523449895649577,-1.5334184516095188,3.571361148931312,15.238990114573925,-17.05529030946634,10.846026528194487,261.0015785751465,31.72508531267241,14.828306534386556,70.44418566421265,24.832529266024245,146.42488363670896,615.2608532531343,1.274,1.0226061614050743,0.0,8.823894455244247,75.00003213914121,0.0932501893382109,6.214079021524372e-06,0.2348317365913032,0.5498262909696833,-0.0231001727653623,3.8862509470426194,19.43939382707597,32.28571021474262,25.312961871392233
1.09,31.222177841608527,131.01047037193132,20.82301185316038,-1.3610979440998807,3.286848192187306,13.503419526106844,-17.216047517972545,10.907696653764036,246.54375332456465,31.864996971709623,14.900975790191508,70.43111537128154,25.795860730839912,147.4472207371584,620.6817180701703,1.274,1.0225512795791307,0.0,8.84535702710847,75.00003213914121,0.0936617511296826,6.409350380578334e-06,0.2373326096048616,0.5556622910676802,-0.0234484661976875,3.5572357112977824,19.081650663725824,32.381010745184696,24.448158976284233
1.1,31.222177143337674,131.01047170509528,21.122257396626715,-1.187876668107858,2.9986205008962363,31.513780288789285,-17.3747581209306,10.965535077142304,413.1890617384087,32.029057355518155,14.980299472712806,70.41207015494,26.767793433624828,148.4787885237047,627.0714415505588,1.274,1.0224981043155532,0.0,8.866730840826975,75.00003213914121,0.0941442966868444,6.606796004014257e-06,0.2395546649158593,0.5610507789147056,-0.0237891788289517,3.2251336884424164,18.710219264048227,32.49986456732342,37.619722585087814
1.11,31.2221764365119,131.01047304522038,21.423808551355727,-1.0050315412519284,2.683597367135014,21.640344103992486,-17.679206927512148,11.082326044177607,324.1593910379213,32.47325919418872,15.143102235122107,70.38686034158978,27.74683255107389,149.51804141373455,644.5667329906245,1.274,1.0224548851875197,0.0,8.887828499313326,75.00003213914121,0.0954502818150617,6.806255512091637e-06,0.2414936703482408,0.565983948773434,-0.0243136249859742,2.8654920124705234,18.18540505136738,32.894643573951114,30.06121755808392
1.12,31.222175709826047,131.0104744000157,21.73177870453524,-0.8322826147651279,2.3916857074310016,4.964463247914678,-17.832590507971155,11.131544809691844,172.7328179403806,32.681459600146965,15.233916378023444,70.35532162265376,28.73144097783609,150.5633904501261,652.8391213436463,1.274,1.0223979224661404,0.0,8.908839928335766,75.00003213914121,0.0960625895650476,7.007370818416208e-06,0.2431557673815027,0.5704837398569529,-0.0246371946956707,2.5322820717113514,17.79475692989733,33.057035619312714,21.599964569763902
1.13,31.22217498390645,131.0104757541264,22.03846748855,-0.6657020044452066,2.115035064578183,26.066192143993423,-17.85284321973698,11.121133349085095,367.5328077894322,32.690779565169606,15.26493858890248,70.31731298162356,29.72009664050181,151.61326366925277,653.1922806766469,1.274,1.0223460397860296,0.0,8.93004761936821,75.00003213914121,0.0960903168500671,7.210170049277265e-06,0.2445209357224609,0.5745025973868411,-0.0247818525712268,2.21728012893396,17.510036709369565,33.022933048434,33.49402918259052
1.14,31.222174257662854,131.0104771087952,22.344351400724378,-0.4908090729723627,1.810321239634468,11.955811266104297,-18.088979934001085,11.198926140051654,239.6953177322812,33.10132153293872,15.41388266871202,70.27272376722084,30.711182500865743,152.66598881055032,669.681644265321,1.274,1.0223022138470996,0.0,8.950922129255133,75.00003213914121,0.0972973876910505,7.414647868566e-06,0.2455783445421577,0.5780099760025159,-0.025200843844558,1.8756535844335,17.02059892467486,33.38563881658467,24.40427349407748
1.15,31.22217350639536,131.01047847980038,22.65824849610877,-0.323221142369804,1.5267660666901368,11.558774088224542,-18.12302263638268,11.187795865030692,237.4125115347709,33.19659975939414,15.469065517288648,70.22147606815456,31.703027588930883,153.71983625850288,673.5220837068459,1.274,1.0222426194541194,0.0,8.971505851014083,75.00003213914121,0.0975777923150471,7.620305730260222e-06,0.2463322826842611,0.581030796493636,-0.0253502077347122,1.5605966168982797,16.693639236077885,33.43639523148463,24.23253978061416
1.16,31.22217276213874,131.0104798461184,22.968639646981696,-0.1561082382016958,1.2404184941512888,38.99801056964336,-18.176805897187297,11.181764529649032,490.043774385954,33.35799396336939,15.542974409553524,70.16351660287889,32.69400463257127,154.7731221490049,680.0667456874152,1.274,1.02219674531104,0.0,8.992388245343866,75.00003213914121,0.0980525364565767,7.82722901057619e-06,0.2467705312045328,0.5835269655337523,-0.0255180134862543,1.2502015898274164,16.336686768803137,33.55282322468632,44.45529168738583
