Time,Latitude,Longitude,Altitude,Angle of Attack,Angle of Sideslip,X-Acceleration,Y-Acceleration,Z-Acceleration,Thrust,True Velocity,Ground Velocity,Pitch,Roll,Yaw,Dynamic Pressure,cp,parachute_deploy_gain,Wind Speed,Mach,omega_x,omega_y,omega_z,Cmq,Angle of Attack(total),Angle of Attack(gust),True Velocity(gust),Acceleration
0.0,31.222186000000004,131.010384,3.000000003643237,0.0,0.0,0.0,0.0,0.0,2.2828121974499247,0.0,0.0,69.99999999623421,0.0,113.69999999388332,0.0,15.288,0.0,0.0,0.0,0.0,0.0,0.0,-0.0,0.0,90.0,0.0,0.0
0.01,31.22218600000153,131.01038399999584,2.99999882256592,0.0,0.0,0.0,0.0,0.0,34.24218696174923,7.502283530665459e-11,7.190531319924593e-11,69.99999999623329,-4.83564628150269e-13,113.69999999388072,3.446445726795683e-21,15.288,0.0,0.0,2.204725565824978e-13,-3.659182332138578e-19,7.589415207398531e-19,4.811147140404426e-19,-1.5108918610345807e-31,0.0,89.9999999995224,7.502283530665459e-11,0.0
0.02,31.22218600000288,131.01038399999217,2.999997775701936,0.0,0.0,0.0,0.0,0.0,25.871876237766408,1.5320717031631675e-10,1.4674636035870463e-10,69.99999999623222,-9.67129256300373e-13,113.69999999387804,1.4372842949972735e-20,15.288,0.0,0.0,4.5023593667086093e-13,-7.284483346386986e-19,1.5178830414797062e-18,9.757819552369542e-19,-6.170906918166791e-31,0.0,89.99999999902465,1.5320717031631675e-10,0.0
0.03,31.22218599928065,131.01038400193067,3.000201659671132,18.81500467334555,-0.00012974450181,11.96616230539064,-1.8916256735984712e-05,3.349833086198469,180.34219359854663,0.0882870268161719,0.0553390044312322,69.99999999799445,-4.212591857125379e-12,113.69999999488518,0.0047728553458352,15.288,0.0,0.0,0.0002594525584132,3.2187251995663407e-17,-7.20264389268894e-10,1.2365134327422308e-11,1.6874092354518158e-13,18.815004673776716,89.46786891739345,0.0882666465974854,12.426199017587786
0.04,31.22218599548236,131.0103840121632,3.001799604587872,9.46752327608497,-4.6177622759613696e-05,55.21900012092241,3.931876292165237e-06,3.349616504302861,548.6359724538078,0.3767519978512604,0.1853356633749705,70.00000000507204,-2.4624598767003407e-11,113.70000000019972,0.086915163246288,15.288,0.0,0.0,0.0011071759353184,1.6174128009138757e-15,-1.3693172015529268e-08,2.7753303060112748e-11,1.3689612277852356e-11,9.467523276196548,87.63554493451223,0.3767447442872393,55.32050167054111
0.05,31.222185984749512,131.01038404118162,3.00777936418888,5.376730308971262,-2.257790939128127e-06,80.28807156553681,5.266841443842784e-05,3.348887800834877,761.6984298824644,1.018787885905993,0.4366201147110198,70.00000000894464,-1.1355399380652658e-10,113.70000001523856,0.635552918586145,15.288,0.0,0.0,0.0029939522895272,1.6418815498809788e-14,-9.32122351075408e-08,4.303264669380585e-11,2.5199270302492604e-10,5.3767303089717045,83.57022052969386,1.0187875312530217,80.35788377762394
0.06,31.22218596447235,131.01038409608267,3.0201664202003013,4.296730121134882,2.4863835723705905e-05,60.21296515808257,0.0001057204249726,3.347700952379021,590.4875390737208,1.721098934225416,0.7081674028809783,69.99999995523842,-3.0560354507026086e-10,113.70000004366592,1.8138247671743823,15.288,0.0,0.0,0.0050578622752421,8.328976953118383e-14,-3.2824985336199985e-07,5.923438275930214e-11,1.4991363363716091e-09,4.296730121206683,79.20467073327266,1.7211028398275985,60.305955550063224
0.07,31.22218593493329,131.01038417609837,3.038741944736831,3.8204913578752526,4.8016684030909405e-05,91.4060317508128,0.0001597686613101,3.346072557365335,855.2937749779139,2.4375792548422868,0.9844712334613328,69.99999973536046,-5.939103491363046e-10,113.7000000850886,3.6383156301599167,15.288,0.0,0.0,0.007163413150771,2.709313825263564e-13,-7.906546256197275e-07,7.920022733617308e-11,5.114174483651565e-09,3.820491358176508,74.87999294483174,2.437586797285377,91.46725557277466
0.08,31.222185894468456,131.01038428575305,3.0647976109320942,3.588632851766762,7.220043782492885e-05,19.18449428359557,0.0002119618497595,3.3440615022685813,241.2171988638848,3.1292508166901074,1.2522236515868983,69.99999919480445,-9.914748373602156e-10,113.7000001418522,5.996012698481753,15.288,0.0,0.0,0.0091960591623389,6.80386533246681e-13,-1.5973238302190878e-06,1.0839624626357699e-10,1.3263625118823921e-08,3.58863285249208,70.86684630658345,3.1292621579083604,19.473766155861934
0.09,31.22218584634549,131.01038441616095,3.0957981580345013,3.551302481506045,9.685468678862004e-05,57.102946699906326,0.0002554087225869,3.341892818148368,563.0937377043176,3.701810007254615,1.479132491047967,69.99999812344194,-1.4359264356978275e-09,113.7000002093888,8.390904013834115,15.288,0.0,0.0,0.010878666406854,1.440096519545733e-12,-2.748643691533636e-06,1.5214952332699618e-10,2.6999776649034504e-08,3.5513024828250237,67.68737872952666,3.701825221153239,57.20065357568538
0.1,31.222185790329306,131.01038456796124,3.1319266121977414,3.608446747536112,0.0001234669721807,54.26147302645416,0.0002914860332524,3.3396271157106168,538.7437595981919,4.174070299823608,1.6716491241860567,69.9999963052332,-1.902380107712657e-09,113.70000028805804,10.668380938744466,15.288,0.0,0.0,0.0122665227999911,2.687800116751415e-12,-4.315796035622946e-06,2.1749089204950437e-10,4.7802076800548326e-08,3.608446749645647,65.17160335282355,4.174089693970246,54.36414778470795
0.11,31.222185727066616,131.0103847393952,3.172681775073216,3.633547373470009,0.0001485939126744,42.987553988990406,0.0003293995000288,3.337005588796181,442.8656393052949,4.672024955140527,1.8729475711242067,69.99999349387662,-2.3433348587116544e-09,113.70000037699285,13.365573690709628,15.288,0.0,0.0,0.0137298902182575,4.5789425819531184e-12,-6.340230783164189e-06,3.1157625832417107e-10,7.860218435507205e-08,3.6335473765043056,62.62546922225161,4.672048296217748,43.116880735560244
0.12,31.22218565692512,131.0103849294629,3.2177790417108385,3.650108937861461,0.0001727442530266,46.86777100765684,0.000367618259785,3.334068179146888,475.58594813540446,5.17479364099247,2.0758708919414386,69.99998941286465,-2.702771525550512e-09,113.70000047573096,16.396890189902592,15.288,0.0,0.0,0.0152074069417046,7.288473386564583e-12,-8.86736416607888e-06,4.42271554299792e-10,1.217615295152289e-07,3.6501089419435786,60.16906436414164,5.174820775596283,46.986210423745625
0.13,31.222185580265183,131.0103851371844,3.2669395832841857,3.7280113734654137,0.0001995014041665,51.64515456841877,0.0003986198234033,3.3311573548369657,515.9156326236895,5.579364582999854,2.2451120211463422,69.99998375846928,-2.9114380666036422e-09,113.70000058383452,19.060875702782603,15.288,0.0,0.0,0.0163963474924215,1.100846422415094e-11,-1.1941028436408576e-05,6.179653149059831e-10,1.7678562106638216e-07,3.728011378795934,58.279338776943774,5.579395920607139,51.75247433579817
0.14,31.22218549718016,131.01038536230575,3.320091807147376,3.768719651034081,0.0002242721760019,48.1660778383537,0.0004326225136175,3.32784677779744,486.2390860568404,6.025734265159953,2.428648685938864,69.99997621008868,-2.890941335368725e-09,113.70000070125378,22.232643351545065,15.288,0.0,0.0,0.0177081261985351,1.5941871344608664e-11,-1.560901486259027e-05,8.477542742712431e-10,2.495765160917323e-07,3.7687196576976176,56.27980129251342,6.025769493750979,48.280903250602165
0.15,31.22218540777004,131.01038560455507,3.377159065217065,3.821894709649632,0.000249725644238,46.56959330999435,0.0004643042952466,3.324387732286376,472.54218587214,6.441023336496372,2.6014999612196745,69.99996641132823,-2.546763407193136e-09,113.70000082794672,25.402620271850456,15.288,0.0,0.0,0.0189285691155931,2.2314099732464315e-11,-1.992367942778425e-05,1.1417519574710292e-09,3.4051816697623295e-07,3.821894717796148,54.501255563441134,6.441062563308839,46.68809885900716
0.16,31.22218531193176,131.01038586421257,3.4382223512025254,3.8463320955387794,0.0002733212404609,36.974247749122085,0.0004987816203583,3.3205066466509234,391.1218908297564,6.895451966878468,2.7877331692857847,69.99995397923414,-1.77088415515292e-09,113.70000096417354,29.113317717489338,15.288,0.0,0.0,0.0202640360420561,3.0367358387834494e-11,-2.4945905791363795e-05,1.5114297685186711e-09,4.5643121540033697e-07,3.846332105235269,52.641145594326446,6.895494900078523,37.12304892183151
0.17,31.222185210004127,131.010386140357,3.503019838429153,3.8860314262554336,0.000297865039677,46.520531453299206,0.0005306403365217,3.31650761597812,471.78125980632376,7.314788342774694,2.9619016331667103,69.99993849340957,-4.3039914767238207e-10,113.70000110959404,32.761746921137856,15.288,0.0,0.0,0.0214963781445172,4.0366633128431416e-11,-3.0713078585132897e-05,1.96747427715988e-09,5.961228045584824e-07,3.886031437653654,51.00464968745696,7.314835131305714,46.63860064094784
0.18,31.22218510147516,131.01038643438045,3.571950002194137,3.9107265153396016,0.0003214293682635,38.895647526122765,0.0005639254295027,3.312149448254175,407.10156721191447,7.754626295791602,3.1430587898572058,69.9999195084231,1.6149322372810674e-09,113.70000126508234,36.81988229018681,15.288,0.0,0.0,0.0227889722876034,5.2593391349219385e-11,-3.731786027786564e-05,2.525509173087448e-09,7.6786585232224e-07,3.9107265285284982,49.36615848311875,7.754676785798701,39.036415444581515
0.19,31.222184986476247,131.0103867459258,3.644912152926752,3.920599115663931,0.0003437679584038,43.86258669386953,0.0005989384366483,3.307389681300437,448.9531328318269,8.219206165926856,3.332657190859447,69.99989653019398,4.538529095696477e-09,113.70000143063515,41.36350714675367,15.288,0.0,0.0,0.02415428010977,6.735860419174937e-11,-4.481243905342629e-05,3.199401151670645e-09,9.773118416308382e-07,3.92059913071168,47.71893898797248,8.21926016487149,43.987104227715655
0.2,31.222184864792144,131.01038707557822,3.722074668489528,3.943376465171875,0.000367328732016,40.28070981710589,0.0006315894240138,3.30251450988504,418.51563019916136,8.65238089736321,3.511445117640573,69.99986902534273,8.534090245934178e-09,113.7000016067622,45.83799876721736,15.288,0.0,0.0,0.025427299120469,8.499785987217288e-11,-5.328041996372527e-05,4.006766070954748e-09,1.2232205148646746e-06,3.9433764822533854,46.2587826635041,8.652438597225508,40.41586552155969
0.21,31.22218473678744,131.01038742234647,3.803156063113743,3.9664546506877016,0.000390962054969,38.67679184347145,0.0006636984664108,3.297405915846789,404.8187610144644,9.079179692250786,3.688002035198235,69.99983642883521,1.3827831253856693e-08,113.70000179318536,50.47126980736161,15.288,0.0,0.0,0.0266815841422463,1.0586558589671407e-10,-6.275155280099118e-05,4.961340042512481e-09,1.5117124669161171e-06,3.9664546699249135,44.88773728276958,9.079241104426773,38.817098210937615
0.22,31.2221846022986,131.01038778667507,3.8882846911135607,3.956175711337521,0.0004112685792646,46.713636108302936,0.0007011135033803,3.291572407481395,472.5421858721365,9.580256326712124,3.889976788904857,69.99979815126248,2.0662823443484168e-08,113.70000199039316,56.195522894218605,15.288,0.0,0.0,0.0281541581291438,1.3033127211465288e-10,-7.330053770532661e-05,6.0817207473359025e-09,1.8632831045819008e-06,3.956175732680424,43.35679625546934,9.580320928629488,46.8294591882524
0.23,31.222184460898035,131.01038816972698,3.977794004014759,3.9879066397329104,0.0004360962274406,38.89105719050748,0.0007308686121188,3.286096544282012,406.3406421461021,9.977039034039262,4.056142701351626,69.99975353557706,2.9316661139418326e-08,113.70000219928508,60.9462612310605,15.288,0.0,0.0,0.0293202403623685,1.5880617816859538e-10,-8.505067486192354e-05,7.393319440773217e-09,2.2514912291167663e-06,3.987906663538912,42.20670487756048,9.97710753587448,39.0296395118868
0.24,31.222184313516166,131.01038856897196,4.070963590490852,4.003523997322975,0.000459165577055,40.0792299321398,0.0007630441688766,3.280134925833028,416.2328240017114,10.408422364424831,4.234121060914368,69.99970190737699,4.010976417051318e-08,113.70000241888,66.32994780718496,15.288,0.0,0.0,0.030588009649109,1.91711512587616e-10,-9.795845222523724e-05,8.904557280909524e-09,2.7052895870113487e-06,4.003524023611085,41.011349410369874,10.408494489985014,40.21323112692186
0.25,31.22218416001652,131.01038898478134,4.167901030441617,4.0261356185860135,0.0004830526730531,41.17760020658354,0.0007934613160587,3.2740610008587527,425.36408079150686,10.816813039390448,4.4041629376391525,69.99964258149416,5.3372865854010094e-08,113.70000264972064,71.63651430352668,15.288,0.0,0.0,0.0317882126436337,2.2947426169209347e-10,-0.0001121037688082,1.0637152702866709e-08,3.217380562698304e-06,4.026135647516394,39.93186687113378,10.816888917126896,41.30755663120434
0.26,31.222184000702686,131.0103894163294,4.26837241014618,4.053359329950934,0.000507503069958,44.80261175215926,0.0008224724146494,3.2678597736729302,455.8015834241788,11.207047269494833,4.567925492611352,69.99957484039399,6.947299261165984e-08,113.70000289176392,76.89781807056055,15.288,0.0,0.0,0.0329350617559806,2.7254099134167665e-10,-0.0001275114371842,1.260720913253598e-08,3.7915697709142366e-06,4.053359361668992,38.945390435244384,11.207126987890645,44.921630958721536
0.27,31.22218383516388,131.01038986473338,4.372698316214008,4.0614460923241,0.0005296455772492,41.029837477288126,0.0008548809954683,3.2610328932384265,423.84219965987256,11.645685385842508,4.748226940060522,69.99949794024376,8.879821051920497e-08,113.70000314600205,83.0342688744587,15.288,0.0,0.0,0.0342241635563461,3.2137296827284217e-10,-0.0001442952656441,1.4842505534226832e-08,4.458527942364847e-06,4.061446126801262,37.8838346421185,11.645768582375233,41.15922617924542
0.28,31.222183663504484,131.01039032970942,4.48079961904222,4.081133040992532,0.0005533279247169,47.27661484082626,0.0008845140695959,3.254218495915602,476.3468732012221,12.047344998676092,4.915789434712848,69.99941106884992,1.1178948978424788e-07,113.70000341275257,88.85982357848233,15.288,0.0,0.0,0.0354045979054623,3.764736350660473e-10,-0.0001625146963723,1.7365685655384934e-08,5.194620655212288e-06,4.081133078439725,36.956255322213885,12.047431915223257,47.38848224631549
0.29,31.22218348566054,131.0103908114315,4.592727908358551,4.1001100265020245,0.0005770279952742,37.989969791857405,0.0009138463939581,3.247164755122801,397.97031042211177,12.446314684600782,5.082367374004485,69.99931338876085,1.3891902435864665e-07,113.70000369260468,94.8417675268915,15.288,0.0,0.0,0.0365771315767517,4.3836067907166327e-10,-0.0001822432988888,2.0202163500922312e-08,6.018074062137429e-06,4.100110067036654,36.07377590258778,12.446405323946324,38.12849176886316
0.3,31.222183301933686,131.01039130907952,4.708251093558373,4.112858061667493,0.0005998635114143,35.655053282557844,0.000944131403186,3.2397207148238625,378.1859457108711,12.860033399289696,5.253940723820665,69.99920403105713,1.707002607527005e-07,113.7000039856728,101.2505662360602,15.288,0.0,0.0,0.03779301412572,5.075709863465428e-10,-0.0002035013069687,2.3370674033523645e-08,6.94335970778e-06,4.112858105337573,35.19685285507256,12.860127625629724,35.80193592228613
0.31,31.222183112488807,131.0103918222051,4.827243246502713,4.136140889545823,0.0006242383343011,37.56633644061071,0.0009716215464757,3.232339252743767,394.1656220930212,13.2364445751808,5.4126574282679245,69.99908210036875,2.0768081583188525e-07,113.7000042923011,107.26326115439352,15.288,0.0,0.0,0.0388992619788015,5.846561731689753e-10,-0.0002263323252403,2.6893437641668458e-08,7.948283231812338e-06,4.1361409365698805,34.43286455705216,13.236542630309057,37.70514091683033
0.32,31.22218291741533,131.01039235056504,4.949637017503345,4.1622282001352975,0.0006491019906456,40.83513712643371,0.0009979686925508,3.224840963348891,421.55939346242695,13.59846554462374,5.566374262777002,69.99894668612772,2.504388718903276e-07,113.70000461297312,113.2095365840355,15.288,0.0,0.0,0.0399632243410653,6.701756367872645e-10,-0.00025078340164,3.0793566854276295e-08,9.047716714467492e-06,4.16222825066026,33.72644865222576,13.598567505326,40.96227562489027
0.33,31.222182716732533,131.01039289410716,5.075419569102976,4.187801887681037,0.0006739743721461,40.48743503284469,0.0010239291638211,3.217136801802925,418.5156301991682,13.956637761217308,5.718704299733134,69.99879684673242,2.995902922462564e-07,113.70000494831164,119.25032483364384,15.288,0.0,0.0,0.0410158804634189,7.647061680070125e-10,-0.0002769136723495,3.509664608790402e-08,1.0253455741189656e-05,4.187801941818244,33.053267359159875,13.956743628864118,40.61505097607
0.34,31.222182510255863,131.01039345333336,5.204736257784645,4.19642921746386,0.0006961879027693,31.814592723444047,0.0010535137542081,3.208669900766693,345.46563688075645,14.367047160772364,5.88887983533068,69.99863160305904,3.557915789971256e-07,113.70000529927128,126.36523219087664,15.288,0.0,0.0,0.042222056531773,8.688448410811866e-10,-0.0003048202762282,3.9835373705550826e-08,1.1618525957862828e-05,4.196429275109305,32.30947868183619,14.367156517712404,31.97598901989736
0.35,31.222182298183583,131.0103940277045,5.337435501771672,4.210915783240843,0.0007193441544952,34.813487415034444,0.0010813034848195,3.200164272309822,370.5765700527033,14.754132934586384,6.050986755458457,69.99844991734221,4.1975736284587617e-07,113.70000566632532,133.26448209504355,15.288,0.0,0.0,0.0433596939127697,9.832256819293898e-10,-0.0003345386312107,4.503361101379695e-08,1.309465610343774e-05,4.210915844572415,31.63649055965014,14.75424592890194,34.96026256388454
0.36,31.222182080444604,131.0103946174141,5.4735747500461605,4.22903876037745,0.0007431682866607,39.2632255716727,0.0011077666085529,3.1915717453569297,407.8625232777193,15.124417129017054,6.2072589919251575,69.99825073022951,4.922382611919288e-07,113.70000605036684,140.03566173682628,15.288,0.0,0.0,0.0444479595865755,1.1084921261805627e-09,-0.0003661511460057,5.0723697896912267e-08,1.4691545926915382e-05,4.229038825557203,31.017264542603208,15.124533865618538,39.39272792946638
0.37,31.22218185710795,131.01039522227452,5.613102797925907,4.249164960780052,0.0007674149135003,37.28328237034959,0.001133274451316,3.1828514669894137,391.1218908297666,15.483077353331511,6.359470679857624,69.99803294268581,5.740349991123437e-07,113.70000645214331,146.75405277514704,15.288,0.0,0.0,0.0455020695186381,1.245311285088233e-09,-0.0003997125883071,5.6934243389647934e-08,1.641828325195534e-05,4.2491650299519,30.439178816713017,15.483197898584232,37.418894813348615
0.38,31.2221816281124,131.0103958424523,5.756069531572451,4.260095806433531,0.0007900626414612,38.9278000801764,0.0011607546399008,3.1735466295306622,404.8187610144602,15.87126705947922,6.521735074464384,69.99779542676283,6.659911329739736e-07,113.70000687263192,154.20298254405043,15.288,0.0,0.0,0.0466429667223463,1.3943646956867835e-09,-0.0004353006984059,6.369875435270817e-08,1.8328108041903096e-05,4.260095879559656,29.83470194713067,15.87139116222873,39.05694584372078
0.39,31.22218139339905,131.0103964781077,5.9025231349944285,4.274091258047817,0.0008133283308351,33.320076729592266,0.0011870382950339,3.164143363712209,357.64062493382744,16.24457853509073,6.678818328235205,69.9975369905506,7.690136753559805e-07,113.70000731287368,161.54010621938565,15.288,0.0,0.0,0.0477401448128051,1.5563705124515804e-09,-0.0004730068442167,7.105463478762673e-08,2.0383860516746246e-05,4.274091335289374,29.274934656826048,16.244706292406182,33.46997636540994
0.4,31.22218115316572,131.01039712870306,6.0523126585892895,4.286421841403391,0.0008363022448449,31.88018820767003,0.0012133780841982,3.1544430614236454,345.465636880754,16.62063299903514,6.836764518435374,69.99725641601981,8.840594270905819e-07,113.70000777359816,169.10340080049767,15.288,0.0,0.0,0.0488453895716005,1.7320643186450851e-09,-0.0005128553637434,7.9027539265021e-08,2.2612406375611563e-05,4.286421922834417,28.730746964325096,16.620764365084565,32.03586915718869
0.41,31.22218090752676,131.01039779392735,6.205351877049411,4.30025870409831,0.0008595777771371,35.882550741685804,0.0012389121673015,3.1445895889870297,378.94687077668647,16.987310563534386,6.99141560549392,69.9969524610574,1.0121301778427253e-06,113.70000825570062,176.64448930727934,15.288,0.0,0.0,0.0499230826371405,1.922193031274436e-09,-0.0005548883906878,8.764667734700782e-08,2.5005077415911235e-05,4.300258789847355,28.21875643368965,16.987445585695873,36.020076248499606
0.42,31.222180656535848,131.0103984736348,6.36160173428776,4.322008670726048,0.0008844838439129,40.34064925656127,0.001261804338223,3.134918999355981,416.2328240017114,17.318628721060172,7.133856886815013,69.99662385300175,1.154276942054023e-06,113.70000876021427,183.59942989625057,15.288,0.0,0.0,0.0508968652507098,2.1275184665783874e-09,-0.0005991661829955,9.694534598491077e-08,2.752657757470936e-05,4.322008761057615,27.772396468009568,17.318767655457478,40.462275036947325
0.43,31.222180400205527,131.0103991677914,6.521055075967404,4.339436441324956,0.0009085827200945,35.541853595187746,0.0012854696362701,3.124839917627212,375.9031395134336,17.662848429084132,7.280642039343927,69.99626930133451,1.3115939750280808e-06,113.70000928827632,190.96736675963504,15.288,0.0,0.0,0.0519085689713619,2.3488101247838237e-09,-0.0006457514522491,1.0695800287133593e-07,3.0255957891170616e-05,4.339436536261635,27.322335771349252,17.662991148924057,35.67895714766603
0.44,31.22218013836212,131.0103998768696,6.683849332059896,4.342209064313268,0.0009296474314902,32.82948243168077,0.0013129688908547,3.113754688841357,353.0750125389216,18.063580761318697,7.446730341918701,69.99588746395321,1.4852372182848018e-06,113.7000098413532,199.7278270846888,15.288,0.0,0.0,0.0530863610987301,2.586862292117705e-09,-0.0006947575786514,1.1773083546077225e-07,3.329010177793299e-05,4.342209163639375,26.81344244367223,18.06372678999575,32.9768158972058
0.45,31.22217987077456,131.0104006014978,6.850166573233225,4.3420317510315165,0.0009500780330031,38.11022602597878,0.001341042003417,3.1022288449712887,397.2093853562869,18.47486275310604,7.616350301328129,69.99547690348253,1.6764536248320808e-06,113.70001042108892,208.92306716049887,15.288,0.0,0.0,0.0542951637545535,2.842521175226318e-09,-0.0007463379956615,1.2932090054593452e-07,3.657529369088674e-05,4.342031854775571,26.30944884471334,18.47501199101448,38.23628058998621
0.46,31.22217959739673,131.01040134180155,7.020045503401754,4.351169003849846,0.0009725797783515,44.3937050866137,0.0013660055515545,3.09098240974522,449.7140588976434,18.844323061800488,7.771531995684422,69.99503610583268,1.8865779683531e-06,113.70001102895836,217.3591612614144,15.288,0.0,0.0,0.0553810645782081,3.1166808800591503e-09,-0.000800596194505,1.417768495237597e-07,4.001824400409673e-05,4.351169112337076,25.873596578896564,18.844475834274814,44.50118229261506
0.47,31.22217931813738,131.01040209802923,7.193559875579052,4.358630093683735,0.0009947969928181,30.22514089990685,0.0013910994973101,3.079396422776949,331.0078106302534,19.2180591098146,7.9280875671397615,69.99456352718363,2.1170044481277104e-06,113.70001166656292,226.0625808853568,15.288,0.0,0.0,0.0564795377574197,3.4102493884459798e-09,-0.0008576351980594,1.551487523304888e-07,4.3718862242359527e-05,4.35863020698899,25.44665981168229,19.218215372160817,30.381603425148434
0.48,31.22217903348153,131.01040286886197,7.370336324605091,4.365514409145237,0.001016880998596,29.779838936311712,0.001416009414045,3.067527859335786,327.2031223011574,19.5915905767454,8.084483592791102,69.99405758812365,2.369198154608765e-06,113.70001233476164,234.93171707892955,15.288,0.0,0.0,0.057577416115756,3.7241711041759195e-09,-0.0009173883913609,1.6944871263079066e-07,4.767297940601472e-05,4.365514527349481,25.03354780044292,19.59175030803913,29.937410312943754
0.49,31.22217874361868,131.01040365378466,7.5502307795521535,4.3786401372577615,0.0010404145545081,37.2489281064929,0.0014385799934191,3.0558405437943126,389.60000969812296,19.93403005898306,8.23012235628909,69.99351671352461,2.644660619562788e-06,113.700013034871,243.21198709852868,15.288,0.0,0.0,0.0585839249886784,4.059374595909599e-09,-0.0009798792959512,1.8470833984680338e-07,5.180951737438081e-05,4.378640260624215,24.667474291142685,19.934193486919103,37.37406598941686
0.5,31.22217844858332,131.0104044527036,7.733219389747018,-25.133821647661087,-0.0076240617404742,38.829804615109005,0.0010409724867203,4.560189514898369,397.97031042210494,18.51657777078168,8.365996061088087,69.99293932307316,2.9449363413826395e-06,113.70001376847225,209.8498073067904,15.288,0.0,10.020627911594472,0.05441830072592,4.416566661548473e-09,-0.0010631047813644,4.472187932587112e-05,5.2212083103426377e-05,25.13382272885728,35.48262823742872,18.51538018596749,39.09666297707457
0.51,31.2221781483236,131.0104052662965,7.91925392366061,-24.67720818864335,-0.004593816834776,29.91721993168878,0.0009031597728112,4.587624494061649,323.3984349720841,18.8143010163955,8.528724016959869,69.99240644332804,7.32677702319254e-05,113.7000890293672,216.6484299847324,15.288,0.0,10.060395292814874,0.0552933944922867,4.770876282507681e-09,-0.0007690953444489,4.465781315885629e-05,3.837909577471493e-05,24.67720858945526,34.94029160127524,18.81357942133527,30.266918372296317
0.52,31.222177842348525,131.01040609527763,8.108331492500934,-24.225748536415328,-0.0044878085823854,35.75212309128165,0.0009235502464708,4.6161248340518,372.0984511843415,19.121734569691657,8.693658455371114,69.99204379332633,0.0001434917728875,113.70016419316228,223.78246628352497,15.288,0.0,10.100021639518744,0.0561970315675338,5.0157653823374015e-09,-0.0004681653697015,4.459638513044326e-05,2.374352274032628e-05,24.225748927025865,34.39686820318914,19.12102962636872,36.04889616715954
0.53,31.22217753052618,131.0104069400557,8.300563583682118,-23.79188523420452,-0.0043850565294476,37.49117828620372,0.0009437791998319,4.644617413066223,386.5562464348624,19.42679935450516,8.857524276022552,69.99185546619817,0.0002136175782953,113.70023926071832,230.97553302802828,15.288,0.0,10.139513081210524,0.0570937129205581,5.148869875700237e-09,-0.0001599783555875,4.453382441400572e-05,8.242767492734854e-06,23.79188561480912,33.87248412710116,19.42611055143691,37.77778343275834
0.54,31.222177212750047,131.01040780091972,8.496026079490314,-23.372744456175656,-0.0042850453981116,33.034380972925824,0.0009639141407005,4.673228393605268,349.2703242098436,19.73095841631721,9.020899608972206,69.99184565735435,0.000283645209573,113.70031423218938,238.26029771982044,15.288,0.0,10.178898212678584,0.0579877384273565,5.167782461346433e-09,0.000155704248733,4.447010403699531e-05,-8.148000748480974e-06,23.372744826941407,33.36386768929955,19.73028532296069,33.36329406417077
0.55,31.222176889287283,131.0104086771426,8.694505201455371,-22.974246380455394,-0.0041888430959435,34.95554316635188,0.0009837049245616,4.701526226516071,365.2500005919907,20.02857510456054,9.181692945600128,69.99201856593504,0.0003535747703532,113.70038910728437,245.49754147536143,15.288,0.0,10.218130862867564,0.0588625423153513,5.070132520803959e-09,0.0004784774431627,4.4405316458405866e-05,-2.5415909803149817e-05,22.974246741637817,32.878898257089006,20.027917122626263,35.27030405143941
0.56,31.22217656013128,131.0104095687418,8.89599981328212,-22.60011709105039,-0.0040970777882517,32.68285350098413,0.0010029572074428,4.729170858136178,346.2265619465787,20.315245524415733,9.338308327395351,69.99237828459498,0.0004234064905183,113.70046388623425,252.5705958433072,15.288,0.0,10.257210292856747,0.0597051817843131,4.853624109117388e-09,0.0008084220770307,4.433946467771857e-05,-4.355579813803077e-05,22.60011744295811,32.42276483436398,20.314601956942244,33.02323380558237
0.57,31.22217622534624,131.01041047554213,9.100454030253845,-22.22670709610981,-0.0040056908317697,32.32419964395778,0.0010225253195175,4.757631694291211,343.1828296833023,20.61016812552264,9.497882128553588,69.99292887877485,0.0004931406908381,113.70053856926567,259.9520105254308,15.288,0.0,10.296119331952388,0.0605720797844237,4.516003990182624e-09,0.0011454595371905,4.427258134986368e-05,-6.260924933016099e-05,22.22670743877128,31.96565121466377,20.609538913078676,32.67244929610455
0.58,31.222175884903407,131.01041139762114,9.30788417147898,-21.83965733860861,-0.0039122551692289,42.27671389948775,0.001043002700278,4.787959450930569,426.1250058573153,20.926803519672948,9.6653631731712,69.99367443285604,0.0005627777588992,113.70061315680756,267.99534769503845,15.288,0.0,10.3348578892636,0.0615027966257801,4.055023270281116e-09,0.0014896802724725,4.4204668856022175e-05,-8.267315709499273e-05,21.8396576718827,31.48903424875,20.926188984068496,42.54697515606428
0.59,31.22217553839886,131.01041233607677,9.51859723701268,-21.492470583437203,-0.003825850689653,34.43566519433921,0.001062240228506,4.81643847155746,360.68438819711065,21.21657901338905,9.822867261531492,69.99461931716833,0.0006323180225868,113.70068764975665,275.4630756112323,15.288,0.0,10.373473484273507,0.0623545800854034,3.4682574032499324e-09,0.0018419155903174,4.413559754290085e-05,-0.000103634618964,21.492470907831542,31.061942775092096,21.21597805016848,34.77086593766796
0.6,31.22217518603336,131.01041329036246,9.732431291832125,-21.113959981036825,-0.0037344210447742,30.69875638751176,0.0010831470363046,4.848143000490556,329.4859594986058,21.545458122350663,9.994657779434675,69.99576794322273,0.0007017618829699,113.70076204822908,284.06336182257104,15.288,0.0,10.41193278069506,0.063321293879957,2.75330719762753e-09,0.0022018293700476,4.4065449511398494e-05,-0.0001258027828098,21.11396029620353,30.59242545525179,21.54487152086509,31.07922353383699
0.61,31.22217482775148,131.01041426062838,9.949423111394164,-20.739797832887177,-0.0036440485747241,35.81936722936805,0.001104295235788,4.88061390798335,372.0984511843297,21.88114740469584,10.168825788069764,69.99712481893634,0.0007711097798528,113.70083635274496,292.9779197541946,15.288,0.0,10.450247277563532,0.0643080295224682,1.9077237381266326e-09,0.0025695926278599,4.3994216464495694e-05,-0.0001490994957939,20.73979813891674,30.12653728287616,21.880574998884644,36.15034525492937
0.62,31.222174463657485,131.01041524659036,10.169485565236222,-20.436699740587606,-0.0035658925896508,44.32287188280562,0.0011226517771588,4.908494085818625,442.86563930529206,22.15438222523368,10.320080949797548,69.9986945440089,0.0008403622032022,113.7009105636502,300.33422011597213,15.288,0.0,10.488431809200678,0.0651112200308326,9.290264718137723e-10,0.0029451562657284,4.392193022695703e-05,-0.0001730217160521,20.43670003837806,29.752195052560413,22.153822096135883,44.5938368767531
0.63,31.2221740935644,131.01041624875637,10.392758050547016,-20.12258701480936,-0.0034861621973831,25.50329148490403,0.0011417806921586,4.938039261600539,286.11251274707894,22.44646656191848,10.478203948984005,70.00048149578427,0.000909519828588,113.70098468190074,308.299052730855,15.288,0.0,10.526417733292671,0.065969815348806,-1.8509757723607159e-10,0.0033288459611931,4.384855712825985e-05,-0.0001981367347755,20.122587304272244,29.362265647690336,22.445918956841396,25.976953432162706
0.64,31.22217371803581,131.0104172655933,10.618797676958808,-19.78704022263096,-0.0034032058939015,25.048872066848745,0.0011622478559446,4.970294086688196,282.30782441796754,22.770517907986697,10.647886301118213,70.0024900757274,0.0009785834180429,113.70105870747912,317.2580199777661,15.288,0.0,10.564241431924987,0.0669223678606587,-1.4369553308341387e-09,0.003719615249537,4.377430438079438e-05,-0.0002245871057143,19.787040503564054,28.942546832117,22.769983333655265,25.537224134199533
0.65,31.222173337045945,131.01041829717084,10.847619185665431,-19.50304249470665,-0.0033291038445573,43.6171745778129,0.0011805445703132,4.998997040315105,436.7781447787475,23.04594124308486,10.799830668405974,70.00472453612146,0.001047553879362,113.7011326413582,324.9721547862288,15.288,0.0,10.601843359906027,0.0677320096616571,-2.8287430098297884e-09,0.0041176364955504,4.369916496411111e-05,-0.0002516209526502,19.50304276778047,28.59018891230809,23.0454183086761,43.902709380562975
0.66,31.22217295009437,131.01041934484925,11.079605794436816,-19.21537789492255,-0.0032546578921838,37.22095454221796,0.0011992777595008,5.028807096590615,383.51251517160017,23.33264361227939,10.955866759687805,70.00718912052096,0.0011164399122604,113.70120649628454,333.10064213605926,15.288,0.0,10.639281247409876,0.068574807252977,-4.3626242735571874e-09,0.0045238928575575,4.362299342500027e-05,-0.0002798793979169,19.215378160143715,28.231998586193143,23.332132371813465,37.55913150336204
0.67,31.222172557354124,131.0104204081574,11.314617781924795,-18.909907223063183,-0.0031776039101208,25.878733505624908,0.0012192148479908,5.061141146543447,289.1562440103425,23.648472108441062,11.122412525890049,70.00988850955862,0.001185227009576,113.70128025092347,342.1715896987081,15.288,0.0,10.676591366400276,0.0695032137490601,-6.040975841029717e-09,0.0049380908121188,4.354586702129234e-05,-0.0003096328505422,18.90990748027915,27.848765560500755,23.64797297158632,26.368996929099772
0.68,31.222172158981817,131.010421486669,11.55252830627449,-18.61826237861411,-0.0031031602729605,32.10602544490051,0.0012387418483574,5.093086144332648,340.8999924858462,23.95616028647072,11.285959583930888,70.0128272323715,0.0012539239430022,113.70135391716444,351.1254204325669,15.288,0.0,10.713653544671809,0.0704077028907084,-7.866111787421261e-09,0.0053600160080067,4.346784903905152e-05,-0.0003404538476512,18.618262628053493,27.483134459053613,23.95567284319513,32.507482182978634
0.69,31.2221717550476,131.01042258019285,11.79327793740762,-18.356151609865524,-0.0030337773555285,39.34406371009342,0.0012569559485725,5.1229829094368045,401.0140726853634,24.234776470064336,11.43898709723452,70.01600971468301,0.0013225395810965,113.701427507105,359.33196151420924,15.288,0.0,10.750541935558228,0.0712267556839115,-9.840255219565666e-09,0.0057895710941376,4.338898257119367e-05,-0.0003720063207717,18.35615185192974,27.15654320343545,24.23429992543192,39.676193172911766
0.7,31.222171345411407,131.01042368910936,12.036970789464934,-18.098186627275048,-0.0029653249902312,33.120462047608214,0.0012751760155107,5.1532372728976,349.27032420985284,24.51487312422753,11.592543523896405,70.01944040768964,0.0013910598734897,113.70150100037112,367.67741026539255,15.288,0.0,10.787286364225404,0.0720501664798358,-1.1965545796352324e-08,0.0062270749294869,4.330924176920765e-05,-0.0004047328802922,18.098186862070417,26.83480194827959,24.5144073320675,33.51896272655094
0.71,31.222170930118,131.0104248132963,12.28356742465756,-17.830499493747993,-0.0028956662655014,27.35123293676464,0.0012941817162229,5.185289257079544,301.33126406340574,24.81463598473273,11.753149641528736,70.02312375966812,0.0014594938672049,113.70157440928426,376.7152326035389,15.288,0.0,10.823777441379084,0.0729313840981711,-1.424416504086068e-08,0.0066724654592638,4.322866574362271e-05,-0.0004389739057465,17.83049972123567,26.49914207551087,24.814181134539574,27.838411763526484
0.72,31.22217050916176,131.0104259527686,12.533067568849956,-17.5508704274656,-0.0028244735952578,33.31123553355378,0.0013141708311263,5.219559609124104,350.79220534145287,25.138829184105475,11.922479608703938,70.02706430562337,0.0015278509902206,113.70164774675408,386.6135333589178,15.288,0.0,10.860101969317254,0.0738844111571343,-1.6678316986948282e-08,0.0071258306842588,4.3147269191395525e-05,-0.0004749135953505,17.55087064758448,26.146179749018867,25.1383855168308,33.71768403986461
0.73,31.22217008253182,131.01042710755524,12.785474898609383,-17.317365315194994,-0.002760774813963,41.93325015514839,0.0013316818123607,5.249598069494112,422.320318528234,25.40654058064076,12.07155209763245,70.03126682908467,0.0015961247704904,113.7017210029852,394.8821480577277,15.288,0.0,10.896281439980331,0.0746714424173711,-1.9270292271543715e-08,0.0075873098171203,4.30650599274869e-05,-0.0005110423390664,17.317365528517296,25.855864143012823,25.40610691914724,42.2605696866342
0.74,31.22216965015912,131.0104282778437,13.040838896935764,-17.075096331418244,-0.0026960100756534,26.52967803761633,0.0013499220015582,5.281358390305488,294.48281347105944,25.69283791358992,12.227277208843793,70.0357358920741,0.0016643087443949,113.70179416821152,403.82196306077697,15.288,0.0,10.932252186499186,0.0755131060871034,-2.20222095609022e-08,0.0080570165709457,4.298205118163578e-05,-0.0005487811853159,17.075096537917958,25.552941574300924,25.692414425317693,27.050259981166942
0.75,31.22216921238885,131.0104294626949,13.298887115931452,-16.82900867356713,-0.0026310037569564,30.84257844131137,0.0013686276405134,5.314379979805048,330.24688556441487,25.99157625952793,12.38740933779762,70.04047596366593,0.0017324207774149,113.70186726676684,413.2570350272436,15.288,0.0,10.967993212561428,0.0763913420616382,-2.493624472348741e-08,0.0085342551321052,4.2898386127486737e-05,-0.0005880311832941,16.829008873280685,25.24412970576457,25.991162982424356,31.29708103563876
0.76,31.222168769105288,131.010430662423,13.559705542996111,-16.60115744424889,-0.0025690749804988,33.13863218574829,0.0013863912690174,5.3460053174757975,349.27032420986166,26.269723767655936,12.54017516635433,70.04549156315838,0.0018004546753839,113.7019402892527,422.13868574029647,15.288,0.0,11.003564193915832,0.0772090672519456,-2.801442107664811e-08,0.0090193617094375,4.281404248072367e-05,-0.0006280909700184,16.601157637440398,24.96008262846084,26.269320218301807,33.56707788769933
0.77,31.222168320245054,131.01043187720012,13.823339723293914,-16.38065590302165,-0.0025085321675589,31.02914888535101,0.001403864828889,5.377465685263366,331.7687666960708,26.542587735322847,12.6910541709392,70.05078720888409,0.0018684127527647,113.7020132383072,430.9428399548938,15.288,0.0,11.038968964747417,0.0780112708901609,-3.1258761807527154e-08,0.0095125201783231,4.2729024246211366e-05,-0.0006692973366401,16.380656089837817,24.68580682364991,26.542193696011527,31.491669052565335
0.78,31.222167865864467,131.01043310687268,14.089742203207017,-16.152218052553003,-0.002447128197464,25.612322669500426,0.0014220535549336,5.410682058067062,286.8734378128899,26.83400206860972,12.848511590111004,70.05636742257603,0.0019362968814943,113.70208611572708,440.44626679606046,15.288,0.0,11.0741296909048,0.0788680032722495,-3.4671302042915073e-08,0.0100136124697226,4.2643383787618654e-05,-0.0007122711638463,16.15221823299108,24.400001078454927,26.83361767461146,26.177596430580305
0.79,31.222167406042928,131.01043435122435,14.358847637495824,-15.921279272769228,-0.0023856932964388,36.08425742179278,0.0014406319357813,5.445072756535337,373.6203323159534,27.13635247419909,13.00981373047484,70.06223677273876,0.0020041090135479,113.70215892335584,450.415943729952,15.288,0.0,11.109089422555243,0.0797568856206747,-3.825408644974126e-08,0.0105225162850591,4.2557173995034485e-05,-0.0007568834133648,15.9212794468846,24.11012165035285,27.135977730372502,36.49277261433544
0.8,31.22216694055664,131.0104356108635,14.630826655833888,-15.716387446932831,-0.002328347964081,36.54591402598745,0.0014575823967415,5.476725821297921,377.42502064505743,27.40176233816395,13.15800653761344,70.06839992760183,0.0020718589021149,113.70223167457064,459.2577130930656,15.288,0.0,11.14389500277078,0.080537203114879,-4.200908086970007e-08,0.0110398518383328,4.247033580298171e-05,-0.0008018410877896,15.71638761505511,23.856562357600872,27.401396602121103,36.95400329925141
0.81,31.22216646949943,131.01043688553443,14.905602941365308,-15.501087792063032,-0.0022697851270573,24.04727974991081,0.0014754461317639,5.510573270635434,273.9374926939919,27.69070622347784,13.314521815234295,70.07486160566476,0.0021395337451325,113.70230435007392,468.9818898306991,15.288,0.0,11.178528650756032,0.0813866976088089,-4.593834707249854e-08,0.0115653773242145,4.238294334821819e-05,-0.0008488460743968,15.50108795416808,23.587829920791865,27.690349686463914,24.670591466733292
0.82,31.22216599304953,131.01043817475227,15.183034538862428,-15.283801577475044,-0.0022112723269375,30.66581532642452,0.0014936531586303,5.545540545046328,328.72500443277005,27.98966381679269,13.474536213832156,70.08162635942752,0.00220715231233,113.70237697543602,479.1503408556232,15.288,0.0,11.212961218628983,0.0822656315567559,-5.004392055284785e-08,0.012098731667282,4.229508770797183e-05,-0.0008975549822857,15.28380173362702,23.31580303928304,27.989316470947905,31.16320349068955
0.83,31.22216551118398,131.01043947857914,15.463136241326344,-15.095559941120468,-0.0021571699340255,38.75939334174799,0.0015098437647929,5.576938490602934,395.68750322465047,28.24223036609134,13.618140393546804,70.0886989223692,0.0022747001871092,113.70244952914216,487.8235213782124,15.288,0.0,11.247159616863282,0.0830082231578544,-5.432774090966076e-08,0.0126400742439568,4.220678263418565e-05,-0.0009461510344771,15.095560091668345,23.08500811679208,28.24189151863056,39.15855995089624
0.84,31.222165023792765,131.0104407973139,15.74599119212462,-14.905243734893856,-0.0021030282233255,24.22526648938353,0.0015263124808011,5.609295962936304,275.4593748256452,28.503343678774687,13.764757589954137,70.09608372072256,0.002342196801413,113.7025220380104,496.8720594779612,15.288,0.0,11.281185341517885,0.0837759423766081,-5.8791579792025175e-08,0.0131896406146824,4.211803282767737e-05,-0.0009963887760083,14.90524387989328,22.850994955591418,28.503013335873927,24.866196733941678
0.85,31.22216453115994,131.0104421301838,16.031375442183272,-14.697613552175406,-0.0020468131951136,26.33964335677677,0.0015442869411115,5.6451149043338775,292.96093233939376,28.802592074327148,13.92476410193843,70.10378526338657,0.0024096366525768,113.70259449269508,507.34595413480815,15.288,0.0,11.315011131686624,0.0846557544534736,-6.343740323744233e-08,0.0137467546458806,4.202897512827952e-05,-0.0010493488892555,14.697613691556713,22.59170604906821,28.802270561662365,26.937782700700318
0.86,31.222164033108434,131.01044347767004,16.319424474616117,-14.508322803091032,-0.0019934029220904,32.78157552964956,0.0015609656126014,5.678785942631987,346.2265619465587,29.07267732297971,14.074471376866615,70.1118081908408,0.0024770242200512,113.70266689871292,516.8911496861153,15.288,0.0,11.348660307107917,0.0854498590034601,-6.826694048144145e-08,0.0143119687469796,4.193957015133777e-05,-0.0011027080505231,14.508322937095516,22.35854492809438,29.07236419998099,33.26981073623604
0.87,31.222163529656463,131.01044483972285,16.610121818371155,-14.328931549365455,-0.0019415923326396,30.57111465396535,0.0015769594940774,5.711509910514523,327.964078366998,29.32825755593977,14.2190593316718,70.1201570553192,0.0025443688906406,113.70273926824184,526.0044742413622,15.288,0.0,11.382131246030983,0.0862013382877075,-7.328198749240206e-08,0.0148852686516464,4.184986171942902e-05,-0.0011569296516853,14.328931678155918,22.13950488150341,29.327952571329405,31.100070725491953
0.88,31.222163020833875,131.0104462162608,16.903442145576715,-14.142463155645506,-0.001889119774878,26.517083350112376,0.0015936563833704,5.746120097739253,294.4828134710418,29.60295386549569,14.370325968954852,70.12883647010628,0.0026116575349761,113.7028115813059,535.8889200157229,15.288,0.0,11.415413074801064,0.087009011054106,-7.848433205645357e-08,0.0154665469611389,4.1759907243550655e-05,-0.0012133335092948,14.14246327924491,21.9099369898398,29.602657123255412,27.132519383835156
0.89,31.222162506715588,131.01044760708,17.199324978509242,-13.949336997752944,-0.001836101963864,29.00220179061384,0.00161105441586,5.782640465282636,315.028134248087,29.89692064416753,14.52829128841823,70.13785090433008,0.0026789128245764,113.70288386883466,546.5693287964011,15.288,0.0,11.44846111123038,0.0878733316644357,-8.38757303849121e-08,0.0160556895758366,4.1669765145652766e-05,-0.0012720226933163,13.949337116195707,21.67038821866443,29.89663222994553,29.573072921996204
0.9,31.22216198722252,131.0104490123952,17.49783009981949,-13.782837190809564,-0.0017867975017206,31.949206722938168,0.0016262731885108,5.815137008834625,339.37814235421445,30.14007092976056,14.668428456543404,70.1472051140634,0.0027461274268945,113.70295611918776,555.4800031226099,15.288,0.0,11.48133633252042,0.0885882998186994,-8.945787241969572e-08,0.016652981540363,4.157944095635104e-05,-0.0013300355765219,13.782837304386454,21.469647336937538,30.139790260265364,32.47410709013136
0.91,31.222161462419432,131.01045043203007,17.798905455127663,-13.609384622627354,-0.0017368646476285,24.480203699498244,0.0016421874335299,5.849537020624119,277.7421810230789,30.40244859874215,14.815256984303671,70.15690357534207,0.00281330162909,113.70302833131062,565.1769704066321,15.288,0.0,11.514029069129972,0.0893597890821588,-9.523243475820636e-08,0.0172582400223839,4.148900473974179e-05,-0.001390335131805,13.609384731366656,21.25852768610412,30.40217577268133,25.169375423743816
0.92,31.222160932499264,131.01045186545977,18.10239865857313,-13.429506803319423,-0.0016864292767791,28.99490853690665,0.0016587881707724,5.885859555145276,315.02813424806214,30.68402670206528,14.968724935122294,70.16695074466024,0.0028804441834719,113.7031005159746,575.677660156354,15.288,0.0,11.546523947200308,0.0901877207332325,-1.0120120190171869e-07,0.0178709677721779,4.139856652663951e-05,-0.0014529885571577,13.429506907261043,21.037684643224456,30.683761798373983,29.58628172849801
0.93,31.222160397369127,131.01045331293665,18.40838107556337,-13.273091055957368,-0.0016391542029591,34.34201347277906,0.0016733308715224,5.918325235642586,359.1625070654728,30.91751530690817,15.10536869620996,70.17735106507446,0.002947568789074,113.7031726913442,584.4550003762322,15.288,0.0,11.578837779310533,0.090874313543345,-1.0736558421965652e-07,0.0184915279583423,4.130812492743928e-05,-0.0015148386964827,13.273091155353573,20.851475302187065,30.9172578291681,34.84824910608019
0.94,31.22215985691808,131.0104547747623,18.71693880142384,-13.100280662115615,-0.0015901480374103,25.11345017446487,0.0016894721594287,5.954668033401733,283.0687504837787,31.192813902700305,15.256536497217729,70.18810898956757,0.0030146606894495,113.70324483503964,594.8920263059288,15.288,0.0,11.610970276089724,0.0916838042089598,-1.1372698131510626e-07,0.0191201215871722,4.121770276015864e-05,-0.0015802337800212,13.100280756936256,20.64073554257543,31.192564122830717,25.80975501448362
0.95,31.22215931142449,131.01045625017957,19.027852606628688,-12.93259581048929,-0.0015420567770953,32.30807436907378,0.0017052252941277,5.990693098738533,342.4218736174873,31.461160051881915,15.405203879495136,70.19922902052333,0.0030817332652123,113.70331696414648,605.1534798892372,15.288,0.0,11.642908612194551,0.0924728678483049,-1.202872055596639e-07,0.0197561153778661,4.112742709359072e-05,-0.0016467946776106,12.932595900858512,20.43744177719108,31.460917826169823,32.85878993737701
0.96,31.22215876059872,131.01045773997595,19.34134886727886,-12.777364488936756,-0.001495681473543,31.659109145244773,0.0017198443437256,6.024793473905208,337.09533515678345,31.704058209248863,15.544977227147111,70.21071559676813,0.0031487988044996,113.70338909493456,614.5153105672367,15.288,0.0,11.674677952303998,0.0931871409400133,-1.270473358174123e-07,0.0204003276318876,4.103724712285041e-05,-0.0017135709513153,12.777364575020815,20.25269747478352,31.70382326815242,32.227276199387326
0.97,31.222158204456736,131.01045924410786,19.65741453695565,-12.6194453334969,-0.0014492419243709,20.48191286049313,0.0017347803622724,6.060092125775101,245.02188719299323,31.957483071317743,15.68835722623932,70.22257334140383,0.0032158507002765,113.70346121630544,624.3598185186883,15.288,0.0,11.706275285634032,0.0939323628638398,-1.3400888413975405e-07,0.0210527226340355,4.0947220303185714e-05,-0.0017824515953869,12.619445415363796,20.063822049150264,31.957255424928626,21.35962251555907
0.98,31.22215764327547,131.01046076182206,19.97583174148168,-12.446882445887129,-0.0014014549034085,29.52818494563668,0.0017512708392808,6.0993328436383445,319.5937466429581,32.252455989073574,15.846048619435724,70.2348067426406,0.0032828973811609,113.70353333812272,635.9194543098994,15.288,0.0,11.73767931540555,0.0947997149082058,-1.411736831005055e-07,0.0217125192719008,4.0857491095155805e-05,-0.0018552252005618,12.44688252354036,19.852613081594328,32.252235849052155,30.151543416352002
0.99,31.22215707690734,131.01046229351982,20.29671586517508,-12.305140815881993,-0.0013573508615053,32.203481438675574,0.0017646735681464,6.132318039839061,341.6609485517054,32.4732894197255,15.977992022844695,70.24742041242833,0.0033499436926553,113.70360546570312,644.6377145036141,15.288,0.0,11.768914039955504,0.0954491567028693,-1.485428590455027e-07,0.0223802895457943,4.0768045339122925e-05,-0.001925316913313,12.305140889590508,19.68804263924804,32.47307620755078,32.78215283392673
1.0,31.222156505348647,131.01046383921104,20.620070128783404,-12.149221459914957,-0.0013119470703005,28.87247434058512,0.00177957821133,6.169158881717511,314.2672081822764,32.73458806789268,16.12386924854093,70.26041864036604,0.0034169946917273,113.70367760438243,655.0333562156844,15.288,0.0,11.799970120756814,0.0962175462480084,-1.5611772435886965e-07,0.0230559205503251,4.067895168155146e-05,-0.0019993374497153,12.149221529686116,19.50184038630009,32.7343819877288,29.52419853311041
1.01,31.2221559287711,131.01046539842875,20.945759424282308,-11.998194526717375,-0.0012673398899491,30.161903255405207,0.0017940129286229,6.205498133734129,324.9203161036979,32.98717220924447,16.266643072060983,70.2738059275746,0.003484055565005,113.703749759383,665.1601854550804,15.288,0.0,11.83084327396246,0.0969603291077925,-1.6389982177812885e-07,0.0237390205159809,4.0590308880452976e-05,-0.0020743930646518,11.998194592669131,19.323008520644944,32.98697313596009,30.793645745424225
1.02,31.222155347098408,131.0104669713803,21.27384415514452,-11.853371224246644,-0.0012236312740698,25.255737597305007,0.0018078078160761,6.240944342714088,284.59063161540416,33.22675918474918,16.40485016222785,70.28758662004083,0.0035511316829163,113.70382193647188,674.8361708955526,15.288,0.0,11.86154120140836,0.0976649169117507,-1.7189021576804689e-07,0.0244298171105747,4.050214820055089e-05,-0.0021501941816881,11.853371286501162,19.15364400993407,33.226566977198125,26.01541218472138
1.03,31.22215476039442,131.010468557892,21.60427470203444,-11.699892854672576,-0.0011793114739834,20.716607148434434,0.0018225825886689,6.279177395415908,247.30469339049705,33.49434980389432,16.552611256553373,70.30176498166556,0.0036182285930369,113.70389414140344,685.7277180000185,15.288,0.0,11.892058452491852,0.0984518252219352,-1.8009016965367692e-07,0.0251281044888053,4.041454949671519e-05,-0.002229394781466,11.699892913279534,18.97085017810957,33.49416455808119,21.647306618317995
1.04,31.222154168715928,131.0104701578094,21.937006728538343,-11.558577509493034,-0.001136470242061,32.64506447994377,0.0018360328867734,6.31497279000587,345.46563688072297,33.73167452522592,16.689849844832313,70.3163454449602,0.0036853519928252,113.70396638009822,695.4573863903537,15.288,0.0,11.922399515744548,0.0991497793902252,-1.8850091105862608e-07,0.0258338097601947,4.032757822830541e-05,-0.0023081720510573,11.558577564603432,18.80679934696971,33.73149600889776,33.25024991799637
1.05,31.222153571788784,131.01047177187803,22.27225767780967,-11.410785142828308,-0.0010932490532572,19.867612762192167,0.0018502321069295,6.353077958336321,240.45625879819983,33.991493290887085,16.83473775006708,70.33133231509856,0.0037525077649939,113.70403865914048,706.1894499545401,15.288,0.0,11.952581271385512,0.0999138601465949,-1.971230082791861e-07,0.0265477094406943,4.024121728341408e-05,-0.0023901498772103,11.410785194505277,18.632624663602904,33.99132156372738,20.858658629846712
1.06,31.22215296983779,131.01047339948653,22.609850907265656,-11.257990435340762,-0.0010498506964089,28.098838909634512,0.001865049018093,6.393244039193592,308.17968365593924,34.270734770103786,16.986170434842762,70.3467301309269,0.0038197019555098,113.70411098457708,717.8165811738548,15.288,0.0,11.982590983642588,0.1007350402683078,-2.0595809892276493e-07,0.02726915388029,4.015559489690157e-05,-0.002475191647564,11.257990483660466,18.450489848432557,34.27056985994204,28.816979732315506
1.07,31.22215236275056,131.01047504094043,22.949876117940185,-11.123362404522036,-0.0010083869962698,33.00053835505383,0.0018777518988361,6.429097488829588,348.5093681440308,34.49951021678755,17.120191457021335,70.3625435225592,0.0038869407885335,113.70418336311934,727.408428995174,15.288,0.0,12.0124460750593,0.1014078895365664,-2.1500702385237626e-07,0.0279986034582543,4.007073055189239e-05,-0.0025582846640067,11.123362449653936,18.29675183483889,34.49935181972858,33.62095819232709
1.08,31.222151750430275,131.0104766965032,23.292411523406148,-10.98709666238252,-0.0009669996034379,22.34249700726263,0.0018906326569163,6.465984222837247,261.00157857466235,34.73648965486347,17.256937607965273,70.37877688559652,0.0039542387343588,113.70425581307327,737.4117227849638,15.288,0.0,12.042148565049724,0.1021048617739218,-2.242706685137184e-07,0.028736277684245,3.998667251916252e-05,-0.0026436363754273,10.98709670441357,18.140457713922448,34.73633775892097,23.25932346531196
1.09,31.22215113313776,131.0104783654654,23.63725219148523,-10.835751252471482,-0.0009245884075475,20.573202784705884,0.0019053560985738,6.507897931683006,246.54375332474407,35.02497266663805,17.411165273476396,70.39543474122004,0.0040215867867986,113.70432831886524,749.6860092519437,15.288,0.0,12.071680979689706,0.1029532328977528,-2.337507419592091e-07,0.0294813460292771,3.990356548664808e-05,-0.0027346138384864,10.835751291446517,17.96020699276986,35.024827432630616,21.577984427193744
1.1,31.222150510944008,131.01048004763396,23.98434323615696,-10.695045272907576,-0.0008833823067263,40.862236903346464,0.0019187964824907,6.547437817953544,413.1890617385841,35.2843833078742,17.55530598058872,70.41252150902228,0.0040889993983265,113.70440089839217,760.8067891694176,15.288,0.0,12.101049223201011,0.1037161569138578,-2.434482896059617e-07,0.0302337121908203,3.9821484546873617e-05,-0.0028250778532901,10.695045308965351,17.79668825079191,35.28424454650595,41.38346711437984
1.11,31.222149883467523,131.01048174404656,24.33398920979871,-10.57318625985282,-0.0008439305346777,30.01078852582277,0.0019298383409649,6.581836780694865,324.1593910376397,35.48547146925433,17.67945764593966,70.43004170858273,0.0041564836023409,113.70447355959264,769.4774380378911,15.288,0.0,12.130281531224693,0.1043076540961231,-2.533632581738081e-07,0.0309946116249562,3.974039547768994e-05,-0.0029125849923799,10.573186293150076,17.66327928438144,35.48533890495594,30.72406234653288
1.12,31.22214925076811,131.0104834545407,24.68614539572953,-10.421356126420056,-0.0008023716560115,11.548891315078272,0.0019446839818366,6.6261993263476535,172.73281794065943,35.790045123211165,17.838749846088376,70.44799967445736,0.0042240466554472,113.70454631001245,782.7165773668581,15.288,0.0,12.159365224857552,0.1052033502240029,-2.634968414161642e-07,0.0317637254731438,3.966040392124177e-05,-0.0030103765192269,10.421356156967184,17.481782629335356,35.78991908696617,13.314781706876618
1.13,31.222148613402936,131.01048517760074,25.040370235717774,-10.288426736350717,-0.0007625735476921,35.283656139349645,0.0019570951626305,6.665316413180543,367.5328077900705,36.03543082093422,17.977712215721358,70.4664002262399,0.0042916960310458,113.7046191567172,793.4593828919013,15.288,0.0,12.188281043966091,0.1059250747166103,-2.7385148905083694e-07,0.0325394499161676,3.9581710961553816e-05,-0.0031049333804411,10.288426764307143,17.330547053166896,36.03531103616146,35.90769885801513
1.14,31.222147970747624,131.0104869149253,25.39716338651576,-10.168877808702792,-0.0007239622848049,19.68918478541682,0.0019676851212196,6.700611307187068,239.69531773195544,36.23727371769277,18.101780070953527,70.48524754508114,0.0043594394256309,113.70469210868184,802.3454818363649,15.288,0.0,12.217067584832847,0.1065188147913009,-2.8442607544203094e-07,0.0333237746805398,3.950423853228552e-05,-0.0031974751815558,10.168877834202467,17.20103674429797,36.237159997963005,20.798129561960064
1.15,31.222147323261524,131.01048866526503,25.75616218298908,-10.019898907095552,-0.0006835607070953,19.39950680063156,0.0019821851496008,6.74639692360337,237.41251153546767,36.54708122113579,18.26231897208364,70.50454577137884,0.0044272847698913,113.70476517358787,816.0951534360701,15.288,0.0,12.245689907682468,0.1074299236219141,-2.9522287284616824e-07,0.0341150555366864,3.942819119380837e-05,-0.0033012717910071,10.01989893017377,17.023616190905788,36.54697384767101,20.539102694314888
1.16,31.22214667107346,131.01049042826943,26.117265734396167,-9.906035305990132,-0.000645806214138,50.21088795258599,0.0019918772190263,6.780816652176865,490.0437743845894,36.734191348803925,18.38109822864937,70.52429950262676,0.0044952402314061,113.70483835983164,824.4442724939393,15.288,0.0,12.274160343903803,0.1079803727484703,-3.06242777736032e-07,0.0349131283786115,3.935365430079008e-05,-0.0033956794368016,9.906035326831065,16.90350008466492,36.73408990580103,50.66668281450009
1.17,31.22214601336762,131.01049220615806,26.481129416310264,-9.777570320877484,-0.0006072926683822,9.162658935813974,0.0020034944832125,6.820839775605112,153.70937929486794,36.9773288125937,18.518755286060514,70.5445127505698,0.0045633141958773,113.70491167737698,835.3649090590144,15.288,0.0,12.302516728056473,0.1086955231060991,-3.174838527049325e-07,0.0357205475457401,3.928053970982418e-05,-0.0034970826635842,9.777570339553774,16.75955140489276,36.97723341928442,11.42270449729479
1.18,31.22214535122305,131.01049399599563,26.846894095023654,-9.629698416505097,-0.0005679307919951,24.567052290738022,0.0020178256823918,6.868636171433586,280.02501822196746,37.29844650244826,18.68252669807688,70.56518984824993,0.0046315153234682,113.70498513378476,849.9069599926092,15.288,0.0,12.330697775564715,0.1096399069094662,-3.2895052234787773e-07,0.0365336102869099,3.920917690845856e-05,-0.0036076162280981,9.629698433094529,16.58338455831727,37.29835729208806,25.509179233817044
1.19,31.222144684155168,131.01049579910048,27.214949950071045,-9.528985068731057,-0.0005315664139917,42.67470911769298,0.002025362364442,6.899628255842203,428.4078130529292,37.44214317227071,18.78625985231682,70.58633526832453,0.0046998525240962,113.70505873909345,856.438028024207,15.288,0.0,12.358728715519208,0.1100627647721709,-3.406412294850748e-07,0.037354295823762,3.9139519518471326e-05,-0.00370273724872,9.528985083420606,16.485477134666343,37.442059674013656,43.22887544744389
1.2,31.222144011751663,131.01049761659462,27.585632484136376,-9.39297968757128,-0.0004934460995817,4.657334841648983,0.0020378850946497,6.944382194070548,117.1843741360236,37.72564204437965,18.93699677260527,70.6079527584774,0.004768334922768,113.70513250346224,869.4254691304163,15.288,0.0,12.386612445683896,0.1108965856355434,-3.525552914716173e-07,0.0381836698768332,3.907160196829556e-05,-0.0038134713088855,9.392979700416197,16.328937303819416,37.72556453404758,8.361531919303859
1.21,31.22214333508913,131.01049944554927,27.95808130825232,-9.26037086516898,-0.0004558525219377,34.29622245605904,0.0020498829517939,6.988608915668346,359.92343213200894,38.00079967877196,19.084657052492734,70.6300468021753,0.0048369719774081,113.70520643528404,882.1227290120618,15.288,0.0,12.414324463336738,0.1117058960776042,-3.646972133087664e-07,0.039018105318537,3.900571511901491e-05,-0.0039250893835821,9.260370876291056,16.17788740441759,38.00072807362526,35.00102189270576
1.22,31.22214265335194,131.01050128818366,28.332955230674504,-9.159566065584103,-0.0004200128886741,24.89581502913922,0.0020570265952896,7.020706220176193,283.0687504825761,38.14917222793751,19.18957129747869,70.65262138465441,0.0049057733641199,113.70528054586198,888.9925853506488,15.288,0.0,12.441921733346632,0.1121425215775555,-3.770637557914144e-07,0.0398606378286276,3.8941784285958353e-05,-0.004025356615575,9.15956607513182,16.08054308311371,38.14910625246724,25.866811284472107
