Time,Latitude,Longitude,Altitude,Angle of Attack,Angle of Sideslip,X-Acceleration,Y-Acceleration,Z-Acceleration,Thrust,True Velocity,Ground Velocity,Pitch,Roll,Yaw,Dynamic Pressure,cp,parachute_deploy_gain,Wind Speed,Mach,omega_x,omega_y,omega_z,Cmq,Angle of Attack(total),Angle of Attack(gust),True Velocity(gust),Acceleration
0.0,31.222216000000007,131.010392,3.000000004412624,0.0,0.0,0.0,0.0,0.0,2.2828121974499247,0.0,0.0,71.99999999612658,-1.0292491154817412e-14,119.99999999354436,0.0,15.288,0.0,0.0,0.0,0.0,0.0,0.0,-0.0,0.0,90.0,0.0,0.0
0.01,31.22221599999862,131.01039200000284,3.0000009727369523,0.0,0.0,0.0,0.0,0.0,34.24218696174923,5.916279387578309e-11,5.734623670548936e-11,71.99999999613168,-5.86671995824671e-13,119.9999999935449,2.1432944861733093e-21,15.288,0.0,0.0,1.7386402909615473e-13,-3.4220131069073734e-19,7.115076756936125e-19,5.488773498207866e-19,-1.1574302492039043e-31,0.0,89.99999999962336,5.916279387578309e-11,0.0
0.02,31.22221599999738,131.01039200000537,3.0000018317022668,0.0,0.0,0.0,0.0,0.0,25.871876237766408,1.2265415415436536e-10,1.1895038237325684e-10,71.9999999961369,-1.1836364828043265e-12,119.99999999354544,9.211895886571454e-21,15.288,0.0,0.0,3.6044858651615574e-13,-6.979551485375437e-19,1.4162390878091906e-18,1.0909784360635388e-18,-4.776231873571785e-31,0.0,89.99999999921916,1.2265415415436536e-10,0.0
0.03,31.22221599921969,131.01039200159065,3.0001883335529382,18.80143492628821,-0.0001350810307892,10.931161642028636,-1.75114298675875e-05,3.026590975169265,180.34219359854663,0.0798232026864394,0.0478175828508887,71.99999999765336,-5.341802909786072e-12,119.99999999436793,0.0039016003969354,15.288,0.0,0.0,0.0002345795854893,3.788270153300133e-17,-7.771883375645477e-10,1.1422790048099072e-11,1.7057759223764537e-13,18.80143492675591,89.51882325913425,0.079801984207741,11.342422482672777
0.04,31.222215995131297,131.01039200995308,3.001692634342189,9.19442604083399,-4.49173898918486e-05,52.29595764159784,6.445392950801871e-06,3.026413589912948,548.6359724538078,0.3504174083926908,0.1601447499964056,72.00000000319055,-3.111420077280171e-11,119.99999999870242,0.0751892535633216,15.288,0.0,0.0,0.0010297854387864,2.0082066977226968e-15,-1.520937588847922e-08,2.5623342884322286e-11,1.4654248781413086e-11,9.19442604094277,87.798916624545,0.3504103527855857,52.383455068075136
0.05,31.222215983575865,131.01039203366796,3.0074067499493786,5.158590039700252,1.707592688632746e-06,76.26884281015512,5.843947534199429e-05,3.0258124765658088,761.6984298824644,0.9592973585397016,0.3772700771701255,72.0000000004862,-1.3608731808076822e-10,120.0000000109612,0.5634958029902841,15.288,0.0,0.0,0.0028191251099456,2.086299069701397e-14,-1.0551247853743037e-07,3.973493515691201e-11,2.783064866637575e-10,5.158590039700515,83.94063169874748,0.959297626767734,76.32884071402438
0.06,31.222215961742712,131.0103920785344,3.019291017943491,4.109521257467909,3.140103977270004e-05,57.06876634333886,0.0001151069734147,3.024834864051463,590.4875390737208,1.6257536642597354,0.6118982818704327,71.99999992547217,-3.5903296759057166e-10,120.00000003412836,1.6184272268450337,15.288,0.0,0.0,0.0047776672697797,1.0694899894620088e-13,-3.741090980393931e-07,5.521401959501359e-11,1.6723176417636091e-09,4.109521257587776,79.78719176344794,1.6257585967235286,57.148873286519276
0.07,31.222215929936205,131.01039214392435,3.0371334573469446,3.649087515174788,5.707077112564807e-05,86.89643797254193,0.0001728541558773,3.0234947746384675,855.2937749779139,2.3057260079826607,0.8506307413593818,71.99999965378231,-6.907496536790437e-10,120.00000006788592,3.255354923652711,15.288,0.0,0.0,0.0067759305364855,3.495199904512709e-13,-9.036515915819006e-07,7.594816279105379e-11,5.728932851326001e-09,3.6490875156204896,75.6601668283889,2.305734972638426,86.94902215090157
0.08,31.222215886364623,131.01039223353447,3.0621840248716574,3.4254446680114707,8.413075603463509e-05,17.831756866644035,0.0002285946601282,3.021841001032126,241.2171988638848,2.961944911520492,1.0819695676346892,71.99999900671328,-1.141745983122182e-09,120.00000011415082,5.371998197385977,15.288,0.0,0.0,0.0087043901031071,8.800530155962314e-13,-1.829098470920821e-06,1.0943386634701918e-10,1.4896287129277132e-08,3.4254446690434226,71.81713637501419,2.9619581267487467,18.085991154451033
0.09,31.22221583454733,131.01039234010327,3.0919888289029,3.389560809024919,0.0001118726864415,54.09031716446879,0.0002748660999733,3.020060228038602,563.0937377043176,3.504225426410036,1.2780161667917422,71.99999774508822,-1.634190085504106e-09,120.00000016921716,7.519080503822694,15.288,0.0,0.0,0.0102980157586766,1.865782139518716e-12,-3.1503298654458527e-06,1.6284478329871028e-10,3.03536411425607e-08,3.389560810868955,68.76526501308032,3.504242999330529,54.17456206384468
0.1,31.22221577423132,131.0103924641528,3.1267248829165366,3.4447939461814814,0.0001419149103147,51.372195336549765,0.0003131602029306,3.0182021883815127,538.7437595981919,3.950569597142709,1.4443465951180965,71.99999562056465,-2.1287748602259068e-09,120.00000023339832,9.55649523509932,15.288,0.0,0.0,0.0116097108366932,3.485956000178229e-12,-4.949356763187612e-06,2.4573266549165286e-10,5.3761299442583966e-08,3.444793949101151,66.34639928474206,3.9505918890846927,51.460781166288626
0.11,31.222215706113143,131.01039260424562,3.165907002780892,3.4691423802630394,0.0001702373452339,40.591037561894986,0.0003534470100582,3.016051659024047,442.8656393052949,4.421478635995476,1.6182620895289603,71.99999235067894,-2.5564479031457968e-09,120.00000030601664,11.970509656144712,15.288,0.0,0.0,0.0129935974697161,5.942887149865172e-12,-7.273722517324353e-06,3.67769289312894e-10,8.842679949465076e-08,3.4691423844348632,63.88798785789768,4.421505376815134,40.70293476011277
0.12,31.222215630588888,131.0103927595646,3.2092596514826863,3.4852659299808075,0.0001974376474727,44.30042894095728,0.000394069215595,3.013641598889868,475.58594813540446,4.896982486381051,1.793579340340896,71.99998761802138,-2.8337988279882726e-09,120.00000038673312,14.683611096353944,15.288,0.0,0.0,0.0143909889875706,9.464337642181618e-12,-1.017558359402848e-05,5.395790443954697e-10,1.3700793350599625e-07,3.4852659355662303,61.5068242157714,4.897013499814194,44.40281567867803
0.13,31.222215548046687,131.0103929293088,3.256512891171917,3.5606043721293616,0.0002276507019012,48.86766833507025,0.0004268800875964,3.0112558910133567,515.9156326236895,5.278566579338586,1.939796541405244,71.99998107389406,-2.8573058577484587e-09,120.00000047523812,17.061052093156064,15.288,0.0,0.0,0.0155123760833565,1.4300406003001044e-11,-1.3705268062305584e-05,7.724776992181392e-10,1.989112774124932e-07,3.560604379397528,59.67313531776262,5.27860233862722,48.960358155653
0.14,31.222215458587108,131.01039311327068,3.30759734332425,3.6000732663755977,0.0002555702913645,45.540290862247225,0.0004629468001456,3.0085404980032777,486.2390860568404,5.70011779273801,2.098362647205908,71.99997235012626,-2.508533681468686e-09,120.00000057154703,19.894788765881632,15.288,0.0,0.0,0.0167512184495524,2.071534240530911e-11,-1.7917736259613292e-05,1.0787346240473087e-09,2.8081526258393346e-07,3.6000732754351943,57.72385750323359,5.700157937625502,45.639559681930805
0.15,31.222215362317904,131.01039331122794,3.3624387479639086,3.651605404442164,0.0002842753491325,44.01308509501,0.0004965057129938,3.005703619811542,472.54218587214,6.091938849578711,2.2476968067377374,71.99996103728932,-1.6446954747148112e-09,120.00000067569304,22.723773683610247,15.288,0.0,0.0,0.0179026934683374,2.9002783512213203e-11,-2.287326399669318e-05,1.47199345427166e-09,3.831202693354572e-07,3.651605415492516,55.98561718911576,6.091983503446133,44.115597174664394
0.16,31.22221525912812,131.01039352340948,3.421115382839859,3.67540086436193,0.0003108411545024,34.83804992586084,0.0005330990866742,3.002517946501868,391.1218908297564,6.521183188362317,2.4085903880902046,71.99994669525161,-1.0153513453738144e-10,120.00000078796704,26.03872642002185,15.288,0.0,0.0,0.019164148528834,3.9478358970291335e-11,-2.864207894220033e-05,1.9677461746207517e-09,5.135466997084602e-07,3.6754008774883777,54.15946979122355,6.521232015176687,34.96719658394182
0.17,31.2222151493826,131.01039374906244,3.4833737923187487,3.7139589864597298,0.0003384978477213,43.96471427482637,0.0005668629535037,2.999235483723449,471.78125980632376,6.916861975403744,2.559060925010733,71.99992884100092,2.3206494032971838e-09,120.0000009081849,29.29426197817256,15.288,0.0,0.0,0.0203269651395979,5.248754693205839e-11,-3.5267097947693114e-05,2.580363454062817e-09,6.706952682968329e-07,3.713959001863866,52.549031795895466,6.916915146521327,44.06689817851128
0.18,31.22221503253009,131.01039398932429,3.549599475912623,3.7380363034619775,0.0003650282082698,36.67395661481795,0.0006021794701355,2.9956556354306425,407.10156721191447,7.332140201215607,2.71556808256092,71.99990696207136,5.837017536380516e-09,120.00000103716444,32.917216366714264,15.288,0.0,0.0,0.0215473823438242,6.839750892601699e-11,-4.285557247677198e-05,3.331016495775474e-09,8.639362741436378e-07,3.738036321259578,50.93050624815799,7.332197539712479,36.796100973258795
0.19,31.22221490871209,131.01039424390297,3.619694897703461,3.747799769666444,0.0003901520189829,41.42208371271829,0.0006393759928961,2.991742733214697,448.9531328318269,7.771071983754382,2.879366399937307,71.99988049019642,1.0709144790974043e-08,120.00000117502664,36.97605053227239,15.288,0.0,0.0,0.0228373144884866,8.761416506509219e-11,-5.146771415177372e-05,4.238406957677133e-09,1.0996552116864756e-06,3.747799789945131,49.29705748437159,7.771133268690212,41.529983675580546
0.2,31.22221477769685,131.01039451327668,3.693822889232993,3.7700519460961166,0.0004166800650969,37.99697972290605,0.0006740224661302,2.987733789228414,418.51563019916136,8.179966026035371,3.0338260708461373,71.99984881140107,1.723179577184912e-08,120.0000013223286,40.969302182777255,15.288,0.0,0.0,0.024038975990988,1.1057590044953188e-10,-6.120032215177249e-05,5.3263847350253015e-09,1.376394225587184e-06,3.7700519690893857,47.8457752505109,8.180031477986942,38.11426270718793
0.21,31.222214639876928,131.01039479663547,3.771710975053407,3.7926098867321474,0.0004432924407074,36.46301043881366,0.0007080907240332,2.983530483977461,404.8187610144644,8.582757448615462,3.1863584283669346,71.99981127559042,2.5745201416596626e-08,120.00000147900325,45.103059028532826,15.288,0.0,0.0,0.0252227064089584,1.3774582723633048e-10,-7.20875523136271e-05,6.61341033873124e-09,1.7010673350603349e-06,3.792609912601061,46.47936953648762,8.582827080829217,36.584868250565684
0.22,31.22221449507626,131.01039509434258,3.8534832466471007,3.782921298925821,0.0004660920499522,44.14577847155813,0.0007479176313898,2.978724032883548,472.5421858721365,9.056569122268344,3.360845972992861,71.99976720416048,3.661811567390422e-08,120.00000164562512,50.21995530074818,15.288,0.0,0.0,0.0266151520780326,1.6960703048385348e-10,-8.421592474264931e-05,8.124635526119773e-09,2.0969540034515424e-06,3.7829213275976334,44.9464484092354,9.056642335836344,44.24615863872642
0.23,31.22221434283448,131.01039540734791,3.9394622486964206,3.813874679301352,0.0004940771488601,36.66675459308932,0.000779455230549,2.974212905336642,406.3406421461021,9.430647902846331,3.5044030163419806,71.99971583979395,5.0272885112871524e-08,120.00000182313076,54.45382429059888,15.288,0.0,0.0,0.0277145095638672,2.0669790509245914e-10,-9.77285871729516e-05,9.894576563683824e-09,2.5339062472561444e-06,3.813874711257219,43.79476959007253,9.430725512303388,36.78718303164376
0.24,31.222214184153326,131.01039573358457,4.028950821673608,3.829256049377765,0.0005200487408944,37.802126339316736,0.0008136255607606,2.9692962675112065,416.2328240017114,9.837806876534357,3.658163422426286,71.9996564062533,6.718950080713476e-08,120.0000020109434,59.25679777340223,15.288,0.0,0.0,0.0289110855155543,2.4956955046738006e-10,-0.0001125744417092,1.1934277804843484e-08,3.0448209172448607e-06,3.829256084638984,42.59361542722471,9.83788856559955,37.91856374864305
0.25,31.22221401888584,131.01039607335582,4.122052964664892,3.851417709838087,0.0005469594058717,38.85163035360012,0.0008459008130282,2.964283881833675,425.36408079150686,10.22297576958679,3.8050691648373967,71.99958811418384,8.786880969336211e-08,120.00000220974424,63.98709205399403,15.288,0.0,0.0,0.0300430411774988,2.987811646313829e-10,-0.0001288461362054,1.4273117985167728e-08,3.621333387698252e-06,3.8514177486178034,41.50703126619192,10.223061685769354,38.96455005232871
0.26,31.222213847358866,131.0103964259872,4.218542267117083,3.8780574625554745,0.0005745172425185,42.3164797140743,0.0008766626387865,2.959162938653076,455.8015834241788,10.590779679138215,3.946551912391076,71.99951013710364,1.1286401474734325e-07,120.00000241975916,68.67355887153568,15.288,0.0,0.0,0.0311239685467471,3.5491769188178554e-10,-0.0001465721578858,1.6932703957058654e-08,4.267712643344226e-06,3.8780575050466,40.51245375834074,10.590869924095635,42.41981967733593
0.27,31.22221366913008,131.0103967923915,4.318728802515264,3.886188503202341,0.0005994342651313,38.70936050721014,0.0009111181036949,2.953518013741325,423.84219965987256,11.004860953238978,4.102320296019413,71.99942161756776,1.4276417094868828e-07,120.0000026420792,74.14786134434608,15.288,0.0,0.0,0.0323408987462391,4.1858405402174807e-10,-0.0001658847815307,1.995072923688136e-08,5.018832267232506e-06,3.886188549362022,39.43841359495857,11.00495511215316,38.8218734782956
0.28,31.22221348431185,131.01039717233687,4.422535913956003,3.90556090261878,0.0006261175699806,44.68030766832924,0.0009425767186621,2.947879457547137,476.3468732012221,11.38358114165448,4.247086834352694,71.999321619057,1.7823531611327881e-07,120.000002877279,79.33831935330025,15.288,0.0,0.0,0.033453914386159,4.904408325040897e-10,-0.0001868529238516,2.3357766479368094e-08,5.847713054408178e-06,3.9055609527288775,38.49894431917428,11.383679491972384,44.77744842575601
0.29,31.222213292835256,131.0103975659655,4.530013412817602,3.9242599519377537,0.0006528240665589,35.802573724660256,0.0009737210635801,2.942037024315898,397.97031042211177,11.759725774384751,4.391004157029451,71.99920917567837,2.1999186079018322e-07,120.00000312617878,84.66717879828003,15.288,0.0,0.0,0.0345593650464213,5.711677680739745e-10,-0.0002095620322847,2.7188189988316943e-08,6.77505090435382e-06,3.9242600061534456,37.60352534239979,11.759828319749328,35.92324968749781
0.3,31.222213095024976,131.0103979726075,4.64093665799555,3.936939025755682,0.0006785438093183,33.570228713727204,0.0010059102294455,2.93586442972183,378.1859457108711,12.149968255527943,4.539237002744259,71.99908328532703,2.6880857935396905e-07,120.00000338923812,90.3787563598417,15.288,0.0,0.0,0.0357062504417728,6.614698865958865e-10,-0.0002340353597042,3.1467140861055e-08,7.817263716758327e-06,3.9369390841381695,36.71173884615234,12.150074840940263,33.698361337808635
0.31,31.22221289105846,131.01039839189684,4.755183729044857,3.9598342215431432,0.0007060286581592,35.396825578217346,0.0010350810412898,2.9297385597941448,394.1656220930212,12.504537499407316,4.6763673222047455,71.99894291513503,3.255120771695107e-07,120.00000366712923,95.72967338626896,15.288,0.0,0.0,0.0367483036680869,7.620720834468404e-10,-0.0002603234137215,3.622454560346964e-08,8.948994505138873e-06,3.9598342843844345,35.934338386209795,12.504648402129598,35.5178635353378
0.32,31.222212681031937,131.01039882363492,4.872689374180126,3.985461429033668,0.0007340760463279,38.52097867048992,0.0010630242168685,2.9235095146848846,421.55939346242695,12.84534566718622,4.809181081594425,71.99878701464397,3.909756427278764e-07,120.0000039606604,101.01782231644016,15.288,0.0,0.0,0.0377499198995686,8.737098716736534e-10,-0.0002884807530145,4.1491545539590986e-08,1.0187112828155184e-05,3.98546149652875,35.21473736963424,12.845460975581933,38.631757748577954
0.33,31.22221246496604,131.01039926777932,4.9934410812554,4.010606629086,0.0007621365968788,38.18822026147908,0.0010905599149574,2.917102431053817,418.5156301991682,13.18247167592885,4.940798912752974,71.99861449732019,4.661299779655886e-07,120.000004270781,106.38859400029033,15.288,0.0,0.0,0.0387407190563976,9.971421990244511e-10,-0.0003185760672934,4.7302669734505256e-08,1.154498667827874e-05,4.010606701382261,34.52805863348922,13.182591392065536,38.299473293007864
0.34,31.222212242662028,131.01039972474007,5.117579377337869,4.019339771238816,0.0007871574969313,29.898022638335373,0.0011220389395318,2.910051232417875,345.46563688075645,13.569536737955724,5.0878303926024735,71.99842423285973,5.519675040347761e-07,120.0000045987411,112.72655675097128,15.288,0.0,0.0,0.0398782837956187,1.1331556132162459e-09,-0.0003507224668667,5.37022358302301e-08,1.308298593306914e-05,4.019339848191799,33.76700548046532,13.5696603843662,30.039310197084795
0.35,31.22221201433324,131.01040019407705,5.2449575244483055,4.033762873683395,0.000813261106463,32.76415525156106,0.0011515840876071,2.902959820469776,370.5765700527033,13.934300103976534,5.227895396154902,71.99821502296155,6.495674834876441e-07,120.000004945438,118.8669740701126,15.288,0.0,0.0,0.040950312688979,1.2825853697215452e-09,-0.0003849609961885,6.072234695821837e-08,1.4746020857580124e-05,4.033762955530055,33.07785186209504,13.934427850732408,32.89250745069162
0.36,31.22221177990305,131.01040067594835,5.375631006350063,4.051723629010647,0.0008401329464575,37.01692984301412,0.0011797030485285,2.8957873473716007,407.8625232777193,14.282998147928636,5.362923567977223,71.9979856440668,7.600645476620651e-07,120.00000531213882,124.88900300695136,15.288,0.0,0.0,0.0419751331662584,1.4462801652534363e-09,-0.0004213876232777,6.84067806399068e-08,1.654507199147348e-05,4.051723715967022,32.44322602189087,14.283130115703262,37.13002398000203
0.37,31.222211539445663,131.01040117020102,5.509550188388412,4.071639898917391,0.0008674922629137,35.12417761390579,0.0012067983861697,2.88849906286036,391.1218908297666,14.620581431527652,5.494447309446232,71.99773482653193,8.846681943540367e-07,120.00000570002652,130.86067091914967,15.288,0.0,0.0,0.0429672939311924,1.6251202388969355e-09,-0.0004600660652957,7.679415042686734e-08,1.849041957573993e-05,4.071639991174516,31.85023865502424,14.620717696893658,35.24274792557624
0.38,31.222211292895075,131.01040167697127,5.646763233102716,4.08264881385344,0.0008930259828975,36.695642158537446,0.0012360471443664,2.880711738179021,404.8187610144602,14.986392916850402,5.634654729559426,71.99746126698146,1.0246533537040716e-06,120.0000061105033,137.4891296153862,15.288,0.0,0.0,0.0440424171304414,1.8200057922063743e-09,-0.0005010869196581,8.592980519823866e-08,2.0642694281337543e-05,4.082648911356968,31.228847973200924,14.986533193043764,36.808540518115166
0.39,31.22221104018777,131.0104021963902,5.787316652586672,4.096641430700089,0.0009192713382325,31.335681548387896,0.0012640110027448,2.872831219844713,357.64062493382744,15.337978856701952,5.770390286512262,71.99716358743511,1.1813915463769678e-06,120.00000654506955,144.01394309468844,15.288,0.0,0.0,0.0450757388736732,2.031886352449547e-09,-0.00054455673306,9.586443829735616e-08,2.295945663566148e-05,4.096641533664766,30.65298398882095,15.338123255506089,31.4670954954126
0.4,31.222210781536543,131.01040272801887,5.931064331106764,4.109028969993624,0.0009451871856381,29.95928076777898,0.0012920492774571,2.8646905607053603,345.465636880754,15.692185018814769,5.906873567965718,71.99684037970908,1.3563276523471372e-06,120.00000700500496,150.74021066990193,15.288,0.0,0.0,0.0461167659598875,2.2617341782092324e-09,-0.0005905037520737,1.0663253249436129e-07,2.5471259834659164e-05,4.1090290785164525,30.09246700352443,15.692333488470696,30.095929256306363
0.41,31.222210517064383,131.01040327160345,6.077922766619747,4.122888296344507,0.0009714525997821,33.78425365340317,0.0013192264430821,2.85640971467756,378.94687077668647,16.03742529732769,6.0405139809190125,71.99649020751959,1.5509747261474075e-06,120.0000074917568,157.44375780268788,15.288,0.0,0.0,0.0471314487675864,2.5105374204052982e-09,-0.0006389770219162,1.1827345344180344e-07,2.816813594418537e-05,4.122888410595805,29.56469007160549,16.037577892745222,33.904791300285986
0.42,31.22221024682894,131.0104038270252,6.227854084363214,4.14444025865494,0.0009995884754813,38.04468161607466,0.0013435485656724,2.8482703202464488,416.2328240017114,16.348862540904037,6.163613566771559,71.99611159893284,1.766920641656551e-06,120.00000800692096,163.6157044470786,15.288,0.0,0.0,0.0480467946810589,2.779304965995011e-09,-0.0006900467934588,1.308321832549104e-07,3.100973487310896e-05,4.144440378988911,29.104646754454564,16.34901955589459,38.15115260238947
0.43,31.222209970843565,131.0104043942566,6.380851271439565,4.1618082623168045,0.0010268052928652,33.45815353250911,0.0013687230309017,2.8397750580998298,375.9031395134336,16.67263197205097,6.290467308135904,71.99570306121484,2.005818691215035e-06,120.00000855220898,170.15779512382937,15.288,0.0,0.0,0.0489983878509763,3.0690566816849196e-09,-0.0007437862329608,1.443552931671376e-07,3.4086145072160934e-05,4.161808388761201,28.640125213458976,16.672793262249197,33.57845085853367
0.44,31.22220968892116,131.01040497368373,6.537047157143216,4.164954087655709,0.0010505545842624,30.86574023822051,0.0013980747538988,2.830419582421933,353.0750125389216,17.050421620730056,6.433992917638883,71.99526304125902,2.269416145406482e-06,120.00000912964636,177.9537948947602,15.288,0.0,0.0,0.050108743779844,3.380847125286677e-09,-0.0008003278134917,1.589055036683518e-07,3.750784460406397e-05,4.164954219916419,28.113519280259386,17.050586641458253,30.99524475496968
0.45,31.22220940081287,131.01040556582012,6.696617751072218,4.165241899529329,0.0010735835484822,35.912216710755274,0.0014280646808282,2.820677244966047,397.2093853562869,17.438293672974723,6.580571293039616,71.99478987454265,2.5595995397253085e-06,120.00000974147088,186.13940823302417,15.288,0.0,0.0,0.0512487363629523,3.7158016249566814e-09,-0.000859850913876,1.745604864109677e-07,4.121350642664912e-05,4.1652420376426775,27.591357195572936,17.43846231108416,36.02281959036367
0.46,31.222209106468902,131.0104061707686,6.859600379555308,4.174585124444534,0.0010989881252456,41.916816790010685,0.0014546917035209,2.811153314474766,449.7140588976434,17.786187321601275,6.714685486378061,71.99428180697711,2.8783880229668832e-06,120.0000103898448,193.6374175079873,15.288,0.0,0.0,0.0522712438446989,4.0751091178509895e-09,-0.0009224765531151,1.9138630415982226e-07,4.50966024037632e-05,4.1745852688465686,27.13985967570823,17.786359950252297,42.01097612387663
0.47,31.22220880579083,131.01040678873238,7.026066274755745,4.1823089530633855,0.0011240727220223,28.37640408484148,0.0014814747534716,2.801325368441072,331.0078106302534,18.138167428286582,6.849989708801916,71.99373704967608,3.2278903746588286e-06,120.00001107707628,201.37401505997488,15.288,0.0,0.0,0.0533057667609836,4.459978104761035e-09,-0.0009883252835099,2.094509673354327e-07,4.927107017839778e-05,4.182309103852639,26.69716826759888,18.13834399721685,28.514342615617974
0.48,31.222208499300592,131.0104074186346,7.195654207463586,4.189479568102716,0.0011490100608361,27.95074823096412,0.0015080719422187,2.7912412472910484,327.2031223011574,18.48995085190441,6.98515976370584,71.99315377257649,3.6103201777021456e-06,120.00001180491516,209.25751230436188,15.288,0.0,0.0,0.0543397174489847,4.8716620260348906e-09,-0.0010573190976925,2.2877013380347535e-07,5.373205427420879e-05,4.189479725385959,26.268461765425428,18.4901313379827,28.089773168283216
0.49,31.222208187201936,131.01040806005494,7.368224738812109,4.202723284133339,0.001175611380853,35.08821363242469,0.0015321405723077,2.781292092003844,389.60000969812296,18.812014261754847,7.111044804193205,71.99253015042137,4.027946338669921e-06,120.0000125755114,216.60722913930897,15.288,0.0,0.0,0.0552863302793499,5.311396446020465e-09,-0.0011294854492155,2.4938633613154685e-07,5.8398320167141767e-05,4.202723448262914,25.88860807032205,18.81219892635871,35.1982716047702
0.5,31.22220786953184,131.01040871291724,7.5437546994244835,4.220815778795054,0.0012036252596423,36.05491615971072,0.0015540388599792,2.7714444106710974,397.97031042210494,19.10875420627192,7.229005658018125,71.99186435180009,4.483102820610566e-06,120.00001339126192,223.4908652241728,15.288,0.0,0.0,0.0561585257949344,5.7804122391526605e-09,-0.0012048912160576,2.713531252030471e-07,6.327866493526626e-05,4.220815950099865,25.54902500917784,19.108943271285572,36.161276053538906
0.51,31.222207546379583,131.0104093770373,7.722184419225251,4.232567510615346,0.0012298790840397,27.54004661432325,0.0015777580800203,2.761017323676155,323.3984349720841,19.430597746636646,7.354673636736509,71.99115452520388,4.978202222778502e-06,120.00001425458936,231.07869697977367,15.288,0.0,0.0,0.0571045034845869,6.2799518101633574e-09,-0.0012835871653678,2.947201005874635e-07,6.854585242460463e-05,4.232567688976395,25.189423168613605,19.430790935591396,27.678103017910345
0.52,31.222207217939268,131.0104100524215,7.9035364324583215,13.09081886941183,9.43783508784578,33.38072049651895,-0.6596112211347509,2.11889000185188,372.0984511843415,21.656310148095915,7.479196916985642,71.9903757565176,9.1249487047586e-05,120.000105318662,287.0443151762436,15.288,0.0,5.028582153840428,0.0636457706776244,6.853116874639087e-09,-0.001506370890632,0.0001586751524349,8.965581633457623e-05,16.089876854907338,34.22642294604356,23.13210680577972,33.45440602775238
0.53,31.22220688458101,131.01041073928482,8.087949905344198,12.979547212554817,9.314146594210222,35.04684476955002,-0.6757631696858407,2.092066056272332,386.5562464348624,21.984598602655183,7.600998592043475,71.98943635834958,0.0005482466649711,120.0005862151658,295.8076601731863,15.288,0.0,5.047931781718755,0.0646107126477982,7.653237256305003e-09,-0.0018065781088243,0.0003833122974683,0.0001091514943316,15.928912677876404,33.80109991120284,23.44122588159052,35.11573329073802
0.54,31.22220654623449,131.01041143782643,8.27550128615885,12.871962933785708,9.19436215061314,30.792593966691065,-0.6921044392183853,2.064825634269138,349.2703242098436,22.311120636106928,7.722016351731485,71.98832262122404,0.0014054319740561,120.0014879290169,304.65427921983814,15.288,0.0,5.0672407159300965,0.0655704695942863,8.699013422113931e-09,-0.0021159071165666,0.0006135155588019,0.0001297372130217,15.773213834989413,33.3887962056677,23.74917711906981,30.869505286807232
0.55,31.222206203212163,131.01041214742636,8.465985492533758,12.771131528119875,9.080513433861393,32.63292228979807,-0.7084512874728869,2.0374340173191494,365.2500005919907,22.630280407234466,7.840468187531326,71.98702936720296,0.002672351872084,120.002820504398,313.4270252357801,15.288,0.0,5.086485004072484,0.0665085956995787,9.996443862104015e-09,-0.0024341146272825,0.0008490628562057,0.0001513803825901,15.626424510461405,32.996519191215086,24.050680513223057,32.704138236217915
0.56,31.22220585553097,131.01041286807333,8.659403038743628,12.679118944079928,8.97392985226504,30.46602221512232,-0.7246559754899105,2.0101088092235084,346.2265619465787,22.937766530606687,7.954976588634498,71.98555144744556,0.0043583718815252,120.00459379710036,321.9962103797188,15.288,0.0,5.105663265449548,0.0674124200709597,1.1551398186005164e-08,-0.0027613741798725,0.0010900326856312,0.000174063198218,15.490980552320607,32.62891538416181,24.3416318984794,30.540860716752203
0.57,31.22220550328357,131.0104135995994,8.855701479106763,12.584555780242958,8.86675033756467,30.128140071521138,-0.7413448815108237,1.9819325048062435,343.1828296833023,23.252784571933727,8.071712840616387,71.98388367400689,0.0064728242803484,120.00681762953566,330.8950378878413,15.288,0.0,5.124766145726979,0.0683383864127617,1.3369737914253873e-08,-0.0030977224923335,0.0013364052806561,0.0001979428697974,15.353173982738276,32.25956787531829,24.640017853452587,30.202358730008942
0.58,31.22220514646232,131.01041434204336,9.05489817488072,12.480275948063548,8.75409720195236,39.64254922709673,-0.7589790512007544,1.9522194736226008,426.1250058573153,23.588686317873567,8.194953312641635,71.98202077925946,0.0090250946076402,120.00950188200744,340.51756710832046,15.288,0.0,5.143792820617388,0.0693257350765834,1.5457355436121695e-08,-0.0034433447372085,0.0015882663212957,0.0002232021319901,15.204399887485527,31.871894506554245,24.9584328866791,39.69784527271147
0.59,31.2222047846567,131.01041509627592,9.257291644393128,12.39294064747342,8.654085543942713,32.15550549625545,-0.775960562531491,1.9233240423599,360.68438819711065,23.897234371633687,8.309217870206982,71.97995717720782,0.0120251367601473,120.01265703482515,349.4772076860502,15.288,0.0,5.162771844388471,0.0702326996688135,1.782045237641057e-08,-0.0037990875926117,0.0018461665460243,0.0002494781918832,15.076630935605332,31.527335027290626,25.25145207630518,32.222318722994444
0.6,31.22220441810696,131.01041586182504,9.46272692286758,12.28698155145308,8.54255878383734,28.59004768411564,-0.7944928528931146,1.8919840571821505,329.4859594986058,24.243880804486032,8.435488693622712,71.97768713614411,0.0154830068840927,120.01629367972372,359.68248021845955,15.288,0.0,5.181684485502168,0.0712516402117591,2.0465382877626984e-08,-0.0041647696599368,0.0021099285551036,0.0002774534937688,14.927205713802422,31.14382891461813,25.58077682494148,28.663594491025297
0.61,31.22220404677768,131.0104166387875,9.671241195656227,12.18019104341584,8.431589692516733,33.48769944162966,-0.8135196996382486,1.8597524080461567,372.0984511843297,24.59654264055428,8.56347878978454,71.97520488838373,0.0194089386851329,120.02042259000048,370.2153655319852,15.288,0.0,5.200533259909744,0.0722882670207397,2.3398584084072688e-08,-0.0045406574692745,0.0023796903142768,0.0003068889013948,14.777450847416398,30.762354240014943,25.916198563107997,33.54916552187038
0.62,31.222203670805552,131.0104174269051,9.882751869862895,12.107045466098526,8.344238329532462,41.61762380873424,-0.8306764269402981,1.8301582350227423,442.86563930529206,24.8869036474372,8.671339077763614,71.97250439059847,0.023813380363368,120.02505477433095,379.0000092377052,15.288,0.0,5.219317466365685,0.0731418010733181,2.6626661524646204e-08,-0.004926817861518,0.0026554492245627,0.0003369123478846,14.668538275065586,30.461960192676624,26.19298522438923,41.66612669755636
0.63,31.222203290011567,131.0104182265688,10.097395268114012,12.02580596507208,8.252384128616464,23.64229102958012,-0.8487134458016883,1.7991033897575683,286.11251274707894,25.195343123470938,8.784792846770944,71.96957973184874,0.0287063542027203,120.03020079630788,388.44460217467457,15.288,0.0,5.238023354616109,0.0740484739767176,3.015591096133463e-08,-0.0053236720482257,0.002937447348548,0.0003685548871782,14.550514827216787,30.146640897826813,26.487147342785317,23.72583007288652
0.64,31.2222029050258,131.0104190365016,10.314744734620968,11.930802484998765,8.152303556261549,23.213757380091305,-0.8681070775671198,1.7658607361043,282.30782441796754,25.534695912381967,8.907955695921425,71.96642502735558,0.034097908201684,120.03587124073752,398.9705623735284,15.288,0.0,5.2566588831671694,0.0750460072245406,3.399284358366117e-08,-0.0057303696093017,0.0032250475131837,0.0004020451841378,14.41663778468004,29.803363004420373,26.81094032985181,23.297004222414103
0.65,31.222202515841968,131.01041985673731,10.534816031832138,11.860421846849391,8.069456342094536,40.959699149191856,-0.8860583114294536,1.734632944288659,436.7781447787475,25.825677422258025,9.01549202377665,71.96303429926523,0.0399978308385816,120.04207643320784,408.1067132209653,15.288,0.0,5.275172398124361,0.0759013850368479,3.814367329250677e-08,-0.0061471734162013,0.0035183849424872,0.0004361938605527,14.312643287331095,29.519947965448985,27.089038407530456,41.00598743080055
0.66,31.22220212194098,131.01042068836563,10.757981119218847,11.785843291601038,7.984672546054803,34.85456535727414,-0.9046566823827082,1.7022832449743923,383.51251517160017,26.12728847792092,9.126237441834762,71.95940163827773,0.0464159309342458,120.0488267137232,417.6857593972173,15.288,0.0,5.293630668559387,0.0767880099741253,4.261449152332277e-08,-0.0065751256277517,0.0038181251327821,0.0004719994038624,14.204160223808945,29.230308993497214,27.377462141833067,34.90783433849191
0.67,31.22220172353159,131.01042153097762,10.984106455290751,11.699324331106515,7.892875572910919,24.02439100729348,-0.924550909682735,1.6678177089746984,289.1562440103425,26.45698054119429,9.245770202295011,71.95552058777359,0.0533626895137787,120.05613314215744,428.28425944907127,15.288,0.0,5.312028146951748,0.0777571721646356,4.7412047601389945e-08,-0.0070140734265832,0.0041241126065106,0.0005098520972934,14.081986861785722,28.91680285066823,27.692872964460623,24.09995380838496
0.68,31.222201320804533,131.01042238420123,11.21307093961747,11.61788755214602,7.805240859090957,29.97980770709804,-0.9444268514253352,1.6332164201326849,340.8999924858462,26.77817360692788,9.36242048934274,71.9513847790759,0.0608484752223462,120.06400665557084,438.7366494852215,15.288,0.0,5.3303034335410615,0.0787013631696332,5.25430369954964e-08,-0.0074639295551922,0.004436238128291,0.0005491266992644,13.966346045472909,28.618244206247176,28.0004293692708,30.039111306882223
0.69,31.22220091385628,131.01042324785763,11.444818592051544,11.550309316269086,7.727462625512808,36.90086912134111,-0.9635198969191532,1.5996539788365187,401.0140726853634,27.07048411925293,9.469682411638583,71.94698782498513,0.0688834480367553,120.07245797781796,448.3574484859,15.288,0.0,5.348508575001318,0.0795606751720772,5.801402797033582e-08,-0.0079247169718054,0.0047544679570369,0.0005893783705305,13.867633163087271,28.354328385685083,28.28063457161665,36.94809068617907
0.7,31.222200502554905,131.01042412223694,11.679451473147097,11.482903691487667,7.650534923866603,30.96155666605488,-0.982926569824288,1.565461582057767,349.27032420985284,27.363848357292223,9.577110249561608,71.94232334244468,0.0774775853453992,120.0814976447467,458.1175279656487,15.288,0.0,5.366647269951656,0.0804230912145711,6.383139425367989e-08,-0.0083968658448836,0.0050790422897225,0.0006312465462448,13.769570888094048,28.0938619870986,28.562023681773997,31.016685925351414
0.71,31.222200086968503,131.0104250072177,11.91693288324724,11.408044727864617,7.569474555581089,25.456552121952605,-1.0033191896945963,1.5295962946549853,301.33126406340574,27.67597740308364,9.69036589752324,71.93738477194832,0.0866410579325634,120.09113639905432,468.6175931013551,15.288,0.0,5.3846611441379535,0.0813406648614764,7.000175156258686e-08,-0.0088804402376503,0.0054099532516482,0.0006751996127486,13.663103074531648,27.8196332785272,28.86153194192635,25.52219348251089
0.72,31.22219966711061,131.01042590279056,12.157263983039556,11.324290193557784,7.483417623180464,31.15674092326985,-1.0249117312927962,1.491721600798511,350.79220534145287,28.01149037030973,9.810912943008386,71.93216534991038,0.0963841994200224,120.10138516136986,480.03738818313457,15.288,0.0,5.402605121784123,0.0823269724190752,7.653181605625763e-08,-0.0093756504194588,0.0057472907526459,0.0007214767170984,13.546554633242565,27.52833585822924,29.18364358149588,31.209264367347537
0.73,31.22219924298966,131.01042680895733,12.40044977555412,11.26440207746889,7.413460251048351,39.40004236736399,-1.0446840743654984,1.456493621110999,422.320318528234,28.291593905257017,9.913619671557356,71.92665817812323,0.1067176434341492,120.11225516476244,489.67431058927406,15.288,0.0,5.420482652933902,0.083150436862701,8.342850487347305e-08,-0.0098827529458439,0.0060911744815474,0.0007680861083746,13.45865649902238,27.29380348664544,29.452850963817177,39.44079204369059
0.74,31.2221988145488,131.0104277258516,12.646539429942305,11.19764245995498,7.339726810572594,24.69211096827175,-1.0654206315944,1.4196143753305317,294.48281347105944,28.58942375455084,10.021819172961877,71.9208563359162,0.1176515778165026,120.1237571883138,500.0265096403715,15.288,0.0,5.438260407897278,0.084026007262864,9.069848087651164e-08,-0.0104019946903973,0.0064417155448092,0.000816932779342,13.363023988191095,27.0466500745964,29.73919464849959,24.755822954737702
0.75,31.22219838218081,131.01042865268363,12.895271045282358,11.126755822653134,7.26399830434698,28.819118976565544,-1.086915097216702,1.3813928172912249,330.24688556441487,28.89896544153656,10.133608357234367,71.91475293367705,0.1291961746343216,120.13590199015688,510.9006365674812,15.288,0.0,5.455932533978805,0.0849360069364383,9.83487315318192e-08,-0.0109328046908289,0.0067984849877094,0.0008678962356115,13.262905701580872,26.793027442395136,30.036937398439857,28.8726730513415
0.76,31.22219794577756,131.0104295896917,13.146729024609352,11.064470618966732,7.194391252879836,31.019603202824303,-1.107905234736856,1.3437911638273052,349.27032420986166,29.188152999978463,10.238755615026772,71.90834101164135,0.1413614480620337,120.14870017123216,521.1642216368483,15.288,0.0,5.47352556391536,0.0857861920334,1.063858133616717e-07,-0.0114756423134328,0.0071617349739435,0.0009200830906452,13.173309955083404,26.56142918426575,30.315278023821904,31.068456858392654
0.77,31.222197505287035,131.01043053699823,13.4009586708005,11.004646850882208,7.12694628448214,29.011834264203618,-1.12897316044569,1.3059063789269616,331.7687666960708,29.47189179564846,10.342013378882008,71.9016134852778,0.1541574493924287,120.16216237680555,531.333000530129,15.288,0.0,5.491041327135756,0.0866203702918266,1.1481639363824845e-07,-0.0120308234601024,0.0075316206605576,0.0009739489576224,13.086972413073328,26.33798000641099,30.5885052189008,29.06314675394163
0.78,31.22219706078688,131.01043149445883,13.657915401545097,10.938394020136124,7.056007459894674,23.84494685653264,-1.1510478474110604,1.2662764628006002,286.8734378128899,29.77327745223661,10.45075491192416,71.89456321546703,0.167594178333703,120.17629920124324,542.2422263488921,15.288,0.0,5.5084445042622,0.0875064217868061,1.2364727732567005e-07,-0.0125983588653725,0.0079080964543558,0.0010302977039729,12.993412051918863,26.10279397623137,30.87883307248406,23.906272353048653
0.79,31.22219661237993,131.01043246187763,13.91753737019274,10.868795144966883,6.98355192116331,33.85545226841919,-1.1738587869146035,1.2253165640951096,373.6203323159534,30.084911921228503,10.562624598942351,71.88718284421644,0.1816816953809874,120.1911213139656,553.6390391787626,15.288,0.0,5.525750636028963,0.0884226033756885,1.3288537483286772e-07,-0.0131782504529326,0.0082911116473823,0.0010889746895419,12.896268071657108,25.86273722295674,31.179171566729227,33.89794969364774
0.8,31.222196159838404,131.01043343973615,14.179990648648248,10.812944674602068,6.92030909837007,34.304103501704965,-1.195502545213827,1.186022711825095,377.42502064505743,30.360471602365152,10.662841266291032,71.87946494097561,0.1964302557842771,120.20663958557527,563.8132763497408,15.288,0.0,5.542985193214199,0.0892327654170424,1.425373901449733e-07,-0.0137712703657511,0.0086811132951404,0.001148372691447,12.815615129276612,25.65583939783597,31.44487012446386,34.345412987242774
0.81,31.22219570327984,131.01043442780707,14.445202736765644,10.749122689640956,6.852615928817668,22.37330994934782,-1.2183833432283708,1.1446065192509922,273.9374926939919,30.658507677243573,10.770081463959052,71.87140188612291,0.2118499663076207,120.2228647465628,574.9224043578714,15.288,0.0,5.560139289638877,0.0901089958509304,1.5261042407669096e-07,-0.0143773076010755,0.0090779748028916,0.0012106478999871,12.725927836788172,25.43365094167357,31.73234969298061,22.43567650293956
0.82,31.22219524291397,131.01043542567473,14.713037756636751,10.6823450458651,6.783629204311554,28.70317908167789,-1.241987607626995,1.1018668483485383,328.72500443277005,30.96590988926311,10.88017682069484,71.86298605267831,0.2279508223655639,120.23980741245684,586.4942124619827,15.288,0.0,5.577205156652907,0.0910127624948122,1.6311164732267188e-07,-0.0149961143512692,0.0094814833514302,0.0012753832102546,12.6330987727827,25.20732849883078,32.02899213131113,28.751158814278423
0.83,31.222194778730543,131.01043643337331,14.983511181499264,10.63170577810405,6.725173213107097,36.44204111703054,-1.2639888021989727,1.0614899347977895,395.68750322465047,31.228186993923146,10.975754156943411,71.85420978262816,0.2447427804575227,120.2574781594314,596.4558482847091,15.288,0.0,5.594154039522619,0.0917839084815902,1.740479665084291e-07,-0.0156279867771987,0.00989177558712,0.0013403451027473,12.559472855137264,25.019183400132928,32.28215072080182,36.47940226140096
0.84,31.22219431062188,131.01043745113395,15.2567043963914,10.578257187249722,6.6654504278876185,22.567967357349023,-1.28662488660241,1.0199323562824367,275.4593748256452,31.49846544584658,11.07374720140572,71.84506536766325,0.26223544067336,120.27588720315276,606.8092002245969,15.288,0.0,5.61102125823354,0.0925785791413362,1.854260636301495e-07,-0.0162733181510324,0.0103090474118567,0.0014077351107011,12.4828421846331,24.827082023996944,32.543111918184614,22.627611810630558
0.85,31.222193838912293,131.01043847830545,15.532402281235449,10.512444605147408,6.598585259018449,24.595902986799576,-1.3111602516730354,0.9751643209621934,292.96093233939376,31.805263466854136,11.183272612022051,71.83554503386178,0.2804382478031976,120.29504460355216,618.6711446197578,15.288,0.0,5.627793768013101,0.0934805940077567,1.97253196558536e-07,-0.0169315193441963,0.0107328702482395,0.0014789001773965,12.392041858723312,24.60990951617967,32.83947706673128,24.650122320071787
0.86,31.22219336342049,131.01043951526907,15.81073673958669,10.456483174779452,6.538271851382186,30.757348148283125,-1.3347872812239308,0.9316627757685632,346.2265619465587,32.0836606924704,11.283613144784828,71.82564087211225,0.2993609038788849,120.31496068961988,629.5323991051972,15.288,0.0,5.644483034876654,0.094299142697139,2.09536026781102e-07,-0.0176033163303559,0.0111636504827357,0.001550996191942,12.313040602199216,24.416723156744624,33.108462472744534,30.80039151907919
0.87,31.222192884178376,131.01044056196983,16.091692917074987,10.405272287621264,6.481320133569296,28.65479804241376,-1.3580986568613835,0.8884865302597882,327.964078366998,32.34783134333546,11.379290751144486,71.81534482380323,0.3190129073376429,120.33564559178409,639.9247074838681,15.288,0.0,5.6610881696350885,0.0950758849723659,2.222815391584541e-07,-0.0182888343479778,0.0116014113289664,0.0016246200234093,12.239852011595143,24.236162482545147,33.36374484822572,28.700719348611127
0.88,31.22219240122984,131.01044161832746,16.375247389803597,10.348080084612446,6.421156174664088,24.79159203446449,-1.382535077825475,0.8433183319911814,294.4828134710418,32.630172073477645,11.48065000790473,71.8046488247502,0.3394035547371378,120.35710923365647,651.1266031085015,15.288,0.0,5.6776051622786206,0.095906040167464,2.354967505848703e-07,-0.018988098720779,0.0120461129296183,0.0017014125168809,12.159948417992808,24.04456651482993,33.63669488853736,24.844428442888628
0.89,31.222191914668475,131.01044268416032,16.66134279185987,10.285102906304692,6.357921014238988,27.174043710618,-1.4081258083260193,0.7960949013316186,315.028134248087,32.93079602156621,11.58773905377926,71.79354468803203,0.3605420933469539,120.37936149519876,663.1613951617047,15.288,0.0,5.694018934528919,0.0967899413418122,2.491887428960212e-07,-0.019701122937666,0.0124977083647293,0.0017815173472746,12.073566994249548,23.84239894294503,33.92744758234069,27.222146075770326
0.9,31.222191424417936,131.01044375963275,16.95003782156284,10.237843962237802,6.304644362163553,29.99782689012989,-1.4318157498529902,0.7517495105656764,339.37814235421445,33.18227654632686,11.67902289739872,71.78202396946854,0.3824379635157459,120.40241246842216,673.3100462808916,15.288,0.0,5.710341247760591,0.0975294086478456,2.6336444715897896e-07,-0.0204283592115461,0.01295642344726,0.0018613346783265,12.005736798798436,23.67678730060736,34.17061047191098,30.04138548400128
0.91,31.22219093055879,131.01044484458788,17.24128315360049,10.184681974502512,6.248198454505137,22.873673114409662,-1.4566525443446103,0.7053592734515486,277.7421810230789,33.452031505907804,11.776034089603751,71.7700784027106,0.4050999782965771,120.42627159371892,684.2827374206812,15.288,0.0,5.726576931701248,0.0983225960292787,2.7803090362368105e-07,-0.0211697535033328,0.0134221672200806,0.0019445134656295,11.931276207820751,23.50023983624307,34.431552074960294,22.930858904202807
0.92,31.222190433314253,131.01044593857972,17.534932725858717,10.125867731417571,6.188759332095188,27.194850041978,-1.482659668783085,0.6568709073652091,315.02813424806214,33.740007726045334,11.878775213253409,71.75769960235371,0.4285368721540125,120.45094823773996,696.0952930136298,15.288,0.0,5.742718292360402,0.0991693476298756,2.931955104532169e-07,-0.0219248844930883,0.0138946234173724,0.0020311542237022,11.85048707320782,23.313312628090195,34.710246556245444,27.243157450781098
0.93,31.222189932589863,131.01044704180651,17.831056254739178,10.081199714594224,6.13819814713608,32.31114203136871,-1.5068189571710386,0.611193628081551,359.1625070654728,33.98155415454932,11.96657671962415,71.74487907358082,0.452757275216664,120.4764516670852,706.0776511750179,15.288,0.0,5.75877355966079,0.0998796397485047,3.088648386070104e-07,-0.0226942982912597,0.0143740729642263,0.0021174250835639,11.786354450376678,23.15922307043307,34.94389676132608,32.35203178151226
0.94,31.222189428268567,131.01044815450973,18.12973754735977,10.024266515610684,6.080679275190556,23.507257348701227,-1.5331720963047093,0.5617406304614774,283.0687504837787,34.26305145882243,12.067051661285747,71.73160836905006,0.4777694188819185,120.50279073828412,717.8035620484993,15.288,0.0,5.774742498415388,0.1007073647688938,3.2504548978090213e-07,-0.0234783772023721,0.0148606926851939,0.0022086643086154,11.708213516898777,22.980291401511145,35.21641033790446,23.563898600844183
0.95,31.222188920668888,131.0104492760505,18.430766095692125,9.969383322974393,6.02476926448695,30.38816312747127,-1.5595302794642452,0.512072062950683,342.4218736174873,34.53764896474305,12.165240034378346,71.71787873342825,0.5035817757284105,120.52997457144303,729.3340978289997,15.288,0.0,5.790618679956292,0.1015148178198091,3.417451836349272e-07,-0.0242765260972849,0.0153540615118105,0.0023019842846468,11.63267495081726,22.807714677824848,35.48227447917185,30.43246310688678
0.96,31.222188409473304,131.01045040707467,18.734360902784093,9.921597455857327,5.973440486749032,29.77842309206571,-1.585038705833328,0.4635931529359738,337.09533515678345,34.787622817638635,12.25545139329606,71.70368139118446,0.5302025273914341,120.5580119913854,739.9081617882711,15.288,0.0,5.806414458127309,0.1022499039764003,3.5896996268368133e-07,-0.0250898375957346,0.0158547874199508,0.0023962547255523,11.565572281084153,22.6524425434046,35.724229781961554,29.82418059495535
0.97,31.222187894705133,131.01045154753828,19.04051013127168,9.87069623577998,5.920618585515918,19.114429910084954,-1.6113541347729163,0.413584448969922,245.02188719299323,35.04750347129476,12.348739567376292,71.68900735436084,0.5576399019645322,120.586911882276,750.9823285426017,15.288,0.0,5.822128254371078,0.1030141169127951,3.767269738398177e-07,-0.0259184286951965,0.0163628805944427,0.00249381002223,11.495070572941772,22.492226626805632,35.97585784594376,19.18668666111035
0.98,31.22218737668089,131.01045269680623,19.349004566804417,9.80837486717704,5.86143061069294,27.76377150707144,-1.6399606184837907,0.3595844217343571,319.5937466429581,35.34701384491065,12.454654195229612,71.67384760638559,0.5859018337639104,120.61668282966978,763.8500915534613,15.288,0.0,5.837749454207947,0.1038948207758462,3.950242326753576e-07,-0.0267615331482326,0.0168778187102375,0.0025968595524412,11.4115768318209,22.309037433260585,36.26612009413462,27.814488671974605
0.99,31.222186855240327,131.0104538552047,19.65995613741544,9.766088697532409,5.814364543782368,30.32909689641857,-1.665372402679222,0.3106444433233684,341.6609485517054,35.575258758169504,12.537650795411428,71.65819289714999,0.614996321577234,120.64733349900897,773.7235929315344,15.288,0.0,5.8532898321357445,0.1045660636986207,4.13868165705576e-07,-0.0276199634499097,0.0174000327592418,0.0026973850031659,11.351434419073382,22.171062243251576,36.48701023041783,30.37637377571786
1.0,31.22218633038159,131.0104550227374,19.9733685263114,9.712701138328647,5.761119498805626,27.158648078401885,-1.6930382810469156,0.2577625224017762,314.2672081822764,35.842100566328995,12.63294310330956,71.64203425694424,0.644930509590184,120.67887166703863,785.350527161851,15.288,0.0,5.868744681129858,0.1053507621902945,4.3326572480920564e-07,-0.0284937520005207,0.0179294808715496,0.0028035079526974,11.278666158076822,22.010784171389844,36.74553096241268,27.212588733627083
1.01,31.222185802302743,131.01045619900788,20.289112269159,9.661489799663062,5.709476432728612,28.400688131089247,-1.720605343561374,0.204823015237737,324.9203161036979,36.10040402399272,12.725433945427977,71.62536235501251,0.6757118156832129,120.7113054106694,796.686734496395,15.288,0.0,5.884111798235064,0.1061103721444338,4.532244946547289e-07,-0.0293825753985259,0.0184659095623484,0.0029117055182099,11.208601467816042,21.856931774326892,36.99576295397067,28.453497527285755
1.02,31.222185270919685,131.0104573841848,20.607246103510374,9.613455022273678,5.659996962733937,23.726471686102865,-1.7478547353786051,0.152191170457686,284.59063161540416,36.346082657123965,12.813805060893309,71.60816794013323,0.7073471472274337,120.74464228161948,807.5425419962405,15.288,0.0,5.899394899271748,0.1068328819560026,4.737510219405908e-07,-0.0302868599185511,0.0190095125176492,0.0030216497085978,11.142382949752312,21.71163473686841,37.233707594188346,23.791250849835357
1.03,31.222184736306044,131.0104585781193,20.92772278113333,9.558017671995572,5.606545545872838,19.402935909594834,-1.7768107494755916,0.0964877086730159,247.30469339049705,36.61838870872628,12.910672696541798,71.59044175432284,0.7398430483252322,120.77888946129524,819.6629100521968,15.288,0.0,5.914591203231416,0.1076336666701813,4.948523989032274e-07,-0.0312065142174363,0.0195601741984602,0.0031366306393704,11.067824793645585,21.552034170632044,37.49765806571333,19.48436009288531
1.04,31.222184198528616,131.0104597806773,21.25050018560606,9.510102138856707,5.557749389926002,30.80474634900132,-1.804594402642269,0.042512172530551,345.46563688072297,36.861551843281234,12.99812291943784,71.57217422220694,0.7732062286947364,120.81405431866504,830.5591900470082,15.288,0.0,5.929702841111557,0.1083487989203453,5.165357369310748e-07,-0.0321415951380609,0.0201178676250646,0.0032519695202638,11.002102483574411,21.41030147101512,37.7331926669801,30.857588464900676
1.05,31.22218365727336,131.01046099248305,21.57578800235837,9.456286693049842,5.505864728130187,18.61473446654737,-1.8338380651313644,-0.0141399541500401,240.45625879819983,37.126069415418414,13.092376301771246,71.55335581478683,0.8074429267808181,120.8501437397932,842.49578014908,15.288,0.0,5.944738056988729,0.1091267077495877,5.388067060853625e-07,-0.0330932269161976,0.0206831915402034,0.0033721737700257,10.92977518218622,21.257511751409364,37.989598171763205,18.70485234497976
1.06,31.222183112797968,131.01046221301982,21.903416731552326,9.397555712438692,5.451480456391761,26.485921110143824,-1.8644283460634032,-0.0732970800610315,308.17968365593924,37.40898418571332,13.192512718502076,71.53397659850276,0.8425596704078222,120.88716492897296,855.3580631604176,15.288,0.0,5.959690480060998,0.1099587012956227,5.616735619861041e-07,-0.034060769844688,0.0212557058227,0.0034971041357459,10.8519839787943,21.09577269651664,38.26400930548035,26.551562714317072
1.07,31.222182564973703,131.01046344254195,22.23347313686268,9.350960205247214,5.404333160107062,31.177851280605942,-1.892780128489164,-0.1289308182752299,348.5093681440308,37.64347844049894,13.277004897950468,71.51402640275151,0.878562974899491,120.92512509205469,866.0876580783173,15.288,0.0,5.974568624225768,0.1106483778765082,5.851428383166094e-07,-0.0350449588491102,0.0218357761122336,0.0036205931340825,10.788296546910976,20.961747353885915,38.4911308883866,31.235519048773405
1.08,31.22218201368605,131.0104646812716,22.566032731104297,9.30201806329882,5.356127204252108,21.0123421117427,-1.9218871622527745,-0.1860757607652619,261.00157857466235,37.88566458644551,13.363915978983332,71.49349518627139,0.9154587150439664,120.9640307742214,877.2397494862087,15.288,0.0,5.989373397657645,0.1113606721947928,6.09221257956564e-07,-0.0360462496502942,0.022423599962468,0.0037478788616685,10.722079870816808,20.82426825869708,38.72577822085811,21.10087191265072
1.09,31.22218145923387,131.01046592861005,22.90089878550344,9.240614196325568,5.3011475397153855,19.334534303077174,-1.9540293641473143,-0.2486046511245539,246.54375332474407,38.17690457917445,13.466625619264391,71.47237277347448,0.9532525638838116,121.00388832243743,890.7502198429816,15.288,0.0,6.004096097891874,0.1122171636168601,6.33917481523232e-07,-0.0370637633485639,0.0230186004200653,0.0038831736034575,10.641752635147812,20.66159710432795,39.0084193504987,19.43461478253116
1.1,31.22218090169791,131.01046718439295,23.238018901408285,9.18595567985052,5.250286517707654,38.71908230796441,-1.9850101089860872,-0.309430012239387,413.1890617385841,38.440197674684256,13.560302055627789,71.45064885616948,0.9919499802313256,121.04470387329236,903.0497461235628,15.288,0.0,6.018739556298889,0.1129915169893527,6.592387824306823e-07,-0.0380975283313459,0.0236207295131328,0.0040188789941318,10.56932212263184,20.51495522588653,39.26375705993702,38.771166436363174
1.11,31.222180340630484,131.01046844950008,23.57768601943312,9.144446811885471,5.207100717195095,28.369625552372543,-2.013223253112385,-0.3658059556123353,324.1593910376397,38.64764083803717,13.635878976511243,71.42831292029803,1.0315563200724895,121.08648347120152,912.7929094083232,15.288,0.0,6.033317608735393,0.1136017130242027,6.851900322065347e-07,-0.0391493016155264,0.0242309309394841,0.0041519809786473,10.512091546569446,20.39806862455612,39.46444484114761,28.443321462970232
1.12,31.222179776093505,131.01046972379862,23.919857219394995,9.078905940386647,5.150699781396809,10.75372968062052,-2.0473548904324144,-0.4325159622969981,172.73281794065943,38.95376391184195,13.743333096444264,71.40535457229544,1.0720762908954924,121.1292324920544,927.2799351271152,15.288,0.0,6.047823919007788,0.1145019799533349,7.117790036518722e-07,-0.0402188781712898,0.0248490134366818,0.0042990594820319,10.42754567000235,20.23121640408528,39.76174464384953,10.955429436990498
1.13,31.22217920873813,131.01047100599993,24.264108730392408,9.026664766610772,5.102031216217936,33.42803819265812,-2.0786457116112884,-0.4946595870928258,367.5328077900705,39.203211937537965,13.83246312173148,71.38176265503712,1.113515382701595,121.17295715323525,939.1629403532456,15.288,0.0,6.06224892502,0.1152356633908005,7.390165131394285e-07,-0.0413043158340645,0.0254737994568645,0.0044432095528285,10.358357212214695,20.094340542294,40.003578408382175,33.49625641040074
1.14,31.22217863782304,131.01047229755383,24.610920434007767,8.983696365013504,5.058782064698831,18.550726208264035,-2.1078916092328543,-0.5535679860776304,239.69531773195544,39.41096640581335,13.908038715880762,71.35752672478846,1.155877458933922,121.21766197428792,949.1117436562683,15.288,0.0,6.076611555313951,0.1158467995058654,7.669052273516337e-07,-0.0424084000502538,0.0261068057584816,0.0045860017649193,10.299898317216318,19.97883685708756,40.20456600512465,18.678305260527747
1.15,31.22217806388029,131.01047359740252,24.95994411028864,8.916635977502468,5.002413048894987,18.28640541457405,-2.1434462363028617,-0.6235636599368062,237.41251153546767,39.721612892817134,14.016988521814875,71.33263627324607,1.1991660232455783,121.26335111061252,964.1006316569968,15.288,0.0,6.090894520583061,0.1167603910609082,7.954555990421034e-07,-0.0435291638524672,0.0267468425903361,0.0047441442367661,10.21411200925528,19.81323153375441,40.50639217531954,18.422155584840713
1.16,31.222177487059152,131.0104749052472,25.311083191890955,8.876029300744172,4.960949112687205,47.71677242333401,-2.1725160721537105,-0.6827064041935039,490.0437743845894,39.9150410488803,14.08790607270248,71.30708004834905,1.243385290086477,121.31002948561182,973.4802164687663,15.288,0.0,6.105103822793021,0.1173294317815674,8.246751685266111e-07,-0.0446665229894014,0.0273937958649718,0.0048916431041089,10.158622890099952,19.70566744635783,40.69333179495597,47.77108209595363
1.17,31.222176906377246,131.01047622299643,25.664966293874897,8.822813141434505,4.912762895686207,8.537842081373862,-2.2050659800978964,-0.7481081050689489,153.70937929486794,40.16180502070996,14.176097281948444,71.2808474589085,1.2885379403962909,121.35770042290385,985.5204787302574,15.288,0.0,6.119257998314084,0.1180552608105423,8.545650208116889e-07,-0.0458241117166748,0.0280496362168861,0.0050492695037206,10.088910266674144,19.5726438286984,40.9325547739063,8.849673955572223
1.18,31.222176323111405,131.01047754814223,26.02076924846072,8.752933307629457,4.855690531510729,23.257800695123308,-2.242413235552569,-0.8220908374335903,280.02501822196746,40.48279605838537,14.288501533968985,71.25392735476119,1.3346270493360384,121.40636767789827,1001.30264727606,15.288,0.0,6.133326818176161,0.1189992888738888,8.851408027145594e-07,-0.0469971307613363,0.0287115951399709,0.0052197328377755,10.000389002613394,19.405378446884008,41.24461345955571,23.380110000554996
1.19,31.222175736676167,131.01047888181887,26.378866369795844,8.719845301563753,4.819004417027889,40.55874166310199,-2.269943814081746,-0.8793970043759651,428.4078130529292,40.63445310975505,14.34577290923662,71.2263082532078,1.3816557089047192,121.45603504426931,1008.7841780006052,15.288,0.0,6.147317327000126,0.119445567901981,9.164047832327463e-07,-0.0481883954770416,0.0293811792143624,0.0053719056427458,9.953835943079136,19.31821881573088,41.39052839556948,40.63173032624427
1.2,31.22217514655773,131.0104802250066,26.739578800258567,8.657210583241726,4.766409845476062,4.275128437959353,-2.305878402825904,-0.9515500760857446,117.1843741360236,40.9192946742879,14.446429864629469,71.19797954428952,1.4296251564260525,121.50670437556492,1022.9411606480109,15.288,0.0,6.161241877590999,0.1202833534915049,9.483610995838772e-07,-0.0493996092577221,0.0300592551500583,0.0055453389301035,9.873840376594512,19.1693741986194,41.66713731085448,4.9496712938301775
1.21,31.222174554046138,131.01048157518758,27.102081967614925,8.59617252712515,4.714946061164114,32.584810212206015,-2.341690119181828,-1.0238117650381406,359.92343213200894,41.1960394568086,14.54454265761874,71.1689294676269,1.4785378978423491,121.55837888230198,1036.788528264107,15.288,0.0,6.175082656526113,0.1210973475486915,9.81025915619273e-07,-0.0506259444784043,0.0307430705987575,0.0057212367957205,9.795803804102263,19.025279508185264,41.93582583667936,32.68488273973138
1.22,31.22217395814196,131.0104829342864,27.46700689380435,8.560210137705752,4.677287811462214,23.623275461925925,-2.3703602312106806,-1.0839404074711068,283.0687504825761,41.351824287851535,14.603123781985271,71.13914681568393,1.5283950735173135,121.61106035414414,1044.6080673751862,15.288,0.0,6.188867588509958,0.1215557836911191,1.0143978667613273e-06,-0.0518717616045987,0.0314349637668498,0.0058839878299282,9.746339211228134,18.93620683516373,42.0857151819764,23.76662950404801
1.23,31.22217335922756,131.01048430154202,27.834103715215885,8.496854083802582,4.625049003959949,9.239929446039914,-2.407328972347311,-1.1588467037165693,159.79687382222795,41.63574949817698,14.703653242337785,71.10862093514669,1.579196479268904,121.66474917772932,1058.964708261046,15.288,0.0,6.202580824347118,0.1223909033035898,1.048487190949527e-06,-0.0531352362991027,0.0321338480559653,0.0060684780153597,9.665945178326291,18.789967086034004,42.36146176226443,9.618443461995968
