Time,Latitude,Longitude,Altitude,Angle of Attack,Angle of Sideslip,X-Acceleration,Y-Acceleration,Z-Acceleration,Thrust,True Velocity,Ground Velocity,Pitch,Roll,Yaw,Dynamic Pressure,cp,cg,parachute_deploy_gain,Wind Speed,Wind Direction,Mach,omega_x,omega_y,omega_z,Cmq,Angle of Attack(total),Angle of Attack(gust),True Velocity(gust),Acceleration
0.0,31.222216000000007,131.010392,3.000000004412624,0.0,0.0,0.0,0.0,0.0,2.2828121974499247,0.0,0.0,69.99999999623412,0.0,119.9999999935444,0.0,1.274,1.0271675151847728,0.0,0.0,0.0,0.0,0.0,0.0,0.0,-0.0,0.0,90.0,0.0,0.0
0.01,31.22221599999084,131.01039200000497,3.000002745347096,0.0,0.0,0.0,0.0,0.0,34.242186961749226,3.465174813755316e-14,2.8705476994166025e-14,69.9999999962611,-2.1713911667908447e-11,119.99999999352175,7.352495975525499e-28,1.274,1.0271659134330349,0.0,0.0,0.0,1.0183245502395064e-16,-3.3305335486039093e-18,7.169286865560398e-18,5.624298769768554e-18,-7.715917190115602e-34,0.0,89.99999999999979,3.465174813755316e-14,0.0
0.02,31.222215999994315,131.0103920000094,3.0000030495639742,0.0,0.0,0.0,0.0,0.0,25.871876237766216,3.8197434737535036e-11,2.4171837235633357e-11,69.99999999628672,-1.1921727947863515e-11,119.99999999353136,8.93414285188691e-22,1.274,1.027164492361118,0.0,0.0,0.0,1.1225230367947217e-13,-6.657678965418802e-18,1.4338573731120796e-17,1.1241821275959074e-17,-1.7010872994127372e-30,0.0,89.99999999975682,3.8197434737535036e-11,0.0
0.03,31.222215999994315,131.0103920000094,3.0000030495639742,0.0,0.0,9.81877837424427,-2.5122800045972096e-05,3.3498614629347925,180.34219359854663,1.2659015405517447e-10,1.1364406173918436e-10,69.99999999631459,-1.6431898037347223e-11,119.99999999352724,9.812605835254651e-21,1.274,1.0271551940870716,0.0,0.0,0.0,3.720154642239108e-13,-9.991600645811728e-18,2.150108433310316e-17,1.6859343782149594e-17,-8.453698244545225e-30,0.0,89.99999999919412,1.2659015405517447e-10,10.374487003414373
0.04,31.222215999994315,131.0103920000094,3.0000030495639742,18.83801224594347,-0.0001111777826462,48.68248476615645,-1.016330065874988e-05,3.3497854396877287,548.635972453808,0.1556173050466994,0.0975908358443652,69.99999999633813,-2.0932768807056278e-11,119.99999999352085,0.0148286043323172,1.274,1.027133720825283,0.0,0.0,0.0,0.0004573186944143,-1.3322134194415637e-17,-1.04744143520903e-11,1.336824254131964e-11,5.0626055458604615e-15,18.83801224625964,89.06236267790787,0.1555998412814392,48.79759610369246
0.05,31.22221599164764,131.01039201704114,3.002326315126219,5.772385609593056,-4.395076213712875e-06,71.20344550265034,4.905512691849684e-05,3.349217396035405,761.6984298824663,0.8326471944351852,0.3620326097059287,70.00000001316391,-1.0866255162484559e-10,120.00000000231074,0.4245281043148827,1.274,1.027093426565204,0.0,0.0,0.0,0.0024469331205246,-5.0245994431125096e-18,-7.32924164976824e-07,2.217344936947165e-11,1.895424184525467e-09,5.772385609594774,84.74112356985832,0.8326465040582279,71.28217104309611
0.06,31.22221596664444,131.01039206837547,3.015081730143309,4.056581213689704,3.169093567502233e-05,53.16249142470188,0.0001203825427859,3.3481235983850643,590.4875390737236,1.657216205300742,0.6755452977614796,69.99999964391398,-3.9285905645317736e-10,120.0000000287861,1.6816755551786196,1.274,1.027050317124926,0.0,0.0,0.0,0.0048701272653724,3.095757869075056e-13,-7.483541766772344e-06,3.074135420506017e-11,3.8518749565858254e-08,4.056581213813337,79.59316473687034,1.657221183301277,53.26781792157489
0.07,31.22221592883117,131.0103921460222,3.034593611434361,4.115662018628709,6.450869598349036e-05,81.18203554989698,0.0001593212642178,3.347059402768047,855.2937749779172,2.099899704220947,0.8579771146174259,69.99999543281565,-8.233801910783518e-10,120.00000006883089,2.700101932075157,1.274,1.027003201295312,0.0,0.0,0.0,0.006171060252819,3.4704292086287e-12,-2.6327204536316785e-05,1.9541142932033486e-10,1.7170712165327165e-07,4.115662019133419,76.90111966094352,2.099909837223217,81.2510043180746
0.08,31.22221588914193,131.01039222747755,3.0542761843835606,3.459696193892355,8.037433511260004e-05,16.298214211652088,0.0002413456836072,3.344878926597744,241.2171988638792,3.051964775152957,1.2149999716613011,69.99998042886442,-1.0128995578004475e-09,120.00000011111383,5.703497661025892,1.274,1.0269597189470347,0.0,0.0,0.0,0.0089689344021769,1.458982438104473e-11,-5.702803872814215e-05,7.043261397829576e-10,5.405702492731987e-07,3.459696194824858,71.30331929508368,3.051977400323993,16.63790856991177
0.09,31.2222158241468,131.01039236098703,3.0886872184095737,4.313676956300389,0.0001337561018991,50.35975918308536,0.0002293282821279,3.344215841840564,563.0937377043203,2.893161298572128,1.191209213966114,69.99994788602814,-7.098432023887522e-10,120.00000018106356,5.125380275808925,1.274,1.026918932011013,0.0,0.0,0.0,0.0085022553945842,3.8672912027154325e-11,-0.0001115933708951,2.016054215232918e-09,1.0027525988343615e-06,4.313676958370176,72.2316578138625,2.893182308931483,50.47067588835877
0.1,31.2222157788302,131.01039245392113,3.109877853389092,4.035124630954496,0.0001457499816535,47.804664812504015,0.0002878217657545,3.341734392237128,538.7437595981891,3.5677148583138303,1.4531247507621967,69.99988403958329,1.9248461973355822e-09,120.0000002323013,7.7939962029572305,1.274,1.0268846934974103,0.0,0.0,0.0,0.0104845969583028,8.579678749070606e-11,-0.0001726817043215,3.984565639703107e-09,1.913455350430327e-06,4.0351246335824245,68.43243098813296,3.567737752667411,47.92132267234452
0.11,31.222215703308,131.01039260899836,3.148841432727305,4.043401107254707,0.0001752764476999,37.67622367577205,0.0003286462930162,3.3392563999062723,442.86563930529127,4.034183355956686,1.6436552022667772,69.99978525353545,7.302513231814865e-09,120.00000031883242,9.96528118825134,1.274,1.026848594915519,0.0,0.0,0.0,0.0118554331868328,1.5870341853361987e-10,-0.0002596204409236,7.232030302688121e-09,3.252930323390323e-06,4.04340111104746,65.92012987243639,4.034210888316708,37.82391391539392
0.12,31.222215627491828,131.01039276462643,3.186995101203875,4.17874459224363,0.0002066711490009,41.15991989399172,0.0003576945202315,3.336766085769504,475.58594813540793,4.361857560629481,1.7865750500940407,69.99963665601238,1.781774420198147e-08,120.00000041104812,11.649831899889556,1.274,1.0268114448194128,0.0,0.0,0.0,0.0128183893919737,2.682972478760441e-10,-0.0003710216542429,1.2215991071490164e-08,5.026311388647148e-06,4.178744597345269,64.21681651392016,4.361890024457652,41.29495143136631
0.13,31.22221554594398,131.01039293200228,3.2277173449026786,4.202734874672792,0.0002327160860324,45.44886120763352,0.0003953741266062,3.333578629398489,515.9156326236897,4.792165672014363,1.9646716520715424,69.99942424225341,3.613383418913551e-08,120.00000051758742,14.061726603124043,1.274,1.026779572895131,0.0,0.0,0.0,0.0140829618979635,4.248908088871395e-10,-0.0005056103199642,1.908859219307828e-08,7.5253154423526356e-06,4.202734881104192,62.048594618540655,4.792202226971676,45.570952718869485
0.14,31.222215454191247,131.01039312033683,3.2737880595608355,4.184830647080848,0.000257138757548,42.32232525579263,0.0004369426767266,3.329727443445437,486.2390860568421,5.269261304374574,2.158791628597544,69.99913473613935,6.515851355725497e-08,120.00000064630268,17.000925061330125,1.274,1.0267449573927567,0.0,0.0,0.0,0.0154850332441425,6.382432869666793e-10,-0.0006690086306358,2.8426433029675884e-08,1.0948547100483978e-05,4.184830654966803,59.74181173116622,5.269301695636157,42.45310707234106
0.15,31.222215353826755,131.0103933263496,3.3242182719560263,4.21963947489699,0.0002846467688673,40.886944113003565,0.0004726792395108,3.325585650885676,472.5421858721398,5.6781946837482895,2.329510773545807,69.99875162806286,1.0876776246115984e-07,120.00000079954532,19.742017654108928,1.274,1.0267115958081523,0.0,0.0,0.0,0.0166867950518804,9.204756288136623e-10,-0.000865746478554,4.08948221429571e-08,1.526771148078443e-05,4.219639484480408,57.84996018384879,5.678239395958187,41.02196629910223
0.16,31.222215247130432,131.01039354534575,3.3775922280208457,4.253495568077899,0.0003118339050386,32.26872905470846,0.0005078415214353,3.32090791922544,391.1218908297597,6.081244877834229,2.4981889727471702,69.99825581174558,1.7187028096464329e-07,120.0000009800088,22.644030778355887,1.274,1.026675762255412,0.0,0.0,0.0,0.0178712695992133,1.2856146928958252e-09,-0.0010961187242953,5.6923362293832417e-08,2.0702404729358337e-05,4.253495579487569,56.06022383757386,6.081293860589489,32.43916312841722
0.17,31.22221513260033,131.01039378041813,3.4348437275053194,4.364838523348639,0.0003448792023946,40.840448242802736,0.0005326487904353,3.3162727284953744,471.78125980632416,6.362544479165355,2.6250789114832647,69.99762801982864,2.5997588617291615e-07,120.00000119506798,24.78723182122683,1.274,1.0266409836796937,0.0,0.0,0.0,0.0186979513961862,1.747791994374917e-09,-0.0013624931601664,7.706724512977917e-08,2.6923621797558364e-05,4.364838536947241,54.85936171416122,6.362598652663785,40.97486885600156
0.18,31.222215014088988,131.01039402363364,3.4935801365785646,4.353948305387995,0.0003681615230806,33.992183768165326,0.0005718025428208,3.310131992647221,407.1015672119096,6.81502088160835,2.810667639293692,69.99684761766231,3.794979223522764e-07,120.00000144728236,28.437950785509614,1.274,1.0266048342046536,0.0,0.0,0.0,0.020027681385988,2.3221419748804155e-09,-0.0016616990447559,1.0147209890543081e-07,3.517105786247627e-05,4.353948320923495,52.99157233768714,6.815078712285162,34.152972512863755
0.19,31.22221488419521,131.01039429023237,3.558399965607869,4.432620772533925,0.0003996774584738,38.45149959021069,0.0005986099513107,3.304145139297767,448.95313283182486,7.1223367465208405,2.946425726785696,69.99589577323147,5.440084577183829e-07,120.00000176148238,31.060341085698347,1.274,1.026566130444714,0.0,0.0,0.0,0.0209308229359413,3.022391489754689e-09,-0.0020041563310821,1.3135864879722746e-07,4.433199397898183e-05,4.432620790516937,51.77883352025967,7.122399527709208,38.59320142454953
0.2,31.222214751373183,131.01039456280608,3.624052454705669,4.443889400961181,0.0004246617145652,35.23432408779927,0.0006337972852267,3.2968110145188256,418.5156301991588,7.530482904611057,3.1167566004785483,69.99474776398331,7.478025600151903e-07,120.00000211715036,34.72195181863731,1.274,1.026529240027363,0.0,0.0,0.0,0.0221302820454282,3.866698391504749e-09,-0.0023849544920781,1.668144671071589e-07,5.57780533277244e-05,4.443889421210987,50.22448880200342,7.530549610317194,35.38822625098952
0.21,31.222214608673173,131.01039485566503,3.6948551453492566,4.493351735844891,0.0004538195602194,33.79371564104691,0.0006629296043866,3.2891790438445727,404.8187610144608,7.868284042829251,3.2629204975089228,69.99338155599101,1.0150082652278477e-06,120.00000255293388,37.906665490338085,1.274,1.0264923657015164,0.0,0.0,0.0,0.0231230169900677,4.871073773182836e-09,-0.0028117605859743,2.089322918608601e-07,6.870935089180403e-05,4.493351758715364,48.992529909481824,7.868355328639073,33.95340801819282
0.22,31.22221446109996,131.01039515850383,3.767700382407304,4.5412639153933885,0.000482649303782,41.008966751568416,0.0006914639179131,3.2808061382386606,472.5421858721387,8.20057841132235,3.4071691679735228,69.9917708347139,1.3454961520984431e-06,120.00000305929996,41.175744234065135,1.274,1.0264494137127138,0.0,0.0,0.0,0.0240995709751246,6.054779813287368e-09,-0.0032829112061357,2.580881224843564e-07,8.3609968899004e-05,4.54126394098788,47.82515604752711,8.2006542256977,41.13999323561041
0.23,31.22221430675399,131.0103954752338,3.843768625625224,4.52371495179584,0.0005047555656171,33.98493478127787,0.0007294889663961,3.2705214710765107,406.340642146096,8.647938096586296,3.5908865300848416,69.98989017772566,1.7539876018835507e-06,120.00000365514876,45.79040229326471,1.274,1.0264133390858623,0.0,0.0,0.0,0.0254142776666487,7.436335125872812e-09,-0.0038001790077148,3.1489825108822685e-07,0.0001020628978177,4.523714979897577,46.31461705147579,8.648017383405135,34.14194053232237
0.24,31.222214142622448,131.0103958120587,3.92493179063287,4.57837522350066,0.0005351929930195,35.051650311058864,0.0007555049947555,3.26053011385611,416.2328240017099,8.954297884844461,3.72617527247482,69.98771316795013,2.25257161141768e-06,120.0000043564586,49.09180568115741,1.274,1.0263750048312463,0.0,0.0,0.0,0.0263146218848643,9.034877387788232e-09,-0.0043732521010013,3.809642748985157e-07,0.00012161410144,4.578375254714954,45.32798984252032,8.954381952763216,35.20297212911011
0.25,31.22221397517227,131.0103961556623,4.0071748888306855,4.6034117733065,0.0005618935542827,36.03738579534623,0.000785606492708,3.249069743648399,425.3640807915084,9.311611941121669,3.8789349536029696,69.98520781816889,2.8559738498748624e-06,120.00000517181904,53.08749562138344,1.274,1.0263373768840591,0.0,0.0,0.0,0.0273647110956883,1.0873791100894836e-08,-0.0049950711786164,4.5609738277273444e-07,0.0001444478241125,4.603411807525074,44.2165428352526,9.311700203154778,36.183554686886296
0.26,31.22221379934012,131.01039651647062,4.09364247475714,4.621386912291471,0.0005881033207375,39.29107511182762,0.0008162761165496,3.236407051295005,455.80158342417656,9.67833954512075,4.034902068846398,69.98234620927953,3.5784678110229355e-06,120.00000612171208,57.350948423913096,1.274,1.0263006300381676,0.0,0.0,0.0,0.0284424679130479,1.2973286442992724e-08,-0.0056712051373577,5.414206381221602e-07,0.0001704578711045,4.621386949630312,43.12063533194282,9.678431924174348,39.42414126789902
0.27,31.222213616776543,131.01039689108487,4.183310605341074,4.617158109135719,0.0006115457810536,35.90419462403674,0.0008503454714941,3.221982799915672,423.8421996598744,10.088790784535757,4.205862468567124,69.97909721779352,4.436165972465058e-06,120.000007221354,62.31798301949865,1.274,1.026260090595354,0.0,0.0,0.0,0.0296487219805601,1.5355910600537293e-08,-0.0064045199323113,6.379142666348734e-07,0.0002006609239367,4.617158149547818,41.94410287616451,10.08888684592241,36.048472443180565
0.28,31.22221342607797,131.0103972823952,4.277051150896916,4.642105655370123,0.0006389739579882,41.51133203546672,0.0008785747638736,3.2071101123224945,476.3468732012228,10.432377224420517,4.35383399240675,69.97542808435722,5.446665372087172e-06,120.00000849080963,66.63429581008447,1.274,1.0262212716723291,0.0,0.0,0.0,0.0306584788590473,1.8045308789081613e-08,-0.0072006835403936,7.469524967369969e-07,0.0002332868227611,4.642105699250441,41.0023231023774,10.432477594215127,41.63503624837164
0.29,31.22221323001776,131.01039768469093,4.373143569786686,4.62134615173668,0.0006600657405645,33.17552944492765,0.0009148746278066,3.1894209319791806,397.9703104221098,10.876662296046485,4.536381530986506,69.9713027936179,6.629751536885327e-06,120.00000994797426,72.43000748232016,1.274,1.026183007522519,0.0,0.0,0.0,0.0319641703260467,2.1067646517035105e-08,-0.0080566154554079,8.688043379161898e-07,0.000272130659453,4.621346198772975,39.83162628795024,10.876765978930557,33.32848872465723
0.3,31.22221302403368,131.01039810736614,4.4744193758467325,4.664362353358112,0.0006905183788532,31.08096762732793,0.0009381960428197,3.172549142946348,378.1859457108735,11.168362145070317,4.66647911311536,69.96668711012893,8.005507138509574e-06,120.00001161892672,76.36634300732833,1.274,1.0261430389738484,0.0,0.0,0.0,0.0328214509167604,2.4447409007156216e-08,-0.0089829108229115,1.0056222251461646e-06,0.0003115527202986,4.664362404357781,39.09908960432563,11.168470611443622,31.242464973103964
0.31,31.22221281503337,131.01039853619727,4.576593712520673,4.700143580504286,0.0007196683316923,32.79732593144512,0.0009620705970519,3.154230688182399,394.1656220930229,11.470279728974068,4.800072153432283,69.96154070456518,9.597499105113692e-06,120.00001352112182,80.55022837857167,1.274,1.0261054058068628,0.0,0.0,0.0,0.0337087616009043,2.8214060606649844e-08,-0.0099686353219717,1.1565909895184251e-06,0.0003550834484269,4.700143635477137,38.36463422765983,11.47039277421126,32.94865339301887
0.32,31.222212598991007,131.01039897947376,4.68216432480395,4.718667719113184,0.0007464384342556,35.7316568886908,0.0009885845337584,3.133859770838664,421.5593934624264,11.808280530415894,4.946054328851105,69.95582953472353,1.14278227255889e-05,120.00001568218067,85.36654007972253,1.274,1.026068246703101,0.0,0.0,0.0,0.0347021168382987,3.2392058795580455e-08,-0.0110163301561155,1.3226102501723267e-06,0.0004039614423012,4.718667778018562,37.5686120062341,11.808397780690962,35.8688218659563
0.33,31.222212376029034,131.0103994369436,4.791055524254013,4.72141404831576,0.0007708346814671,35.42013590291081,0.0010176135371143,3.1111955852784385,418.5156301991632,12.181577273013426,5.104163223586657,69.94951809396906,1.351997394754887e-05,120.00001812674968,90.84831229869296,1.274,1.0260310883392356,0.0,0.0,0.0,0.0357992034445943,3.700677535501642e-08,-0.0121310534481307,1.5051409581878843e-06,0.0004588955105349,4.721414111097893,36.7208578211118,12.181698355442045,35.55651229220977
0.34,31.222212145785647,131.0103999093516,4.903491659547144,4.73024573449122,0.0007962944975467,27.63851074646407,0.0010446307681611,3.0871492806781062,345.4656368807584,12.53557620048282,5.2556261014174765,69.94256797855994,1.5899658158227497e-05,120.000020882338,96.20413272674828,1.274,1.0259901535019136,0.0,0.0,0.0,0.0368395817555172,4.208561016221623e-08,-0.0133180771902383,1.7057647550599631e-06,0.0005184333231541,4.730245801363397,35.94841996438923,12.535701282129995,27.810389570354005
0.35,31.222211909310875,131.01040039453565,5.018822212845608,4.780248518778662,0.0008286678570753,30.332092807652543,0.0010618579815451,3.063967690608957,370.5765700527057,12.774786382148209,5.367579971644358,69.93493776125636,1.8594985713558667e-05,120.00002397748868,99.9096898192772,1.274,1.025950003202184,0.0,0.0,0.0,0.0375426220587071,4.7658312175989686e-08,-0.0145774693288123,1.9252724355785177e-06,0.0005782798420984,4.780248590437683,35.44790728185619,12.774916548990808,30.486451961956565
0.36,31.22221166933814,131.0104008868675,5.135354490370708,4.798132156899578,0.0008554457330409,34.32674769697476,0.0010851169437774,3.0374319611165923,407.8625232777224,13.09301701329486,5.506730645516068,69.92658597246795,2.163521613217148e-05,120.0000274401514,104.94818266210537,1.274,1.0259105142325406,0.0,0.0,0.0,0.0384778908056978,5.3755109608570216e-08,-0.0158991451700967,2.162609490834569e-06,0.0006464142451675,4.798132232978766,34.796094028187134,13.09315138639638,34.46087058603792
0.37,31.222211421355144,131.01040139563804,5.255882891363927,4.797392186816851,0.0008791822061288,32.551601855236584,0.00111162791192,3.0078619428913056,391.1218908297639,13.457513730739372,5.661815946371007,69.91747693543164,2.5047738471809164e-05,120.0000313040604,110.87154396328836,1.274,1.025872170958032,0.0,0.0,0.0,0.0395491312153729,6.040098808671168e-08,-0.0172926678053148,2.420031948898497e-06,0.0007226353721561,4.797392267189059,34.07332166419882,13.457651832357364,32.69027405888565
0.38,31.22221116634284,131.01040191882743,5.379799334000849,4.811698494594017,0.0009057112478668,34.02947987649063,0.0011338447913587,2.9774881690446744,404.81876101445977,13.77554886562956,5.800899861213392,69.90756948297444,2.886339581486796e-05,120.00003560072224,116.17243393848278,1.274,1.02583050512925,0.0,0.0,0.0,0.0404838339452728,6.762496638941508e-08,-0.0187646375218858,2.69955777313946e-06,0.0008026686661094,4.8116985796350695,33.46655348088405,13.775691134419684,34.15949264475229
0.39,31.222210906095896,131.01040245274032,5.505993307722699,4.813508003664984,0.000929862892873,29.00025983045028,0.0011579891265804,2.9442136901860865,357.6406249338268,14.124492165837273,5.950648592462506,69.8968186645841,3.311602501056718e-05,120.00004036395212,122.13093644173792,1.274,1.02579027384009,0.0,0.0,0.0,0.0415093739609825,7.545934774906889e-08,-0.020311592409804,3.0013532510753577e-06,0.0008908380763632,4.813508093268025,32.821616487639595,14.124638228358922,29.149330452482886
0.4,31.222210638473225,131.0104030017851,5.635788650457906,4.841647069358873,0.0009592124397379,27.71178845184976,0.0011749448424961,2.91135549588368,345.4656368807565,14.390874239274588,6.07193451174791,69.8851815212744,3.783947407715338e-05,120.00004563180136,126.77947425345651,1.274,1.0257493418632293,0.0,0.0,0.0,0.0422922854866381,8.39343718693383e-08,-0.021938519432511,3.3271332720311508e-06,0.0009803271643914,4.841647164150728,32.348088166612904,14.391024912012275,27.864299944624147
0.41,31.22221036681104,131.01040355909262,5.767123077463226,4.86553909860892,0.0009876699832274,31.306062598221665,0.0011918093836199,2.876450850006428,378.9468707766882,14.663028799871563,6.195223154320929,69.87261222561014,4.307011032901644e-05,120.0000514391194,131.6183642808765,1.274,1.025708445186429,0.0,0.0,0.0,0.0430921644173401,9.308325447883581e-08,-0.0236371933433427,3.6760977501392174e-06,0.0010761942383903,4.865539198612839,31.87689439156756,14.663183942709727,31.437931330109585
0.42,31.22221008906472,131.01040412887247,5.901259531771367,4.867510642114694,0.0010118258958528,35.308283402190774,0.0012128114559048,2.8374461227958245,416.23282400171047,14.9952917972178,6.33928625560071,69.85906967380902,4.884273094936628e-05,120.00005782486392,137.64909586091787,1.274,1.0256701057426505,0.0,0.0,0.0,0.0440686959134695,1.0293499639582845e-07,-0.0254093547296826,4.049238334851429e-06,0.0011830797791891,4.867510747027452,31.315270489291198,14.995450734457847,35.422111438762386
0.43,31.222209804115888,131.01040471342728,6.038886819939341,4.854590670645608,0.0010330089741511,31.00586934514032,0.0012363751872706,2.794478603999558,375.90313951343126,15.369430568701889,6.497852263156962,69.8445117629242,5.519340856908871e-05,120.00006482835984,144.60167924299955,1.274,1.0256308158337524,0.0,0.0,0.0,0.0451682983415116,1.135186446762958e-07,-0.0272634397889413,4.449073329427772e-06,0.0013010625065656,4.854590780289497,30.70250814963406,15.369592833372094,31.13154422839874
0.44,31.22220951192321,131.01040531284193,6.180028459770617,4.866912332640401,0.0010595850174406,28.57707721036899,0.0012525768202179,2.752165534925872,353.07501253892326,15.659290812546615,6.627318538707029,69.82889155423543,6.216182865383864e-05,120.00007249162944,150.1053167542629,1.274,1.025586171750536,0.0,0.0,0.0,0.0460202245100907,1.2486676023179565e-07,-0.0292060158163984,4.8779154055816594e-06,0.001420032405556,4.866912447705031,30.24619499837236,15.659457251771938,28.709297424144207
0.45,31.222209215425703,131.01040592106523,6.322872201489905,4.881836476567178,0.0010866574689855,33.31904824532484,0.0012669045761511,2.7082028218433374,397.2093853562887,15.934249290371609,6.751662050993672,69.81215834018458,6.97909417564726e-05,120.00008085697964,155.42080512416243,1.274,1.0255397023523487,0.0,0.0,0.0,0.0468283602442113,1.3701614206272197e-07,-0.0312276295846745,5.334643585560923e-06,0.0015449645531859,4.8818365972149325,29.82567893138932,15.934419982127675,33.428929688274074
0.46,31.22220891307435,131.0104065412864,6.468371919199588,4.869610441729251,0.0011078049156487,38.95909776354321,0.0012868374716666,2.6582856015412624,449.7140588976424,16.292139278621757,6.904766425053949,69.79426683863348,7.812149592850748e-05,120.00008996920153,162.4785746623087,1.274,1.02549635315424,0.0,0.0,0.0,0.0478802236363867,1.499987870203256e-07,-0.0333272350234362,5.819761874615242e-06,0.0016858511402973,4.869610567434908,29.29014635640275,16.292313292210977,39.04968351401366
0.47,31.22220860266524,131.01040717804253,6.6178810515614845,4.838450928223533,0.0011247917292402,26.253747818137555,0.0013104398935566,2.6026193242279367,331.0078106302504,16.710658191447514,7.078951441335346,69.77517236812905,8.719457259907165e-05,120.0000998741591,170.9309671061642,1.274,1.025453319323251,0.0,0.0,0.0,0.0491102725711187,1.6384464803343264e-07,-0.0355167087264168,6.3368207228363735e-06,0.0018427306558807,4.838451058652396,28.68386015667837,16.710834873319172,26.382435512333956
0.48,31.222208284201663,131.0104078313267,6.771393590864176,4.869339340099417,0.0011561785713505,25.860860976019296,0.0013165328518772,2.5543454292827983,327.20312230115803,16.911139899671,7.177575416403102,69.75482343794755,9.70562828082882e-05,120.00011062072316,175.0543877818846,1.274,1.0254092882449153,0.0,0.0,0.0,0.0496995461609974,1.7858865391586845e-07,-0.0378054080201581,6.88909442277235e-06,0.0019849793891693,4.869339477030596,28.40887970825325,16.911321511776286,25.986704537635287
0.49,31.22220796480208,131.01040848648364,6.924537656029012,4.881367714530694,0.0011829003785372,32.565703383222065,0.0013261973190012,2.5011623511055703,389.6000096981238,17.169005224738054,7.296160258358563,69.73316318155707,0.0001077573203115,120.000122255028,180.4309832312717,1.274,1.025367445590036,0.0,0.0,0.0,0.05045746454003,1.942747077649401e-07,-0.0401641298712614,7.47069711110948e-06,0.002140948887153,4.881367857509675,28.058569663954906,17.169191034294997,32.66161128464712
0.5,31.222207637929923,131.01040915697027,7.081324512896956,4.862566137860805,0.001202418260511,33.47759680712428,0.0013425340759632,2.4399894027711366,397.970310422106,17.52898693231981,7.450304424940405,69.71015149227495,0.0001193385310595,120.0001348274002,188.0736471953394,1.274,1.0253278572281015,0.0,0.0,0.0,0.0515154948878309,2.109295159784217e-07,-0.0426011733481599,8.084173008518589e-06,0.0023184335011768,4.862566286171007,27.57768313050809,17.529175807738486,33.56639745442473
0.51,31.22220730314019,131.01040984370235,7.24202048914867,4.8479762258125,0.001223054804074,25.49162310288008,0.0013562860883156,2.3767006597692686,323.39843497208153,17.86914397471067,7.597652147346554,69.68574349602717,0.0001318441288964,120.00014838524436,195.4407439266201,1.274,1.025286455263166,0.0,0.0,0.0,0.0525152689856776,2.2858192086249162e-07,-0.0451315948093539,8.734206149830708e-06,0.002503767471626,4.847976379721193,27.13799345359824,17.86933609171003,25.602178740977283
0.52,31.222206962738102,131.01041054193402,7.405210501673173,4.865306299521403,0.0012516517170965,30.733671928447727,0.0013599291289974,2.317711624364424,372.098451184342,18.08534843773428,7.701914987606457,69.65988568649581,0.0001453248538387,120.00016298000436,200.19561780583155,1.274,1.0252426840672306,0.0,0.0,0.0,0.0531507657929359,2.4726951523704535e-07,-0.0477531686556663,9.421346966092632e-06,0.0026812161964639,4.865306460134566,26.8699055233151,18.085545046726228,30.820940596104087
0.53,31.222206619320115,131.01041124632013,7.569307468221277,4.848802699234936,0.0012715119568563,32.301199055744725,0.0013711327835325,2.2490252325653923,386.55624643486095,18.41963113311156,7.8474319110539055,69.6325258319474,0.0001598315062727,120.0001786629144,207.6614205945027,1.274,1.0251993415311351,0.0,0.0,0.0,0.0541332845214831,2.67031759303889e-07,-0.0504479325599339,1.0141887756417996e-05,0.0028848299490111,4.848802865552398,26.45837260670532,18.419830861742675,32.37940050117613
0.54,31.22220626697288,131.01041196903336,7.737918664599091,4.831496690588052,0.0012913635058467,28.31291960103712,0.0013809098107221,2.177242866245296,349.2703242098436,18.75116898748492,7.992112829440902,69.60362200959217,0.0001754082864028,120.00019548734956,215.20067397992847,1.274,1.0251561018460285,0.0,0.0,0.0,0.0551077428911958,2.878941684235108e-07,-0.0532336286085667,1.090122304443916e-05,0.003098869611663,4.831496862756785,26.061835558272342,18.751371834390056,28.396510432451375
0.55,31.222205908994248,131.01041270328463,7.909026079894722,11.26915367789886,12.12314324897902,30.280788740501023,-0.715987249178397,1.7136977663832424,365.2500005919912,20.6732111531256,8.113323699629928,69.57312211246325,0.0001921068626005,120.00021350480982,261.57466467513893,1.274,1.025112921033824,0.0,5.012807131891703,0.0,0.0607565429524601,3.0989272306468813e-07,-0.0561100530405476,1.1700476995263424e-05,0.003601060098754,16.494202625284505,36.86929337798087,22.56333263297584,30.33769214232267
0.56,31.222205546564343,131.01041344664463,8.081909946161325,13.570489362028418,-9.600707216582828,28.275004704788486,0.4478502619061512,1.3606637069933396,346.22656194657776,21.39229968545896,8.246362755413777,69.54097415464405,0.0002099796112633,120.00023276987916,280.0835064372108,1.274,1.0250709539098009,0.0,5.031095570890197,255.00010927308023,0.0628699963396059,3.330095088065315e-07,-0.0638209163462282,0.0086918130477972,0.0042383327479392,16.57101391965598,18.337059749854475,19.89127143149805,28.31126748551589
0.57,31.222205178926508,131.01041420507835,8.258332077308209,13.45703397392816,-9.483387634076257,27.975984890351143,0.5998341305131522,1.13770865842516,343.1828296833045,21.665582444078687,8.364765277684926,69.5044076151286,0.0135342732551156,120.01445598648584,287.2803805611931,1.274,1.0250279191823897,0.0,5.049241129622549,255.00010927308023,0.0636732758927011,3.640085107742441e-07,-0.0738507730276862,0.00126497175152,0.0049669821316601,16.41229982365338,18.17595869068205,20.182727730836703,28.005533606070415
0.58,31.222204803813376,131.01041497058057,8.436667857144894,13.338909535259756,-9.379401938623769,36.92331890464629,0.7582515158114025,0.9060264882582088,426.12500585731766,21.94540917465425,8.485953219707637,69.46209481557,0.0154426772968236,120.01649380658932,294.744125730899,1.274,1.024981594484354,0.0,5.067416257180974,255.00010927308023,0.0644957922425256,3.951903430566465e-07,-0.0840619873582823,-0.0062603359795451,0.0057266821930128,16.25735928701677,18.00084966681578,20.47866769906181,36.94221580107053
0.59,31.22220442367029,131.01041574839903,8.617705827705691,13.136143896482675,-9.218891115439368,29.914400755957832,0.9278249026801476,0.6479758796746264,360.68438819710633,22.35549695231008,8.654810272926206,69.41393228251692,0.0058569838860364,120.00625603860236,305.85733508915035,1.274,1.0249386802161349,0.0,5.08546896044242,255.00010927308023,0.0657011414140588,4.265817528721553e-07,-0.0944557464712453,-0.0138970076370366,0.0065548824792022,16.001541352047873,17.736272098506625,20.913637103844568,29.935799711695093
0.6,31.222204033437222,131.01041654497973,8.803659516139453,13.020035495478712,-9.117725696789613,26.58863213110629,1.0984280507451016,0.3993600807844518,329.4859594986072,22.62154868167829,8.771136507338635,69.35981325955814,-0.0152997890996275,119.98365228675796,313.17505031813977,1.274,1.024891335813742,0.0,5.103477140703227,255.00010927308023,0.0664831871075512,4.581984999399601e-07,-0.1050935604836354,-0.0216875232917053,0.0073797709319327,15.849792649668506,17.576667883714126,21.1953768429257,26.614308017682628
0.61,31.22220364053606,131.01041734561244,8.990162661326389,12.90848149986979,-9.020370448718634,31.20457624065214,1.273349754117406,0.1452981208414425,372.0984511843332,22.873332748572054,8.882363149498678,69.29959300703105,-0.0481473142614756,119.94854492522168,320.1795625184364,1.274,1.0248423929069768,0.0,5.121650689913375,255.00010927308023,0.0672233047252492,4.900732326326862e-07,-0.115898491892632,-0.029577225475711,0.0082289400284481,15.703896339511838,17.428325434768567,21.46226226428962,31.230883905181148
0.62,31.222203241427795,131.01041815759686,9.17934681971652,12.744261126857296,-8.88800212042949,38.85074204302296,1.458638689060745,-0.1303309157387045,442.86563930529206,23.20761807840435,9.024089225438388,69.23316808686496,-0.0926995224307739,119.90090767518656,329.6005739215781,1.274,1.0247996097896497,0.0,5.139561003666719,255.00010927308023,0.0682058941198607,5.222313063812442e-07,-0.1268589182550768,-0.0375575110430907,0.0091386142915388,15.49527674067247,17.22645759679728,21.81708656363115,38.878332915215566
0.63,31.222202834196125,131.01041898488347,9.37234933656962,12.528117467164169,-8.72138043551196,22.000547655580903,1.6574051233140432,-0.4323233060924199,286.11251274707456,23.630269090089776,9.198564430121444,69.16043888325359,-0.1489349775437738,119.84075042877292,341.7087560162282,1.274,1.024756158874558,0.0,5.157406294491351,255.00010927308023,0.0694481930612549,5.546938766618353e-07,-0.1380108012722874,-0.0456527141270357,0.0101228422950312,15.224922321590997,16.970779272216983,22.26560201425404,22.06712469555707
0.64,31.222202417966656,131.01041982929794,9.569679624763872,12.464209580203672,-8.657783155866422,21.61965041848167,1.8411378629368964,-0.692050454889015,282.3078244179702,23.77225467982016,9.269934394165023,69.08128225851044,-0.2168461105142669,119.76806656231282,345.8209444269074,1.274,1.024708534665538,0.0,5.1753010731158895,255.00010927308023,0.0698656372229771,5.874844971133337e-07,-0.1493931087421344,-0.0538892904883888,0.0110233459243128,15.136900685493831,16.898056162858364,22.41746277120233,21.708938405177868
0.65,31.222202002816424,131.0104206700011,9.765313890216197,12.353180431730756,-8.56297165071262,38.28847609458816,2.033885524923157,-0.9709515467129356,436.7781447787504,23.9899856528446,9.369471525634426,68.99554969196595,-0.2964411116995855,119.68283079038812,352.1781127156148,1.274,1.0246641738210605,0.0,5.19328420082375,255.00010927308023,0.0705056948239471,6.206533271427865e-07,-0.1608574501813044,-0.0621633645754278,0.0119777572533255,14.99280400730552,16.776917043832967,22.649918844623507,38.354749886818524
0.66,31.22220157972292,131.01042152570534,9.96463972674096,12.10877699963056,-8.379005228818743,32.57354869436951,2.25510480842086,-1.309360800307207,383.5125151715984,24.45094224167049,9.55957046090356,68.90317504289368,-0.3875506467090439,119.585206203606,365.8350165015919,1.274,1.0246195561629028,0.0,5.210810318179292,255.00010927308023,0.071860591054575,6.542236905331792e-07,-0.1724360440599571,-0.0704968772800079,0.0130863845152191,14.689464113406416,16.506821492662645,23.1394575454994,32.67775998973622
0.67,31.222201144630176,131.01042240492765,10.170049874896309,11.947316495274212,-8.25127745889893,22.427990418699824,2.467883320504708,-1.6240665119343516,289.15624401033847,24.748605703618978,9.68949950308726,68.80407088973993,-0.4900170081006117,119.47534186947372,374.78912398239527,1.274,1.024572383541697,0.0,5.228369873622916,255.00010927308023,0.0727355836556754,6.882095359267744e-07,-0.1842444459787908,-0.0789689979472392,0.0141524816843573,14.485542856039714,16.340442615036604,23.4569735198262,22.6217327881863
0.68,31.222200707382715,131.01042328718293,10.375684979586769,11.84127434878546,-8.16122835634331,28.03204055662196,2.6719051915664007,-1.9180093055798544,340.89999248584934,24.926728364937382,9.775200690714184,68.6980803817189,-0.6037762359768098,119.35328462399504,380.1959558990703,1.274,1.0245245285832842,0.0,5.246157347928765,255.00010927308023,0.0732592520171783,7.226610655778522e-07,-0.1961920435279695,-0.0875163395852378,0.0151783847091504,14.3481409986214,16.246106748003164,23.649096225412293,28.22433586139998
0.69,31.222200266524126,131.01042417550124,10.582417091511957,11.665388055216969,-8.024724172474533,34.5375401894946,2.894932328496085,-2.2494959338992966,401.0140726853658,25.23529075966896,9.910150789149794,68.58509603216929,-0.728649082419883,119.21920320319536,389.6592008166248,1.274,1.024479631064582,0.0,5.263661760838995,255.00010927308023,0.0741662848854663,7.576239550654138e-07,-0.2082109786249485,-0.0960916339309826,0.0163073052740057,14.127421985971557,16.07583827009793,23.97888709938565,34.73157853429866
0.7,31.222199816495607,131.01042508164738,10.79352994058013,11.45388037304539,-7.864828405326381,28.974612893003403,3.1326490192232463,-2.607683054086736,349.270324209851,25.61138332827185,10.071102230671457,68.46504695410182,-0.8643682552538599,119.07335932187858,401.3521352931278,1.274,1.0244351749185203,0.0,5.280985308197987,255.00010927308023,0.0752717967210396,7.931225777486825e-07,-0.2203581081119719,-0.1047333528646706,0.0175155399600622,13.86433149332204,15.869549472623785,24.379854955072705,29.259899061473376
0.71,31.2221993588288,131.0104260025131,11.008104821757527,11.291290594526831,-7.73810161539721,23.819882655733807,3.361116654897625,-2.9451280524983496,301.3312640634036,25.87513000598817,10.190296599110487,68.33782694629562,-1.0107029463692498,118.91597402805276,409.6525264760779,1.274,1.0243880468141104,0.0,5.298398211888217,255.00010927308023,0.0760471316917968,8.291905411998684e-07,-0.2326575003794306,-0.1134573072435753,0.0186832363743337,13.659917702170551,15.729004036805724,24.66332358198193,24.23546356367815
0.72,31.222198897608447,131.01042692946376,11.223729164855207,11.14520463597486,-7.622721004425587,29.17663875001126,3.586245396026763,-3.2750784019259407,350.7922053414578,26.090851423646946,10.291813430080111,68.20331339703938,-1.1674254070193515,118.74726352206268,416.5029363521424,1.274,1.024337302174265,0.0,5.315776541330999,255.00010927308023,0.0766813245124205,8.658804923830779e-07,-0.245043322117125,-0.1222177248043002,0.0198415063797102,13.475380218712544,15.61588984870095,24.897006349786924,29.578092286825118
0.73,31.222198431438294,131.01042786550357,11.441226804235244,10.948447974274272,-7.473871714953267,36.91368194360621,3.8307617459879104,-3.64115068494148,422.3203185282354,26.40980314873025,10.433257338912348,68.06141960408905,-1.3342258705826868,118.56753082070968,426.73947816111456,1.274,1.024292465384646,0.0,5.332970987842392,255.00010927308023,0.0776189179061141,9.03238318885952e-07,-0.2574821118582754,-0.1309911208640719,0.0211031202510719,13.230456053231824,15.447952061156348,25.23913664999136,37.29011435352127
0.74,31.222197956822768,131.01042881827817,11.662647063196248,10.71147000483873,-7.298667460534953,23.115800557969028,4.095240750830714,-4.043012553526954,294.4828134710563,26.8158881440748,10.608909363782688,67.9120763888958,-1.510747382608711,118.3771285658482,439.95436423632447,1.274,1.0242470321640116,0.0,5.35004941677158,255.00010927308023,0.0788126063699259,9.41295503613048e-07,-0.27001370069642,-0.1398040989154392,0.022470006566364,12.937673963240632,15.237001525122071,25.6725142851684,23.8213598006294
0.75,31.22219747361536,131.01042978829116,11.888065945005728,10.569651058841362,-7.187077951430322,26.989356589691617,4.323753005103336,-4.37691207263131,330.24688556441737,26.982920686662613,10.693409106954444,67.75518962763196,-1.696656071336459,118.17638337923889,445.4426239865806,1.274,1.0241984712898409,0.0,5.367163488272025,255.00010927308023,0.0793037211224927,9.800883259049982e-07,-0.2826685195909705,-0.1486767886347275,0.0236691255295649,12.758672313487368,15.152866262361156,25.85693539839184,27.681719030186983
0.76,31.22219699044716,131.01043075672595,12.11242144576011,10.37213649986482,-7.038830600879636,29.049752384008727,4.5763910367996825,-4.755271481781433,349.2703242098581,27.27405754964021,10.826490391572928,67.59064567908817,-1.8916315240571364,117.96560615414543,455.09703564746445,1.274,1.0241522053390697,0.0,5.384285825239785,255.00010927308023,0.080159585155734,1.0196909591603252e-06,-0.2953184423568133,-0.1575212769567618,0.0249946337091797,12.513329188650228,15.006056399499077,26.171179679546,29.78999958642774
0.77,31.22219649769955,131.010431744786,12.341348852430997,10.165542322272469,-6.884718959300913,27.158898260055345,4.834873045289886,-5.143827704581891,331.76876669606884,27.576612682509406,10.964953396589888,67.41840446134218,-2.0952253325221646,117.74524518954937,465.239727809476,1.274,1.0241065975906936,0.0,5.401070987730526,255.00010927308023,0.0810490165559135,1.0601335166160507e-06,-0.3080115781799737,-0.1663698998981885,0.0263575396769536,12.257190823029562,14.855940145380794,26.49776412684024,28.061374084647603
0.78,31.222195999320306,131.0104327439531,12.572528871308943,9.96901379923976,-6.737636234561552,22.30237676738048,5.089291873898215,-5.524839674193239,286.8734378128874,27.84177940584826,11.089667350628089,67.23839674995143,-2.3070249596568844,117.51570934239436,474.2193697513462,1.274,1.0240588105546735,0.0,5.417941589393828,255.00010927308023,0.081828567978298,1.1014624915039956e-06,-0.3207397037395792,-0.1752163079489895,0.0277100288527341,12.013223474560409,14.72664390974304,26.785871487355077,23.533396581825127
0.79,31.222195495890208,131.0104337530123,12.805621560819636,9.79010056033126,-6.602406463930014,31.68055168062508,5.332879539273174,-5.88687220791329,373.6203323159581,28.04524265800993,11.190895545938716,67.05055731618808,-2.526603231328955,117.27742272499756,481.1649626395079,1.274,1.0240083170932772,0.0,5.434723310913002,255.00010927308023,0.082426774773692,1.143731370374496e-06,-0.3334719389951778,-0.1840391480689508,0.0290199086910069,11.790351879655452,14.629183002400335,27.010432803153943,32.66117302488471
0.8,31.222194988441743,131.0104347697036,13.040023983405169,9.548441062246848,-6.425973164091828,32.08139805245684,5.613004261309087,-6.314036445498653,377.42502064505805,28.410472940437035,11.357200664696004,66.85483855489443,-2.753501727937376,117.0308429414156,493.7677740663364,1.274,1.0239625010683884,0.0,5.4513727305812285,255.00010927308023,0.0835004309226878,1.1869965765477812e-06,-0.3461662788827211,-0.1928094991032322,0.0305162378955091,11.492717416677182,14.45685130757288,27.403198224709683,33.17512583356303
0.81,31.222194470892337,131.01043580811543,13.279276176276896,9.317303429079466,-6.256741077973024,20.867530092825422,5.888184819293548,-6.7323792008289205,273.9374926939922,28.73613468639816,11.509008318222786,66.65121751266511,-2.987225099492551,116.7764676232216,505.1409052987824,1.274,1.0239149950770308,0.0,5.467855069039771,255.00010927308023,0.0844578022795196,1.2312848889341382e-06,-0.3588824385574205,-0.2015671854688671,0.0319991430845087,11.207720396921795,14.307150790165828,27.75528022712303,22.70351211475633
0.82,31.22219394838045,131.01043685666883,13.52038087938576,9.137328118901394,-6.1214984174178735,26.78143571674,6.126417828920377,-7.086743328492661,328.725004432774,28.895412342923088,11.594909973645986,66.43963595368196,-3.227328173813786,116.51473981919096,510.7443537273176,1.274,1.0238644186635044,0.0,5.484431546328319,255.00010927308023,0.0849261630903162,1.276653801246553e-06,-0.3715859110214757,-0.2102883419152783,0.0333146972050478,10.983854016980748,14.23674051450054,27.935677925344148,28.372525891579084
0.83,31.222193424116725,131.01043790786252,13.76147458971086,8.905637266808961,-5.952411392147287,34.00829876259252,6.398317812830521,-7.500816031264682,395.6875032246518,29.197178379058737,11.73935341075404,66.22005623486689,-3.4733380104398983,116.24613288946036,521.4557884903398,1.274,1.0238188483711983,0.0,5.50089214644272,255.00010927308023,0.0858133134818733,1.3231779697353308e-06,-0.384187385708208,-0.2189125856236,0.034803399307108,10.698391470718622,14.104156258820383,28.263856784397717,35.4085455320409
0.84,31.22219289039961,131.01043897998804,14.007029078957036,8.646081586396129,-5.765223878412376,20.95701614537232,6.69160816101676,-7.9524582222315345,275.45937482564227,29.576939810086404,11.917033562795924,65.99249446208225,-3.7247154241066993,115.9711930138869,535.0963150532032,1.274,1.0237739661568126,0.0,5.517113412497015,255.00010927308023,0.0869297096608716,1.3708839440293404e-06,-0.3967342759030837,-0.2274713563111815,0.0364066232140364,10.379772975614651,13.94132470204868,28.67286795829692,23.392642802264138
0.85,31.222192349018314,131.0104400691939,14.25599855064216,8.45131824775156,-5.6207846831104895,22.821883842925047,6.927942561887296,-8.306941877444485,292.9609323393965,29.72937957768108,12.002558988527994,65.75693950777215,-3.98096724798108,115.69041687085132,540.6133840677172,1.274,1.0237227741398531,0.0,5.533397350236034,255.00010927308023,0.0873779914736295,1.4198105229687975e-06,-0.4092421234200578,-0.2359744754461433,0.0377470685869322,10.138461126146105,13.88191348964079,28.84788426914335,25.255495513571173
0.86,31.22219180769529,131.01044115689757,14.5039085034655,8.22414430633111,-5.45529870140357,28.55601963052376,7.186427308328388,-8.7010335383651,346.2265619465616,29.97412827402743,12.127150558122365,65.5133719507234,-4.241620087391109,115.404280241753,549.5381974086937,1.274,1.023674789281455,0.0,5.549657905435288,255.00010927308023,0.0880975818418896,1.4700450842197923e-06,-0.4215976300802006,-0.2443459307790487,0.0392059008850643,9.8586024700688,13.785693833127471,29.11850610038487,30.70503182269155
0.87,31.222191258215886,131.01044226317308,14.755518109444523,7.971260750225203,-5.27310296786112,26.53213603523473,7.464974607168162,-9.130717021132392,327.9640783669946,30.29500647179828,12.284908138249582,65.26184161460833,-4.5061265569978,115.11334125862383,561.3534123753933,1.274,1.0236288969245204,0.0,5.5656073794454,255.00010927308023,0.0890409343748469,1.5216184063059856e-06,-0.4338235246399219,-0.2526006510825513,0.04077372310765,9.548134945173835,13.661545332220298,29.46787818910899,29.035324723478872
0.88,31.22219070175404,131.01044338555587,15.010142185681405,7.730510352214707,-5.099076832664151,22.85347034981276,7.727207209352253,-9.533952494213786,294.4828134710421,30.55852677694878,12.419993014287623,65.00238652926609,-4.773972093438398,114.81812357640132,571.1477552468417,1.274,1.0235805388426191,0.0,5.581567034465133,255.00010927308023,0.0898157125907568,1.5745648022118988e-06,-0.445932375768979,-0.2607464397579702,0.0422753312184754,9.252206595028587,13.566368690232022,29.75862254195245,25.940067240621442
0.89,31.222190141091144,131.01044451727907,15.266172234638308,7.496879819333145,-4.929869823010703,25.02858192723406,7.974955203802762,-9.914298018366432,315.02813424808807,30.77838112077025,12.537790213938472,64.7350390520756,-5.044666750634447,114.51912536956485,579.3813558357659,1.274,1.0235293752791452,0.0,5.597491337966262,255.00010927308023,0.0904621560600779,1.6289419086862252e-06,-0.4578827108276007,-0.2687555009785219,0.0437194753294568,8.964814563853011,13.493850495775725,30.004954124039344,28.07709260211806
0.9,31.222189575843608,131.01044565940592,15.523830870947853,7.2461315445739185,-4.74969184290852,27.6099654954432,8.234961802780964,-10.317202677218525,339.3781423542166,31.049404577437933,12.678782412521512,64.45985860945538,-5.317708638719652,114.21685984169751,589.6153422277631,1.274,1.0234837388140003,0.0,5.613280495529478,255.00010927308023,0.0912589988701103,1.6848023117543116e-06,-0.4696397668806596,-0.2766045958742203,0.0452358043068097,8.657108995466038,13.40542244155725,30.30417894879406,30.603422384361373
0.91,31.22218900392208,131.01044681755732,15.78432259282894,6.98509731074904,-4.563042944577405,20.856151965714474,8.50118445773423,-10.732368071882316,277.7421810230785,31.34884981683461,12.833613948382634,64.17692802174231,-5.592592233114558,113.9118464362286,601.0278284859137,1.274,1.023436404813438,0.0,5.628950535145249,255.00010927308023,0.0921393855141841,1.7421787294818991e-06,-0.4812042084624532,-0.2842938479457669,0.0467955267241993,8.33724445709412,13.311296965123336,30.632846149059095,24.94860590156806
0.92,31.222188425857247,131.01044799068669,16.047339248455362,6.746145734765856,-4.390830693300728,24.833768388549085,8.72973854754165,-11.086131730827391,315.0281342480675,31.53629642427464,12.941101120501148,63.8863322665479,-5.868834362508252,113.60458226670411,608.2214980032521,1.274,1.0233859136578225,0.0,5.6445753898019015,255.00010927308023,0.0926905967505757,1.8011069238676093e-06,-0.4925667862459864,-0.2918168376208303,0.0481856980561082,8.043672499409848,13.267264992361742,30.84726124634289,28.56268027055221
0.93,31.22218784532329,131.0104491692227,16.31076447142138,6.48261344607282,-4.2029633756251945,29.54834423310644,8.982991358345185,-11.483549476072987,359.16250706547066,31.81718575780918,13.090977098342544,63.58816456699007,-6.145968259974008,113.29554880002172,619.088772841046,1.274,1.0233407575091376,0.0,5.660136169045589,255.00010927308023,0.0935164567416431,1.8616485777229727e-06,-0.5036686617647599,-0.2991347775221261,0.0497093458441267,7.720991437247655,13.19232634619881,31.157577748660756,32.94951728374295
0.94,31.222187256959447,131.01045036772632,16.57768514115736,6.205510988322911,-4.0065761927063,21.20288136743419,9.24907866032089,-11.904555299843814,283.06875048378083,32.149473393076,13.265498894587852,63.28255682848791,-6.4235141511743485,112.98524491428816,632.0711897637324,1.274,1.0232914783978162,0.0,5.675509762701415,255.00010927308023,0.0944933947125126,1.923819076664927e-06,-0.5145231606905379,-0.3062561702249095,0.0513096454879339,7.382288416699206,13.104366220842389,31.52063466388346,26.015881135055388
0.95,31.22218666194444,131.01045158347938,16.847420039175525,5.95472494717857,-3.827247719999808,27.56439506011436,9.462821872599216,-12.240226759409296,342.421873617488,32.33545090215489,13.376173486501152,62.96963582023788,-6.701026753502664,112.67413412357692,639.3885582614671,1.274,1.0232418269359267,0.0,5.690878260397442,255.00010927308023,0.0950403071043816,1.987640977970153e-06,-0.5251261963227021,-0.313177942737395,0.0526685759899717,7.074869741114335,13.07901570683372,31.734715214166787,31.6095558960318
0.96,31.22218606516416,131.0104528031239,17.117161081188478,5.674551524947176,-3.6294195823327327,26.89230354418106,9.716162365594672,-12.644490788096489,337.09533515678265,32.658617061438775,13.550343513454443,62.6495337738662,-6.978083826562268,112.36265733362708,652.2158486509712,1.274,1.0231951201821403,0.0,5.70620094570201,255.00010927308023,0.0959904487277304,2.053177722752251e-06,-0.5354103958243942,-0.3198562478313889,0.0542353329006838,6.73276408398178,13.008565240968476,32.088890362103946,31.26472370447608
0.97,31.22218545912049,131.0104540478804,17.39121699029108,5.399394501592766,-3.4349703195480825,16.788189919486555,9.950521519644871,-13.019499730595118,245.0218871929888,32.9413867559588,13.708099625626144,62.322427344830366,-7.254250752135326,112.05127287315132,663.5415028589488,1.274,1.0231476260761452,0.0,5.721320094017451,255.00010927308023,0.0968218669001246,2.1204230705522613e-06,-0.5453980035878379,-0.3263052331994361,0.0557239265876977,6.396680807967847,12.96087021700701,32.402146037430086,23.45982891072806
0.98,31.222184848870143,131.01045530388163,17.666681731098862,5.146082736004693,-3.254527766680407,24.79466361307384,10.127508845488917,-13.301501175331342,319.593746642963,33.078199638645465,13.800069535538231,61.98848271826935,-7.529133956716151,111.740396560224,669.0469179151299,1.274,1.0230935628253934,0.0,5.736479406478144,255.00010927308023,0.0972242917672315,2.189410043409669e-06,-0.555054744040297,-0.3325024362234126,0.056944591620315,6.0865109508377415,12.974216413857729,32.56725447611791,29.90437614494382
0.99,31.22218423704744,131.01045656349683,17.942046317546698,4.862070992035902,-3.054964605663326,27.08552787096201,10.355773825641048,-13.671687454853364,341.66094855170127,33.38581909121859,13.972944285709657,61.64789034944352,-7.8023484538805885,111.43043830995676,681.5307135072376,1.274,1.0230490803133316,0.0,5.751516654152021,255.00010927308023,0.0981287596322885,2.2601920452112176e-06,-0.5643208768580478,-0.3384096301558769,0.0584320962853147,5.740220029359139,12.93204128394652,32.90617371537419,32.05905347073876
1.0,31.222183615825013,131.0104578499952,18.22179936356281,4.5771717850703055,-2.855081893707873,23.99456641296376,10.57524522184766,-14.029985549304664,314.2672081822764,33.689115473835486,14.14600169403163,61.3008808523078,-8.073506802552128,111.1218149884918,693.9511649461256,1.274,1.022999484445133,0.0,5.766353089649636,255.00010927308023,0.0990205314650184,2.332738187085959e-06,-0.5732229049998204,-0.3440433593781722,0.059891444780667,5.3930180124832825,12.89960349552297,33.24082583613012,29.739124455202745
1.01,31.222182989844928,131.01045915017485,18.5032777725653,4.298608118511098,-2.659467403990025,25.038321889963512,10.766324696385896,-14.343896969471864,324.92031610370094,33.93629923919467,14.294377383366983,60.947671783705246,-8.342265019953702,110.8148983374758,704.1528035958796,1.274,1.0229507481225095,0.0,5.781233057520796,255.00010927308023,0.0997473816747543,2.40705896491266e-06,-0.5817376123996016,-0.3493884229856707,0.0612253856958304,5.053466286638543,12.895310389209884,33.518701065661446,30.799004704766986
1.02,31.22218235959473,131.0104604626896,18.78620379799038,4.013892597637514,-2.460330558693302,20.529875054346963,10.95988301517752,-14.664915763967093,284.59063161543185,34.2158374992304,14.460116997354229,60.58849828132112,-8.608295540647308,110.51004563291028,715.7815496900857,1.274,1.0229039803623294,0.0,5.796013121542289,255.00010927308023,0.1005693365046099,2.4831736247929925e-06,-0.5898303208492782,-0.3544228298440393,0.062586746026606,4.706872966718773,12.887429995076042,33.82948843702743,27.507354649579174
1.03,31.2221817230177,131.0104617941629,19.07175488390593,3.736276127263828,-2.265774724530562,16.349679274417554,11.117423709800992,-14.929108375454511,247.3046933904342,34.42419901729854,14.593268316652956,60.22362016984509,-8.87128261444703,110.20760507060972,724.5059013733674,1.274,1.022853416101322,0.0,5.810680753566316,255.00010927308023,0.101182091766624,2.5610712743219425e-06,-0.597487352318707,-0.3591376325673354,0.0637835597369323,4.368777255179886,12.912809297293029,34.068384711316924,24.774733080411384
1.04,31.22218108325208,131.01046313511208,19.358135807651056,3.4610690029586006,-2.0728925163688365,26.911736899962595,11.249516958399782,-15.15412810323588,345.4656368807608,34.59394434277812,14.709034713620111,59.853308942565135,-9.130932572330192,109.90790405578224,731.6484533148432,1.274,1.0228049544826707,0.0,5.825298619122996,255.00010927308023,0.1016813480627411,2.640764358195981e-06,-0.604674035722389,-0.3635110474092239,0.0648672744828684,4.033689854314423,12.959522240425208,34.26840617502027,32.87005952746992
1.05,31.222180439785014,131.0104644872899,19.645641254559425,3.165680822226281,-1.868246164861744,15.347096434898235,11.437697992967404,-15.475708062564012,240.4562587980608,34.943952114222554,14.915800875703187,59.47786078101127,-9.386964320852492,109.6112601946631,746.5077913154582,1.274,1.022755494436122,0.0,5.839776102456833,255.00010927308023,0.1027104527133616,2.722249841949211e-06,-0.6113657799808253,-0.3675278096247849,0.0662468759842867,3.675367482156532,12.950522196700993,34.65054069279888,24.614057861273206
1.06,31.22217978705942,131.01046586917894,19.93744491065691,2.891387267186435,-1.676346586538148,22.59670035835959,11.529880744520618,-15.64086989535638,308.1796836557233,35.06967817007841,15.01276653765988,59.09759027545059,-9.639114421756346,109.31797551096857,751.8681548838525,1.274,1.0227013895379469,0.0,5.854131488874349,255.00010927308023,0.1030803376187012,2.8054527746162017e-06,-0.617575398005971,-0.3711948209439094,0.0671586334915479,3.3418366503525365,13.028134930325294,34.80639583013072,29.802446680630453
1.07,31.222179135520136,131.01046724685523,20.227582831423724,2.601187167080984,-1.4755775495016077,26.858414557570928,11.672899470061852,-15.894028508532482,348.5093681440431,35.363143636289884,15.19583268725638,58.71280702822603,-9.887151441126004,109.0283196228457,764.4828685050592,1.274,1.0226540159946436,0.0,5.868524024710825,255.00010927308023,0.1039432612353138,2.890416906396993e-06,-0.6232480690533058,-0.3744790654460995,0.0683407574083682,2.99031898252795,13.054325849804249,35.131386077765065,33.320431522033914
1.08,31.22217847465432,131.01046865542543,20.522056011865327,2.3090479505476704,-1.2741285261517732,17.188827032915647,11.814496211891647,-16.14840908121699,261.0015785751465,35.6856760312303,15.396268312612198,58.323857694671936,-10.13084831808582,108.74256190762132,778.4694989407072,1.274,1.0226061614050743,0.0,5.882660735842936,255.00010927308023,0.1048916326445567,2.977055279469365e-06,-0.628391698363786,-0.3773844509549248,0.0695312545117195,2.637086828769017,13.078257942291446,35.48555288535672,26.378195756393673
1.09,31.222177808458177,131.01047008219737,20.81858217857173,2.02871493633595,-1.0797433168556532,15.482764477381464,11.879617968136898,-16.278863690577573,246.54375332456465,35.84360811759599,15.514061128711775,57.93108681065638,-10.370006451818714,108.46094328608577,785.3528358206606,1.274,1.0225512795791307,0.0,5.89683778769433,255.00010927308023,0.1053561981591353,3.065318969834817e-06,-0.6329892560758896,-0.3798998033732202,0.0703479405475173,2.298051927287783,13.166672956327892,35.67401247269035,25.4134358556129
1.1,31.222177141211304,131.01047151247369,21.114724473318475,1.7462550278345603,-0.8845547719480785,33.522594612042184,11.939725758725544,-16.404481418277403,413.1890617384087,36.025713041850445,15.64584127483208,57.53485224678674,-10.604444473730087,108.18368920180352,793.3305761773668,1.274,1.0224981043155532,0.0,5.910944010611762,255.00010927308023,0.1058918185141424,3.1552167976466984e-06,-0.6370051533855713,-0.3820047230314166,0.0711519008382821,1.957447695014828,13.253525658303808,35.88677302259438,39.1845430153205
1.11,31.22217646876436,131.0104729608596,21.412847684811084,1.4497711050008593,-0.6827831886846522,23.67772448059643,12.093559759414978,-16.69057808626259,324.1593910379213,36.488157222204045,15.92739141096582,57.13553657724368,-10.833992543175032,107.91101632491748,813.8051756143785,1.274,1.0224548851875197,0.0,5.924866632563581,255.00010927308023,0.1072514599835021,3.246686368023458e-06,-0.6404282538759893,-0.383692323678245,0.072450427755627,1.602476096609028,13.249925819095427,36.38090842817645,31.392104438651543
1.12,31.222175784678885,131.01047445120437,21.71661193653159,1.1663393299613216,-0.4883091697114841,7.031613888693484,12.141188336750629,-16.80313829544058,172.7328179403806,36.71433677055822,16.08665367502181,56.73353178846976,-11.058499754422035,107.64312370528113,823.9014928918857,1.274,1.0223979224661404,0.0,5.938720441894999,255.00010927308023,0.1079166507212159,3.339567046025664e-06,-0.6432607819953952,-0.3849605603897414,0.0732198155196801,1.264420950712848,13.334931904918305,36.637634274098325,21.890580272889487
1.13,31.22217510111524,131.01047594006332,22.019100344100515,0.8904915082132712,-0.2977533708571171,28.16430074478622,12.096222794733231,-16.764222370715366,367.5328077894322,36.74157954661093,16.140428812301124,56.32923101960458,-11.277834777442107,107.38019174681676,825.1006765562473,1.274,1.0223460397860296,0.0,5.952673604715534,255.00010927308023,0.107997095682123,3.433876262001608e-06,-0.6454681261246019,-0.3857910408449112,0.0735234495402516,0.9389489109837807,13.494718837359557,36.69480876700736,34.93688014172678
1.14,31.22217441729479,131.01047742973793,22.320761466766665,0.6034683322655185,-0.1035921604222838,14.083941321377493,12.190394989757603,-16.962655164633052,239.6953177322812,37.1702348776806,16.413240422790633,55.92305105013001,-11.491876962772311,107.12239273854324,844.4410253404667,1.274,1.0223022138470996,0.0,5.966409703943473,255.00010927308023,0.1092574442119969,3.529613732052869e-06,-0.6470320630611431,-0.3861760888610379,0.0745592918811348,0.6122948365967298,13.520632561517148,37.15396266803851,25.19314992978377
1.15,31.222173719483983,131.01047897231115,22.62939018169179,0.3261474100035748,0.0863192998441665,13.718894226327254,12.146243987070948,-16.932882234971743,237.4125115347709,37.28335296728872,16.5163193291401,55.51542179646255,-11.700522003235063,106.86988395394316,849.5633408685914,1.274,1.0222426194541194,0.0,5.979955658262889,255.00010927308023,0.109590322933088,3.626541909607749e-06,-0.6479497058667049,-0.3861079399443893,0.0748900382098501,0.3373767539410057,13.661387614804209,37.29691196607222,24.94918440691066
1.16,31.22217302567584,131.01048050027526,22.9347745065132,0.0491513316018918,0.2748519370088022,41.190713457288254,12.111093366182414,-16.922047664497708,490.043774385954,37.46275777215869,16.65719439323049,55.10677742784357,-11.903678141623423,106.62281193728012,857.7339270669008,1.274,1.02219674531104,0.0,5.993659502521785,255.00010927308023,0.1101180431434039,3.7246941122229263e-06,-0.6482047870165683,-0.38558198716353,0.0752778196751006,0.2792121454110324,13.783446352184658,37.50593124788094,46.14877197504119
