Time,Latitude,Longitude,Altitude,Angle of Attack,Angle of Sideslip,X-Acceleration,Y-Acceleration,Z-Acceleration,Thrust,True Velocity,Ground Velocity,Pitch,Roll,Yaw,Dynamic Pressure,cp,parachute_deploy_gain,Wind Speed,Mach,omega_x,omega_y,omega_z,Cmq,Angle of Attack(total),Angle of Attack(gust),True Velocity(gust),Acceleration
0.0,31.222216000000007,131.010392,3.000000004412624,0.0,0.0,0.0,0.0,0.0,2.2828121974499247,0.0,0.0,71.99999999612658,-1.0292491154817412e-14,119.99999999354436,0.0,15.288,0.0,0.0,0.0,0.0,0.0,0.0,-0.0,0.0,90.0,0.0,0.0
0.01,31.22221599999862,131.01039200000284,3.0000009727369523,0.0,0.0,0.0,0.0,0.0,34.24218696174923,5.916279387578309e-11,5.734623670548936e-11,71.99999999613168,-5.86671995824671e-13,119.9999999935449,2.1432944861733093e-21,15.288,0.0,0.0,1.7386402909615473e-13,-3.4220131069073734e-19,7.115076756936125e-19,5.488773498207866e-19,-1.1574302492039043e-31,0.0,89.99999999962336,5.916279387578309e-11,0.0
0.02,31.22221599999738,131.01039200000537,3.0000018317022668,0.0,0.0,0.0,0.0,0.0,25.871876237766408,1.2265415415436536e-10,1.1895038237325684e-10,71.9999999961369,-1.1836364828043265e-12,119.99999999354544,9.211895886571454e-21,15.288,0.0,0.0,3.6044858651615574e-13,-6.979551485375437e-19,1.4162390878091906e-18,1.0909784360635388e-18,-4.776231873571785e-31,0.0,89.99999999921916,1.2265415415436536e-10,0.0
0.03,31.22221599921969,131.01039200159065,3.0001883335529382,18.80143492628821,-0.0001350810307892,10.931161642028636,-1.75114298675875e-05,3.026590975169265,180.34219359854663,0.0798232026864394,0.0478175828508887,71.99999999765336,-5.341802909786072e-12,119.99999999436793,0.0039016003969354,15.288,0.0,0.0,0.0002345795854893,3.788270153300133e-17,-7.771883375645477e-10,1.1422790048099072e-11,1.7057759223764537e-13,18.80143492675591,89.51882325913425,0.079801984207741,11.342422482672777
0.04,31.222215995131297,131.01039200995308,3.001692634342189,9.19442604083399,-4.49173898918486e-05,52.29595764159784,6.445392950801871e-06,3.026413589912948,548.6359724538078,0.3504174083926908,0.1601447499964056,72.00000000319055,-3.111420077280171e-11,119.99999999870242,0.0751892535633216,15.288,0.0,0.0,0.0010297854387864,2.0082066977226968e-15,-1.520937588847922e-08,2.5623342884322286e-11,1.4654248781413086e-11,9.19442604094277,87.798916624545,0.3504103527855857,52.383455068075136
0.05,31.222215983575865,131.01039203366796,3.0074067499493786,5.158590039700252,1.707592688632746e-06,76.26884281015512,5.843947534199429e-05,3.0258124765658088,761.6984298824644,0.9592973585397016,0.3772700771701255,72.0000000004862,-1.3608731808076822e-10,120.0000000109612,0.5634958029902841,15.288,0.0,0.0,0.0028191251099456,2.086299069701397e-14,-1.0551247853743037e-07,3.973493515691201e-11,2.783064866637575e-10,5.158590039700515,83.94063169874748,0.959297626767734,76.32884071402438
0.06,31.222215961742712,131.0103920785344,3.019291017943491,4.109521257467909,3.140103977270004e-05,57.06876634333886,0.0001151069734147,3.024834864051463,590.4875390737208,1.6257536642597354,0.6118982818704327,71.99999992547217,-3.5903296759057166e-10,120.00000003412836,1.6184272268450337,15.288,0.0,0.0,0.0047776672697797,1.0694899894620088e-13,-3.741090980393931e-07,5.521401959501359e-11,1.6723176417636091e-09,4.109521257587776,79.78719176344794,1.6257585967235286,57.148873286519276
0.07,31.222215929936205,131.01039214392435,3.0371334573469446,3.649087515174788,5.707077112564807e-05,86.89643797254193,0.0001728541558773,3.0234947746384675,855.2937749779139,2.3057260079826607,0.8506307413593818,71.99999965378231,-6.907496536790437e-10,120.00000006788592,3.255354923652711,15.288,0.0,0.0,0.0067759305364855,3.495199904512709e-13,-9.036515915819006e-07,7.594816279105379e-11,5.728932851326001e-09,3.6490875156204896,75.6601668283889,2.305734972638426,86.94902215090157
0.08,31.222215886364623,131.01039223353447,3.0621840248716574,3.4254446680114707,8.413075603463509e-05,17.831756866644035,0.0002285946601282,3.021841001032126,241.2171988638848,2.961944911520492,1.0819695676346892,71.99999900671328,-1.141745983122182e-09,120.00000011415082,5.371998197385977,15.288,0.0,0.0,0.0087043901031071,8.800530155962314e-13,-1.829098470920821e-06,1.0943386634701918e-10,1.4896287129277132e-08,3.4254446690434226,71.81713637501419,2.9619581267487467,18.085991154451033
0.09,31.22221583454733,131.01039234010327,3.0919888289029,3.389560809024919,0.0001118726864415,54.09031716446879,0.0002748660999733,3.020060228038602,563.0937377043176,3.504225426410036,1.2780161667917422,71.99999774508822,-1.634190085504106e-09,120.00000016921716,7.519080503822694,15.288,0.0,0.0,0.0102980157586766,1.865782139518716e-12,-3.1503298654458527e-06,1.6284478329871028e-10,3.03536411425607e-08,3.389560810868955,68.76526501308032,3.504242999330529,54.17456206384468
0.1,31.22221577423132,131.0103924641528,3.1267248829165366,3.4447939461814814,0.0001419149103147,51.372195336549765,0.0003131602029306,3.0182021883815127,538.7437595981919,3.950569597142709,1.4443465951180965,71.99999562056465,-2.1287748602259068e-09,120.00000023339832,9.55649523509932,15.288,0.0,0.0,0.0116097108366932,3.485956000178229e-12,-4.949356763187612e-06,2.4573266549165286e-10,5.3761299442583966e-08,3.444793949101151,66.34639928474206,3.9505918890846927,51.460781166288626
0.11,31.222215706113143,131.01039260424562,3.165907002780892,3.4691423802630394,0.0001702373452339,40.591037561894986,0.0003534470100582,3.016051659024047,442.8656393052949,4.421478635995476,1.6182620895289603,71.99999235067894,-2.5564479031457968e-09,120.00000030601664,11.970509656144712,15.288,0.0,0.0,0.0129935974697161,5.942887149865172e-12,-7.273722517324353e-06,3.67769289312894e-10,8.842679949465076e-08,3.4691423844348632,63.88798785789768,4.421505376815134,40.70293476011277
0.12,31.222215630588888,131.0103927595646,3.2092596514826863,3.4852659299808075,0.0001974376474727,44.30042894095728,0.000394069215595,3.013641598889868,475.58594813540446,4.896982486381051,1.793579340340896,71.99998761802138,-2.8337988279882726e-09,120.00000038673312,14.683611096353944,15.288,0.0,0.0,0.0143909889875706,9.464337642181618e-12,-1.017558359402848e-05,5.395790443954697e-10,1.3700793350599625e-07,3.4852659355662303,61.5068242157714,4.897013499814194,44.40281567867803
0.13,31.222215548046687,131.0103929293088,3.256512891171917,3.5606043721293616,0.0002276507019012,48.86766833507025,0.0004268800875964,3.0112558910133567,515.9156326236895,5.278566579338586,1.939796541405244,71.99998107389406,-2.8573058577484587e-09,120.00000047523812,17.061052093156064,15.288,0.0,0.0,0.0155123760833565,1.4300406003001044e-11,-1.3705268062305584e-05,7.724776992181392e-10,1.989112774124932e-07,3.560604379397528,59.67313531776262,5.27860233862722,48.960358155653
0.14,31.222215458587108,131.01039311327068,3.30759734332425,3.6000732663755977,0.0002555702913645,45.540290862247225,0.0004629468001456,3.0085404980032777,486.2390860568404,5.70011779273801,2.098362647205908,71.99997235012626,-2.508533681468686e-09,120.00000057154703,19.894788765881632,15.288,0.0,0.0,0.0167512184495524,2.071534240530911e-11,-1.7917736259613292e-05,1.0787346240473087e-09,2.8081526258393346e-07,3.6000732754351943,57.72385750323359,5.700157937625502,45.639559681930805
0.15,31.222215362317904,131.01039331122794,3.3624387479639086,3.651605404442164,0.0002842753491325,44.01308509501,0.0004965057129938,3.005703619811542,472.54218587214,6.091938849578711,2.2476968067377374,71.99996103728932,-1.6446954747148112e-09,120.00000067569304,22.723773683610247,15.288,0.0,0.0,0.0179026934683374,2.9002783512213203e-11,-2.287326399669318e-05,1.47199345427166e-09,3.831202693354572e-07,3.651605415492516,55.98561718911576,6.091983503446133,44.115597174664394
0.16,31.22221525912812,131.01039352340948,3.421115382839859,3.67540086436193,0.0003108411545024,34.83804992586084,0.0005330990866742,3.002517946501868,391.1218908297564,6.521183188362317,2.4085903880902046,71.99994669525161,-1.0153513453738144e-10,120.00000078796704,26.03872642002185,15.288,0.0,0.0,0.019164148528834,3.9478358970291335e-11,-2.864207894220033e-05,1.9677461746207517e-09,5.135466997084602e-07,3.6754008774883777,54.15946979122355,6.521232015176687,34.96719658394182
0.17,31.2222151493826,131.01039374906244,3.4833737923187487,3.7139589864597298,0.0003384978477213,43.96471427482637,0.0005668629535037,2.999235483723449,471.78125980632376,6.916861975403744,2.559060925010733,71.99992884100092,2.3206494032971838e-09,120.0000009081849,29.29426197817256,15.288,0.0,0.0,0.0203269651395979,5.248754693205839e-11,-3.5267097947693114e-05,2.580363454062817e-09,6.706952682968329e-07,3.713959001863866,52.549031795895466,6.916915146521327,44.06689817851128
0.18,31.22221503253009,131.01039398932429,3.549599475912623,3.7380363034619775,0.0003650282082698,36.67395661481795,0.0006021794701355,2.9956556354306425,407.10156721191447,7.332140201215607,2.71556808256092,71.99990696207136,5.837017536380516e-09,120.00000103716444,32.917216366714264,15.288,0.0,0.0,0.0215473823438242,6.839750892601699e-11,-4.285557247677198e-05,3.331016495775474e-09,8.639362741436378e-07,3.738036321259578,50.93050624815799,7.332197539712479,36.796100973258795
0.19,31.22221490871209,131.01039424390297,3.619694897703461,3.747799769666444,0.0003901520189829,41.42208371271829,0.0006393759928961,2.991742733214697,448.9531328318269,7.771071983754382,2.879366399937307,71.99988049019642,1.0709144790974043e-08,120.00000117502664,36.97605053227239,15.288,0.0,0.0,0.0228373144884866,8.761416506509219e-11,-5.146771415177372e-05,4.238406957677133e-09,1.0996552116864756e-06,3.747799789945131,49.29705748437159,7.771133268690212,41.529983675580546
0.2,31.22221477769685,131.01039451327668,3.693822889232993,3.7700519460961166,0.0004166800650969,37.99697972290605,0.0006740224661302,2.987733789228414,418.51563019916136,8.179966026035371,3.0338260708461373,71.99984881140107,1.723179577184912e-08,120.0000013223286,40.969302182777255,15.288,0.0,0.0,0.024038975990988,1.1057590044953188e-10,-6.120032215177249e-05,5.3263847350253015e-09,1.376394225587184e-06,3.7700519690893857,47.8457752505109,8.180031477986942,38.11426270718793
0.21,31.222214639876928,131.01039479663547,3.771710975053407,3.7926098867321474,0.0004432924407074,36.46301043881366,0.0007080907240332,2.983530483977461,404.8187610144644,8.582757448615462,3.1863584283669346,71.99981127559042,2.5745201416596626e-08,120.00000147900325,45.103059028532826,15.288,0.0,0.0,0.0252227064089584,1.3774582723633048e-10,-7.20875523136271e-05,6.61341033873124e-09,1.7010673350603349e-06,3.792609912601061,46.47936953648762,8.582827080829217,36.584868250565684
0.22,31.22221449507626,131.01039509434258,3.8534832466471007,3.782921298925821,0.0004660920499522,44.14577847155813,0.0007479176313898,2.978724032883548,472.5421858721365,9.056569122268344,3.360845972992861,71.99976720416048,3.661811567390422e-08,120.00000164562512,50.21995530074818,15.288,0.0,0.0,0.0266151520780326,1.6960703048385348e-10,-8.421592474264931e-05,8.124635526119773e-09,2.0969540034515424e-06,3.7829213275976334,44.9464484092354,9.056642335836344,44.24615863872642
0.23,31.22221434283448,131.01039540734791,3.9394622486964206,3.813874679301352,0.0004940771488601,36.66675459308932,0.000779455230549,2.974212905336642,406.3406421461021,9.430647902846331,3.5044030163419806,71.99971583979395,5.0272885112871524e-08,120.00000182313076,54.45382429059888,15.288,0.0,0.0,0.0277145095638672,2.0669790509245914e-10,-9.77285871729516e-05,9.894576563683824e-09,2.5339062472561444e-06,3.813874711257219,43.79476959007253,9.430725512303388,36.78718303164376
0.24,31.222214184153326,131.01039573358457,4.028950821673608,3.829256049377765,0.0005200487408944,37.802126339316736,0.0008136255607606,2.9692962675112065,416.2328240017114,9.837806876534357,3.658163422426286,71.9996564062533,6.718950080713476e-08,120.0000020109434,59.25679777340223,15.288,0.0,0.0,0.0289110855155543,2.4956955046738006e-10,-0.0001125744417092,1.1934277804843484e-08,3.0448209172448607e-06,3.829256084638984,42.59361542722471,9.83788856559955,37.91856374864305
0.25,31.22221401888584,131.01039607335582,4.122052964664892,3.851417709838087,0.0005469594058717,38.85163035360012,0.0008459008130282,2.964283881833675,425.36408079150686,10.22297576958679,3.8050691648373967,71.99958811418384,8.786880969336211e-08,120.00000220974424,63.98709205399403,15.288,0.0,0.0,0.0300430411774988,2.987811646313829e-10,-0.0001288461362054,1.4273117985167728e-08,3.621333387698252e-06,3.8514177486178034,41.50703126619192,10.223061685769354,38.96455005232871
0.26,31.222213847358866,131.0103964259872,4.218542267117083,3.8780574625554745,0.0005745172425185,42.3164797140743,0.0008766626387865,2.959162938653076,455.8015834241788,10.590779679138215,3.946551912391076,71.99951013710364,1.1286401474734325e-07,120.00000241975916,68.67355887153568,15.288,0.0,0.0,0.0311239685467471,3.5491769188178554e-10,-0.0001465721578858,1.6932703957058654e-08,4.267712643344226e-06,3.8780575050466,40.51245375834074,10.590869924095635,42.41981967733593
0.27,31.22221366913008,131.0103967923915,4.318728802515264,3.886188503202341,0.0005994342651313,38.70936050721014,0.0009111181036949,2.953518013741325,423.84219965987256,11.004860953238978,4.102320296019413,71.99942161756776,1.4276417094868828e-07,120.0000026420792,74.14786134434608,15.288,0.0,0.0,0.0323408987462391,4.1858405402174807e-10,-0.0001658847815307,1.995072923688136e-08,5.018832267232506e-06,3.886188549362022,39.43841359495857,11.00495511215316,38.8218734782956
0.28,31.22221348431185,131.01039717233687,4.422535913956003,3.90556090261878,0.0006261175699806,44.68030766832924,0.0009425767186621,2.947879457547137,476.3468732012221,11.38358114165448,4.247086834352694,71.999321619057,1.7823531611327881e-07,120.000002877279,79.33831935330025,15.288,0.0,0.0,0.033453914386159,4.904408325040897e-10,-0.0001868529238516,2.3357766479368094e-08,5.847713054408178e-06,3.9055609527288775,38.49894431917428,11.383679491972384,44.77744842575601
0.29,31.222213292835256,131.0103975659655,4.530013412817602,3.9242599519377537,0.0006528240665589,35.802573724660256,0.0009737210635801,2.942037024315898,397.97031042211177,11.759725774384751,4.391004157029451,71.99920917567837,2.1999186079018322e-07,120.00000312617878,84.66717879828003,15.288,0.0,0.0,0.0345593650464213,5.711677680739745e-10,-0.0002095620322847,2.7188189988316943e-08,6.77505090435382e-06,3.9242600061534456,37.60352534239979,11.759828319749328,35.92324968749781
0.3,31.222213095024976,131.0103979726075,4.64093665799555,3.936939025755682,0.0006785438093183,33.570228713727204,0.0010059102294455,2.93586442972183,378.1859457108711,12.149968255527943,4.539237002744259,71.99908328532703,2.6880857935396905e-07,120.00000338923812,90.3787563598417,15.288,0.0,0.0,0.0357062504417728,6.614698865958865e-10,-0.0002340353597042,3.1467140861055e-08,7.817263716758327e-06,3.9369390841381695,36.71173884615234,12.150074840940263,33.698361337808635
0.31,31.22221289105846,131.01039839189684,4.755183729044857,3.9598342215431432,0.0007060286581592,35.396825578217346,0.0010350810412898,2.9297385597941448,394.1656220930212,12.504537499407316,4.6763673222047455,71.99894291513503,3.255120771695107e-07,120.00000366712923,95.72967338626896,15.288,0.0,0.0,0.0367483036680869,7.620720834468404e-10,-0.0002603234137215,3.622454560346964e-08,8.948994505138873e-06,3.9598342843844345,35.934338386209795,12.504648402129598,35.5178635353378
0.32,31.222212681031937,131.01039882363492,4.872689374180126,3.985461429033668,0.0007340760463279,38.52097867048992,0.0010630242168685,2.9235095146848846,421.55939346242695,12.84534566718622,4.809181081594425,71.99878701464397,3.909756427278764e-07,120.0000039606604,101.01782231644016,15.288,0.0,0.0,0.0377499198995686,8.737098716736534e-10,-0.0002884807530145,4.1491545539590986e-08,1.0187112828155184e-05,3.98546149652875,35.21473736963424,12.845460975581933,38.631757748577954
0.33,31.22221246496604,131.01039926777932,4.9934410812554,4.010606629086,0.0007621365968788,38.18822026147908,0.0010905599149574,2.917102431053817,418.5156301991682,13.18247167592885,4.940798912752974,71.99861449732019,4.661299779655886e-07,120.000004270781,106.38859400029033,15.288,0.0,0.0,0.0387407190563976,9.971421990244511e-10,-0.0003185760672934,4.7302669734505256e-08,1.154498667827874e-05,4.010606701382261,34.52805863348922,13.182591392065536,38.299473293007864
0.34,31.222212242662028,131.01039972474007,5.117579377337869,4.019339771238816,0.0007871574969313,29.898022638335373,0.0011220389395318,2.910051232417875,345.46563688075645,13.569536737955724,5.0878303926024735,71.99842423285973,5.519675040347761e-07,120.0000045987411,112.72655675097128,15.288,0.0,0.0,0.0398782837956187,1.1331556132162459e-09,-0.0003507224668667,5.37022358302301e-08,1.308298593306914e-05,4.019339848191799,33.76700548046532,13.5696603843662,30.039310197084795
0.35,31.22221201433324,131.01040019407705,5.2449575244483055,4.033762873683395,0.000813261106463,32.76415525156106,0.0011515840876071,2.902959820469776,370.5765700527033,13.934300103976534,5.227895396154902,71.99821502296155,6.495674834876441e-07,120.000004945438,118.8669740701126,15.288,0.0,0.0,0.040950312688979,1.2825853697215452e-09,-0.0003849609961885,6.072234695821837e-08,1.4746020857580124e-05,4.033762955530055,33.07785186209504,13.934427850732408,32.89250745069162
0.36,31.22221177990305,131.01040067594835,5.375631006350063,4.051723629010647,0.0008401329464575,37.01692984301412,0.0011797030485285,2.8957873473716007,407.8625232777193,14.282998147928636,5.362923567977223,71.9979856440668,7.600645476620651e-07,120.00000531213882,124.88900300695136,15.288,0.0,0.0,0.0419751331662584,1.4462801652534363e-09,-0.0004213876232777,6.84067806399068e-08,1.654507199147348e-05,4.051723715967022,32.44322602189087,14.283130115703262,37.13002398000203
0.37,31.222211539445663,131.01040117020102,5.509550188388412,4.071639898917391,0.0008674922629137,35.12417761390579,0.0012067983861697,2.88849906286036,391.1218908297666,14.620581431527652,5.494447309446232,71.99773482653193,8.846681943540367e-07,120.00000570002652,130.86067091914967,15.288,0.0,0.0,0.0429672939311924,1.6251202388969355e-09,-0.0004600660652957,7.679415042686734e-08,1.849041957573993e-05,4.071639991174516,31.85023865502424,14.620717696893658,35.24274792557624
0.38,31.222211292895075,131.01040167697127,5.646763233102716,4.08264881385344,0.0008930259828975,36.695642158537446,0.0012360471443664,2.880711738179021,404.8187610144602,14.986392916850402,5.634654729559426,71.99746126698146,1.0246533537040716e-06,120.0000061105033,137.4891296153862,15.288,0.0,0.0,0.0440424171304414,1.8200057922063743e-09,-0.0005010869196581,8.592980519823866e-08,2.0642694281337543e-05,4.082648911356968,31.228847973200924,14.986533193043764,36.808540518115166
0.39,31.22221104018777,131.0104021963902,5.787316652586672,4.096641430700089,0.0009192713382325,31.335681548387896,0.0012640110027448,2.872831219844713,357.64062493382744,15.337978856701952,5.770390286512262,71.99716358743511,1.1813915463769678e-06,120.00000654506955,144.01394309468844,15.288,0.0,0.0,0.0450757388736732,2.031886352449547e-09,-0.00054455673306,9.586443829735616e-08,2.295945663566148e-05,4.096641533664766,30.65298398882095,15.338123255506089,31.4670954954126
0.4,31.222210781536543,131.01040272801887,5.931064331106764,4.109028969993624,0.0009451871856381,29.95928076777898,0.0012920492774571,2.8646905607053603,345.465636880754,15.692185018814769,5.906873567965718,71.99684037970908,1.3563276523471372e-06,120.00000700500496,150.74021066990193,15.288,0.0,0.0,0.0461167659598875,2.2617341782092324e-09,-0.0005905037520737,1.0663253249436129e-07,2.5471259834659164e-05,4.1090290785164525,30.09246700352443,15.692333488470696,30.095929256306363
0.41,31.222210517064383,131.01040327160345,6.077922766619747,4.122888296344507,0.0009714525997821,33.78425365340317,0.0013192264430821,2.85640971467756,378.94687077668647,16.03742529732769,6.0405139809190125,71.99649020751959,1.5509747261474075e-06,120.0000074917568,157.44375780268788,15.288,0.0,0.0,0.0471314487675864,2.5105374204052982e-09,-0.0006389770219162,1.1827345344180344e-07,2.816813594418537e-05,4.122888410595805,29.56469007160549,16.037577892745222,33.904791300285986
0.42,31.22221024682894,131.0104038270252,6.227854084363214,4.14444025865494,0.0009995884754813,38.04468161607466,0.0013435485656724,2.8482703202464488,416.2328240017114,16.348862540904037,6.163613566771559,71.99611159893284,1.766920641656551e-06,120.00000800692096,163.6157044470786,15.288,0.0,0.0,0.0480467946810589,2.779304965995011e-09,-0.0006900467934588,1.308321832549104e-07,3.100973487310896e-05,4.144440378988911,29.104646754454564,16.34901955589459,38.15115260238947
0.43,31.222209970843565,131.0104043942566,6.380851271439565,4.1618082623168045,0.0010268052928652,33.45815353250911,0.0013687230309017,2.8397750580998298,375.9031395134336,16.67263197205097,6.290467308135904,71.99570306121484,2.005818691215035e-06,120.00000855220898,170.15779512382937,15.288,0.0,0.0,0.0489983878509763,3.0690566816849196e-09,-0.0007437862329608,1.443552931671376e-07,3.4086145072160934e-05,4.161808388761201,28.640125213458976,16.672793262249197,33.57845085853367
0.44,31.22220968892116,131.01040497368373,6.537047157143216,4.164954087655709,0.0010505545842624,30.86574023822051,0.0013980747538988,2.830419582421933,353.0750125389216,17.050421620730056,6.433992917638883,71.99526304125902,2.269416145406482e-06,120.00000912964636,177.9537948947602,15.288,0.0,0.0,0.050108743779844,3.380847125286677e-09,-0.0008003278134917,1.589055036683518e-07,3.750784460406397e-05,4.164954219916419,28.113519280259386,17.050586641458253,30.99524475496968
0.45,31.22220940081287,131.01040556582012,6.696617751072218,4.165241899529329,0.0010735835484822,35.912216710755274,0.0014280646808282,2.820677244966047,397.2093853562869,17.438293672974723,6.580571293039616,71.99478987454265,2.5595995397253085e-06,120.00000974147088,186.13940823302417,15.288,0.0,0.0,0.0512487363629523,3.7158016249566814e-09,-0.000859850913876,1.745604864109677e-07,4.121350642664912e-05,4.1652420376426775,27.591357195572936,17.43846231108416,36.02281959036367
0.46,31.222209106468902,131.0104061707686,6.859600379555308,4.174585124444534,0.0010989881252456,41.916816790010685,0.0014546917035209,2.811153314474766,449.7140588976434,17.786187321601275,6.714685486378061,71.99428180697711,2.8783880229668832e-06,120.0000103898448,193.6374175079873,15.288,0.0,0.0,0.0522712438446989,4.0751091178509895e-09,-0.0009224765531151,1.9138630415982226e-07,4.50966024037632e-05,4.1745852688465686,27.13985967570823,17.786359950252297,42.01097612387663
0.47,31.22220880579083,131.01040678873238,7.026066274755745,4.1823089530633855,0.0011240727220223,28.37640408484148,0.0014814747534716,2.801325368441072,331.0078106302534,18.138167428286582,6.849989708801916,71.99373704967608,3.2278903746588286e-06,120.00001107707628,201.37401505997488,15.288,0.0,0.0,0.0533057667609836,4.459978104761035e-09,-0.0009883252835099,2.094509673354327e-07,4.927107017839778e-05,4.182309103852639,26.69716826759888,18.13834399721685,28.514342615617974
0.48,31.222208499300592,131.0104074186346,7.195654207463586,4.189479568102716,0.0011490100608361,27.95074823096412,0.0015080719422187,2.7912412472910484,327.2031223011574,18.48995085190441,6.98515976370584,71.99315377257649,3.6103201777021456e-06,120.00001180491516,209.25751230436188,15.288,0.0,0.0,0.0543397174489847,4.8716620260348906e-09,-0.0010573190976925,2.2877013380347535e-07,5.373205427420879e-05,4.189479725385959,26.268461765425428,18.4901313379827,28.089773168283216
0.49,31.222208187201936,131.01040806005494,7.368224738812109,4.202723284133339,0.001175611380853,35.08821363242469,0.0015321405723077,2.781292092003844,389.60000969812296,18.812014261754847,7.111044804193205,71.99253015042137,4.027946338669921e-06,120.0000125755114,216.60722913930897,15.288,0.0,0.0,0.0552863302793499,5.311396446020465e-09,-0.0011294854492155,2.4938633613154685e-07,5.8398320167141767e-05,4.202723448262914,25.88860807032205,18.81219892635871,35.1982716047702
0.5,31.22220786953184,131.01040871291724,7.5437546994244835,4.220815778795054,0.0012036252596423,36.05491615971072,0.0015540388599792,2.7714444106710974,397.97031042210494,19.10875420627192,7.229005658018125,71.99186435180009,4.483102820610566e-06,120.00001339126192,223.4908652241728,15.288,0.0,0.0,0.0561585257949344,5.7804122391526605e-09,-0.0012048912160576,2.713531252030471e-07,6.327866493526626e-05,4.220815950099865,25.54902500917784,19.108943271285572,36.161276053538906
0.51,31.222207546379583,131.0104093770373,7.722184419225251,4.232567510615346,0.0012298790840397,27.54004661432325,0.0015777580800203,2.761017323676155,323.3984349720841,19.430597746636646,7.354673636736509,71.99115452520388,4.978202222778502e-06,120.00001425458936,231.07869697977367,15.288,0.0,0.0,0.0571045034845869,6.2799518101633574e-09,-0.0012835871653678,2.947201005874635e-07,6.854585242460463e-05,4.232567688976395,25.189423168613605,19.430790935591396,27.678103017910345
0.52,31.222207217958143,131.01041005219858,7.9035566109665885,23.638360364328303,-0.0023349295010654,33.86282481695249,0.0009334344998787,1.0302353280489032,372.0984511843415,24.487648249526977,7.473311535655647,71.99034062806216,5.6830128671814926e-05,120.00006912595413,367.0068590139797,15.288,0.0,8.800021547302972,0.0719667955723069,6.866501967945439e-09,-0.0017359120577634,4.881245120814645e-05,0.0001168252957812,23.638360473028783,30.69771104014533,24.48728147965872,33.878493034461755
0.53,31.22220688452925,131.01041073775963,8.088066786947525,23.40954935911361,-0.0022849862690769,35.5324789103445,0.0009524289569536,0.9783724401124312,386.5562464348624,24.81959039246698,7.586209513531845,71.98917476168975,0.0001427895448014,120.00015986730033,377.01753520436256,15.288,0.0,8.833899557545406,0.07294249278695,7.71410829382459e-09,-0.0024058980903797,4.874112610621737e-05,0.000164106670459,23.4095494643559,30.37512405530028,24.81923146766325,35.54594591585332
0.54,31.222206545996134,131.0104114338294,8.275795032985139,23.18717746270636,-0.002236080928844,31.28173439234309,0.0009712909162907,0.9257847057979935,349.2703242098436,25.149977343383668,7.6981586918297635,71.98762048642183,0.0002286068335925,120.0002504646758,387.1147308787511,15.288,0.0,8.86772003985693,0.0739136261711222,8.838889991317132e-09,-0.0030935955784252,4.8669249388996566e-05,0.0002138196945728,23.18717756457445,30.061350493860832,25.149626100612814,31.29543073450174
0.55,31.2222062026693,131.01041213976788,8.466537076849411,22.97597982591672,-0.0021886472861245,33.1255552608646,0.0009897775367044,0.8729943706546197,365.2500005919907,25.47343758497173,7.807387425241874,71.9856677838974,0.0003142754801623,120.00034091089316,397.129052227852,15.288,0.0,8.901440413460865,0.0748644091664821,1.0247220264027056e-08,-0.0037984409224129,4.859693028950978e-05,0.0002659080873987,22.9759799245114,29.762102340307937,25.473093793060045,33.13705677170875
0.56,31.222205854563825,131.01041285554453,8.660294233007463,22.77916466521535,-0.0021429373611228,30.96213809802272,0.0010076985578666,0.8204271347815523,346.2265619465787,25.78582254021644,7.912518958012215,71.98330673809407,0.0003997889230035,120.00043119903168,406.9213215303748,15.288,0.0,8.935057651565632,0.0757826493749026,1.1945335995556432e-08,-0.0045207234463689,4.852419386968672e-05,0.0003203461165991,22.779164760645536,29.481256253865887,25.785485928402977,30.973005945499903
0.57,31.22220550177048,131.01041358097248,8.85701482713486,22.57910116103165,-0.0020973617520518,30.627682288139084,0.0010258906827526,0.7662906813430024,343.1828296833023,26.105486165344143,8.019729152852891,71.98052735710742,0.0004851483958436,120.00052133284672,417.0650856842961,15.288,0.0,8.968554822749105,0.0767222876887392,1.3939467910781605e-08,-0.005260453759582,4.84510926596876e-05,0.0003773786472771,22.5791012533475,29.19767455586217,26.105156712530608,30.63726692777855
0.58,31.22220514427979,131.01041431607192,9.056716986871043,22.36464070865852,-0.0020509589472903,40.145432004229576,0.0010449350491108,0.7092512080554954,426.1250058573153,26.445236151327485,8.133296934769485,71.97731965179725,0.0005703313883067,120.00061128354258,427.9833114662616,15.288,0.0,9.001929967397025,0.0777209653974027,1.6235861686733142e-08,-0.0060179436916408,4.837765121560526e-05,0.0004373303038006,22.36464079787516,28.8979282584715,26.44491398744947,40.15169671600738
0.59,31.22220478167932,131.0104150616943,9.259700008849425,22.17715708382806,-0.0020072973155547,32.66174581474696,0.0010627234739964,0.6539003191091938,360.68438819711065,26.75886603235678,8.237726091330442,71.97367291036058,0.0006553387575111,120.00070105501432,438.1863869581489,15.288,0.0,9.035232579320724,0.0786428849197676,1.8841106386148312e-08,-0.0067948398068644,4.830377313615541e-05,0.0004996345532195,22.177157170087643,28.6317199368745,26.75855072683184,32.66829084026057
0.6,31.2222044142074,131.0104158173484,9.465809684724414,21.961399921872623,-0.0019616204362385,29.099515695143165,0.0010821082058245,0.5938866972765908,329.4859594986058,27.10912233391541,8.354014863030272,71.96957625605528,0.0007401713964012,120.00079065054308,449.7237157207039,15.288,0.0,9.068429441183191,0.0796724548245775,2.1761939312660663e-08,-0.0075907073819579,4.822955835387156e-05,0.0005654505744117,21.96140000514688,28.33259477973133,27.108814203297893,29.105575346865137
0.61,31.222204041826625,131.01041658311195,9.675083964226769,21.7449634577233,-0.0019163275589215,34.00033686250615,0.0011016898895022,0.53224046486827,372.0984511843297,27.465270983329248,8.471874765877699,71.9650186249802,0.0008248142924175,120.0008800518528,461.60863551380106,15.288,0.0,9.10152454966591,0.0807193497771205,2.500519169300304e-08,-0.0084060133445776,4.815502447097217e-05,0.0006343985452025,21.744963538070166,28.03370557936401,27.464969967300256,34.004502464968645
0.62,31.222203664671795,131.01041735870743,9.88744100193422,21.58148074102021,-0.0018758676892325,42.13351529989031,0.0011184931380614,0.4758162013884585,442.86563930529206,27.761649212199146,8.569447508224101,71.95998865501763,0.0009092592812384,120.00096924995708,471.615225024958,15.288,0.0,9.134516301715884,0.0815905891840515,2.857785754912094e-08,-0.0092408183647283,4.808022752266803e-05,0.000704912245925,21.58148081865312,27.799731288873343,27.76135455159162,42.136201938886494
0.63,31.222203282562063,131.01041814450835,10.103017824197323,21.406019118508176,-0.0018347593810547,24.161333688338704,0.0011360122164795,0.4166555005155052,286.11251274707894,28.075433250311136,8.672465475707243,71.95447529450351,0.0009934992225074,120.0010582376058,482.3266245623672,15.288,0.0,9.1673783696889,0.0825129909960415,3.248660395211152e-08,-0.0100958991728816,4.800516041187967e-05,0.000778828508786,21.40601919344596,27.55244634812773,28.075145046981557,24.164926002284474
0.64,31.22220289612564,131.01041893921925,10.32138851076677,21.2097510197767,-0.001792356894257,23.735833022945823,0.0011548088222686,0.3533519020708745,282.30782441796754,28.41903050259313,8.785074441405065,71.94846735810754,0.0010775269692466,120.00114700669592,494.1942767747952,15.288,0.0,9.200131364187408,0.0835230204260987,3.673833628500896e-08,-0.0109694799240174,4.793004001715644e-05,0.0008565575705296,21.209751092018067,27.281079400849265,28.4187489598306,23.738463054575497
0.65,31.222202505354527,131.01041974285707,10.542569494007322,21.052342124113167,-0.0017534878483318,41.48484562819576,0.0011714341794557,0.2940593574716611,436.7781447787475,28.716085271978383,8.881914719585529,71.94195380331894,0.0011613436021137,120.0012355611444,504.5688550517676,15.288,0.0,9.232665775343836,0.0843962696502967,4.133963203437822e-08,-0.0118620154866569,4.785488571723208e-05,0.0009359136018593,21.052342193822497,27.05777423021622,28.7158098347513,41.48588783035994
0.66,31.22220210972796,131.01042055649668,10.766933362534887,20.889002260627496,-0.0017144612582847,35.38269578821365,0.0011884458548847,0.2326891636920033,383.51251517160017,29.02342244085515,8.98182317296197,71.9349235784606,0.0012449241975491,120.00132386962244,515.4159578123465,15.288,0.0,9.265124865818308,0.085299746234249,4.629694462390479e-08,-0.0127755178740604,4.777958783935877e-05,0.0010187551524892,20.88900232783929,26.828342108367742,29.02315313391049,35.38346092315696
0.67,31.22220170945285,131.0104213797117,10.994347247748978,20.70761757318144,-0.0016743762792638,24.555376519167687,0.0012066012300937,0.1673364697074189,289.1562440103425,29.35786878862485,9.09039804122116,71.9273647488733,0.0013282784011356,120.0014119477342,527.3514938616776,15.288,0.0,9.297467809514613,0.0862829043536087,5.161741751893944e-08,-0.0137096090010109,4.770424419662058e-05,0.0011058158006804,20.707617637901397,26.578124883009384,29.357605778213973,24.555946712518995
0.68,31.222201304718137,131.0104222121128,11.22469071812882,20.534685726009112,-0.0016353305094863,30.51359516058237,0.0012243125941183,0.1018289172926552,340.8999924858462,29.684158479365628,9.19596248157168,71.91926545169989,0.0014113981855046,120.0014997867705,539.126906814937,15.288,0.0,9.329621274470824,0.0872420978896748,5.7308142411905735e-08,-0.0146640390382553,4.762894059192973e-05,0.0011959194814657,20.53468578831367,26.33919420344582,29.68390160224992,30.513765094646285
0.69,31.22220089561856,131.01042305350512,11.45790842962428,20.383861780443738,-0.001598312200381,37.43744602294476,0.0012406907244943,0.0384278676086358,401.0140726853634,29.982618572015404,9.292001085095569,71.91061401844324,0.0014942575156988,120.00158735329836,550.0104203480201,15.288,0.0,9.361659822951845,0.0881195075337825,6.337605788837066e-08,-0.0156387791228611,4.7553743868452e-05,0.0012882088261996,20.38386184043981,26.128014264838697,29.982367509722096,37.43746576574361
0.7,31.222200482020583,131.0104239041644,11.694103015251672,20.2337889042316,-0.0015616623887706,31.500838587041176,0.0012570323985086,-0.0260783928666958,349.27032420985284,30.282104707224384,9.38808045141179,71.9013986604893,0.0015768670524227,120.0016746647168,561.0403038150687,15.288,0.0,9.39356466344828,0.0889999403519057,6.982792117865165e-08,-0.0166346083071242,4.7478656776010864e-05,0.0013838934383422,20.2337889619705,25.918759291384408,30.28185940187002,31.50084940679421
0.71,31.22220006399061,131.01042476395426,11.933238370680987,20.07262853849331,-0.0015245254353007,25.998416853475284,0.0012741065598572,-0.0936978137522874,301.33126406340574,30.599728808736504,9.489881958976552,71.89160744759536,0.0016592069230893,120.00176169615632,572.8581939901819,15.288,0.0,9.425280776258642,0.0899336889715413,7.667072345791473e-08,-0.0176515770964218,4.740374255696881e-05,0.0014838675332787,20.07262859399937,25.697109212159,30.599489336841145,25.998585726741315
0.72,31.22219964154054,131.01042563285054,12.175316232037655,19.898126212364325,-0.0014867662000442,31.70106220042487,0.0012921101342045,-0.1650714002076444,350.79220534145287,30.940010559010723,9.59888097954859,71.8812280482519,0.0017412836485296,120.00184845923728,585.6562652929757,15.288,0.0,9.456881416991122,0.0909340374624106,8.391157378238963e-08,-0.0186900248324935,4.732904274728685e-05,0.0015885989871987,19.898126265657865,25.460230465650504,30.939777018322165,31.701491997568848
0.73,31.222199214677044,131.01042651083992,12.420342179773131,19.76123607762852,-0.0014520230191052,39.9468458729064,0.0013076227264908,-0.2312519714210128,422.320318528234,31.22673840039749,9.68987509152652,71.87024786869213,0.0018230701442756,120.001934919289,596.5473346975041,15.288,0.0,9.48837233488957,0.0917769967719943,9.15577861237194e-08,-0.0197503748361997,4.725459489202537e-05,0.001694242976193,19.761236128842423,25.269903808839064,31.226510317155032,39.94751524660705
0.74,31.222198783341742,131.01042739804328,12.668365887879904,19.61405462863632,-0.001416849994559,25.24125429540109,0.0013238115008206,-0.3004777278637632,294.48281347105944,31.53059184778193,9.786262863503689,71.85865446700059,0.0019045754769349,120.00202109154588,608.198803310901,15.288,0.0,9.5196599849365,0.0926702970565758,9.961640722298034e-08,-0.0208330350575625,4.718043903795089e-05,0.0018044632850445,19.614054677795604,25.06811327248193,31.530369289505245,25.24304274493317
0.75,31.222198347925715,131.0104282936542,12.919126062685844,19.46094325072673,-0.0013815887134583,29.370491996260228,0.0013404190004716,-0.3721707531404546,330.24688556441487,31.845814622570764,9.88615697119056,71.84643540800428,0.0019857802956426,120.00210695156996,620.4054196422619,15.288,0.0,9.550800948225072,0.0935970204582084,1.0809482847507893e-07,-0.0219368056373388,4.710673459664645e-05,0.0019190163479692,19.4609432978676,24.860049013934752,31.84559760312316,29.372849929290183
0.76,31.222197908319348,131.01042919789927,13.172707576268747,19.32163830076428,-0.0013475751777161,31.573147853931264,0.0013560506325609,-0.4425615350257429,349.27032420986166,32.14134035564955,9.97928486900923,71.83357821047278,0.0020666801890951,120.00219249607352,631.9580482935627,15.288,0.0,9.5818091429892,0.094465860998793,1.1699998629886845e-07,-0.0230625067415755,4.703349087606922e-05,0.002036164412601,19.32163834596213,24.6696608622085,32.141128679035646,31.576249428286477
0.77,31.222197464469097,131.0104301108894,13.429156184638368,19.1865480957624,-0.0013141271320439,29.567455256985312,0.0013713495869076,-0.5133742656473818,331.7687666960708,32.43157903367284,10.07041414278111,71.82007023951171,0.0021472669476232,120.00227771648528,643.4069897363439,15.288,0.0,9.612666173022706,0.0953191704907035,1.2633893102515417e-07,-0.024210675804972,4.6960741039847375e-05,0.0021567840320881,19.18654813907116,24.485319264637884,32.43137261106566,29.571911764224122
0.78,31.222197016451148,131.0104310324677,13.688427786453625,19.041866457606247,-0.0012803421746964,24.402497582369968,0.0013873130860405,-0.5873997503581225,286.8734378128899,32.738917209286434,10.16695866238406,71.8058987632933,0.002227532330635,120.0023626040585,655.6429509182652,15.288,0.0,9.643328088206903,0.0962227450097723,1.3611886418337174e-07,-0.0253812519123125,4.688856226714635e-05,0.002282433804933,19.041866499053697,24.290262799835816,32.73871609360795,24.409566334716608
0.79,31.222196564366776,131.01043196242563,13.95046099913052,18.89242242619501,-0.0012465576520139,34.4148091238098,0.0014036195876657,-0.6638483264836232,373.6203323159534,33.056225579918234,10.26656387959899,71.79105085958558,0.002307468039595,120.00244714995534,668.3968145773633,15.288,0.0,9.673846560795855,0.0971556312660371,1.463470873018368e-07,-0.0265741570723241,4.6817032842224175e-05,0.0024128074904286,18.892422465818772,24.090288340278207,33.05602977110016,34.42121124537871
0.8,31.22219610798682,131.0104329012363,14.215422244292272,18.764698335539247,-0.0012144287440037,34.86522051159571,0.001418261285742,-0.7369955901994732,377.42502064505743,33.33853338984472,10.354359888489324,71.77551323077017,0.0023870656561696,120.00253134556364,679.8447921489002,15.288,0.0,9.70424431126567,0.0979856557406622,1.570307009932227e-07,-0.0277908049714262,4.674613191055324e-05,0.0025447579374441,18.76469837342224,23.917600517013422,33.338342627823714,34.87300913075373
0.81,31.222195647427355,131.01043384866065,14.483239450060932,18.624991950038822,-0.0011818208184154,22.93602184818556,0.0014337647111309,-0.8140652141900683,273.9374926939919,33.64266983832734,10.449133580381476,71.75927259804867,0.0024663167864479,120.00261518192164,692.2875651318859,15.288,0.0,9.734505547476408,0.0988798453519952,1.68177208671337e-07,-0.0290308963915233,4.66759571600106e-05,0.0026824929545461,18.624991986204044,23.73119946228013,33.642484198347304,22.95046410095188
0.82,31.222195182896595,131.0104348042695,14.753777204576528,18.48100197557988,-0.0011492526251521,29.26734230093053,0.0014495641210041,-0.8935102328182563,328.72500443277005,33.95588708853879,10.546709917745885,71.7423156166122,0.0025452130358189,120.00269864996352,705.219807696693,15.288,0.0,9.764559897612951,0.09980073307851,1.7979419963638709e-07,-0.0302938647545549,4.660662228583131e-05,0.0028251803060368,18.48100201006545,23.54046982352355,33.955706564358586,29.280978262298966
0.83,31.222194714382844,131.01043576808726,15.027051347694655,18.36240689077225,-0.0011184766999436,37.00769107227609,0.0014633052498873,-0.968315590811634,395.68750322465047,34.225257385583404,10.629596385547716,71.72462879493932,0.002623745983266,120.00278174082808,716.4343305695932,15.288,0.0,9.794465750258704,0.1005927572876257,1.918889924940419e-07,-0.0315801894922715,4.6538172897982085e-05,0.0029684276211811,18.36240692366184,23.38151050835698,34.22508169567423,37.0203570448165
0.84,31.22219424177722,131.01043674033892,15.303143524686073,18.239794458992066,-0.0010876997907178,23.13498191566818,0.0014772739214538,-1.045227866752972,275.4593748256452,34.50239475782919,10.714836421478743,71.70619884969302,0.0027019073065092,120.00286444585768,728.0645864478684,15.288,0.0,9.824233157294987,0.1014076181828794,2.044686486274669e-07,-0.0328905319032851,4.647064570166799e-05,0.0031165466434545,18.23979449032061,23.218499912911884,34.502223902345605,23.158581383885952
0.85,31.22219376540248,131.01043772035905,15.581839100408764,18.098398009745463,-0.0010561173725729,25.164100864184608,0.0014926992652042,-1.1280998827636308,292.96093233939376,34.81505882106946,10.811643361113878,71.68701248154608,0.0027796887218959,120.00294675596622,741.3001195896454,15.288,0.0,9.853838135319108,0.1023269056624323,2.1754084557427722e-07,-0.0342236712105422,4.640419416871153e-05,0.0032721680415702,18.09839803952814,23.033412024357844,34.81489292654052,25.189374424080064
0.86,31.222193285076138,131.01043870852428,15.863270178988946,17.972552905549044,-0.001025681418657,31.32663695778411,0.0015067815863659,-1.2084313192275946,346.2265619465587,35.100092374756066,10.899130624974989,71.66705591900997,0.0028570818278353,120.00302866248175,753.4676044698153,15.288,0.0,9.88330050851132,0.1031649914619501,2.3111263849543605e-07,-0.0355809094025335,4.6338817755457055e-05,0.0034296944901885,17.97255293385023,22.868092052902647,35.099931261095584,31.3499360702456
0.87,31.22219280082877,131.01043970477178,16.147422202075973,17.854330743298867,-0.000995907977892,29.225054480689792,0.0015201287362119,-1.2880050154110276,327.964078366998,35.37125874736966,10.981852327809092,71.64631542854771,0.0029340782873766,120.00311015656578,765.1335479720946,15.288,0.0,9.91260635197294,0.1039623277026794,2.4519141449377805e-07,-0.0369623943428782,4.6274588971142674e-05,0.0035902847313303,17.85433077016963,22.712889082361084,35.37110231051032,29.253423195069015
0.88,31.22219231270304,131.0104407090139,16.43427201196552,17.727132113058616,-0.0009658957828241,25.362638118327062,0.0015341293296697,-1.3711975209340317,294.4828134710418,35.66009272000794,11.070255251433572,71.62477727640247,0.0030106698205506,120.003191229421,777.658970199201,15.288,0.0,9.941725652466229,0.1048116005864021,2.5978460341165185e-07,-0.0383680829285451,4.621159196020676e-05,0.0037571530333818,17.727132138527853,22.547556577265038,35.65994099745317,25.399677110471018
0.89,31.222191820791217,131.01044172106054,16.723762530809555,17.59134530713322,-0.0009356969998558,27.74570654120672,0.0015487839163731,-1.4581349671101465,315.028134248087,35.96675456321064,11.16440587988472,71.60242757588735,0.0030868481604796,120.0032718722046,791.0695683768905,15.288,0.0,9.97069347239187,0.1057132816932036,2.748997062746692e-07,-0.03979790734162,4.614991239246149e-05,0.0039305717644359,17.591345331231526,22.37251327606555,35.96660758426961,27.783995239198454
0.9,31.22219132501576,131.01044274107184,17.015952625675556,17.480067941233195,-0.0009070015060824,30.57002478225725,0.0015612000527729,-1.5394897742038405,339.37814235421445,36.22551296355424,11.242536860873855,71.57925203368912,0.0031626049742994,120.00335207618056,802.4705000785436,15.288,0.0,9.999520398968317,0.1064741739463567,2.905440592269022e-07,-0.0412526295996313,4.6089591680829615e-05,0.0041034414054807,17.480067964029686,22.22818926031338,36.225370492090825,30.60876420880213
0.91,31.22219082545604,131.01044376888436,17.310793194688472,17.35996768895347,-0.0008780861269057,23.44621783020665,0.0015742623910388,-1.6245569762775238,277.7421810230789,36.50207521587232,11.326415780225704,71.55523677859227,0.0032379321457562,120.00343183266564,814.7470597633313,15.288,0.0,10.028197705410328,0.1072874037523705,3.0672512554197524e-07,-0.0427320534486632,4.603072516653043e-05,0.0042829309820978,17.359967710477008,22.073860738071204,36.50193728642605,23.502432180286668
0.92,31.222190322333887,131.0104448040408,17.608138510528004,17.231445018721967,-0.0008490107199034,27.767554839410067,0.0015879654456467,-1.713425851660174,315.02813424806214,36.7964092250294,11.416071253489308,71.53036779926359,0.0033128215982497,120.0035111328581,827.9157957396945,15.288,0.0,10.056711744444,0.1081528771939895,3.2345075661152056e-07,-0.0442352831295558,4.59734433064436e-05,0.0044692186926522,17.23144503900334,21.909987485607832,36.79627586273738,27.820369020385353
0.93,31.22218981555384,131.01044584673832,17.90805835891834,17.12489939103392,-0.0008212144777129,32.88390343844212,0.0015995441728688,-1.796839962361079,359.1625070654728,37.04542139993509,11.49056822405688,71.50463096289583,0.0033872653022358,120.00358996834004,839.1350414653887,15.288,0.0,10.085076704831415,0.108885148152055,3.407279144739872e-07,-0.0457632515447434,4.591778171033575e-05,0.004654748908736,17.124899410134482,21.773759448386663,37.04529240386658,32.93295829040666
0.94,31.22218930499801,131.0104468972199,18.210636518865726,16.99977350046452,-0.0007927725460468,24.079751978826057,0.0016126797921174,-1.8872345005989,283.0687504837787,37.33342035721016,11.577877649627103,71.47801231279705,0.0034612553829323,120.00366833087304,852.208218972158,15.288,0.0,10.11329198158781,0.1097320190083131,3.585636006933664e-07,-0.0473165921444977,4.586379526300137e-05,0.0048500192576839,16.99977351840408,21.61554565214264,37.33329582878983,24.153594184360312
0.95,31.22218879098344,131.01044795483233,18.515662872811344,16.878035627907693,-0.0007647329844543,30.960209759592445,0.0016253730183937,-1.9778723112949927,342.4218736174873,37.61467822804257,11.662862781738571,71.45049739841993,0.0035347839155496,120.0037462116906,865.0717641643578,15.288,0.0,10.141346152925504,0.1105590849393923,3.7696602412013764e-07,-0.0488940862018269,4.581162989116018e-05,0.0050493233909362,16.878035644728428,21.462211081467007,37.61455810406628,31.023322998666472
0.96,31.22218827319209,131.0104490202312,18.82335616104297,16.76739397158282,-0.0007373968238291,30.349875597785303,0.0016368647078624,-2.066104549567757,337.09533515678345,37.87186700249831,11.73972899582818,71.42207181771352,0.0036078430945512,120.00382360282664,876.916075367768,15.288,0.0,10.169260620248863,0.1113154144888503,3.9594159043848803e-07,-0.0504976899470468,4.576128064802036e-05,0.0052504302612494,16.76739398733191,21.32321946782915,37.87175117247609,30.420120635692992
0.97,31.22218775164636,131.0104500933705,19.1337045757496,16.652176387656876,-0.0007100726980962,19.685071424934705,0.0016486198106912,-2.157035883352627,245.02188719299323,38.13870909800306,11.819699037264137,71.39272086476134,0.0036804251394089,120.00390049596712,889.2904609569432,15.288,0.0,10.197013120109707,0.11210012640725,4.154978964825289e-07,-0.0521275177651374,4.571283477826206e-05,0.0054579148575485,16.65217640236744,21.17937366544606,38.13859756004448,19.8028998766544
0.98,31.222187226661205,131.01045117360107,19.446499262226432,16.51973690901135,-0.0006822805177795,28.33333974697924,0.0016618959306621,-2.255283897185336,319.5937466429581,38.44429652304663,11.912515051317245,71.3624298765079,0.0037525224138635,120.0039768826265,903.571335274176,15.288,0.0,10.224605645122418,0.1129987304911344,4.356434834354461e-07,-0.0537820262784711,4.566645170704262e-05,0.0056760962870424,16.51973692270815,21.015105535804015,38.44418935067352,28.422956381005747
0.99,31.222186698075767,131.01045226125464,19.761851960314896,16.41809523581573,-0.0006559437490065,30.89750902887232,0.0016719871500029,-2.343854761477187,341.6609485517054,38.68017730051278,11.98201540404758,71.33118384919445,0.0038241272994397,120.00405275484094,914.6656436226832,15.288,0.0,10.25205985914383,0.1136924557992173,4.5638517590931924e-07,-0.055462623143251,4.56221608739429e-05,0.0058892010825954,16.418095248558405,20.88937121800419,38.68007426510963,30.986282805907628
1.0,31.2221861658874,131.01045335633668,20.07976626446168,16.299716220737498,-0.0006291561056654,27.7256271271906,0.001683543965567,-2.4396362854659497,314.2672081822764,38.953800440600624,12.064031014979328,71.29896840008608,0.0038952325213323,120.00412810482892,927.6237587742044,15.288,0.0,10.279367476492254,0.114497125691819,4.777303800613923e-07,-0.0571692651652085,4.5580057608684886e-05,0.006113173266389,16.299716232550608,20.74380007715796,38.95370161299065,27.832754582248764
1.01,31.22218563029292,131.01045445844144,20.400112897972303,16.184850579707195,-0.0006027227901718,28.96603468903205,0.0016945683469298,-2.5353356528486195,324.9203161036979,39.21905963846931,12.143209877253888,71.26576857492977,0.0039658307731439,120.00420292455186,940.2713069578,15.288,0.0,10.30652453894368,0.1152772202522453,4.996871826498436e-07,-0.0589012333861129,4.5540264080573016e-05,0.0063410687666509,16.18485059062978,20.603252603469564,39.218964962994825,29.076779315295138
1.02,31.22218509120762,131.0104555677437,20.72295038336708,16.075000916006815,-0.0005766772575912,24.28998510667852,0.0017048845782671,-2.630267039364496,284.59063161540416,39.47194511756391,12.218199990940327,71.23156966735317,0.0040359149809273,120.00427720650885,952.4066540877756,15.288,0.0,10.333537294485463,0.1160209533104933,5.22262557384667e-07,-0.060659209306653,4.55028466628068e-05,0.0065722292585573,16.075000926077884,20.46958759800661,39.47185453331212,24.431980764720308
1.03,31.22218454870425,131.01045668409338,21.04823142243101,15.954088227388633,-0.0005504604874065,19.96434441070347,0.0017161416810734,-2.7307441686141822,247.30469339049705,39.75089961294041,12.301890185766496,71.19635706086557,0.0041054782657746,120.00435094322512,965.8856621660788,15.288,0.0,10.36040079428096,0.1168413206528051,5.454640743692132e-07,-0.0624429105845717,4.54679106984819e-05,0.0068130874373462,15.954088236638144,20.323000027075807,39.75081314680924,20.150236088164068
1.04,31.22218400284872,131.01045780735475,21.37591386565743,15.844769611771063,-0.0005248483385148,31.36387274040743,0.0017259912599726,-2.8277898336462592,345.46563688072297,40.001295668963934,12.375990759621407,71.16011565692169,0.0041745137670321,120.00442412724234,978.0616813440506,15.288,0.0,10.387118563174466,0.1175777539975928,5.692993218814972e-07,-0.0642523230341886,4.5435551436871786e-05,0.0070544488149626,15.844769620240973,20.191392424085013,40.00121322597971,31.49109257550127
1.05,31.222183453327087,131.01045893817476,21.70620669726113,15.726678746294152,-0.0004991508201974,19.171295149059485,0.0017365445506269,-2.929623939849741,240.45625879819983,40.272609110421214,12.45707091498728,71.12283054713588,0.0042430148587593,120.0044967517468,991.3428598932431,15.288,0.0,10.413704661913224,0.1183756799928114,5.937743358347602e-07,-0.0660894136020058,4.540579873056844e-05,0.0073051322288728,15.726678754015529,20.04967338034855,40.27253070399373,19.393845857304306
1.06,31.22218290039573,131.010460076025,22.03894062492764,15.601329567218666,-0.0004734562010424,27.039645022190232,0.0017476729835337,-3.0359126322256325,308.17968365593924,40.561962219269454,12.544226361721696,71.0844861901669,0.0043109749091573,120.00456880929504,1005.6072181085334,15.288,0.0,10.44014796935,0.1192266404889424,6.18897944565915e-07,-0.0679528741334133,4.537879825549914e-05,0.0075648326155882,15.601329574224264,19.899671660519665,40.56188784894331,27.20954191990238
1.07,31.222182343925496,131.01046122117162,22.374201978565274,15.49449696593498,-0.0004485152052987,31.72856728105826,0.0017565778410193,-3.1354142915648486,348.5093681440308,40.803826738170656,12.61538999157384,71.04506672092973,0.004378387374532,120.0046402929392,1017.602754643774,15.288,0.0,10.466463019421893,0.1199380237069658,6.446771122426545e-07,-0.0698439313838441,4.535461213532811e-05,0.0078214653014611,15.49449697226746,19.773237671190667,40.80375628556696,31.88311163569133
1.08,31.22218178380168,131.01046237385094,22.71206577260209,15.38426075032448,-0.0004236576345612,21.559773841661563,0.0017656003566109,-3.237509220594277,261.00157857466235,41.053219748024006,12.689062802238114,71.00455662550402,0.0044452460236183,120.00471119603382,1030.0465178409222,15.288,0.0,10.49265123850716,0.1206715450458406,6.711190180013541e-07,-0.0717632971582855,4.533332497989408e-05,0.0080852613982064,15.384260756017044,19.643308521899403,41.05315320003839,21.801498048858292
1.09,31.22218122032164,131.01046353345004,23.05233551362968,15.25539308626634,-0.0003985185574508,19.878333690248287,0.0017764542854432,-3.349384944338568,246.54375332474407,41.35075117545792,12.77902807687184,70.96294026143838,0.0045115447998974,120.00478151166298,1044.996901511944,15.288,0.0,10.518697502549388,0.1215465735449592,6.982329428781815e-07,-0.0737092259829442,4.531509394773184e-05,0.0083644139361733,15.255393091348031,19.49099266502353,41.3506885763093,20.15853499047021
1.1,31.22218065356521,131.0104646998043,23.39495867844304,15.136855458083607,-0.0003738746621724,39.259032187556826,0.0017859325719524,-3.457850159110736,413.1890617385841,41.62086025578135,12.859791778998588,70.92020186150427,0.0045772778228193,120.0048512333181,1058.6587907390667,15.288,0.0,10.544606563760729,0.1223410063418703,7.260266696571337e-07,-0.0756816335637182,4.5300023968669467e-05,0.0086440549730992,15.13685546259297,19.352132079748824,41.62080152768675,39.41101799263805
1.11,31.22218008308573,131.01046587383405,23.740226944703505,15.0382238985228,-0.0003498831588304,28.905532242114635,0.0017928778075609,-3.557813016880084,324.1593910376397,41.836112588881605,12.921966032789992,70.8763254022154,0.0046424393516495,120.0049203551914,1069.6018526626983,15.288,0.0,10.570402127096685,0.1229742015519849,7.545053772391348e-07,-0.0776835997781575,4.528814222395368e-05,0.0089183031826657,15.03822390249912,19.238675773730066,41.83605762936354,29.123664447960888
1.12,31.22217950894455,131.01046705541256,24.08809706883566,14.903631601854268,-0.0003252701842588,11.285133994593382,0.0018036740529495,-3.676697438204021,172.73281794065943,42.1482900641293,13.017047950325493,70.83129520221677,0.0047070239882857,120.00498887127814,1085.587687350404,15.288,0.0,10.59607315449724,0.1238923108318662,7.836773972711182e-07,-0.0797146154757204,4.527957774184608e-05,0.00921944910259,14.90363160532332,19.08126814274372,42.14823897080824,11.868966112566978
1.13,31.222178931789667,131.01046824320463,24.438146356420194,14.789130610586689,-0.0003013254309417,33.954753559434145,0.0018119046584578,-3.7868454120707393,367.5328077900705,42.40478617760574,13.093346521125955,70.78509432608656,0.0047710261996927,120.0050567747877,1098.803770676524,15.288,0.0,10.621585466017692,0.1246467578006295,8.135543456205788e-07,-0.0817709823046835,4.527452698581735e-05,0.009514512590488,14.789130613587924,18.949482104498436,42.40473884551773,34.165267315503705
1.14,31.22217835088236,131.01046943873214,24.790852553160995,14.688619549017853,-0.000277823028473,19.072511545287405,0.0018181861178978,-3.890740676470232,239.69531773195544,42.62028249871893,13.155696362146914,70.73770724907506,0.0048344411124869,120.00512406110288,1109.9625348194072,15.288,0.0,10.646982435525128,0.1252806971637636,8.441390325443959e-07,-0.0838576312335487,4.5272991407821536e-05,0.0098065591765742,14.688619551587417,18.83583347569708,42.62023885837967,19.465316924274884
1.15,31.222177766752257,131.01047064090355,25.14586815171097,14.552197391889797,-0.0002538685781867,18.80278126839447,0.0018284481679316,-4.014875423381504,237.41251153546767,42.93694082630853,13.252660522153942,70.6891184602387,0.004897264124541,120.00519072451657,1126.4788937159456,15.288,0.0,10.672238193742212,0.1262120079135495,8.754427133207768e-07,-0.0859708458147776,4.5275164664708615e-05,0.0101280357755072,14.5521973940564,18.678117911723128,42.93690094872552,19.226643270097394
1.16,31.22217717954736,131.01047184941396,25.50309655462776,14.455413504872611,-0.0002308006458059,48.227636908300845,0.0018336742919961,-4.118667284342373,490.0437743845894,43.13831951325823,13.310368374650745,70.63931124041723,0.0049594905282875,120.005256759607,1137.0312602724837,15.288,0.0,10.69736310141792,0.1268044664660212,9.07473470275356e-07,-0.0881103100118819,4.528116088655069e-05,0.0104284071362331,14.455413506675876,18.570511148480858,43.13828325917757,48.40318569392282
1.17,31.22217658828962,131.01047306627774,25.863163266766897,14.339904138400268,-0.0002075851610514,9.042754150822224,0.0018408214710578,-4.233737796695554,153.70937929486794,43.392146335878245,13.38602438134567,70.58827018329934,0.0050211162612588,120.00532216282994,1150.4114697229486,15.288,0.0,10.722389354912512,0.1275511050410469,9.402324062432958e-07,-0.0902824623589647,4.529098713953977e-05,0.0107479969089424,14.339904139871267,18.440275604806036,43.3921137284774,9.984785513570372
1.18,31.22217599424963,131.01047428887725,26.22524688106052,14.199722261607096,-0.0001842701646121,23.75632393782724,0.0018507308114314,-4.364335394505513,280.02501822196746,43.71903982680244,13.486980244983144,70.53597902344913,0.005082137305875,120.00538692825872,1167.769325465535,15.288,0.0,10.747264167340171,0.1285125327717407,9.737364112216202e-07,-0.092478465586784,4.530490792053211e-05,0.0110919813329033,14.199722262778176,18.27980567116663,43.71901088171266,24.15388900156498
1.19,31.22217539684424,131.01047551841356,26.58971964538723,14.114371361715598,-0.0001618364026503,41.05083466592146,0.0018535148147376,-4.463898917479355,428.4078130529292,43.87924870835924,13.530752257256855,70.48242103335154,0.0051425497695683,120.0054510520765,1176.3024284214523,15.288,0.0,10.772029928166637,0.1289839988452669,1.0079878570173775e-06,-0.0947032262498371,4.532296092615528e-05,0.0114000472586317,14.114371362624556,18.188698918173543,43.87922328715656,41.29282533019276
1.2,31.222174795562424,131.01047675593875,26.95690048674703,13.985232890989453,-0.0001390607117478,4.760194598659236,0.0018614132787607,-4.590503914705458,117.1843741360236,44.17057980834113,13.619736952935172,70.42758117663737,0.0052023505393942,120.00551453119849,1191.932081926709,15.288,0.0,10.79668939016077,0.1298409109448886,1.0429911697255537e-06,-0.0969596636344716,4.534523760686452e-05,0.0117487476647102,13.985232891667042,18.043443240652504,44.17055796473561,6.613031246931327
1.21,31.222174191687056,131.01047799881036,27.325967986323192,13.858598071919475,-0.0001165619593141,33.062538480473584,0.0018687132904107,-4.716978649213805,359.92343213200894,44.45396267174777,13.706272692316936,70.37144251905816,0.0052615362642529,120.0055773603472,1207.2323732646892,15.288,0.0,10.821202661342488,0.1306744687243196,1.0787638009750829e-06,-0.0992389224088281,4.5371961788737184e-05,0.0121016475172583,13.858598072400056,17.901942109833332,44.45394436223801,33.39732536958648
1.22,31.22217358422396,131.0104792490756,27.69754952794362,13.769139067277766,-9.45281646037802e-05,24.093504389227324,0.0018708794363794,-4.820831131923388,283.0687504825761,44.61815883723501,13.75166227927808,70.31398924183047,0.0053201041882612,120.00563953730608,1216.123554818163,15.288,0.0,10.845617671576267,0.1311576809292644,1.1153041973861003e-06,-0.101548647707321,4.540317149297468e-05,0.0124286015838288,13.76913906759596,17.80794190859612,44.61814398878563,24.571067743515503
