Time,Latitude,Longitude,Altitude,Angle of Attack,Angle of Sideslip,X-Acceleration,Y-Acceleration,Z-Acceleration,Thrust,True Velocity,Ground Velocity,Pitch,Roll,Yaw,Dynamic Pressure,cp,parachute_deploy_gain,Wind Speed,Mach,omega_x,omega_y,omega_z,Cmq,Angle of Attack(total),Angle of Attack(gust),True Velocity(gust),Acceleration
0.0,31.222186000000004,131.010384,3.000000003643237,0.0,0.0,0.0,0.0,0.0,2.2828121974499247,0.0,0.0,69.99999999623421,0.0,113.69999999388332,0.0,15.288,0.0,0.0,0.0,0.0,0.0,0.0,-0.0,0.0,90.0,0.0,0.0
0.01,31.22218600000153,131.01038399999584,2.99999882256592,0.0,0.0,0.0,0.0,0.0,34.24218696174923,7.502283530665459e-11,7.190531319924593e-11,69.99999999623329,-4.83564628150269e-13,113.69999999388072,3.446445726795683e-21,15.288,0.0,0.0,2.204725565824978e-13,-3.659182332138578e-19,7.589415207398531e-19,4.811147140404426e-19,-1.5108918610345807e-31,0.0,89.9999999995224,7.502283530665459e-11,0.0
0.02,31.22218600000288,131.01038399999217,2.999997775701936,0.0,0.0,0.0,0.0,0.0,25.871876237766408,1.5320717031631675e-10,1.4674636035870463e-10,69.99999999623222,-9.67129256300373e-13,113.69999999387804,1.4372842949972735e-20,15.288,0.0,0.0,4.5023593667086093e-13,-7.284483346386986e-19,1.5178830414797062e-18,9.757819552369542e-19,-6.170906918166791e-31,0.0,89.99999999902465,1.5320717031631675e-10,0.0
0.03,31.22218599928065,131.01038400193067,3.000201659671132,18.81500467334555,-0.00012974450181,11.96616230539064,-1.8916256735984712e-05,3.349833086198469,180.34219359854663,0.0882870268161719,0.0553390044312322,69.99999999799445,-4.212591857125379e-12,113.69999999488518,0.0047728553458352,15.288,0.0,0.0,0.0002594525584132,3.2187251995663407e-17,-7.20264389268894e-10,1.2365134327422308e-11,1.6874092354518158e-13,18.815004673776716,89.46786891739345,0.0882666465974854,12.426199017587786
0.04,31.22218599548236,131.0103840121632,3.001799604587872,9.46752327608497,-4.6177622759613696e-05,55.21900012092241,3.931876292165237e-06,3.349616504302861,548.6359724538078,0.3767519978512604,0.1853356633749705,70.00000000507204,-2.4624598767003407e-11,113.70000000019972,0.086915163246288,15.288,0.0,0.0,0.0011071759353184,1.6174128009138757e-15,-1.3693172015529268e-08,2.7753303060112748e-11,1.3689612277852356e-11,9.467523276196548,87.63554493451223,0.3767447442872393,55.32050167054111
0.05,31.222185984749512,131.01038404118162,3.00777936418888,5.376730308971262,-2.257790939128127e-06,80.28807156553681,5.266841443842784e-05,3.348887800834877,761.6984298824644,1.018787885905993,0.4366201147110198,70.00000000894464,-1.1355399380652658e-10,113.70000001523856,0.635552918586145,15.288,0.0,0.0,0.0029939522895272,1.6418815498809788e-14,-9.32122351075408e-08,4.303264669380585e-11,2.5199270302492604e-10,5.3767303089717045,83.57022052969386,1.0187875312530217,80.35788377762394
0.06,31.22218596447235,131.01038409608267,3.0201664202003013,4.296730121134882,2.4863835723705905e-05,60.21296515808257,0.0001057204249726,3.347700952379021,590.4875390737208,1.721098934225416,0.7081674028809783,69.99999995523842,-3.0560354507026086e-10,113.70000004366592,1.8138247671743823,15.288,0.0,0.0,0.0050578622752421,8.328976953118383e-14,-3.2824985336199985e-07,5.923438275930214e-11,1.4991363363716091e-09,4.296730121206683,79.20467073327266,1.7211028398275985,60.305955550063224
0.07,31.22218593493329,131.01038417609837,3.038741944736831,3.8204913578752526,4.8016684030909405e-05,91.4060317508128,0.0001597686613101,3.346072557365335,855.2937749779139,2.4375792548422868,0.9844712334613328,69.99999973536046,-5.939103491363046e-10,113.7000000850886,3.6383156301599167,15.288,0.0,0.0,0.007163413150771,2.709313825263564e-13,-7.906546256197275e-07,7.920022733617308e-11,5.114174483651565e-09,3.820491358176508,74.87999294483174,2.437586797285377,91.46725557277466
0.08,31.222185894468456,131.01038428575305,3.0647976109320942,3.588632851766762,7.220043782492885e-05,19.18449428359557,0.0002119618497595,3.3440615022685813,241.2171988638848,3.1292508166901074,1.2522236515868983,69.99999919480445,-9.914748373602156e-10,113.7000001418522,5.996012698481753,15.288,0.0,0.0,0.0091960591623389,6.80386533246681e-13,-1.5973238302190878e-06,1.0839624626357699e-10,1.3263625118823921e-08,3.58863285249208,70.86684630658345,3.1292621579083604,19.473766155861934
0.09,31.22218584634549,131.01038441616095,3.0957981580345013,3.551302481506045,9.685468678862004e-05,57.102946699906326,0.0002554087225869,3.341892818148368,563.0937377043176,3.701810007254615,1.479132491047967,69.99999812344194,-1.4359264356978275e-09,113.7000002093888,8.390904013834115,15.288,0.0,0.0,0.010878666406854,1.440096519545733e-12,-2.748643691533636e-06,1.5214952332699618e-10,2.6999776649034504e-08,3.5513024828250237,67.68737872952666,3.701825221153239,57.20065357568538
0.1,31.222185790329306,131.01038456796124,3.1319266121977414,3.608446747536112,0.0001234669721807,54.26147302645416,0.0002914860332524,3.3396271157106168,538.7437595981919,4.174070299823608,1.6716491241860567,69.9999963052332,-1.902380107712657e-09,113.70000028805804,10.668380938744466,15.288,0.0,0.0,0.0122665227999911,2.687800116751415e-12,-4.315796035622946e-06,2.1749089204950437e-10,4.7802076800548326e-08,3.608446749645647,65.17160335282355,4.174089693970246,54.36414778470795
0.11,31.222185727066616,131.0103847393952,3.172681775073216,3.633547373470009,0.0001485939126744,42.987553988990406,0.0003293995000288,3.337005588796181,442.8656393052949,4.672024955140527,1.8729475711242067,69.99999349387662,-2.3433348587116544e-09,113.70000037699285,13.365573690709628,15.288,0.0,0.0,0.0137298902182575,4.5789425819531184e-12,-6.340230783164189e-06,3.1157625832417107e-10,7.860218435507205e-08,3.6335473765043056,62.62546922225161,4.672048296217748,43.116880735560244
0.12,31.22218565692512,131.0103849294629,3.2177790417108385,3.650108937861461,0.0001727442530266,46.86777100765684,0.000367618259785,3.334068179146888,475.58594813540446,5.17479364099247,2.0758708919414386,69.99998941286465,-2.702771525550512e-09,113.70000047573096,16.396890189902592,15.288,0.0,0.0,0.0152074069417046,7.288473386564583e-12,-8.86736416607888e-06,4.42271554299792e-10,1.217615295152289e-07,3.6501089419435786,60.16906436414164,5.174820775596283,46.986210423745625
0.13,31.222185580265183,131.0103851371844,3.2669395832841857,3.7280113734654137,0.0001995014041665,51.64515456841877,0.0003986198234033,3.3311573548369657,515.9156326236895,5.579364582999854,2.2451120211463422,69.99998375846928,-2.9114380666036422e-09,113.70000058383452,19.060875702782603,15.288,0.0,0.0,0.0163963474924215,1.100846422415094e-11,-1.1941028436408576e-05,6.179653149059831e-10,1.7678562106638216e-07,3.728011378795934,58.279338776943774,5.579395920607139,51.75247433579817
0.14,31.22218549718016,131.01038536230575,3.320091807147376,3.768719651034081,0.0002242721760019,48.1660778383537,0.0004326225136175,3.32784677779744,486.2390860568404,6.025734265159953,2.428648685938864,69.99997621008868,-2.890941335368725e-09,113.70000070125378,22.232643351545065,15.288,0.0,0.0,0.0177081261985351,1.5941871344608664e-11,-1.560901486259027e-05,8.477542742712431e-10,2.495765160917323e-07,3.7687196576976176,56.27980129251342,6.025769493750979,48.280903250602165
0.15,31.22218540777004,131.01038560455507,3.377159065217065,3.821894709649632,0.000249725644238,46.56959330999435,0.0004643042952466,3.324387732286376,472.54218587214,6.441023336496372,2.6014999612196745,69.99996641132823,-2.546763407193136e-09,113.70000082794672,25.402620271850456,15.288,0.0,0.0,0.0189285691155931,2.2314099732464315e-11,-1.992367942778425e-05,1.1417519574710292e-09,3.4051816697623295e-07,3.821894717796148,54.501255563441134,6.441062563308839,46.68809885900716
0.16,31.22218531193176,131.01038586421257,3.4382223512025254,3.8463320955387794,0.0002733212404609,36.974247749122085,0.0004987816203583,3.3205066466509234,391.1218908297564,6.895451966878468,2.7877331692857847,69.99995397923414,-1.77088415515292e-09,113.70000096417354,29.113317717489338,15.288,0.0,0.0,0.0202640360420561,3.0367358387834494e-11,-2.4945905791363795e-05,1.5114297685186711e-09,4.5643121540033697e-07,3.846332105235269,52.641145594326446,6.895494900078523,37.12304892183151
0.17,31.222185210004127,131.010386140357,3.503019838429153,3.8860314262554336,0.000297865039677,46.520531453299206,0.0005306403365217,3.31650761597812,471.78125980632376,7.314788342774694,2.9619016331667103,69.99993849340957,-4.3039914767238207e-10,113.70000110959404,32.761746921137856,15.288,0.0,0.0,0.0214963781445172,4.0366633128431416e-11,-3.0713078585132897e-05,1.96747427715988e-09,5.961228045584824e-07,3.886031437653654,51.00464968745696,7.314835131305714,46.63860064094784
0.18,31.22218510147516,131.01038643438045,3.571950002194137,3.9107265153396016,0.0003214293682635,38.895647526122765,0.0005639254295027,3.312149448254175,407.10156721191447,7.754626295791602,3.1430587898572058,69.9999195084231,1.6149322372810674e-09,113.70000126508234,36.81988229018681,15.288,0.0,0.0,0.0227889722876034,5.2593391349219385e-11,-3.731786027786564e-05,2.525509173087448e-09,7.6786585232224e-07,3.9107265285284982,49.36615848311875,7.754676785798701,39.036415444581515
0.19,31.222184986476247,131.0103867459258,3.644912152926752,3.920599115663931,0.0003437679584038,43.86258669386953,0.0005989384366483,3.307389681300437,448.9531328318269,8.219206165926856,3.332657190859447,69.99989653019398,4.538529095696477e-09,113.70000143063515,41.36350714675367,15.288,0.0,0.0,0.02415428010977,6.735860419174937e-11,-4.481243905342629e-05,3.199401151670645e-09,9.773118416308382e-07,3.92059913071168,47.71893898797248,8.21926016487149,43.987104227715655
0.2,31.222184864792144,131.01038707557822,3.722074668489528,3.943376465171875,0.000367328732016,40.28070981710589,0.0006315894240138,3.30251450988504,418.51563019916136,8.65238089736321,3.511445117640573,69.99986902534273,8.534090245934178e-09,113.7000016067622,45.83799876721736,15.288,0.0,0.0,0.025427299120469,8.499785987217288e-11,-5.328041996372527e-05,4.006766070954748e-09,1.2232205148646746e-06,3.9433764822533854,46.2587826635041,8.652438597225508,40.41586552155969
0.21,31.22218473678744,131.01038742234647,3.803156063113743,3.9664546506877016,0.000390962054969,38.67679184347145,0.0006636984664108,3.297405915846789,404.8187610144644,9.079179692250786,3.688002035198235,69.99983642883521,1.3827831253856693e-08,113.70000179318536,50.47126980736161,15.288,0.0,0.0,0.0266815841422463,1.0586558589671407e-10,-6.275155280099118e-05,4.961340042512481e-09,1.5117124669161171e-06,3.9664546699249135,44.88773728276958,9.079241104426773,38.817098210937615
0.22,31.2221846022986,131.01038778667507,3.8882846911135607,3.956175711337521,0.0004112685792646,46.713636108302936,0.0007011135033803,3.291572407481395,472.5421858721365,9.580256326712124,3.889976788904857,69.99979815126248,2.0662823443484168e-08,113.70000199039316,56.195522894218605,15.288,0.0,0.0,0.0281541581291438,1.3033127211465288e-10,-7.330053770532661e-05,6.0817207473359025e-09,1.8632831045819008e-06,3.956175732680424,43.35679625546934,9.580320928629488,46.8294591882524
0.23,31.222184460898035,131.01038816972698,3.977794004014759,3.9879066397329104,0.0004360962274406,38.89105719050748,0.0007308686121188,3.286096544282012,406.3406421461021,9.977039034039262,4.056142701351626,69.99975353557706,2.9316661139418326e-08,113.70000219928508,60.9462612310605,15.288,0.0,0.0,0.0293202403623685,1.5880617816859538e-10,-8.505067486192354e-05,7.393319440773217e-09,2.2514912291167663e-06,3.987906663538912,42.20670487756048,9.97710753587448,39.0296395118868
0.24,31.222184313516166,131.01038856897196,4.070963590490852,4.003523997322975,0.000459165577055,40.0792299321398,0.0007630441688766,3.280134925833028,416.2328240017114,10.408422364424831,4.234121060914368,69.99970190737699,4.010976417051318e-08,113.70000241888,66.32994780718496,15.288,0.0,0.0,0.030588009649109,1.91711512587616e-10,-9.795845222523724e-05,8.904557280909524e-09,2.7052895870113487e-06,4.003524023611085,41.011349410369874,10.408494489985014,40.21323112692186
0.25,31.22218416001652,131.01038898478134,4.167901030441617,4.0261356185860135,0.0004830526730531,41.17760020658354,0.0007934613160587,3.2740610008587527,425.36408079150686,10.816813039390448,4.4041629376391525,69.99964258149416,5.3372865854010094e-08,113.70000264972064,71.63651430352668,15.288,0.0,0.0,0.0317882126436337,2.2947426169209347e-10,-0.0001121037688082,1.0637152702866709e-08,3.217380562698304e-06,4.026135647516394,39.93186687113378,10.816888917126896,41.30755663120434
0.26,31.222184000702686,131.0103894163294,4.26837241014618,4.053359329950934,0.000507503069958,44.80261175215926,0.0008224724146494,3.2678597736729302,455.8015834241788,11.207047269494833,4.567925492611352,69.99957484039399,6.947299261165984e-08,113.70000289176392,76.89781807056055,15.288,0.0,0.0,0.0329350617559806,2.7254099134167665e-10,-0.0001275114371842,1.260720913253598e-08,3.7915697709142366e-06,4.053359361668992,38.945390435244384,11.207126987890645,44.921630958721536
0.27,31.22218383516388,131.01038986473338,4.372698316214008,4.0614460923241,0.0005296455772492,41.029837477288126,0.0008548809954683,3.2610328932384265,423.84219965987256,11.645685385842508,4.748226940060522,69.99949794024376,8.879821051920497e-08,113.70000314600205,83.0342688744587,15.288,0.0,0.0,0.0342241635563461,3.2137296827284217e-10,-0.0001442952656441,1.4842505534226832e-08,4.458527942364847e-06,4.061446126801262,37.8838346421185,11.645768582375233,41.15922617924542
0.28,31.222183663504484,131.01039032970942,4.48079961904222,4.081133040992532,0.0005533279247169,47.27661484082626,0.0008845140695959,3.254218495915602,476.3468732012221,12.047344998676092,4.915789434712848,69.99941106884992,1.1178948978424788e-07,113.70000341275257,88.85982357848233,15.288,0.0,0.0,0.0354045979054623,3.764736350660473e-10,-0.0001625146963723,1.7365685655384934e-08,5.194620655212288e-06,4.081133078439725,36.956255322213885,12.047431915223257,47.38848224631549
0.29,31.22218348566054,131.0103908114315,4.592727908358551,4.1001100265020245,0.0005770279952742,37.989969791857405,0.0009138463939581,3.247164755122801,397.97031042211177,12.446314684600782,5.082367374004485,69.99931338876085,1.3891902435864665e-07,113.70000369260468,94.8417675268915,15.288,0.0,0.0,0.0365771315767517,4.3836067907166327e-10,-0.0001822432988888,2.0202163500922312e-08,6.018074062137429e-06,4.100110067036654,36.07377590258778,12.446405323946324,38.12849176886316
0.3,31.222183301933686,131.01039130907952,4.708251093558373,4.112858061667493,0.0005998635114143,35.655053282557844,0.000944131403186,3.2397207148238625,378.1859457108711,12.860033399289696,5.253940723820665,69.99920403105713,1.707002607527005e-07,113.7000039856728,101.2505662360602,15.288,0.0,0.0,0.03779301412572,5.075709863465428e-10,-0.0002035013069687,2.3370674033523645e-08,6.94335970778e-06,4.112858105337573,35.19685285507256,12.860127625629724,35.80193592228613
0.31,31.222183112488807,131.0103918222051,4.827243246502713,4.136140889545823,0.0006242383343011,37.56633644061071,0.0009716215464757,3.232339252743767,394.1656220930212,13.2364445751808,5.4126574282679245,69.99908210036875,2.0768081583188525e-07,113.7000042923011,107.26326115439352,15.288,0.0,0.0,0.0388992619788015,5.846561731689753e-10,-0.0002263323252403,2.6893437641668458e-08,7.948283231812338e-06,4.1361409365698805,34.43286455705216,13.236542630309057,37.70514091683033
0.32,31.22218291741533,131.01039235056504,4.949637017503345,4.1622282001352975,0.0006491019906456,40.83513712643371,0.0009979686925508,3.224840963348891,421.55939346242695,13.59846554462374,5.566374262777002,69.99894668612772,2.504388718903276e-07,113.70000461297312,113.2095365840355,15.288,0.0,0.0,0.0399632243410653,6.701756367872645e-10,-0.00025078340164,3.0793566854276295e-08,9.047716714467492e-06,4.16222825066026,33.72644865222576,13.598567505326,40.96227562489027
0.33,31.222182716732533,131.01039289410716,5.075419569102976,4.187801887681037,0.0006739743721461,40.48743503284469,0.0010239291638211,3.217136801802925,418.5156301991682,13.956637761217308,5.718704299733134,69.99879684673242,2.995902922462564e-07,113.70000494831164,119.25032483364384,15.288,0.0,0.0,0.0410158804634189,7.647061680070125e-10,-0.0002769136723495,3.509664608790402e-08,1.0253455741189656e-05,4.187801941818244,33.053267359159875,13.956743628864118,40.61505097607
0.34,31.222182510255863,131.01039345333336,5.204736257784645,4.19642921746386,0.0006961879027693,31.814592723444047,0.0010535137542081,3.208669900766693,345.46563688075645,14.367047160772364,5.88887983533068,69.99863160305904,3.557915789971256e-07,113.70000529927128,126.36523219087664,15.288,0.0,0.0,0.042222056531773,8.688448410811866e-10,-0.0003048202762282,3.9835373705550826e-08,1.1618525957862828e-05,4.196429275109305,32.30947868183619,14.367156517712404,31.97598901989736
0.35,31.222182298183583,131.0103940277045,5.337435501771672,4.210915783240843,0.0007193441544952,34.813487415034444,0.0010813034848195,3.200164272309822,370.5765700527033,14.754132934586384,6.050986755458457,69.99844991734221,4.1975736284587617e-07,113.70000566632532,133.26448209504355,15.288,0.0,0.0,0.0433596939127697,9.832256819293898e-10,-0.0003345386312107,4.503361101379695e-08,1.309465610343774e-05,4.210915844572415,31.63649055965014,14.75424592890194,34.96026256388454
0.36,31.222182080444604,131.0103946174141,5.4735747500461605,4.22903876037745,0.0007431682866607,39.2632255716727,0.0011077666085529,3.1915717453569297,407.8625232777193,15.124417129017054,6.2072589919251575,69.99825073022951,4.922382611919288e-07,113.70000605036684,140.03566173682628,15.288,0.0,0.0,0.0444479595865755,1.1084921261805627e-09,-0.0003661511460057,5.0723697896912267e-08,1.4691545926915382e-05,4.229038825557203,31.017264542603208,15.124533865618538,39.39272792946638
0.37,31.22218185710795,131.01039522227452,5.613102797925907,4.249164960780052,0.0007674149135003,37.28328237034959,0.001133274451316,3.1828514669894137,391.1218908297666,15.483077353331511,6.359470679857624,69.99803294268581,5.740349991123437e-07,113.70000645214331,146.75405277514704,15.288,0.0,0.0,0.0455020695186381,1.245311285088233e-09,-0.0003997125883071,5.6934243389647934e-08,1.641828325195534e-05,4.2491650299519,30.439178816713017,15.483197898584232,37.418894813348615
0.38,31.2221816281124,131.0103958424523,5.756069531572451,4.260095806433531,0.0007900626414612,38.9278000801764,0.0011607546399008,3.1735466295306622,404.8187610144602,15.87126705947922,6.521735074464384,69.99779542676283,6.659911329739736e-07,113.70000687263192,154.20298254405043,15.288,0.0,0.0,0.0466429667223463,1.3943646956867835e-09,-0.0004353006984059,6.369875435270817e-08,1.8328108041903096e-05,4.260095879559656,29.83470194713067,15.87139116222873,39.05694584372078
0.39,31.22218139339905,131.0103964781077,5.9025231349944285,4.274091258047817,0.0008133283308351,33.320076729592266,0.0011870382950339,3.164143363712209,357.64062493382744,16.24457853509073,6.678818328235205,69.9975369905506,7.690136753559805e-07,113.70000731287368,161.54010621938565,15.288,0.0,0.0,0.0477401448128051,1.5563705124515804e-09,-0.0004730068442167,7.105463478762673e-08,2.0383860516746246e-05,4.274091335289374,29.274934656826048,16.244706292406182,33.46997636540994
0.4,31.22218115316572,131.01039712870306,6.0523126585892895,4.286421841403391,0.0008363022448449,31.88018820767003,0.0012133780841982,3.1544430614236454,345.465636880754,16.62063299903514,6.836764518435374,69.99725641601981,8.840594270905819e-07,113.70000777359816,169.10340080049767,15.288,0.0,0.0,0.0488453895716005,1.7320643186450851e-09,-0.0005128553637434,7.9027539265021e-08,2.2612406375611563e-05,4.286421922834417,28.730746964325096,16.620764365084565,32.03586915718869
0.41,31.22218090752676,131.01039779392735,6.205351877049411,4.30025870409831,0.0008595777771371,35.882550741685804,0.0012389121673015,3.1445895889870297,378.94687077668647,16.987310563534386,6.99141560549392,69.9969524610574,1.0121301778427253e-06,113.70000825570062,176.64448930727934,15.288,0.0,0.0,0.0499230826371405,1.922193031274436e-09,-0.0005548883906878,8.764667734700782e-08,2.5005077415911235e-05,4.300258789847355,28.21875643368965,16.987445585695873,36.020076248499606
0.42,31.222180656535848,131.0103984736348,6.36160173428776,4.322008670726048,0.0008844838439129,40.34064925656127,0.001261804338223,3.134918999355981,416.2328240017114,17.318628721060172,7.133856886815013,69.99662385300175,1.154276942054023e-06,113.70000876021427,183.59942989625057,15.288,0.0,0.0,0.0508968652507098,2.1275184665783874e-09,-0.0005991661829955,9.694534598491077e-08,2.752657757470936e-05,4.322008761057615,27.772396468009568,17.318767655457478,40.462275036947325
0.43,31.222180400205527,131.0103991677914,6.521055075967404,4.339436441324956,0.0009085827200945,35.541853595187746,0.0012854696362701,3.124839917627212,375.9031395134336,17.662848429084132,7.280642039343927,69.99626930133451,1.3115939750280808e-06,113.70000928827632,190.96736675963504,15.288,0.0,0.0,0.0519085689713619,2.3488101247838237e-09,-0.0006457514522491,1.0695800287133593e-07,3.0255957891170616e-05,4.339436536261635,27.322335771349252,17.662991148924057,35.67895714766603
0.44,31.22218013836212,131.0103998768696,6.683849332059896,4.342209064313268,0.0009296474314902,32.82948243168077,0.0013129688908547,3.113754688841357,353.0750125389216,18.063580761318697,7.446730341918701,69.99588746395321,1.4852372182848018e-06,113.7000098413532,199.7278270846888,15.288,0.0,0.0,0.0530863610987301,2.586862292117705e-09,-0.0006947575786514,1.1773083546077225e-07,3.329010177793299e-05,4.342209163639375,26.81344244367223,18.06372678999575,32.9768158972058
0.45,31.22217987077456,131.0104006014978,6.850166573233225,4.3420317510315165,0.0009500780330031,38.11022602597878,0.001341042003417,3.1022288449712887,397.2093853562869,18.47486275310604,7.616350301328129,69.99547690348253,1.6764536248320808e-06,113.70001042108892,208.92306716049887,15.288,0.0,0.0,0.0542951637545535,2.842521175226318e-09,-0.0007463379956615,1.2932090054593452e-07,3.657529369088674e-05,4.342031854775571,26.30944884471334,18.47501199101448,38.23628058998621
0.46,31.22217959739673,131.01040134180155,7.020045503401754,4.351169003849846,0.0009725797783515,44.3937050866137,0.0013660055515545,3.09098240974522,449.7140588976434,18.844323061800488,7.771531995684422,69.99503610583268,1.8865779683531e-06,113.70001102895836,217.3591612614144,15.288,0.0,0.0,0.0553810645782081,3.1166808800591503e-09,-0.000800596194505,1.417768495237597e-07,4.001824400409673e-05,4.351169112337076,25.873596578896564,18.844475834274814,44.50118229261506
0.47,31.22217931813738,131.01040209802923,7.193559875579052,4.358630093683735,0.0009947969928181,30.22514089990685,0.0013910994973101,3.079396422776949,331.0078106302534,19.2180591098146,7.9280875671397615,69.99456352718363,2.1170044481277104e-06,113.70001166656292,226.0625808853568,15.288,0.0,0.0,0.0564795377574197,3.4102493884459798e-09,-0.0008576351980594,1.551487523304888e-07,4.3718862242359527e-05,4.35863020698899,25.44665981168229,19.218215372160817,30.381603425148434
0.48,31.22217903348153,131.01040286886197,7.370336324605091,4.365514409145237,0.001016880998596,29.779838936311712,0.001416009414045,3.067527859335786,327.2031223011574,19.5915905767454,8.084483592791102,69.99405758812365,2.369198154608765e-06,113.70001233476164,234.93171707892955,15.288,0.0,0.0,0.057577416115756,3.7241711041759195e-09,-0.0009173883913609,1.6944871263079066e-07,4.767297940601472e-05,4.365514527349481,25.03354780044292,19.59175030803913,29.937410312943754
0.49,31.22217874361868,131.01040365378466,7.5502307795521535,4.3786401372577615,0.0010404145545081,37.2489281064929,0.0014385799934191,3.0558405437943126,389.60000969812296,19.93403005898306,8.23012235628909,69.99351671352461,2.644660619562788e-06,113.700013034871,243.21198709852868,15.288,0.0,0.0,0.0585839249886784,4.059374595909599e-09,-0.0009798792959512,1.8470833984680338e-07,5.180951737438081e-05,4.378640260624215,24.667474291142685,19.934193486919103,37.37406598941686
0.5,31.22217844858332,131.0104044527036,7.733219389747018,-13.308223314300912,18.457857391961905,38.76703085182414,-1.0581353749412754,4.030407942683056,397.97031042210494,19.57595908970924,8.366023506705158,69.99293932307316,2.9449363413826395e-06,113.70001376847225,234.54880527684216,15.288,0.0,8.768049422645161,0.0575317124972783,4.416605232284705e-09,-0.0010607533276333,3.84562001333629e-05,5.507717762837496e-05,22.61879666795668,43.98137771506234,22.425422564296923,38.99033879979025
0.51,31.222178148881763,131.0104052662573,7.91925804545589,-13.019319349608065,18.20073865223633,29.855838460444204,-1.0840246854755156,4.043675188788835,323.3984349720841,19.888339830533354,8.523245106830085,69.99237532143346,0.0002415690964201,113.70026814017044,242.08976778174468,15.288,0.0,8.802846456877763,0.0584498897481844,4.851014401508141e-09,-0.0008933208364979,0.0002911772526796,4.712294926351826e-05,22.24882063630921,43.36870328498418,22.699464319527927,30.14792710498163
0.52,31.222177844551588,131.01040609514624,8.108352757616151,-12.736072712697055,17.941744706687906,35.692014716108304,-1.1107253813150135,4.057461858267272,372.0984511843415,20.209800547370577,8.682851083539292,69.99190813003891,0.0008823301449823,113.70095048657264,249.97440250858915,15.288,0.0,8.837522400507847,0.0593947581202557,5.367997815116575e-09,-0.0007224793538721,0.0005503144838681,3.8726304007043485e-05,21.88057648824103,42.75453284287758,22.982249208746943,35.939068186291124
0.53,31.222177535476067,131.010406939777,8.300615232340657,-12.464219356579836,17.692650670600184,37.4323631442244,-1.1375796788698191,4.071146770533192,386.5562464348624,20.52852660298368,8.841294633616446,69.9915397621379,0.0019356061640085,113.70207185463964,257.91644028169304,15.288,0.0,8.872082541818681,0.0603315957429642,5.9697663452203914e-09,-0.0005480673056864,0.0008161730864255,2.984023505459253e-05,21.526765580680276,42.16197907213679,23.263724347847557,37.670281842774806
0.54,31.222177221569886,131.010407800437,8.496121856931692,-12.202071296425414,17.451598456066137,32.976878277758175,-1.164687057957872,4.084800451904465,349.2703242098436,20.8460289406146,8.999151531631975,69.99127226867202,0.0034120777469644,113.70364361246476,265.9512196169218,15.288,0.0,8.906551863395931,0.0612648432609289,6.6585946162340615e-09,-0.0003699803061794,0.001088987556725,2.045522944667546e-05,21.184947373246697,41.587192603960965,23.54512915985046,33.249309641268226
0.55,31.22217690312108,131.0104086763978,8.69465935992224,-11.952589155990491,17.222898753167595,34.899378497321344,-1.1916993498310535,4.098189066901536,365.2500005919907,21.15660158144061,9.154337294750263,69.9911076825295,0.0053225147254315,113.7056772217648,273.92952806360546,15.288,0.0,8.94088992580983,0.0621777311416795,7.436800819257683e-09,-0.0001884707540477,0.0013684745652494,1.0575088433555515e-05,20.86027764798988,41.03952493056899,23.821409886435696,35.159378840755345
0.56,31.222176580143262,131.0104095676752,8.89622709014716,-11.7175369968848,17.00937119360935,32.628058080905205,-1.218335894324785,4.111132090658644,346.2265619465787,21.4558072063048,9.305255863731682,69.9910479579662,0.007677531099389,113.70818397791945,281.7269182514555,15.288,0.0,8.975096044944546,0.0630572183499568,8.306657109716491e-09,-3.521258090098991e-06,0.0016547408550979,2.0036803647021082e-07,20.556042437804937,40.52517569264403,24.08856021682454,32.90859953795006
0.57,31.22217625272049,131.01041047409268,9.100769648018447,-11.484391093067762,16.79448105822884,32.27078686193542,-1.245785080958168,4.124423598014105,343.1828296833023,21.763137996568645,9.459045974415732,69.99109501423457,0.0104877606682256,113.71117519632725,289.84988356257134,15.288,0.0,9.00915516062142,0.0639605910904135,9.27044782431479e-09,0.0001847975756685,0.0019477648374739,-1.066583797063902e-05,20.25183259408545,40.00889603869889,24.363594243953493,32.55712725613636
0.58,31.222175920843707,131.01041139572635,9.308303834789283,-11.245692872105888,16.568002034929115,42.22468348686208,-1.2749123901974693,4.138622289641772,426.1250058573153,22.092219751966965,9.62065673801593,69.99125076081953,0.013763960442805,113.71466232262443,298.67588064658275,15.288,0.0,9.043067161044371,0.0649278951547767,1.0330475730194324e-08,0.0003765080139034,0.0022476620888155,-2.2058812076417967e-05,19.935161401630697,39.46865744055565,24.658597909567277,42.44617169574521
0.59,31.222175584129545,131.01041233367255,9.519137146575812,-11.02912449254918,16.36804555865028,34.38506648832832,-1.3026851512339468,4.151736949898647,360.68438819711065,22.393861701846827,9.772192904172048,69.9915172428057,0.0175176118051723,113.71865757278805,306.8814483418436,15.288,0.0,9.076872862234524,0.0658145618354935,1.1489148040333842e-08,0.0005720351754826,0.0025551547294846,-3.397124602099296e-05,19.652460164726666,38.9863456905904,24.930119245691127,34.659294651091194
0.6,31.22217524279937,131.0104132873831,9.733108151374289,-10.797844391036,16.143853229995383,30.649572283311816,-1.3332632701895952,4.166475664832845,329.4859594986058,22.73484541297716,9.937925653628673,69.99189650508511,0.0217603782450618,113.72317335456896,316.2916591988528,15.288,0.0,9.110544389415336,0.0668168590580928,1.2748972744666562e-08,0.0007711659234197,0.002870014972986,-4.64933310274276e-05,19.341879283655565,38.45274695972116,25.23729483946187,30.960190431637155
0.61,31.222174896818423,131.01041425700654,9.950254123681969,-10.5702902369738,15.920854261011495,35.77161303831328,-1.364643590554017,4.181518861032192,372.0984511843297,23.082463916614188,10.105944892145894,69.99239062227093,0.0265042312669675,113.72822240262674,326.0310805972919,15.288,0.0,9.144091190746408,0.067838663003498,1.4112491581910042e-08,0.0009739633814037,0.0031924280792557,-5.9616512247316335e-05,19.034379421493,37.922493024142376,25.55124717407475,36.041027336595626
0.62,31.222174546311965,131.01041524225715,10.170488438040332,-10.380329316294212,15.747444976480386,44.27663605782737,-1.3923874625146262,4.194036238897067,442.86563930529206,23.36674196699117,10.250959311658429,69.99300169477429,0.0317614447877012,113.73381777189024,334.1041066745741,15.288,0.0,9.17752521297024,0.0686743182166859,1.5582322733055708e-08,0.0011803710341501,0.0035223975910085,-7.313904622346915e-05,18.78830664403138,37.50049575742703,25.80931973948834,44.49661991001393
0.63,31.22217419111219,131.01041624364123,10.39395096880354,-10.18590941567891,15.564556652997137,25.45858082212984,-1.421659868302674,4.207342139512428,286.11251274707894,23.669883650829053,10.402749064095223,69.99373167960509,0.0375438806977972,113.73997207778812,342.82178784164284,15.288,0.0,9.21078882127658,0.069565420039724,1.7160964705147182e-08,0.0013905331890764,0.0038602423381031,-8.727718882408264e-05,18.532081951545354,37.05915992193577,26.08479923545101,25.843029662502357
0.64,31.222173831802834,131.01041725962415,10.620199327623176,-9.981860308811324,15.364452267238528,25.00567626009561,-1.4533491207346103,4.221976550770465,282.30782441796754,24.00510685121264,10.566023600094669,69.99458248560518,0.0438635589734457,113.74669810421145,352.59327165863925,15.288,0.0,9.243912515221965,0.0705508158894664,1.8851073931010985e-08,0.0016038588769304,0.0042051376653623,-0.0001020900995655,18.256486848166592,36.5813749399515,26.38972810911806,25.40120380782582
0.65,31.222173468376724,131.01041829027412,10.849248708001836,-9.80489840886758,15.200529554200395,43.57557081898277,-1.4822286826310325,4.234653218218873,436.7781447787475,24.291065066522734,10.711478571515404,69.99555602758576,0.0507322292071716,113.75400833817514,361.0358231502494,15.288,0.0,9.276841219874992,0.0713914292616554,2.06551343534776e-08,0.0018204123250529,0.0045572676447148,-0.0001172520930681,18.025583249466195,36.18340992034743,26.65084794636478,43.80593181232843
0.66,31.222173100350624,131.01041933694978,11.08148277802696,-9.627125533887256,15.032534554157852,37.18095774969505,-1.5121848540690614,4.247818533419134,383.51251517160017,24.588243782527943,10.860935703715928,69.99665410173525,0.0581618222351954,113.76191546695983,369.91548963372816,15.288,0.0,9.30963091105036,0.0722650267067679,2.257558358244489e-08,0.0020406866250806,0.0049175033027813,-0.0001330449586324,17.790959265516786,35.77772228743434,26.92255119186078,37.45336145809002
0.67,31.222172727917183,131.0104203991786,11.316762306433896,-9.441537832201291,14.849943969246157,25.84033746839588,-1.5444228308926036,4.26220294602407,289.1562440103425,24.914623866954955,11.020821586883708,69.99787865090558,0.0661651230751107,113.77043308419202,379.7924739648918,15.288,0.0,9.342310738641382,0.0732244545041747,2.461516767267652e-08,0.002264494248975,0.0052856470237401,-0.000149592678841,17.540093036732607,35.341158694060624,27.221219717822784,26.23498916169516
0.68,31.222172351252368,131.0104214765325,11.554960926537436,-9.263865108218212,14.676142115446847,32.069265744846554,-1.5764978505788485,4.276283986169171,340.8999924858462,25.232619809263184,11.177628723742671,69.9992316807269,0.0747549021378026,113.7795747575828,389.5403395129295,15.288,0.0,9.374771335745656,0.074159248652419,2.677661085279104e-08,0.0024916908405134,0.0056615640304216,-0.0001666983680228,17.300865376950902,34.92492072820807,27.51281619186412,32.39150746132133
0.69,31.2221719704447,131.01042256881874,11.796019673485468,-9.101782606494112,14.52296966361668,39.3089997738234,-1.6069938520562603,4.289211624434292,401.0140726853634,25.521173269954176,11.323835136558143,70.00071496666054,0.0839438245461631,113.7893539523002,398.4914147503488,15.288,0.0,9.407085467600222,0.0750075178840164,2.9062615148230643e-08,0.0027221943713616,0.0060452177127721,-0.0001841978525848,17.0872559397981,34.554913360528445,27.77808626616581,39.57495709180463
0.7,31.222171585371026,131.01042367641625,12.040043104771009,-8.942641486788697,14.37164223544712,33.08711936938829,-1.6379436679642911,4.302232753312766,349.27032420985284,25.811082377464835,11.470490278908404,70.00233036083041,0.0937444321384619,113.79978398923728,407.5866529163183,15.288,0.0,9.439275459950228,0.075859778566147,3.1475776429999497e-08,0.0029561408432229,0.0064369270457618,-0.0002022953764279,16.876847754508656,34.19003052023572,28.04497660476988,33.405830842642594
0.71,31.22217119609372,131.01042479920133,12.2869922378861,-8.779601745486433,14.21178521219608,27.319617554959887,-1.6705849546008047,4.316079430411801,301.33126406340574,26.120643233512293,11.624121209248068,70.00407959469354,0.1041696543878603,113.81087861071998,417.4120247031847,15.288,0.0,9.471239953283003,0.0767698038904896,3.4018836550513965e-08,0.0031934656260116,0.0068366881908157,-0.0002211517764715,16.65732453095686,33.80761261416028,28.330204313226144,27.708859577568955
0.72,31.222170802624767,131.0104259371871,12.536867247015076,-8.611679690331004,14.04161125255002,33.28134771977889,-1.7052944873974911,4.330961681650181,350.79220534145287,26.45463870443113,11.786405452692431,70.00596456557199,0.1152327069037245,113.82265184998552,428.1445984815143,15.288,0.0,9.503065561101703,0.0777516515397986,3.669455672467242e-08,0.0034341823904346,0.0072446252805245,-0.0002408568984258,16.426654097535383,33.403464942807965,28.638277314877303,33.605257987724215
0.73,31.22217040497128,131.01042709040118,12.789672267978831,-8.467065452660712,13.905061186039491,41.90518175929192,-1.7365279682707688,4.34358716390871,422.320318528234,26.73167789380788,11.928342652926428,70.00798708048103,0.126947358169439,113.8351183376603,437.1482008952192,15.288,0.0,9.534765958909269,0.0785661091779464,3.9505812271303504e-08,0.0036783306930375,0.0076609050414311,-0.0002606755778805,16.23658975664833,33.07439071590874,28.89450199624321,42.16546616740234
0.74,31.22217000308025,131.01042825902937,13.04545721519239,-8.31897243194714,13.760739898138384,26.5034366926426,-1.7693979213796849,4.3569925877778575,294.48281347105944,27.02728588225192,12.0768594923812,70.01014891276041,0.1393269428498414,113.84829223174876,446.85894895880585,15.288,0.0,9.566278202878948,0.0794351491757411,4.24553682242722e-08,0.0039259354141116,0.0080856781416564,-0.0002812925777682,16.038255503652866,32.72933959609827,29.168097548371225,26.91739790423748
0.75,31.222169597315567,131.010429442131,13.303950116911516,-8.169844120161738,13.612378086429056,30.81817933947657,-1.8035237236735648,4.370938699045507,330.24688556441487,27.33527141561292,12.22972101679974,70.01245177646527,0.1523849741880377,113.86218788009748,457.0898619620805,15.288,0.0,9.597597701925327,0.0803405752497668,4.554618811252672e-08,0.0041766045342449,0.0085183931771938,-0.0003026555568732,15.836064136937363,32.376430786156334,29.453440211909097,31.178806595711894
0.76,31.22216918757673,131.0104306400188,13.565237366099195,-8.030251597159777,13.476846005427245,33.11612768504948,-1.8365982100980405,4.3840809954366255,349.27032420986166,27.62244091137357,12.375140946197428,70.0148973232388,0.1661349280716418,113.87681958857353,466.7324721206676,15.288,0.0,9.62877000725216,0.0811848289672779,4.8781015288510976e-08,0.0044304782851668,0.008959389332669,-0.0003244170525938,15.649764504531356,32.052912856232226,29.719912484833756,33.4555103385434
0.77,31.22216877381548,131.01043185286332,13.829364923423048,-7.89489841546547,13.345909300184635,31.008574180421643,-1.8696844627531288,4.397044805297629,331.7687666960708,27.904191882001268,12.518601941024984,70.01748719191417,0.180590494109668,113.89220188758866,476.29036295438414,15.288,0.0,9.65979843768025,0.082013164713379,5.2162657093695054e-08,0.004687616870239,0.0094088777281289,-0.0003467380888845,15.46964596026704,31.740617282899475,29.981656849000696,31.374534191167957
0.78,31.222168356103868,131.01043308050947,14.09628575474436,-7.756457632286944,13.207811462045708,25.59368532770327,-1.9044650610648568,4.410788440144346,286.8734378128899,28.204460860466984,12.668581573239909,70.02022294622192,0.1957654952096506,113.90834944950124,486.5834881508768,15.288,0.0,9.690605271160596,0.0828959344182538,5.56940135739609e-08,0.004947925490376,0.009866807444676,-0.0003699217049106,15.28195553545603,31.41357663605549,30.260813274691387,26.040713709228886
0.79,31.22216793453727,131.01043432273948,14.365934944242868,-7.617579646628912,13.06671277181535,36.0675750407522,-1.940445907369266,4.425017690015215,373.6203323159534,28.51559505279409,12.822348232767494,70.0231062610751,0.2116739669623417,113.9252771605737,497.3651985175738,15.288,0.0,9.72124664027248,0.0838106461453743,5.9378017015754806e-08,0.0052113077220993,0.0103331222562148,-0.0003939007171395,15.091580970645436,31.080854499612705,30.55036380322669,36.38977990036028
0.8,31.22216750890498,131.0104355801601,14.638483498315908,-7.491695514381489,12.944834660884952,36.53125974868222,-1.974182004836424,4.437780743427083,377.42502064505743,28.78953514458785,12.9629197640678,70.0261386810763,0.2283304385401305,113.94300044201786,506.9538831930152,15.288,0.0,9.75175455581722,0.0846160480925364,6.321751225450425e-08,0.0054780421578765,0.0108084186224985,-0.0004180288637572,14.924306939856065,30.7918514072868,30.80565043777266,36.852737094287065
0.81,31.22216707931632,131.01043685251423,14.913855515604933,-7.361579311816141,12.813858278172749,24.034656026036124,-2.0100145141708423,4.451535470912692,273.9374926939919,29.08699822636225,13.11176019077088,70.02932184723767,0.2457493978430851,113.96153465495895,517.4703525350179,15.288,0.0,9.782113426161104,0.0854905949423057,6.721554064829192e-08,0.005747970061926,0.0112925397625467,-0.0004431473573394,14.747212809529143,30.483605735138173,31.083057403628004,24.52592539917395
0.82,31.222166645965896,131.01043813931537,15.191909477256402,-7.231193938865208,12.680302649020517,30.655238467594103,-2.0470080708168488,4.465737595523375,328.72500443277005,29.3944027224886,13.264047829220775,70.0326571942699,0.2639454612560797,113.98089530594282,528.4517578451732,15.288,0.0,9.812285512841305,0.0863943690844122,7.13752196926509e-08,0.006020874047102,0.0117852192662256,-0.0004690804649964,14.567869657713002,30.170602299301187,31.37000008955276,31.04636371330983
0.83,31.22216620884475,131.01043944062408,15.472660568898576,-7.114974853290344,12.568696836578386,38.750950828659214,-2.0810013803904286,4.478073308156532,395.68750322465047,29.655160832471005,13.399839970190122,70.0361462485563,0.2829334125412842,114.0010980672512,537.854646435772,15.288,0.0,9.84226549430458,0.0871610506954702,7.569952405503635e-08,0.006296797830998,0.0122866497486122,-0.0004949159938261,14.414560463583296,29.90761514569728,31.613651042289483,39.064304645335426
0.84,31.2221657678542,131.01044075673786,15.756192283774451,-6.998367127154201,12.454595552041152,24.21897900366152,-2.116004616176509,4.490783677458208,275.4593748256452,29.924406971241343,13.538588368726485,70.03979034017357,0.3027278304944671,114.0221583959924,547.6506868374116,15.288,0.0,9.872095650890117,0.0879526876170212,8.01913535733769e-08,0.0065758215910514,0.0127970979359377,-0.000521525086732,14.25901395080778,29.64007187887444,31.86539983133842,24.722531374299088
0.85,31.222165323294984,131.0104420868825,16.04228111017514,-6.874365639868757,12.32586190581833,26.33549526126473,-2.154270191164533,4.505088582013147,292.96093233939376,30.23180499287914,13.690701517197468,70.0435908748115,0.3233433155840405,114.04409175778436,558.944586658443,15.288,0.0,9.901752097362593,0.0888564671010836,8.485389874554662e-08,0.0068575723535166,0.0133160149576422,-0.0005494424035565,14.087292551811649,29.340756805185293,32.15304740300436,26.804757298741247
0.86,31.22216487500052,131.01044343153777,16.331062862196315,-6.759410414220572,12.21080559802932,32.77963218542988,-2.1907838405027524,4.518234181503031,346.2265619465587,30.50986695581976,13.83244096376098,70.04754911998556,0.3447950919637184,114.06691429267026,569.258051843798,15.288,0.0,9.93125519292678,0.0896740311521752,8.969006595282061e-08,0.0071422868393967,0.0138439482355373,-0.0005775016828822,13.931939089946528,29.072997432994885,32.41344909656275,33.16200024375461
0.87,31.22216442300145,131.01044479065243,16.622521428599327,-6.649541423218484,12.102825566502029,30.57142427384373,-2.2266101647003578,4.530814187242405,327.964078366998,30.773303700983263,13.96899584178694,70.051666445971,0.3670983314087198,114.09064206708037,579.1147731322767,15.288,0.0,9.960603478623383,0.0904486169567694,9.470291498446436e-08,0.0074299193161199,0.0143809420074102,-0.0006059289694246,13.785303540454716,28.82207131427023,32.66030474310683,30.98544903912521
0.88,31.222163967339696,131.01044616414373,16.916631849277728,-6.536966483290086,11.988325439875055,26.51965169515591,-2.2643009169904067,4.54420353041905,294.4828134710418,31.05581882127153,14.112193739979164,70.05594399462835,0.3902682714360109,114.1152912255887,589.7800795101414,15.288,0.0,9.989770811622764,0.0912792857607148,9.989556688283946e-08,0.0077203780863584,0.0149269572739919,-0.0006353788914638,13.631798015565249,28.55749687951553,32.925230237891434,27.001273495910194
0.89,31.22216350810304,131.01044755180618,17.213334014272206,-6.421948378020627,11.867635941295708,29.007038956167943,-2.303901859333443,4.558408455270016,315.028134248087,31.35755450897172,14.262061416363215,70.06038301275417,0.4143203366259849,114.14087809694328,601.2791262181768,15.288,0.0,10.018750429619333,0.0921664560675283,1.0527116293725452e-07,0.0080135683911843,0.0154819474869677,-0.0006658968908626,13.471831058861184,28.27994836671635,33.208417401898046,29.453274188571328
0.9,31.22216304522252,131.01044895385323,17.51268803124435,-6.3195005875997845,11.767651889566144,31.956405035570853,-2.340025211059124,4.570559332114172,339.37814235421445,31.60829007963057,14.394005353389163,70.06498464290786,0.4392704949866793,114.1674195934876,610.9156830467111,15.288,0.0,10.047579847146892,0.0929037345096865,1.1083278055944809e-07,0.0083095893947653,0.0160462275620963,-0.0006959963053195,13.33604677584521,28.049907417173458,33.443780403483984,32.36630274520441
0.91,31.22216257877428,131.01045037010715,17.814642191703708,-6.214416348531524,11.661274619682128,24.48977093473409,-2.378046365582071,4.583521324347156,277.7421810230789,31.878214742610663,14.532612541574585,70.06975001487436,0.4651342241346016,114.19493208953963,621.376262654603,15.288,0.0,10.076250566411272,0.0936974218466717,1.1658357630674493e-07,0.0086083116012123,0.0166196922062735,-0.000727152905602,13.193527134926818,27.806407829680648,33.69734340287715,25.02823710698278
0.92,31.22216210896584,131.01045180004164,18.11904451234695,-6.106969815949969,11.54887487898578,29.00685184038424,-2.41800018950007,4.59729379487116,315.02813424806214,32.167292854357726,14.677842394236151,70.07468009349506,0.491927237228404,114.2234322147856,632.6783947292324,15.288,0.0,10.104749102065316,0.0945474137978423,1.225269118845836e-07,0.0089094549993281,0.017201943979572,-0.0007593932415263,13.044721272334732,27.550211522000968,33.96912673539569,29.46827597337153
0.93,31.22216163571201,131.01045324390768,18.425966639844635,-6.010472515998563,11.454911377960611,34.35642226012478,-2.4545971591469726,4.609108734159797,359.1625070654728,32.40813204961836,14.80615415036098,70.0797757855725,0.5196654361638738,114.2529367963034,642.1687619844581,15.288,0.0,10.13309011715486,0.0952556280275941,1.2866575148898462e-07,0.0092131541314381,0.0177933721661134,-0.0007911350226505,12.917345548178703,27.336553347529318,34.195502583672486,34.751009784652275
0.94,31.22216115890735,131.0104547020059,18.73549491300488,-5.9071683375991615,11.34676594238298,25.130304641289968,-2.494925231383028,4.6226635223413926,283.0687504837787,32.69077031303909,14.948996401174284,70.08503802725747,0.5483645352814731,114.28346244617944,653.3991631828292,15.288,0.0,10.161273316829142,0.0960867083593692,1.350030857422512e-07,0.0095194633686946,0.018394225599915,-0.0008245423841131,12.774429013993686,27.09174268188194,34.46148859576012,25.673447008826408
0.95,31.22216067884712,131.01045617357727,19.0474105436287,-5.806621259341836,11.242084761921642,32.32741340324148,-2.53514524895506,4.6359494691557135,342.4218736174873,32.96637126787633,15.089299498852768,70.0904676683989,0.5780409091244268,114.31502648226412,664.4427173790739,15.288,0.0,10.189287446268906,0.0968971125484209,1.4154246643991922e-07,0.0098280389046629,0.0190039771654773,-0.0008584210629568,12.635949664498265,26.8556241587176,34.72096471667782,32.75638329025262
0.96,31.22216019524175,131.01045765940853,19.36194004889389,-5.712014064949005,11.146986274548922,31.680995164962724,-2.5737652265689617,4.648208298442642,337.09533515678345,33.21642598837034,15.220634914443586,70.09606550666308,0.6087109177005833,114.34764620000732,674.5403575878873,15.288,0.0,10.217154469477515,0.0976324377422879,1.4828663853395257e-07,0.0101392268370895,0.0196234466605414,-0.0008922919486392,12.508774731278754,26.64211349141496,34.956365619297074,32.12344256877831
0.97,31.222159708115417,131.01045915945474,19.679070678552023,-5.616671922530511,11.048969158161164,20.506364227398127,-2.61367023975434,4.66091982331847,245.02188719299323,33.47695279519583,15.355552221989957,70.10183232751837,0.6403913378505184,114.38133933244984,685.1422461945494,15.288,0.0,10.244871713501077,0.098398551567319,1.5523889531366476e-07,0.0104529651744759,0.0202526670649279,-0.0009270890011373,12.37879026817996,26.422871639394003,35.20178385807532,21.191187308602935
0.98,31.22215921776157,131.010460672961,19.99858498682437,-5.515422537302041,10.938012494148108,29.55518081922315,-2.6574283653854534,4.6753662091802335,319.5937466429581,33.77899373494895,15.504817099955591,70.1077688293186,0.6730989585773459,114.4161236197515,697.5398048913897,15.288,0.0,10.27242051768606,0.0992866961575075,1.6240297605116857e-07,0.0107688422562757,0.0208909723517523,-0.00096369232668,12.234759079608631,26.1750395451795,35.486715611182284,30.040467505750897
0.99,31.222158724035744,131.01046220032748,20.320598555770648,-5.4279852044132975,10.85214568511417,32.23314425274752,-2.695544605682165,4.686753534934249,341.6609485517054,34.00676931160916,15.628189227955383,70.11387570055541,0.7068510273587463,114.452017284667,706.956836047607,15.288,0.0,10.299821825721247,0.0999565607837716,1.697818454222643e-07,0.0110870821268786,0.0215389576918437,-0.0009988307073175,12.11935272489198,25.985151004942484,35.701246382818404,32.68343935140351
1.0,31.22215822693952,131.01046374156297,20.64511484961392,-5.334839019545721,10.753730162355655,28.90488420843845,-2.737422862251932,4.699819802620397,314.2672081822764,34.274977212989945,15.765529158451612,70.12015342231841,0.7416641309417786,114.48903784141216,718.1298194000339,15.288,0.0,10.327067431624968,0.1007452768397718,1.7737877734598053e-07,0.0114075843941628,0.0221965836318692,-0.001035777742245,11.990331503902524,25.767540418431956,35.9542691831603,29.41214241103692
1.01,31.22215772665756,131.01046529619893,20.97199913006608,-5.244217379025896,10.658761833469956,30.19710626521849,-2.779019133919255,4.712526886025345,324.9203161036979,34.53440211349588,15.899729188547337,70.12660250932078,0.7775555892723803,114.5272035778558,729.0190195943056,15.288,0.0,10.3541484926536,0.1015081852025192,1.8519734332116762e-07,0.0117301197041622,0.0228635402715931,-0.0010730907699792,11.865616473440053,25.55862389241172,36.19903617232367,30.68869635209516
1.02,31.22215722311606,131.01046686444175,21.301312000327226,-5.156656456699939,10.568403700839312,25.29377831551052,-2.8199634723268296,4.724696641696518,284.59063161540416,34.78076375862817,16.029314876094,70.13322334302588,0.8145425003698585,114.56653254029692,739.4340886123765,15.288,0.0,10.381077711491388,0.102232704567917,1.9324064220165054e-07,0.0120547470404897,0.0235401081313259,-0.0011106201611966,11.746482199837695,25.36107901407651,36.4314472217563,25.885327384746482
1.03,31.222156716385992,131.01046844611653,21.633004115353536,-5.065831664299848,10.470046697021049,20.757496423209,-2.863724514392838,4.738031903835484,247.30469339049705,35.05507905820375,16.168487825496005,70.14001620404495,0.8526419343285707,114.60704273913429,751.1199630143246,15.288,0.0,10.407852217748204,0.1030393978581399,2.015120626949063e-07,0.0123813244995885,0.0242261596729988,-0.0011496683031256,11.61886800210604,25.146037390164174,36.69057229645093,21.48309852362158
1.04,31.22215620653189,131.01047004106744,21.967031430915927,-4.980564075186783,10.38142477946698,32.688860461847945,-2.9053803036631027,4.750113980883049,345.46563688072297,35.2990602654757,16.297062797708044,70.14698138203508,0.8918716024258136,114.64875286037632,761.5874111829309,15.288,0.0,10.434475850010369,0.1037569368573705,2.1001500136591248e-07,0.0127097716286368,0.0249216895476716,-0.0011883420308087,11.502513109853526,24.95410152072966,36.92086263356105,33.15971073206852
1.05,31.222155693270583,131.01047165003968,22.3036113761406,-4.892973227335969,10.286626614563456,19.914331736355035,-2.9494165217133386,4.763131618566296,240.45625879819983,35.56548357494105,16.43330906560594,70.15411904274428,0.932249073562086,114.691681432826,773.1021217012031,15.288,0.0,10.460963140008456,0.1045404501298066,2.1875218921938537e-07,0.0130403925868094,0.0256275126505412,-0.0012284172638739,11.37971718481334,24.748804537208265,37.172636633182535,20.6873654470534
1.06,31.222155176841515,131.01047327242009,22.64256771396532,-4.803711222405471,10.18686025462908,28.148400879141192,-2.995636847272296,4.776967380462302,308.17968365593924,35.8512711478687,16.576131292092672,70.16142938414973,0.9737927445115552,114.73584785831292,785.5510381937739,15.288,0.0,10.48730055105665,0.1053808913149689,2.277276011971572e-07,0.0133728430213235,0.0263430789352411,-0.0012698157013192,11.251843831726474,24.53283764549928,37.443002402525785,28.70759010309944
1.07,31.22215465713101,131.0104749085134,22.983990272568,-4.7224126736766605,10.102129778295293,33.05302135793896,-3.0379508134781203,4.7886954669449775,348.5093681440308,36.086535763646594,16.701411579163782,70.16891257220612,1.016521474608585,114.78127202424538,795.8687134508067,15.288,0.0,10.513498456000768,0.1060728346070021,2.369443902086425e-07,0.0137072818213466,0.0270689052356645,-0.0013100705371691,11.14102911857085,24.3522777434343,37.66516565779588,33.53599514415251
1.08,31.22215413403924,131.01047655858216,23.32795733898104,-4.640800663640577,10.015397396219289,22.397922037337374,-3.081446099835749,4.800764820932334,261.00157857466235,36.32995210982588,16.829414245839065,70.17656861318146,1.0604538076508447,114.82797347579398,806.6151024797248,15.288,0.0,10.539563118934838,0.106788747603618,2.464058395090808e-07,0.0140437534995514,0.0278052822663306,-0.0013512379055129,11.02838669549887,24.16792903960284,37.89516752547704,23.1129739437126
1.09,31.222153607843087,131.01047822191532,23.674264411398205,-4.553372493166006,9.914916843496664,20.631538641437185,-3.1299715880722907,4.8149784261538455,246.54375332474407,36.624807690338805,16.975020613173655,70.18439744238349,1.1056085365531747,114.87597201559127,819.7340175544832,15.288,0.0,10.565479232347794,0.1076558707633494,2.5611618206378885e-07,0.0143818332634484,0.0285514797793717,-0.0013949509994135,10.900977940414654,23.95256424989194,38.17447778186485,21.4159082482995
1.1,31.222153078620423,131.01047989831835,24.022856858198136,-4.4707187350723,9.823071053552749,40.92354709859144,-3.176438204551617,4.827969714100424,413.1890617385841,36.89053996902441,17.11046697536917,70.1923989202643,1.1520046963143604,114.92528769688592,831.6445278642627,15.288,0.0,10.591251920897868,0.1084373974064271,2.660790006690815e-07,0.0147214262165383,0.0293074731615593,-0.0014382013987296,10.783494583712978,23.75787892767844,38.42599644818184,41.32959905876463
1.11,31.222152545968648,131.01048158882912,24.374038991049726,-4.396103198630413,9.747176766772474,30.075172426684308,-3.21815042873243,4.838503736837401,324.1593910376397,37.097918883381375,17.2257479544885,70.20057285368682,1.1996617184543947,114.97594098791365,840.9925617504963,15.288,0.0,10.616905821585528,0.109047406706684,2.7629674069469813e-07,0.0150630231372925,0.030074547936789,-0.0014797959982338,10.68392764751873,23.600982338302828,38.62162734922382,30.63141536214303
1.12,31.22215200994972,131.01048329328398,24.727766264158834,-4.3097134025702,9.644302245207548,11.61625635501233,-3.269706614087711,4.853377172143213,172.73281794065943,37.40869409496174,17.376448798855694,70.2089188884429,1.2485987489858728,115.02795204560492,855.1127836353578,15.288,0.0,10.642429818027695,0.1099613532546232,2.8677327934109985e-07,0.0154064235807788,0.0308524812049129,-0.0015261590047358,10.555111569558017,23.382202828788326,38.91647389314687,13.007062044237896
1.13,31.222151471159588,131.01048501016433,25.083597947333818,-4.231344347542349,9.557491393007886,35.35410020426911,-3.3164127648520934,4.8657432811537245,367.5328077900705,37.66025210101902,17.506663608425775,70.21743678617463,1.298836504799168,115.08134268832865,866.6223902484214,15.288,0.0,10.667807051776151,0.1107012424387686,2.9751392982310695e-07,0.0157508701073635,0.0316397622613047,-0.0015707183971698,10.444303843421812,23.201446325554368,39.15458668038512,35.841127947631165
1.14,31.222150928930905,131.01048674117,25.442033061926267,-4.158675060046831,9.482005816009426,19.76278934436141,-3.3596101421575475,4.876260037964426,239.69531773195544,37.868244279856064,17.621834964807626,70.2261259561328,1.3503941679773743,115.13613309746972,876.1911184719413,15.288,0.0,10.69307120717641,0.1113130798101711,3.085201760304585e-07,0.0160971708181864,0.0324384401919988,-0.0016140624247579,10.346244837358828,23.04789716953239,39.35088490359975,20.63086849686027
1.15,31.222150383752,131.01048848504917,25.80270958890756,-4.074644390540592,9.37972234652324,19.476171463750365,-3.4132586773019464,4.891295859946475,237.41251153546767,38.18408985368242,17.77382941417297,70.23498570207168,1.403291033297677,115.19234356523135,890.8372051673884,15.288,0.0,10.718191724673186,0.1122419595314132,3.197972580551214e-07,0.0164445526336042,0.03324697266422,-0.0016625896193406,10.219260496668747,22.83248707187488,39.65088098594192,20.36900500449422
1.16,31.2221498357628,131.01049024144973,26.165526969474044,-4.0048842938131,9.308265441110253,50.29078568886936,-3.4560301338729755,4.901132120104652,490.0437743845894,38.37726648535359,17.88367467901748,70.24401542213836,1.4575479127993023,115.24999598896788,899.8422895999892,15.288,0.0,10.743179347025237,0.112810263273099,3.313490040324956e-07,0.0167928887794593,0.0340652637463797,-0.0017063372492232,10.126277760946872,22.689885933019184,39.832982126949055,50.647096319026495
1.17,31.22214928408092,131.01049201259372,26.53113951431205,-3.9296935014337033,9.223176716648618,9.24575297605658,-3.504499916562545,4.913301540719018,153.70937929486794,38.62639131961479,18.012567540629856,70.25321418405503,1.513184212081871,115.3091107651807,911.5307906247364,15.288,0.0,10.768067086758723,0.1135430360876806,3.43176227611622e-07,0.0171432081823833,0.0348959653457935,-0.0017531795832763,10.018773408737648,22.51617605347172,40.06891564956974,11.041105007628444
1.18,31.222148729866767,131.01049379554064,26.89868967531745,-3.847296381978336,9.119974970196166,24.65327509734478,-3.5608626398695167,4.928726754255646,280.02501822196746,38.95338722221931,18.1678906486176,70.26258108729799,1.5702204804170965,115.36970949516233,926.9967121286802,15.288,0.0,10.792801383385708,0.1145047219347672,3.552867039962264e-07,0.0174938706748308,0.0357354473111819,-0.0018041223027496,9.891934972277598,22.300517246756577,40.379907910717705,25.39204724285724
1.19,31.22214817259665,131.01049559160987,27.26856705726617,-3.7835927400643774,9.058948778121357,42.76430202266578,-3.6009052132889554,4.936617460086556,428.4078130529292,39.10305565487835,18.2625268447436,70.2721151870139,1.6286779164244516,115.43181446436064,934.1007029322848,15.288,0.0,10.817425612763728,0.1149451568751303,3.6768182506389204e-07,0.0178456553362428,0.0365857733023433,-0.0018474070717769,9.811248895202748,22.184849784125795,40.52011074419487,43.198636989934066
1.2,31.222147611814584,131.01049740192462,27.641106503584588,-3.706551807219776,8.965358853738925,4.7501599230110685,-3.6547659599381705,4.950376557575768,117.1843741360236,39.39236592855388,18.404693110700503,70.28181515224361,1.688575896559564,115.49544601436494,947.9401011326064,15.288,0.0,10.841924445555124,0.1157960840380148,3.8036395978983706e-07,0.0181989397266199,0.0374481310821929,-0.0018978505709993,9.6955579720686,21.9932334641186,40.79490143127842,7.773516680235465
1.21,31.22214704868924,131.01049922355037,28.01544940377168,-3.6311695778994495,8.87424130455794,34.39231047379354,-3.708364465342501,4.963721457530414,359.92343213200894,39.673295472447535,18.543800714900726,70.29167983437992,1.74993614955965,115.56062697565888,961.4743455615572,15.288,0.0,10.866248890609272,0.1166223849999093,3.933411910406383e-07,0.0185521435379863,0.0383189171172773,-0.0019484112016392,9.582897165882333,21.80805109334456,41.06169135853279,34.945979989715156
1.22,31.22214648232685,131.01050105870928,28.392253281483367,-3.568226693184199,8.811767164171673,24.99534413919986,-3.7501402476046817,4.971637216663288,283.0687504825761,39.8275206170938,18.63963950172408,70.3017077853605,1.8127792324710952,115.6273789286163,968.9290326902636,15.288,0.0,10.890472678147416,0.117076238314148,4.066132927508185e-07,0.0189064647785034,0.0392013075940082,-0.0019932699798324,9.501521658186812,21.69150072701607,41.20621973797959,25.759424627266988
1.23,31.22214591307911,131.01050290650016,28.77125833813469,-3.493479687339877,8.71942260454576,9.919094868146352,-3.805514003013376,4.985196348828839,159.79687382222795,40.11614438649786,18.78105357442544,70.31189726681086,1.877124557182156,115.695722227756,982.9874796285674,15.288,0.0,10.914567748165108,0.1179251757961354,4.201856418542376e-07,0.0192612203749267,0.0400938957805085,-0.002045312622825,9.38820247346693,21.504795887401137,41.48050748208448,11.735525657881482
