Time,Latitude,Longitude,Altitude,Angle of Attack,Angle of Sideslip,X-Acceleration,Y-Acceleration,Z-Acceleration,Thrust,True Velocity,Ground Velocity,Pitch,Roll,Yaw,Dynamic Pressure,cp,parachute_deploy_gain,Wind Speed,Mach,omega_x,omega_y,omega_z,Cmq,Angle of Attack(total),Angle of Attack(gust),True Velocity(gust),Acceleration
0.0,31.222216000000007,131.010392,3.000000004412624,0.0,0.0,0.0,0.0,0.0,2.2828121974499247,0.0,0.0,71.99999999612658,-1.0292491154817412e-14,119.99999999354436,0.0,15.288,0.0,0.0,0.0,0.0,0.0,0.0,-0.0,0.0,90.0,0.0,0.0
0.01,31.22221599999862,131.01039200000284,3.0000009727369523,0.0,0.0,0.0,0.0,0.0,34.24218696174923,5.916279387578309e-11,5.734623670548936e-11,71.99999999613168,-5.86671995824671e-13,119.9999999935449,2.1432944861733093e-21,15.288,0.0,0.0,1.7386402909615473e-13,-3.4220131069073734e-19,7.115076756936125e-19,5.488773498207866e-19,-1.1574302492039043e-31,0.0,89.99999999962336,5.916279387578309e-11,0.0
0.02,31.22221599999738,131.01039200000537,3.0000018317022668,0.0,0.0,0.0,0.0,0.0,25.871876237766408,1.2265415415436536e-10,1.1895038237325684e-10,71.9999999961369,-1.1836364828043265e-12,119.99999999354544,9.211895886571454e-21,15.288,0.0,0.0,3.6044858651615574e-13,-6.979551485375437e-19,1.4162390878091906e-18,1.0909784360635388e-18,-4.776231873571785e-31,0.0,89.99999999921916,1.2265415415436536e-10,0.0
0.03,31.22221599921969,131.01039200159065,3.0001883335529382,18.80143492628821,-0.0001350810307892,10.931161642028636,-1.75114298675875e-05,3.026590975169265,180.34219359854663,0.0798232026864394,0.0478175828508887,71.99999999765336,-5.341802909786072e-12,119.99999999436793,0.0039016003969354,15.288,0.0,0.0,0.0002345795854893,3.788270153300133e-17,-7.771883375645477e-10,1.1422790048099072e-11,1.7057759223764537e-13,18.80143492675591,89.51882325913425,0.079801984207741,11.342422482672777
0.04,31.222215995131297,131.01039200995308,3.001692634342189,9.19442604083399,-4.49173898918486e-05,52.29595764159784,6.445392950801871e-06,3.026413589912948,548.6359724538078,0.3504174083926908,0.1601447499964056,72.00000000319055,-3.111420077280171e-11,119.99999999870242,0.0751892535633216,15.288,0.0,0.0,0.0010297854387864,2.0082066977226968e-15,-1.520937588847922e-08,2.5623342884322286e-11,1.4654248781413086e-11,9.19442604094277,87.798916624545,0.3504103527855857,52.383455068075136
0.05,31.222215983575865,131.01039203366796,3.0074067499493786,5.158590039700252,1.707592688632746e-06,76.26884281015512,5.843947534199429e-05,3.0258124765658088,761.6984298824644,0.9592973585397016,0.3772700771701255,72.0000000004862,-1.3608731808076822e-10,120.0000000109612,0.5634958029902841,15.288,0.0,0.0,0.0028191251099456,2.086299069701397e-14,-1.0551247853743037e-07,3.973493515691201e-11,2.783064866637575e-10,5.158590039700515,83.94063169874748,0.959297626767734,76.32884071402438
0.06,31.222215961742712,131.0103920785344,3.019291017943491,4.109521257467909,3.140103977270004e-05,57.06876634333886,0.0001151069734147,3.024834864051463,590.4875390737208,1.6257536642597354,0.6118982818704327,71.99999992547217,-3.5903296759057166e-10,120.00000003412836,1.6184272268450337,15.288,0.0,0.0,0.0047776672697797,1.0694899894620088e-13,-3.741090980393931e-07,5.521401959501359e-11,1.6723176417636091e-09,4.109521257587776,79.78719176344794,1.6257585967235286,57.148873286519276
0.07,31.222215929936205,131.01039214392435,3.0371334573469446,3.649087515174788,5.707077112564807e-05,86.89643797254193,0.0001728541558773,3.0234947746384675,855.2937749779139,2.3057260079826607,0.8506307413593818,71.99999965378231,-6.907496536790437e-10,120.00000006788592,3.255354923652711,15.288,0.0,0.0,0.0067759305364855,3.495199904512709e-13,-9.036515915819006e-07,7.594816279105379e-11,5.728932851326001e-09,3.6490875156204896,75.6601668283889,2.305734972638426,86.94902215090157
0.08,31.222215886364623,131.01039223353447,3.0621840248716574,3.4254446680114707,8.413075603463509e-05,17.831756866644035,0.0002285946601282,3.021841001032126,241.2171988638848,2.961944911520492,1.0819695676346892,71.99999900671328,-1.141745983122182e-09,120.00000011415082,5.371998197385977,15.288,0.0,0.0,0.0087043901031071,8.800530155962314e-13,-1.829098470920821e-06,1.0943386634701918e-10,1.4896287129277132e-08,3.4254446690434226,71.81713637501419,2.9619581267487467,18.085991154451033
0.09,31.22221583454733,131.01039234010327,3.0919888289029,3.389560809024919,0.0001118726864415,54.09031716446879,0.0002748660999733,3.020060228038602,563.0937377043176,3.504225426410036,1.2780161667917422,71.99999774508822,-1.634190085504106e-09,120.00000016921716,7.519080503822694,15.288,0.0,0.0,0.0102980157586766,1.865782139518716e-12,-3.1503298654458527e-06,1.6284478329871028e-10,3.03536411425607e-08,3.389560810868955,68.76526501308032,3.504242999330529,54.17456206384468
0.1,31.22221577423132,131.0103924641528,3.1267248829165366,3.4447939461814814,0.0001419149103147,51.372195336549765,0.0003131602029306,3.0182021883815127,538.7437595981919,3.950569597142709,1.4443465951180965,71.99999562056465,-2.1287748602259068e-09,120.00000023339832,9.55649523509932,15.288,0.0,0.0,0.0116097108366932,3.485956000178229e-12,-4.949356763187612e-06,2.4573266549165286e-10,5.3761299442583966e-08,3.444793949101151,66.34639928474206,3.9505918890846927,51.460781166288626
0.11,31.222215706113143,131.01039260424562,3.165907002780892,3.4691423802630394,0.0001702373452339,40.591037561894986,0.0003534470100582,3.016051659024047,442.8656393052949,4.421478635995476,1.6182620895289603,71.99999235067894,-2.5564479031457968e-09,120.00000030601664,11.970509656144712,15.288,0.0,0.0,0.0129935974697161,5.942887149865172e-12,-7.273722517324353e-06,3.67769289312894e-10,8.842679949465076e-08,3.4691423844348632,63.88798785789768,4.421505376815134,40.70293476011277
0.12,31.222215630588888,131.0103927595646,3.2092596514826863,3.4852659299808075,0.0001974376474727,44.30042894095728,0.000394069215595,3.013641598889868,475.58594813540446,4.896982486381051,1.793579340340896,71.99998761802138,-2.8337988279882726e-09,120.00000038673312,14.683611096353944,15.288,0.0,0.0,0.0143909889875706,9.464337642181618e-12,-1.017558359402848e-05,5.395790443954697e-10,1.3700793350599625e-07,3.4852659355662303,61.5068242157714,4.897013499814194,44.40281567867803
0.13,31.222215548046687,131.0103929293088,3.256512891171917,3.5606043721293616,0.0002276507019012,48.86766833507025,0.0004268800875964,3.0112558910133567,515.9156326236895,5.278566579338586,1.939796541405244,71.99998107389406,-2.8573058577484587e-09,120.00000047523812,17.061052093156064,15.288,0.0,0.0,0.0155123760833565,1.4300406003001044e-11,-1.3705268062305584e-05,7.724776992181392e-10,1.989112774124932e-07,3.560604379397528,59.67313531776262,5.27860233862722,48.960358155653
0.14,31.222215458587108,131.01039311327068,3.30759734332425,3.6000732663755977,0.0002555702913645,45.540290862247225,0.0004629468001456,3.0085404980032777,486.2390860568404,5.70011779273801,2.098362647205908,71.99997235012626,-2.508533681468686e-09,120.00000057154703,19.894788765881632,15.288,0.0,0.0,0.0167512184495524,2.071534240530911e-11,-1.7917736259613292e-05,1.0787346240473087e-09,2.8081526258393346e-07,3.6000732754351943,57.72385750323359,5.700157937625502,45.639559681930805
0.15,31.222215362317904,131.01039331122794,3.3624387479639086,3.651605404442164,0.0002842753491325,44.01308509501,0.0004965057129938,3.005703619811542,472.54218587214,6.091938849578711,2.2476968067377374,71.99996103728932,-1.6446954747148112e-09,120.00000067569304,22.723773683610247,15.288,0.0,0.0,0.0179026934683374,2.9002783512213203e-11,-2.287326399669318e-05,1.47199345427166e-09,3.831202693354572e-07,3.651605415492516,55.98561718911576,6.091983503446133,44.115597174664394
0.16,31.22221525912812,131.01039352340948,3.421115382839859,3.67540086436193,0.0003108411545024,34.83804992586084,0.0005330990866742,3.002517946501868,391.1218908297564,6.521183188362317,2.4085903880902046,71.99994669525161,-1.0153513453738144e-10,120.00000078796704,26.03872642002185,15.288,0.0,0.0,0.019164148528834,3.9478358970291335e-11,-2.864207894220033e-05,1.9677461746207517e-09,5.135466997084602e-07,3.6754008774883777,54.15946979122355,6.521232015176687,34.96719658394182
0.17,31.2222151493826,131.01039374906244,3.4833737923187487,3.7139589864597298,0.0003384978477213,43.96471427482637,0.0005668629535037,2.999235483723449,471.78125980632376,6.916861975403744,2.559060925010733,71.99992884100092,2.3206494032971838e-09,120.0000009081849,29.29426197817256,15.288,0.0,0.0,0.0203269651395979,5.248754693205839e-11,-3.5267097947693114e-05,2.580363454062817e-09,6.706952682968329e-07,3.713959001863866,52.549031795895466,6.916915146521327,44.06689817851128
0.18,31.22221503253009,131.01039398932429,3.549599475912623,3.7380363034619775,0.0003650282082698,36.67395661481795,0.0006021794701355,2.9956556354306425,407.10156721191447,7.332140201215607,2.71556808256092,71.99990696207136,5.837017536380516e-09,120.00000103716444,32.917216366714264,15.288,0.0,0.0,0.0215473823438242,6.839750892601699e-11,-4.285557247677198e-05,3.331016495775474e-09,8.639362741436378e-07,3.738036321259578,50.93050624815799,7.332197539712479,36.796100973258795
0.19,31.22221490871209,131.01039424390297,3.619694897703461,3.747799769666444,0.0003901520189829,41.42208371271829,0.0006393759928961,2.991742733214697,448.9531328318269,7.771071983754382,2.879366399937307,71.99988049019642,1.0709144790974043e-08,120.00000117502664,36.97605053227239,15.288,0.0,0.0,0.0228373144884866,8.761416506509219e-11,-5.146771415177372e-05,4.238406957677133e-09,1.0996552116864756e-06,3.747799789945131,49.29705748437159,7.771133268690212,41.529983675580546
0.2,31.22221477769685,131.01039451327668,3.693822889232993,3.7700519460961166,0.0004166800650969,37.99697972290605,0.0006740224661302,2.987733789228414,418.51563019916136,8.179966026035371,3.0338260708461373,71.99984881140107,1.723179577184912e-08,120.0000013223286,40.969302182777255,15.288,0.0,0.0,0.024038975990988,1.1057590044953188e-10,-6.120032215177249e-05,5.3263847350253015e-09,1.376394225587184e-06,3.7700519690893857,47.8457752505109,8.180031477986942,38.11426270718793
0.21,31.222214639876928,131.01039479663547,3.771710975053407,3.7926098867321474,0.0004432924407074,36.46301043881366,0.0007080907240332,2.983530483977461,404.8187610144644,8.582757448615462,3.1863584283669346,71.99981127559042,2.5745201416596626e-08,120.00000147900325,45.103059028532826,15.288,0.0,0.0,0.0252227064089584,1.3774582723633048e-10,-7.20875523136271e-05,6.61341033873124e-09,1.7010673350603349e-06,3.792609912601061,46.47936953648762,8.582827080829217,36.584868250565684
0.22,31.22221449507626,131.01039509434258,3.8534832466471007,3.782921298925821,0.0004660920499522,44.14577847155813,0.0007479176313898,2.978724032883548,472.5421858721365,9.056569122268344,3.360845972992861,71.99976720416048,3.661811567390422e-08,120.00000164562512,50.21995530074818,15.288,0.0,0.0,0.0266151520780326,1.6960703048385348e-10,-8.421592474264931e-05,8.124635526119773e-09,2.0969540034515424e-06,3.7829213275976334,44.9464484092354,9.056642335836344,44.24615863872642
0.23,31.22221434283448,131.01039540734791,3.9394622486964206,3.813874679301352,0.0004940771488601,36.66675459308932,0.000779455230549,2.974212905336642,406.3406421461021,9.430647902846331,3.5044030163419806,71.99971583979395,5.0272885112871524e-08,120.00000182313076,54.45382429059888,15.288,0.0,0.0,0.0277145095638672,2.0669790509245914e-10,-9.77285871729516e-05,9.894576563683824e-09,2.5339062472561444e-06,3.813874711257219,43.79476959007253,9.430725512303388,36.78718303164376
0.24,31.222214184153326,131.01039573358457,4.028950821673608,3.829256049377765,0.0005200487408944,37.802126339316736,0.0008136255607606,2.9692962675112065,416.2328240017114,9.837806876534357,3.658163422426286,71.9996564062533,6.718950080713476e-08,120.0000020109434,59.25679777340223,15.288,0.0,0.0,0.0289110855155543,2.4956955046738006e-10,-0.0001125744417092,1.1934277804843484e-08,3.0448209172448607e-06,3.829256084638984,42.59361542722471,9.83788856559955,37.91856374864305
0.25,31.22221401888584,131.01039607335582,4.122052964664892,3.851417709838087,0.0005469594058717,38.85163035360012,0.0008459008130282,2.964283881833675,425.36408079150686,10.22297576958679,3.8050691648373967,71.99958811418384,8.786880969336211e-08,120.00000220974424,63.98709205399403,15.288,0.0,0.0,0.0300430411774988,2.987811646313829e-10,-0.0001288461362054,1.4273117985167728e-08,3.621333387698252e-06,3.8514177486178034,41.50703126619192,10.223061685769354,38.96455005232871
0.26,31.222213847358866,131.0103964259872,4.218542267117083,3.8780574625554745,0.0005745172425185,42.3164797140743,0.0008766626387865,2.959162938653076,455.8015834241788,10.590779679138215,3.946551912391076,71.99951013710364,1.1286401474734325e-07,120.00000241975916,68.67355887153568,15.288,0.0,0.0,0.0311239685467471,3.5491769188178554e-10,-0.0001465721578858,1.6932703957058654e-08,4.267712643344226e-06,3.8780575050466,40.51245375834074,10.590869924095635,42.41981967733593
0.27,31.22221366913008,131.0103967923915,4.318728802515264,3.886188503202341,0.0005994342651313,38.70936050721014,0.0009111181036949,2.953518013741325,423.84219965987256,11.004860953238978,4.102320296019413,71.99942161756776,1.4276417094868828e-07,120.0000026420792,74.14786134434608,15.288,0.0,0.0,0.0323408987462391,4.1858405402174807e-10,-0.0001658847815307,1.995072923688136e-08,5.018832267232506e-06,3.886188549362022,39.43841359495857,11.00495511215316,38.8218734782956
0.28,31.22221348431185,131.01039717233687,4.422535913956003,3.90556090261878,0.0006261175699806,44.68030766832924,0.0009425767186621,2.947879457547137,476.3468732012221,11.38358114165448,4.247086834352694,71.999321619057,1.7823531611327881e-07,120.000002877279,79.33831935330025,15.288,0.0,0.0,0.033453914386159,4.904408325040897e-10,-0.0001868529238516,2.3357766479368094e-08,5.847713054408178e-06,3.9055609527288775,38.49894431917428,11.383679491972384,44.77744842575601
0.29,31.222213292835256,131.0103975659655,4.530013412817602,3.9242599519377537,0.0006528240665589,35.802573724660256,0.0009737210635801,2.942037024315898,397.97031042211177,11.759725774384751,4.391004157029451,71.99920917567837,2.1999186079018322e-07,120.00000312617878,84.66717879828003,15.288,0.0,0.0,0.0345593650464213,5.711677680739745e-10,-0.0002095620322847,2.7188189988316943e-08,6.77505090435382e-06,3.9242600061534456,37.60352534239979,11.759828319749328,35.92324968749781
0.3,31.222213095024976,131.0103979726075,4.64093665799555,3.936939025755682,0.0006785438093183,33.570228713727204,0.0010059102294455,2.93586442972183,378.1859457108711,12.149968255527943,4.539237002744259,71.99908328532703,2.6880857935396905e-07,120.00000338923812,90.3787563598417,15.288,0.0,0.0,0.0357062504417728,6.614698865958865e-10,-0.0002340353597042,3.1467140861055e-08,7.817263716758327e-06,3.9369390841381695,36.71173884615234,12.150074840940263,33.698361337808635
0.31,31.22221289105846,131.01039839189684,4.755183729044857,3.9598342215431432,0.0007060286581592,35.396825578217346,0.0010350810412898,2.9297385597941448,394.1656220930212,12.504537499407316,4.6763673222047455,71.99894291513503,3.255120771695107e-07,120.00000366712923,95.72967338626896,15.288,0.0,0.0,0.0367483036680869,7.620720834468404e-10,-0.0002603234137215,3.622454560346964e-08,8.948994505138873e-06,3.9598342843844345,35.934338386209795,12.504648402129598,35.5178635353378
0.32,31.222212681031937,131.01039882363492,4.872689374180126,3.985461429033668,0.0007340760463279,38.52097867048992,0.0010630242168685,2.9235095146848846,421.55939346242695,12.84534566718622,4.809181081594425,71.99878701464397,3.909756427278764e-07,120.0000039606604,101.01782231644016,15.288,0.0,0.0,0.0377499198995686,8.737098716736534e-10,-0.0002884807530145,4.1491545539590986e-08,1.0187112828155184e-05,3.98546149652875,35.21473736963424,12.845460975581933,38.631757748577954
0.33,31.22221246496604,131.01039926777932,4.9934410812554,4.010606629086,0.0007621365968788,38.18822026147908,0.0010905599149574,2.917102431053817,418.5156301991682,13.18247167592885,4.940798912752974,71.99861449732019,4.661299779655886e-07,120.000004270781,106.38859400029033,15.288,0.0,0.0,0.0387407190563976,9.971421990244511e-10,-0.0003185760672934,4.7302669734505256e-08,1.154498667827874e-05,4.010606701382261,34.52805863348922,13.182591392065536,38.299473293007864
0.34,31.222212242662028,131.01039972474007,5.117579377337869,4.019339771238816,0.0007871574969313,29.898022638335373,0.0011220389395318,2.910051232417875,345.46563688075645,13.569536737955724,5.0878303926024735,71.99842423285973,5.519675040347761e-07,120.0000045987411,112.72655675097128,15.288,0.0,0.0,0.0398782837956187,1.1331556132162459e-09,-0.0003507224668667,5.37022358302301e-08,1.308298593306914e-05,4.019339848191799,33.76700548046532,13.5696603843662,30.039310197084795
0.35,31.22221201433324,131.01040019407705,5.2449575244483055,4.033762873683395,0.000813261106463,32.76415525156106,0.0011515840876071,2.902959820469776,370.5765700527033,13.934300103976534,5.227895396154902,71.99821502296155,6.495674834876441e-07,120.000004945438,118.8669740701126,15.288,0.0,0.0,0.040950312688979,1.2825853697215452e-09,-0.0003849609961885,6.072234695821837e-08,1.4746020857580124e-05,4.033762955530055,33.07785186209504,13.934427850732408,32.89250745069162
0.36,31.22221177990305,131.01040067594835,5.375631006350063,4.051723629010647,0.0008401329464575,37.01692984301412,0.0011797030485285,2.8957873473716007,407.8625232777193,14.282998147928636,5.362923567977223,71.9979856440668,7.600645476620651e-07,120.00000531213882,124.88900300695136,15.288,0.0,0.0,0.0419751331662584,1.4462801652534363e-09,-0.0004213876232777,6.84067806399068e-08,1.654507199147348e-05,4.051723715967022,32.44322602189087,14.283130115703262,37.13002398000203
0.37,31.222211539445663,131.01040117020102,5.509550188388412,4.071639898917391,0.0008674922629137,35.12417761390579,0.0012067983861697,2.88849906286036,391.1218908297666,14.620581431527652,5.494447309446232,71.99773482653193,8.846681943540367e-07,120.00000570002652,130.86067091914967,15.288,0.0,0.0,0.0429672939311924,1.6251202388969355e-09,-0.0004600660652957,7.679415042686734e-08,1.849041957573993e-05,4.071639991174516,31.85023865502424,14.620717696893658,35.24274792557624
0.38,31.222211292895075,131.01040167697127,5.646763233102716,4.08264881385344,0.0008930259828975,36.695642158537446,0.0012360471443664,2.880711738179021,404.8187610144602,14.986392916850402,5.634654729559426,71.99746126698146,1.0246533537040716e-06,120.0000061105033,137.4891296153862,15.288,0.0,0.0,0.0440424171304414,1.8200057922063743e-09,-0.0005010869196581,8.592980519823866e-08,2.0642694281337543e-05,4.082648911356968,31.228847973200924,14.986533193043764,36.808540518115166
0.39,31.22221104018777,131.0104021963902,5.787316652586672,4.096641430700089,0.0009192713382325,31.335681548387896,0.0012640110027448,2.872831219844713,357.64062493382744,15.337978856701952,5.770390286512262,71.99716358743511,1.1813915463769678e-06,120.00000654506955,144.01394309468844,15.288,0.0,0.0,0.0450757388736732,2.031886352449547e-09,-0.00054455673306,9.586443829735616e-08,2.295945663566148e-05,4.096641533664766,30.65298398882095,15.338123255506089,31.4670954954126
0.4,31.222210781536543,131.01040272801887,5.931064331106764,4.109028969993624,0.0009451871856381,29.95928076777898,0.0012920492774571,2.8646905607053603,345.465636880754,15.692185018814769,5.906873567965718,71.99684037970908,1.3563276523471372e-06,120.00000700500496,150.74021066990193,15.288,0.0,0.0,0.0461167659598875,2.2617341782092324e-09,-0.0005905037520737,1.0663253249436129e-07,2.5471259834659164e-05,4.1090290785164525,30.09246700352443,15.692333488470696,30.095929256306363
0.41,31.222210517064383,131.01040327160345,6.077922766619747,4.122888296344507,0.0009714525997821,33.78425365340317,0.0013192264430821,2.85640971467756,378.94687077668647,16.03742529732769,6.0405139809190125,71.99649020751959,1.5509747261474075e-06,120.0000074917568,157.44375780268788,15.288,0.0,0.0,0.0471314487675864,2.5105374204052982e-09,-0.0006389770219162,1.1827345344180344e-07,2.816813594418537e-05,4.122888410595805,29.56469007160549,16.037577892745222,33.904791300285986
0.42,31.22221024682894,131.0104038270252,6.227854084363214,4.14444025865494,0.0009995884754813,38.04468161607466,0.0013435485656724,2.8482703202464488,416.2328240017114,16.348862540904037,6.163613566771559,71.99611159893284,1.766920641656551e-06,120.00000800692096,163.6157044470786,15.288,0.0,0.0,0.0480467946810589,2.779304965995011e-09,-0.0006900467934588,1.308321832549104e-07,3.100973487310896e-05,4.144440378988911,29.104646754454564,16.34901955589459,38.15115260238947
0.43,31.222209970843565,131.0104043942566,6.380851271439565,4.1618082623168045,0.0010268052928652,33.45815353250911,0.0013687230309017,2.8397750580998298,375.9031395134336,16.67263197205097,6.290467308135904,71.99570306121484,2.005818691215035e-06,120.00000855220898,170.15779512382937,15.288,0.0,0.0,0.0489983878509763,3.0690566816849196e-09,-0.0007437862329608,1.443552931671376e-07,3.4086145072160934e-05,4.161808388761201,28.640125213458976,16.672793262249197,33.57845085853367
0.44,31.22220968892116,131.01040497368373,6.537047157143216,4.164954087655709,0.0010505545842624,30.86574023822051,0.0013980747538988,2.830419582421933,353.0750125389216,17.050421620730056,6.433992917638883,71.99526304125902,2.269416145406482e-06,120.00000912964636,177.9537948947602,15.288,0.0,0.0,0.050108743779844,3.380847125286677e-09,-0.0008003278134917,1.589055036683518e-07,3.750784460406397e-05,4.164954219916419,28.113519280259386,17.050586641458253,30.99524475496968
0.45,31.22220940081287,131.01040556582012,6.696617751072218,4.165241899529329,0.0010735835484822,35.912216710755274,0.0014280646808282,2.820677244966047,397.2093853562869,17.438293672974723,6.580571293039616,71.99478987454265,2.5595995397253085e-06,120.00000974147088,186.13940823302417,15.288,0.0,0.0,0.0512487363629523,3.7158016249566814e-09,-0.000859850913876,1.745604864109677e-07,4.121350642664912e-05,4.1652420376426775,27.591357195572936,17.43846231108416,36.02281959036367
0.46,31.222209106468902,131.0104061707686,6.859600379555308,4.174585124444534,0.0010989881252456,41.916816790010685,0.0014546917035209,2.811153314474766,449.7140588976434,17.786187321601275,6.714685486378061,71.99428180697711,2.8783880229668832e-06,120.0000103898448,193.6374175079873,15.288,0.0,0.0,0.0522712438446989,4.0751091178509895e-09,-0.0009224765531151,1.9138630415982226e-07,4.50966024037632e-05,4.1745852688465686,27.13985967570823,17.786359950252297,42.01097612387663
0.47,31.22220880579083,131.01040678873238,7.026066274755745,4.1823089530633855,0.0011240727220223,28.37640408484148,0.0014814747534716,2.801325368441072,331.0078106302534,18.138167428286582,6.849989708801916,71.99373704967608,3.2278903746588286e-06,120.00001107707628,201.37401505997488,15.288,0.0,0.0,0.0533057667609836,4.459978104761035e-09,-0.0009883252835099,2.094509673354327e-07,4.927107017839778e-05,4.182309103852639,26.69716826759888,18.13834399721685,28.514342615617974
0.48,31.222208499300592,131.0104074186346,7.195654207463586,4.189479568102716,0.0011490100608361,27.95074823096412,0.0015080719422187,2.7912412472910484,327.2031223011574,18.48995085190441,6.98515976370584,71.99315377257649,3.6103201777021456e-06,120.00001180491516,209.25751230436188,15.288,0.0,0.0,0.0543397174489847,4.8716620260348906e-09,-0.0010573190976925,2.2877013380347535e-07,5.373205427420879e-05,4.189479725385959,26.268461765425428,18.4901313379827,28.089773168283216
0.49,31.222208187201936,131.01040806005494,7.368224738812109,4.202723284133339,0.001175611380853,35.08821363242469,0.0015321405723077,2.781292092003844,389.60000969812296,18.812014261754847,7.111044804193205,71.99253015042137,4.027946338669921e-06,120.0000125755114,216.60722913930897,15.288,0.0,0.0,0.0552863302793499,5.311396446020465e-09,-0.0011294854492155,2.4938633613154685e-07,5.8398320167141767e-05,4.202723448262914,25.88860807032205,18.81219892635871,35.1982716047702
0.5,31.22220786953184,131.01040871291724,7.5437546994244835,4.220815778795054,0.0012036252596423,36.05491615971072,0.0015540388599792,2.7714444106710974,397.97031042210494,19.10875420627192,7.229005658018125,71.99186435180009,4.483102820610566e-06,120.00001339126192,223.4908652241728,15.288,0.0,0.0,0.0561585257949344,5.7804122391526605e-09,-0.0012048912160576,2.713531252030471e-07,6.327866493526626e-05,4.220815950099865,25.54902500917784,19.108943271285572,36.161276053538906
0.51,31.222207546379583,131.0104093770373,7.722184419225251,4.232567510615346,0.0012298790840397,27.54004661432325,0.0015777580800203,2.761017323676155,323.3984349720841,19.430597746636646,7.354673636736509,71.99115452520388,4.978202222778502e-06,120.00001425458936,231.07869697977367,15.288,0.0,0.0,0.0571045034845869,6.2799518101633574e-09,-0.0012835871653678,2.947201005874635e-07,6.854585242460463e-05,4.232567688976395,25.189423168613605,19.430790935591396,27.678103017910345
0.52,31.22220721805753,131.01041005266407,7.903543834989225,4.238530983577263,23.9727626114527,33.763818140959,-1.55390393131394,2.7502741710739502,372.0984511843415,21.631638417698447,7.483654019706433,71.99038980002503,0.0001934545790494,120.0002127892684,286.3906629028464,15.288,0.0,8.800019856462265,0.0635732628880066,6.8741105154824286e-09,-0.0013916499499991,0.0003598436547342,8.273352240911474e-05,24.322774196949776,44.97761319615903,25.28835924339496,33.9112671674118
0.53,31.22220688518635,131.01041074083335,8.08798238361213,4.246604785730408,23.66258943923875,35.42978700348523,-1.5930533552516957,2.7391370907287795,386.5562464348624,21.94376192438736,7.6127080536097935,71.98957125708165,0.0012449852920019,120.00131885119428,294.70974673165125,15.288,0.0,8.833885958236424,0.0644906974310897,7.768768288996153e-09,-0.0014770965478549,0.0008885182617405,8.907880173079283e-05,24.019040349533466,44.44456823776544,25.555910309873724,35.571203214212694
0.54,31.222206547706527,131.0104114418203,8.275575509245042,4.254488156996604,23.36193936410292,31.175319169716257,-1.6326723407684436,2.7277625599159223,349.2703242098436,22.254593966445675,7.741114161273744,71.98870279440325,0.0032387011007669,120.00341565705295,303.1125099106491,15.288,0.0,8.867683664297882,0.0654043426160441,8.984793913439946e-09,-0.0015662638493218,0.0014306800119143,9.579242699899188e-05,23.72479974087817,43.92593197426253,25.8234373513698,31.33698825492436
0.55,31.222206205938605,131.0104121550232,8.466117790489017,4.263382190094664,23.07603236362665,33.01536728786691,-1.6723065018955443,2.716238589066469,365.2500005919907,22.558778731990685,7.867083417221982,71.98778225222847,0.0061978254709972,120.00652763690482,311.44956865874974,15.288,0.0,8.901370834064268,0.0662984580571882,1.0529988280585684e-08,-0.0016591225226324,0.0019857907108611,0.0001028567209506,23.44537807721072,43.430498779273066,26.086349503297157,33.16909764014945
0.56,31.22220585990737,131.01041288044868,8.659609430424947,4.274144636403992,22.808314055118785,30.84811925046345,-1.711591180227486,2.7046404190916555,346.2265619465787,22.85216037785784,7.989237990607174,71.98680743808629,0.0101451948180663,120.01067881542969,319.5972416827743,15.288,0.0,8.93494484695794,0.0671608299985237,1.2411983500597357e-08,-0.0017557707308848,0.0025540474682458,0.0001102619403845,23.18430125544956,42.96423846640484,26.34100454364818,31.013724146829425
0.57,31.222205509713103,131.01041361794614,8.855997661241334,4.282712124529554,22.538783846216,30.509813339090943,-1.752078190447642,2.692655154165492,343.1828296833023,23.15302642366728,8.11374608917418,71.98577610447764,0.0151036242393062,120.01589319619718,328.06193403573025,15.288,0.0,8.96838914676262,0.0680452040811457,1.4638395756021248e-08,-0.0018562643965912,0.0031354067552536,0.0001181054599321,22.92121425561952,42.49462165155195,26.602804940300864,30.67847583813231
0.58,31.22220515535576,131.01041436757154,9.055299532007538,4.286437413465683,22.2549920515082,40.02372144483905,-1.7949080262788757,2.680041567258444,426.1250058573153,23.47416247152679,8.24488227112715,71.98468593497317,0.0210961224530356,120.02219498797612,337.21913263778055,15.288,0.0,9.00170211932008,0.0689891566696115,1.7216883191161744e-08,-0.0019607064257065,0.0037300832173721,0.0001264785097483,22.64341919462121,42.0010322918442,26.88272577699486,40.15348796703846
0.59,31.222204796432752,131.0104151302134,9.257813234944416,4.295227377461099,22.003219346274783,32.536102795778675,-1.8361258301187189,2.667612564057316,360.68438819711065,23.76944302510337,8.367178201547139,71.98353442592484,0.0281471630946023,120.02960994457572,345.7494994305493,15.288,0.0,9.03493357354798,0.0698571281152784,2.0155536985875087e-08,-0.0020694138640696,0.0043394304418039,0.0001351674049261,22.39808756124208,41.55992906387472,27.141371231586398,32.69687293906594
0.6,31.222204433192232,131.01041590541735,9.463383471215712,4.295865120969752,21.72176173130905,28.969986195369195,-1.8811845566951089,2.6542307451389817,329.4859594986058,24.101509028019624,8.501604292004854,71.98231911159303,0.0362815007987495,120.03816410865468,355.4704033790809,15.288,0.0,9.068050581362078,0.070833216694685,2.3462604308646252e-08,-0.0021823762841682,0.0049630188327865,0.0001445342962522,22.12230391484987,41.0691803317924,27.432405680256664,29.15208219569695
0.61,31.222204065606643,131.01041669329794,9.672047101061075,4.294980323694637,21.44146710383767,33.86690020353685,-1.9274695351885969,2.640430024752891,372.0984511843297,24.439686919736143,8.637875013189593,71.98103730484057,0.045524481815148,120.04788415485518,365.50855896577326,15.288,0.0,9.10105740664612,0.0718272749075937,2.7146489115673043e-08,-0.0022997277285114,0.005601192401718,0.0001544402163861,21.84751205585391,40.579780813796745,27.72964167822099,34.02431393755091
0.62,31.22220369382071,131.01041749361488,9.883721187582983,4.305783972714905,21.22141260285108,41.99600511902688,-1.969133957497644,2.627461049984981,442.86563930529206,24.718334883568648,8.754149477417478,71.9796862150591,0.0559020015116389,120.05879733710132,373.8831309601114,15.288,0.0,9.1339526932965,0.0726463837486727,3.1215792256636074e-08,-0.0024215377231053,0.0062539523257276,0.0001644712393104,21.63405128462848,40.19094686440386,27.97609164294592,42.124167482207774
0.63,31.22220331766273,131.01041830677528,10.098541752155011,4.312513014620912,20.989654739981106,24.019756662717857,-2.012982444649185,2.613876522777748,286.11251274707894,25.014566649087342,8.876143371918088,71.97826316328309,0.067438974411995,120.07092987269672,382.8903807963677,15.288,0.0,9.166711872577618,0.0735171774575179,3.567869108544723e-08,-0.0025479950543703,0.0069218958779938,0.0001751306339659,21.408492797934706,39.78260974727305,28.23836104656042,24.24527085711713
0.64,31.22220293777048,131.01041913151928,10.31608180095321,4.312921838754169,20.736630402800216,23.5902232832928,-2.060190436094012,2.5994074527771054,282.30782441796754,25.34079584424828,9.007950571443857,71.97676522236296,0.0801605589341742,120.08430824714162,392.9342781065158,15.288,0.0,9.199350186844503,0.0744761395715972,4.0543655605071575e-08,-0.0026788621465843,0.0076034701307234,0.0001865228741651,21.16103666628056,39.3382932224887,28.52745123000889,23.822257204012725
0.65,31.22220255414475,131.01041996789647,10.536356793185504,4.321950889050784,20.527627123937386,41.33506739042438,-2.1038401504165285,2.585560914147181,436.7781447787475,25.620677384535444,9.124255060986329,71.9751895548231,0.0940912701812319,120.09895826479908,401.6533985342277,15.288,0.0,9.23177336173294,0.0752988934646358,4.581874280864126e-08,-0.0028142719892269,0.0082990143290471,0.0001981111746902,20.958441909513184,38.96852212443728,28.776608286715152,41.469254451824845
0.66,31.22220216627286,131.01042081701053,10.759738414906227,4.328449398260303,20.31352560795221,35.22873938173303,-2.149097735209249,2.571212393849282,383.51251517160017,25.910996895666656,9.243890053599134,71.97353319226572,0.1092558576777312,120.11490598236608,410.7987931381112,15.288,0.0,9.264103504142124,0.0761523312758021,5.151190421649849e-08,-0.0029546272900344,0.0090101630803594,0.0002103438450013,20.750490333578355,38.5902787006583,29.035410309318205,35.387763883521
0.67,31.22220177437101,131.01042167846887,10.98609279851918,4.329342881602195,20.08127201858167,24.39727616451956,-2.1975639046416986,2.555992027519243,289.1562440103425,26.2286251656058,9.372418901804036,71.97179297919413,0.1256807442708644,120.1321792179494,420.92287480252,15.288,0.0,9.296324730871056,0.0770860365252581,5.7631901606354135e-08,-0.0030999250146799,0.0097365424131485,0.0002233882143886,20.52380529298152,38.181211806753424,29.31879963883937,24.629037062125676
0.68,31.22220137863724,131.01042255191552,11.21529852245938,4.3313794345739804,19.859576461016346,30.35129994262857,-2.245994423170809,2.540614850009635,340.8999924858462,26.538272512619784,9.498178349421128,71.96996567932216,0.1433922483878442,120.15080568320695,430.9106368254493,15.288,0.0,9.328336226290084,0.0779962930279345,6.418744780572913e-08,-0.0032501831687008,0.0104778930474784,0.000236976056939,20.307780192830304,37.79032397219012,29.5957171413035,30.540147723487014
0.69,31.22220097917496,131.01042343718683,11.447299299362962,4.338113903718393,19.66308923374986,37.27086245680545,-2.2925007725684896,2.525519769678334,401.0140726853634,26.820203890550136,9.614670690522178,71.96804796035872,0.1624162795406549,120.17081266561622,440.1050891083936,15.288,0.0,9.360225793990484,0.0788250989566304,7.118708544065865e-08,-0.003405457417981,0.0112341406250035,0.0002509295665695,20.11743888264912,37.44274331577125,29.848602007248047,37.426608157477666
0.7,31.22220057585852,131.0104243345864,11.682196906426643,4.344145830521068,19.468679055799065,31.32994430018689,-2.3397909442070857,2.510093203597436,349.27032420985284,27.103320412081008,9.731440305686396,71.96603651104486,0.1827784012121075,120.1922270870223,449.4355715575558,15.288,0.0,9.391995140514522,0.0796573949969149,7.863909933952218e-08,-0.0035659474555907,0.0120058804402938,0.0002655228797982,19.92909540423875,37.099031731344034,30.102944011242727,31.51730634756328
0.71,31.222200168762605,131.010425244007,11.91995434970136,4.346427418472229,19.26355169527198,25.82322433512132,-2.3895278853578823,2.4939388826459674,301.33126406340574,27.40477120677356,9.854134187999124,71.9639278528123,0.2045047852923714,120.21507651474316,459.4781773996264,15.288,0.0,9.42355098166448,0.0805435831174378,8.65520880716319e-08,-0.0037317252830838,0.0127931006968497,0.0002809509085271,19.72963111589549,36.73729340028699,30.373996608998283,26.053185788445877
0.72,31.222199757907287,131.01042616545345,12.160572489617492,4.344303405494629,19.04546435547096,31.52159772640142,-2.442236213495669,2.476925407030545,350.79220534145287,27.729080348525244,9.984206974069169,71.96171835861252,0.227622118842636,120.23938906298768,470.40662095107626,15.288,0.0,9.454985074613228,0.0814969602863295,9.49347838232129e-08,-0.0039029151623019,0.0135960296773725,0.00029730974029,19.516714209544663,36.35330530828058,30.665945259306685,31.712943736266084
0.73,31.222199343307658,131.0104270989418,12.404056029942346,4.351198104801446,18.868726362950824,39.76295744742217,-2.4904643863995704,2.4608047471517014,422.320318528234,27.99984770275112,10.09658333373061,71.95940427234916,0.2521580116127447,120.26519381817252,479.62705959270073,15.288,0.0,9.48630338064168,0.0822929832477549,1.0379620501292349e-07,-0.0040796590785131,0.0144149707721441,0.0003138007282294,19.346112269761303,36.04112968203541,30.910456434132108,39.916797940579286
0.74,31.2221989249128,131.01042804461812,12.650453863429822,4.354606288171494,18.68218212402937,25.052964548656583,-2.5410842939562883,2.44395648238329,294.48281347105944,28.287951186183907,10.2145446889954,71.9569817272616,0.2781390596351075,120.29251881053408,489.53646854193806,15.288,0.0,9.517441229232752,0.0831399652263168,1.1314501147071373e-07,-0.0042620976534734,0.0152502033857675,0.0003311990020757,19.1653184860817,35.712434288929494,31.170816885773664,25.299823425332796
0.75,31.22219850312256,131.010429001708,12.899503758085311,4.355638737278703,18.490434992690272,29.177799977144808,-2.5935881560827605,2.426490882546513,330.24688556441487,28.587587662378727,10.336176869806332,71.95444689953665,0.3055920023501838,120.32139221511927,499.9501403888577,15.288,0.0,9.548400421635693,0.0840208506720544,1.2299026260726245e-07,-0.0044500724434533,0.0161006858354185,0.0003494606924449,18.979048787762885,35.375056101634165,31.44190470444856,29.39317214988416
0.76,31.22219807783436,131.01042997046116,13.151289854465096,4.359595412244481,18.314392446854367,31.375985055879063,-2.6448621149000946,2.4091567799647184,349.27032420986166,28.86760254671848,10.451280614050878,71.95179568555294,0.3345433539605199,120.3518419879021,509.7797845994045,15.288,0.0,9.579221478279797,0.0848440743423122,1.3334050458912796e-07,-0.004643801086819,0.0169670458250383,0.0003682371222151,18.808802127385825,35.06542580538464,31.695680984640152,31.57929337752873
0.77,31.222197649001608,131.0104309510114,13.405857186008776,4.363968266485284,18.14386492756096,29.365791997343408,-2.696342831377364,2.391610680002989,331.7687666960708,29.142453168700506,10.564596552054432,71.94902405663355,0.3650198375967321,120.38389629676004,519.5205995011122,15.288,0.0,9.609907541070484,0.0856521271759125,1.4420439688680336e-07,-0.0048434510096581,0.0178496725569104,0.0003877159283816,18.644112486763728,34.76587639329013,31.94508954122225,29.586142126682596
0.78,31.222197216707727,131.0104319432264,13.663160900969489,4.36504404998492,17.96425914637361,24.19635599802025,-2.750319883356471,2.373283138170033,286.8734378128899,29.4346017877386,10.683466463126152,71.94612773039775,0.3970482540518825,120.4175834053254,529.9759429362998,15.288,0.0,9.640388848838004,0.0865110277406063,1.5559079144153285e-07,-0.0050490773171758,0.0187484634083082,0.0004082179331098,18.469962017084903,34.4509335403856,32.21041481275402,24.46753718496487
0.79,31.22219678106145,131.01043294692246,13.9231388584073,4.3640960886235804,17.780698124872757,34.20419265777227,-2.806129026830491,2.354329020183415,373.6203323159534,29.73688009130293,10.805534470146068,71.94310228887115,0.4306556817557695,120.4529318748274,540.9034945073707,15.288,0.0,9.670707894466666,0.0873997080996081,1.6750866396374677e-07,-0.0052607312327802,0.0196633040625388,0.0004296873487183,18.29160940640192,34.12940711919036,32.48525088885165,34.399767740792974
0.8,31.2221963418394,131.0104339625899,14.185956907513804,4.368417263085218,17.620857231531907,34.650028378523835,-2.859078305860183,2.335915796230545,377.42502064505743,30.004153351493336,10.916089000379024,71.93994323163815,0.4658699105021608,120.48997101503994,550.656507015342,15.288,0.0,9.70090174391318,0.0881855128220674,1.7996676966729769e-07,-0.0054787562985912,0.0205953016800759,0.0004515059198352,18.137584821552007,33.85008854778554,32.72860507523646,34.846166187955696
0.81,31.222195899164728,131.01043499001304,14.451542267772329,4.368776515896819,17.449489143622486,22.716293494365253,-2.9150938654227354,2.3165644158933647,273.9374926939919,30.2934542531892,11.033720377439527,71.93664588250496,0.5027184838621747,120.52872988742396,561.3122757014994,15.288,0.0,9.730954791852936,0.0890360668429506,1.929743269018444e-07,-0.0057031637885564,0.0215441551614462,0.0004745190519455,17.971557616959785,33.550875964336754,32.99223839148232,23.019431640667193
0.82,31.222195453253363,131.0104360287888,14.719758749092549,4.367305187572361,17.274721808406067,29.04309383089192,-2.972906620791904,2.2965801808169126,328.72500443277005,30.592025050011443,11.154266280270235,71.93320546119868,0.5412288854869541,120.56923749585776,572.4165893116858,15.288,0.0,9.760844842278464,0.0899138740376199,2.065406494256781e-07,-0.0059339109903208,0.0225093536470326,0.0004985710759462,17.801900887865926,33.24605146993098,33.264607598108704,29.285043171777325
0.83,31.22219500409993,131.0104370789612,14.990621575160088,4.372310419590634,17.127123702473963,36.778724406198975,-3.0267920677793727,2.277415365728094,395.68750322465047,30.84668161506841,11.260447604143348,71.92961704562022,0.5814287348542632,120.61152299439247,581.971026758071,15.288,0.0,9.7905372646417,0.0906626193189533,2.2067474405090682e-07,-0.0061711637010299,0.0234912444337548,0.000522807786153,17.660193013439166,32.99000865883449,33.4971164792452,36.9732695324171
0.84,31.222194551600523,131.01043814076854,15.264211919237544,4.375616391627001,16.97622824940444,22.90127792259459,-3.0822624372097924,2.2576754008647537,275.4593748256452,31.109244647528417,11.369112374390053,71.92587564175606,0.623344912187193,120.65561476701096,591.9049662889183,15.288,0.0,9.820087591839306,0.0914346102522226,2.353853022153858e-07,-0.0064151279524478,0.0244903180594061,0.0005480875125824,17.514980941245067,32.72866639878188,33.73701886637545,23.217794262923054
0.85,31.222194096085843,131.0104392135727,15.540314336144364,4.37302503136345,16.806848932806385,24.925721134118515,-3.14242972870792,2.236544052584183,292.96093233939376,31.40759545735711,11.489302311941325,71.92197613430757,0.6670041095657617,120.70154100711004,603.2966480835845,15.288,0.0,9.849472004108756,0.0923117943942221,2.506817246392196e-07,-0.0066656268980435,0.0255055342653802,0.0005749357199534,17.35055173334717,32.43483985533644,34.009911522246355,25.222382281514555
0.86,31.222193637377828,131.01044029776082,15.819060538537224,4.374265791345447,16.65436987604696,31.08351440329705,-3.2003810778538546,2.2158028059517205,346.2265619465587,31.678310298297728,11.60043296369864,71.91791318783376,0.7124339348926793,120.74933088019436,613.7251583058804,15.288,0.0,9.878710538308136,0.0931077601277243,2.665727214634623e-07,-0.0069229974024759,0.0265379029488107,0.0006022657324959,17.20349037048042,32.17166182756553,34.257688904333,31.326300272747236
0.87,31.22219317551266,131.010441393286,16.100435430448766,4.377152476008748,16.510557749647816,28.97715559635865,-3.257577531395784,2.195079507406447,327.964078366998,31.93521125996049,11.70700135478199,71.9136813103749,0.7596616534680479,120.79901320236436,623.702896181048,15.288,0.0,9.907801604704977,0.0938631322636453,2.830673812937723e-07,-0.0071873434445323,0.0275874929795598,0.0006303161459624,17.06530093039249,31.92455140771752,34.49293943266925,29.24219095540671
0.88,31.22219271053839,131.0104425000758,16.384415355332855,4.376944656823252,16.35842084840812,25.110000092489248,-3.317566195702628,2.173439485536222,294.4828134710418,32.20998296047926,11.81927232365946,71.90927499879149,0.8087142450993206,120.850616491029,634.4644886733599,15.288,0.0,9.936738149476689,0.0946710373513107,3.0017482035560374e-07,-0.0074587296397031,0.0286542181460202,0.0006597262375984,16.91839181881595,31.663037639574803,34.744789895762494,25.42129401318837
0.89,31.22219224255316,131.01044361795735,16.670942688780848,4.373708971744593,16.198299450716952,27.48835662915902,-3.380415701402503,2.150847206665796,315.028134248087,32.50275610312447,11.937280054594174,71.90468847241361,0.859618813473243,120.90416941065232,646.0330797799369,15.288,0.0,9.96548150387744,0.0955318600669527,3.179042568422499e-07,-0.0077372156158754,0.029737975783631,0.0006905598652227,16.76310393953987,31.38767610600489,35.01341954113135,27.77882474462412
0.9,31.22219177148375,131.01044474710028,16.960075928274104,4.377089525303714,16.063938484096347,30.307862355123845,-3.438614673010433,2.129304407277341,339.37814235421445,32.74750977198216,12.03967171724126,71.89991576240165,0.912403165238356,120.9597013731112,655.7810755171994,15.288,0.0,9.994076331288616,0.0962515522415034,3.362647337967416e-07,-0.0080230381637022,0.0308393347767736,0.0007214421697787,16.634427669794714,31.159298386570256,35.23789879569333,30.576535589654796
0.91,31.2221912974146,131.0104458873548,17.25176551982963,4.377417900261489,15.921366939734485,23.17928175117921,-3.499661123204694,2.106812350401348,277.7421810230789,33.010246961968626,12.147796113211404,71.89495085578125,0.967093783729847,121.01724040849123,666.3274418382857,15.288,0.0,10.022519204616154,0.0970241092883905,3.5526540609139733e-07,-0.0083162317090675,0.0319580836118584,0.000753785144379,16.497143925164046,30.916662630959745,35.47910766165522,23.53646933500485
0.92,31.222190820574404,131.01044703828572,17.545865093133852,4.374782842391544,15.771035572560807,27.495884982073264,-3.563612144107189,2.083339980887944,315.02813424806214,33.29093949090328,12.261636003352637,71.88978756718134,1.0237171955256197,121.07681460321844,677.688301040143,15.288,0.0,10.050796625639794,0.0978494488012042,3.7491588329929625e-07,-0.0086166796737416,0.0330934591126706,0.0007876367149676,16.351705958940546,30.660474105199224,35.73708357732201,27.804016399380078
0.93,31.222190340870828,131.01044820009412,17.842444202523456,4.378189574883661,15.643670921324055,32.60741373863267,-3.6230432808642767,2.0609011953129084,359.1625070654728,33.5261954097612,12.360729805934143,71.8844195395478,1.082299909314535,121.13845203676874,687.2805590533221,15.288,0.0,10.07892298436116,0.0985412478402275,3.952247427754005e-07,-0.0089246600954848,0.0342461666277155,0.0008215302106988,16.230036833331866,30.44654016589988,35.95308020603111,32.872742311438344
0.94,31.22218985818777,131.01044937302171,18.141586537787184,4.375626902207326,15.498288597522132,23.79853155206132,-3.6879226248004326,2.036779290966245,283.0687504837787,33.80071606621241,12.472410101531878,71.87884030926678,1.1428676881941222,121.20218001624184,698.5618105810055,15.288,0.0,10.106897849537816,0.099348462921482,4.162005893370419e-07,-0.009240388165885,0.0354166565915683,0.0008575337485084,16.089550192362616,30.20039625112149,36.205602400468216,24.168561132204005
0.95,31.22218937285056,131.0104505564432,18.44308121012835,4.373622243515066,15.357061780858432,30.674272514578647,-3.752840583705523,2.012441478923449,342.4218736174873,34.06856011628671,12.581855367158024,71.87304314550543,1.2054471622282334,121.2680267731178,709.6562302982493,15.288,0.0,10.134709940245669,0.1001360618871186,4.378534586369664e-07,-0.0095636761811636,0.036603917186693,0.000894542895248,15.9532900388636,29.962328299229902,36.45206194988239,30.96844728835196
0.96,31.222188884539925,131.0104517509981,18.747147223565506,4.374526231770124,15.227694341332452,30.059260257819783,-3.815675120416016,1.9884791051222923,337.09533515678345,34.312310801822804,12.683456664777353,71.86702117417435,1.2700644915216048,121.33602005833964,719.8263055476094,15.288,0.0,10.162380876529962,0.1008528524431819,4.60191274703503e-07,-0.0098950337265593,0.0378094520036374,0.0009321313015968,15.82928533322915,29.74650422194053,36.67621116489786,30.365647581163383
0.97,31.222188393281545,131.0104529566456,19.05377255183044,4.373646021020807,15.094457883635988,19.389824674010782,-3.880523822407412,1.963755366377352,245.02188719299323,34.56586237271464,12.788135969286108,71.86076728969081,1.3367462010720708,121.40618802036752,730.4824434594069,15.288,0.0,10.189907878047991,0.1015984583163374,4.832233559671397e-07,-0.0102345682211438,0.0390332949175226,0.0009712118621287,15.701167601311788,29.524183295843063,36.90956244385448,19.87159030284503
0.98,31.22218789939853,131.01045417276384,19.362747605771293,4.367098886986014,14.944723442175718,28.0335761582784,-3.9510352079039337,1.9372314340568195,319.5937466429581,34.85843876346685,12.905292783099648,71.85427423229096,1.405518342662932,121.47855832399657,742.8788019048061,15.288,0.0,10.217272335307005,0.1024587770090335,5.069601129525392e-07,-0.0105820160389054,0.0402741767849433,0.0010126526792697,15.555759782363506,29.27205210969465,37.17942212521609,28.37683803853399
0.99,31.22218740273045,131.0104553996762,19.674184241823177,4.369561656199403,14.826396861504133,30.59308779397898,-4.01372197299652,1.9126989130131105,341.6609485517054,35.081055498766034,12.99986563204529,71.84753449154913,1.4764073962637487,121.55315910036596,752.3751008174135,15.288,0.0,10.244494859812628,0.1031134727021865,5.314099667009363e-07,-0.0109377784139464,0.0415331758830485,0.0010533506085622,15.443020024232798,29.07827991780893,37.384075921555805,30.914485309939455
1.0,31.22218690327648,131.01045663738643,19.988086003002334,4.366508267999096,14.692059415898498,27.416667254227868,-4.081982169943865,1.8863797257557624,314.2672081822764,35.34168412110667,13.106585408776004,71.84054053777577,1.5494379678949115,121.6300165243028,763.5728876263079,15.288,0.0,10.271567194880308,0.1038799043232357,5.565819737760139e-07,-0.0113019296125226,0.042810202554311,0.0010964729536217,15.313494240583717,28.85557594744692,37.624299123471175,27.782992103704967
1.01,31.22218640123956,131.01045788550715,20.30432311876924,4.36415659642741,14.561874832765234,28.65254801209719,-4.150031073411127,1.859902351202904,324.9203161036979,35.59399285262933,13.21055470443038,71.83328452505917,1.6246356222971117,121.70915779590788,774.490766286746,15.288,0.0,10.298485468995636,0.1046218893686414,5.824860134753202e-07,-0.0116743913784629,0.0441046511569275,0.0011406590512247,15.188220691482975,28.64109177265411,37.85682126742002,29.011213388133605
1.02,31.222185896535244,131.0104591442038,20.62295424812139,4.363000224249697,14.437302992127025,23.9719772912002,-4.217331802397241,1.8334221815279903,284.59063161540416,35.83394965799837,13.310481757622716,71.82575849078296,1.702024913251532,121.79060906892305,784.9443973905505,15.288,0.0,10.325256182169957,0.1053275762482599,6.091306436706834e-07,-0.0120554063818546,0.0454170148970146,0.0011857909634501,15.068733810598465,28.43759061263786,38.0778336197837,24.40907658386626
1.03,31.222185389239183,131.0104604133298,20.94393195193826,4.3580223802620575,14.302434763636002,19.6419166501986,-4.288860555218918,1.805500052601108,247.30469339049705,36.10018577515508,13.41876958791601,71.81795431351324,1.7816297533611147,121.87439584006464,796.6269970629261,15.288,0.0,10.351874453409502,0.106110514694236,6.365251086748165e-07,-0.0124449961249186,0.0467470255012483,0.0012331684810401,14.938397290575002,28.21550727162853,38.32354748944153,20.18561480350312
1.04,31.222184879420567,131.0104616927541,21.26721391396329,4.356329702702476,14.179644062922584,31.036996317594543,-4.357541046903372,1.7781760958157706,345.46563688072297,36.33780299710185,13.51779861620038,71.80986356245698,1.8634747485112428,121.9605443545191,807.1235022994774,15.288,0.0,10.378344008023996,0.1068093407850446,6.646786954587905e-07,-0.0128432456952364,0.0480946355127015,0.0012809677179105,14.820618553335777,28.016464103963123,38.54246952621138,31.391801710343984
1.05,31.222184366759176,131.01046298308398,21.593009985623016,4.351518213501572,14.048848712480009,18.84006751267172,-4.429845199881681,1.7495682962474253,240.45625879819983,36.59651746799028,13.623516340452392,71.80147766583539,1.947583591402951,122.04907991629112,818.6317620567119,15.288,0.0,10.404679286127852,0.1075701873477697,6.935988565009537e-07,-0.013250707684524,0.0494613351225362,0.0013309752240366,14.694376478500724,27.803048361454643,38.78125894899901,19.432772874712896
1.06,31.22218385151854,131.01046428381375,21.92115030619997,4.34403730136996,13.91157219933414,26.70415691200749,-4.505493207476304,1.7197393971666166,308.17968365593924,36.87343737573426,13.734990486768844,71.79278768999407,2.033980988377406,122.14002891628044,831.0413487275924,15.288,0.0,10.430869116917668,0.1083845548272839,7.232963436274627e-07,-0.0136671667174489,0.0508460593444808,0.0013831509103601,14.561252229554682,27.57798745748197,39.0372542404246,27.136119269672655
1.07,31.222183333567628,131.01046559518971,22.251721627420444,4.342124292361852,13.79308257423624,31.388756022185508,-4.575676295817674,1.6912823002912665,348.5093681440308,37.10270880424701,13.831116554329522,71.78378441330621,2.122691898262093,122.23341803313532,841.381249334392,15.288,0.0,10.456928414816112,0.1090588744581056,7.53779735923162e-07,-0.0140930100991922,0.0522497292614672,0.0014350698537648,14.447747227615183,27.388723791815572,39.24845468522014,31.765567112892434
1.08,31.22218281278881,131.01046691742417,22.584799494887,4.338809947435259,13.671856970071296,21.215714270366966,-4.647752597154639,1.6620309563889089,261.00157857466235,37.33961845776341,13.929614945781514,71.77445850064292,2.2137399410012315,122.32927255847244,852.1331313934779,15.288,0.0,10.482858768852456,0.1097556539376631,7.850578390711384e-07,-0.0145285068735587,0.0536728494100809,0.0014888146215025,14.331299613881136,27.194934901474912,39.46686659130263,21.782343379586255
1.09,31.22218228948768,131.01046824993122,22.920186773219324,4.329148359958745,13.533054963164554,19.53020333861302,-4.72732396488536,1.6302967046136791,246.54375332474407,37.624975140128896,14.04354925277884,71.764800371828,2.307148508082276,122.42761756625016,865.1793635181629,15.288,0.0,10.508644921511117,0.1105948467250288,8.171419265142244e-07,-0.0149733336564748,0.0551140170932089,0.0015460747924673,14.196307469777365,26.96849889226629,39.7310318637825,20.16021581386531
1.1,31.22218176374689,131.01046959254847,23.257830863933428,4.322491985211851,13.404952607014076,38.90682665978185,-4.804078526764064,1.5991462892189885,413.1890617385841,37.882845800888944,14.148606619977524,71.75480019831132,2.4029407274549746,122.52847787743232,877.0509357196947,15.288,0.0,10.5342918316993,0.1113532559881971,8.500415157422129e-07,-0.0154275679254537,0.0565731361814696,0.0016038426346095,14.072469879247732,26.762751927134964,39.96933369912794,39.234902830005204
1.11,31.222181235106497,131.0104709461241,23.598025119185248,4.322034112119696,13.296795644046624,28.54918731387815,-4.87407285522792,1.5697869690719268,324.1593910376397,38.085660347559376,14.235972748009193,71.74444786214573,2.5011397457354128,122.63187835845144,886.4380962768641,15.288,0.0,10.559823751908644,0.111949841086712,8.837630745929049e-07,-0.0158920658566733,0.0580525541812809,0.0016609224116685,13.969540533717916,26.59545272174146,40.15561814007935,29.004773979626847
1.12,31.22218070362805,131.01047231052166,23.94072651538861,4.309480262766876,13.154327819979189,10.924959531156617,-4.958648448234001,1.5357555224106298,172.73281794065943,38.38593672467096,14.354433001000238,71.73373311628463,2.601767336514951,122.73784245576084,900.4413334224045,15.288,0.0,10.585229575320728,0.1128329165419288,9.183167506903304e-07,-0.0163668084099026,0.0595518164460829,0.0017239685735781,13.830415163622137,26.36347619640324,40.43410928362791,12.095514880119739
1.13,31.22218016998094,131.01047368449218,24.285510372020624,4.303225096250952,13.031953695164455,33.590690427097066,-5.036282982327122,1.5035622079283764,367.5328077900705,38.63033927897118,14.454953648596977,71.72264513009617,2.70484755548769,122.846396045803,911.9138212967192,15.288,0.0,10.61049253174068,0.1135517634640187,9.537166098752464e-07,-0.0168509850580559,0.0610680456750105,0.0017862104916933,13.712366932802482,26.17023545280774,40.6597890839808,33.999401891213594
1.14,31.222179633400525,131.01047506942822,24.63285745341156,4.30133837659655,12.923677634809776,18.70454273038592,-5.108935430303186,1.4726381272273117,239.69531773195544,38.83361298435172,14.542253719668556,71.71117324001635,2.810400570247556,122.9575609404678,921.5053465419346,15.288,0.0,10.635645812662544,0.114149722817714,9.899662945897268e-07,-0.0173459321302505,0.0626050045173457,0.001848288540226,13.609114523150582,26.00459630222537,40.84648926091927,19.44555998261823
1.15,31.22217909443238,131.01047646430055,24.98241882085795,4.287201002506105,12.781318981114593,18.43124121640223,-5.19712772375177,1.436661175624072,237.41251153546767,39.13859702560848,14.661980408346087,71.69930655247364,2.918445893529072,123.07135828983054,936.0050415671218,15.288,0.0,10.660659102153655,0.1150466640332208,1.027079371634545e-06,-0.0178508250196614,0.0641597760034157,0.0019169610730987,13.469825380336816,25.774132652098505,41.12967191258976,19.203770064436284
1.16,31.22217855322996,131.0104778688173,25.33409760379961,4.286048946499882,12.677713125825736,47.85232896738245,-5.269429195975367,1.4053196495497182,490.0437743845894,39.327818292759375,14.744659395520264,71.68703358403518,3.029005126549129,123.18781147448232,945.0455004514804,15.288,0.0,10.685542922574552,0.1156033327459852,1.0650657325588418e-06,-0.018365693147826,0.0657321077150381,0.0019817198282535,13.371377383435467,25.61868406118649,41.3030188173363,48.162092925571635
1.17,31.222178008775607,131.01047928480153,25.688523797094657,4.278351248531197,12.556653282921772,8.66390833863992,-5.350325507359293,1.3710436330616609,153.70937929486794,39.569795719009,14.844108027723466,71.67434299239451,3.1420961843245365,123.30694002514136,956.6781170231584,15.288,0.0,10.71032978863583,0.1163150857721099,1.103926991263599e-06,-0.0188922874631144,0.067326882310997,0.0020510140896437,13.254423245859234,25.43028665665419,41.52643942399594,10.274680110777792
1.18,31.22217746238648,131.01048070983643,26.044871362050856,4.261999995994968,12.41249629024312,23.37421745789118,-5.443048376616089,1.3327724701958932,280.02501822196746,39.88524182145071,14.96694171850554,71.66122293219733,3.257738254199062,123.42876484311356,971.9587114032604,15.288,0.0,10.734966680896065,0.1172428084631767,1.1436833783444648e-06,-0.0194284628283762,0.0689372884274956,0.0021259649229797,13.11295316895936,25.1976088815929,41.81977684237404,24.036578372478058
1.19,31.222176913455687,131.01048214500335,26.403515395158312,4.26404217114085,12.321403963136852,40.665155862959125,-5.511706024275205,1.301771013679237,428.4078130529292,40.03328667105217,15.036276753670336,71.64766116688301,3.3759508134643754,123.55330717114175,979.153743331148,15.288,0.0,10.759487478123273,0.1176784631179466,1.1843380552037177e-06,-0.0199755975998698,0.0705670771341205,0.0021938730320831,13.0275783481911,25.06843831297593,41.9538449646498,41.05762307329597
1.2,31.222176361445964,131.01048359122453,26.76477790663146,4.2508836827016045,12.188923823405972,4.371379181011718,-5.601049187871384,1.2639604841874177,117.1843741360236,40.31310781520997,15.147588358077355,71.63364571587488,3.496748782768659,123.68058348636202,992.8551305966128,15.288,0.0,10.783871108224067,0.1185014848195477,1.2258965209732964e-06,-0.0205345689288338,0.0722184062185783,0.002270948374575,12.898308138279964,24.859507710460505,42.21333039879983,7.216529917815394
1.21,31.2221758076932,131.0104850460862,27.12783220877809,4.238294427109088,12.059394429522335,32.670676108734845,-5.69013252717756,1.2259159026342423,359.92343213200894,40.584999185411554,15.256305603973066,71.6191637594172,3.620150601831132,123.81061400802987,1006.2578033264776,15.288,0.0,10.808107540444173,0.1193012057637703,1.2683797046097973e-06,-0.0211031879468508,0.0738845047297231,0.0023494913655003,12.772078688796048,24.656698545618205,42.46532917556277,33.18514058097439
1.22,31.222175251156784,131.01048651141355,27.49331094788301,4.23833388846185,11.965811595448704,23.698418698313503,-5.761716782386756,1.1931596941755371,283.0687504825761,40.73722074616787,15.326784398572066,71.60420255810729,3.7461713874397433,123.9434154940076,1013.784678552603,15.288,0.0,10.832245773036547,0.1197491609740046,1.3117860920157216e-06,-0.0216835830213281,0.0755711807807845,0.0024230782591836,12.6839309103856,24.52491451100751,42.60317268267234,24.417945432341707
1.23,31.222174692228887,131.01048798646536,27.860963679769373,4.224116447036774,11.834298530273164,9.304201576109918,-5.853734932009849,1.1535614679821855,159.79687382222795,41.01633350332298,15.437662687327927,71.58874946159739,3.8748229662037454,124.0790012717964,1027.6879485506977,15.288,0.0,10.856258002481196,0.1205701275932811,1.3561289864852012e-06,-0.0222749730621297,0.077275766986143,0.0025061305020639,12.55544602245525,24.31929868670209,42.86207138628927,11.052831478111472
