Time,Latitude,Longitude,Altitude,Angle of Attack,Angle of Sideslip,X-Acceleration,Y-Acceleration,Z-Acceleration,Thrust,True Velocity,Ground Velocity,Pitch,Roll,Yaw,Dynamic Pressure,cp,parachute_deploy_gain,Wind Speed,Mach,omega_x,omega_y,omega_z,Cmq
0,31.2221860000000042,131.010383999999988,3.00000000364323682,0,0,0,0,0,2.2828121974499247,0,0,69.9999999962342088,0,113.699999993883324,0,15.2880000000000003,0,0,0,0,0,0,-0
0.01,31.2221859999997946,131.010384000000556,3.00000016469923247,0,0,0,0,0,34.2421869617492334,9.11367326775851009e-12,8.66229497295429822e-12,69.9999999962370651,-4.92863947922479589e-13,113.699999993882884,5.08594204168408172e-23,15.2880000000000003,0,0,2.67827100510624443e-14,-3.65918233213857746e-19,7.58941520739853104e-19,4.81114714040442593e-19,-1.83541113936281872e-32
0.02,31.2221859999996028,131.010384000001039,3.00000030885429547,0,0,0,0,0,25.8718762377664078,1.96992978605390895e-11,1.88456988716431921e-11,69.9999999962400494,-1.04152381447771591e-12,113.699999993882386,2.37621641206600858e-22,15.2880000000000003,0,0,5.78911013494094702e-14,-7.28448334638698292e-19,1.51788304147970621e-18,9.75781955236953991e-19,-7.93451985123442364e-32
0.03,31.222185999409362,131.010384001586402,3.00018176030779937,18.6493779029494604,-0.000129237623237530007,10.7928899806483045,-1.97644583900689674e-05,3.34983967390763571,180.342193598546658,0.0785672533977095078,0.0490694047558625918,69.9999999976775626,-4.2497891361524094e-12,113.699999994705607,0.00377978965327356543,15.2880000000000003,0,0,0.000230888677896110966,2.88330015245363835e-17,-7.25223402354589416e-10,1.08188208080271277e-11,1.51197624781400831e-13
0.04,31.2221859959356287,131.010384010943454,3.00162780953569674,9.74253989061216075,-4.88763086122285772e-05,51.6475445943311158,1.54548216767323456e-06,3.34965665682309899,548.635972453807767,0.346420694310776434,0.171860503977579737,70.0000000036447574,-2.28205307288861013e-11,113.699999999565534,0.0734838809649275282,15.2880000000000003,0,0,0.00101804013696402693,1.80009747884589399e-15,-1.58734069119923437e-08,2.61929145365345784e-11,1.45916869803439425e-11
0.05,31.222185985910329,131.010384038045004,3.00715844163023283,5.5769968489095687,-4.21135943534799539e-06,75.3242160169835273,4.73080294831520123e-05,3.34902689347595528,761.698429882464552,0.947854334293939504,0.409211128642743283,70.0000000010935537,-1.04766136577077691e-10,113.700000013612069,0.55013262299765131,15.2880000000000003,0,0,0.00278549703395658196,1.95473045844392346e-14,-1.13584749331540247e-07,4.14067569904437612e-11,2.85688606727574374e-10
0.06,31.222185966868647,131.010384089593572,3.01868664272593046,4.48500474963244322,2.31139019787050305e-05,56.3605563030587007,9.71465785775115924e-05,3.34799244711343214,590.487539073720654,1.60618980149218604,0.665693519146445256,69.9999999197690244,-2.82941102348924619e-10,113.700000040305838,1.57971028663545732,15.2880000000000003,0,0,0.00472017413217633904,1.01936766184118274e-13,-4.07864410983111553e-07,5.76522069423461223e-11,1.73837509686130208e-09
0.07,31.2221859390775336,131.010384164863126,3.03600551209402658,4.00448286551149391,4.63712119495135773e-05,85.8192455386477917,0.000147926970097503541,3.34656708333141317,855.293774977913927,2.27788210706903049,0.926660947343454056,69.9999996219982279,-5.49831570978999292e-10,113.700000079276109,3.1772067926123353,15.2880000000000003,0,0,0.00669410445039518576,3.35900025920073467e-13,-9.92070622953462368e-07,7.83315922772719921e-11,5.99658406989250883e-09
0.08,31.2221859009658012,131.01038426812616,3.06033476575187802,3.77263127792190334,7.06371256062416025e-05,17.6076228145981588,0.000196957592070898702,3.34480227118667583,241.217198863884818,2.92612482887636283,1.17954495655796454,69.9999989088305909,-9.15694670892462832e-10,113.700000132739973,5.24285298735243899,15.2880000000000003,0,0,0.00859912396431777512,8.49635706706491564e-13,-2.01744800413265681e-06,1.10032289818440005e-10,1.56647792516492608e-08
0.09,31.2221858556197738,131.010384390989856,3.0892797608365723,3.74258231141200604,9.5325675231994802e-05,53.4176180048964397,0.000237730218002333866,3.34289666486112669,563.093737704317618,3.46187703891102627,1.39384941462988121,69.9999975134546446,-1.31671842773002699e-09,113.70000019638816,7.33844512707370811,15.2880000000000003,0,0,0.0101735644468633635,1.80613395740032365e-12,-3.4856561047658452e-06,1.59232278560273843e-10,3.20202005890100843e-08
0.1,31.2221858028175774,131.010384534057465,3.12301320909491364,3.81071421019783685,0.000121971080758598364,50.732831688561788,0.000271545837515448313,3.34090447591365036,538.7437595981919,3.9029133825176725,1.57567038389986336,69.999995157830341,-1.72222432289554893e-09,113.700000270567642,9.32732681847184431,15.2880000000000003,0,0,0.0114696609641860067,3.37914451533694905e-12,-5.48904943388414521e-06,2.34452541412924053e-10,5.68476506314615152e-08
0.11,31.2221857431700727,131.010384695667796,3.16106164078641116,3.84323765504598036,0.000147145408783231387,40.0848474374385688,0.000307099758177995722,3.33859717034531034,442.865639305294906,4.36819921201157246,1.76578242121538631,69.9999915253729768,-2.07703942468805025e-09,113.700000354470319,11.6837607126815346,15.2880000000000003,0,0,0.0128370221364947634,5.76365694334259916e-12,-8.08162139954488366e-06,3.4437809457680147e-10,9.36754562129998513e-08
0.12,31.2221856770245907,131.01038487487628,3.20315617196047642,3.86558564807459826,0.000171348089099210797,43.7480799143332604,0.000342946594964391399,3.33600966231316054,475.585948135404465,4.83801864946757032,1.95742650583495204,69.9999862600106582,-2.3147200577597177e-09,113.700000447673773,14.3321420062794882,15.2880000000000003,0,0,0.0142177082532951912,9.17772063248746377e-12,-1.13223702306849879e-05,4.98555567062495836e-10,1.45354343598177095e-07
0.13,31.2221856047215205,131.010385070757366,3.24903338361815308,3.95285669440916232,0.000198169826234992146,48.2585391180499741,0.000371981107240517913,3.33344523512332414,515.915632623689476,5.21512035057569623,2.1172615234944101,69.9999789703044399,-2.35265113573284059e-09,113.700000549782459,16.6533950244453948,15.2880000000000003,0,0,0.0153259223232261182,1.38588880633063252e-11,-1.52681962163171846e-05,7.07166414280215559e-10,2.11287244421402401e-07
0.14,31.2221855263490333,131.010385283071088,3.29862557546706325,3.99981420118284792,0.000223008237377726162,44.9721767850953427,0.000403855591455553264,3.33052592490198407,486.239086056840392,5.63167615200940475,2.29059513099545553,69.9999692426645623,-2.0964169591742506e-09,113.700000660771011,19.4199179783547713,15.2880000000000003,0,0,0.0165500839355928395,2.00553635588333716e-11,-1.99811439493909854e-05,9.81252131659242702e-10,2.9859131057555361e-07
0.15,31.2221854420015994,131.010385511560628,3.35186028506811029,4.05975476911301225,0.000248539990764711958,43.4637160193537753,0.000433543226731567866,3.32747422849243879,472.54218587214001,6.01888316560526437,2.45383766868271946,69.99995661705006,-1.43188768134039915e-09,113.700000780625842,22.182048585914238,15.2880000000000003,0,0,0.0176879988684610287,2.80404916713566325e-11,-2.55291719775422389e-05,1.33309260321839681e-09,4.07727088477750495e-07
0.16,31.2221853515819241,131.010385756490507,3.40881389436676407,4.08854462484130732,0.000272210944932510383,34.4023069357135967,0.000465877824565354701,3.32404684464906053,391.12189082975641,6.44303061809316624,2.62971580822363071,69.9999405987561403,-2.27841984783363582e-10,113.700000909623355,25.4183784408083007,15.2880000000000003,0,0,0.0189344747787753703,3.81042963600432359e-11,-3.19913711614788564e-05,1.77662362644707755e-09,5.46937370926295155e-07
0.17,31.2221852554099399,131.010386016990765,3.46923909377793649,4.13347468842419552,0.00029684158695823977,43.4155809381403728,0.000495744973995866601,3.3205135250562221,471.78125980632376,6.83404379119085981,2.79420112365087148,69.9999206448319882,1.67575894446247236e-09,113.700001047478835,28.5969980778046526,15.2880000000000003,0,0,0.0200835795555658371,5.05622819343119236e-11,-3.94162603380559734e-05,2.32482468580976756e-09,7.14768170397066036e-07
0.18,31.2221851530022434,131.010386294375877,3.53351204963262022,4.16207877285686756,0.000320492787063832857,36.2151660219171347,0.000526966735016640565,3.31665933612355879,407.101567211914528,7.2444022294323478,2.96528531587496236,69.9998961790314524,4.45070668055043651e-09,113.700001195059045,32.1341903991183955,15.2880000000000003,0,0,0.0212895378539265934,6.5741708189353534e-11,-4.79243856484647045e-05,2.99669991322666987e-09,9.21230820748327094e-07
0.19,31.2221850444828668,131.010386588308563,3.60153760019172342,4.17456309251139679,0.000342914278589344943,40.9041800427263027,0.00055982867240863632,3.31244583927210501,448.953132831826849,7.67810673790947895,3.14433961722118216,69.9998665624008964,8.30674092292676784e-09,113.700001352409558,36.0967170721845179,15.2880000000000003,0,0,0.0225641073333706747,8.40032927522686365e-11,-5.75836346763551867e-05,3.80911503044151526e-09,1.17316671380156179e-06
0.2,31.2221849296486234,131.01038689934137,3.67347464118590317,4.20078915399145636,0.000366573034254704516,37.5214898208491761,0.000590466919182690893,3.30812712915434881,418.515630199161365,8.08216006412957277,3.31318683933006453,69.9998311045104487,1.34800080829191884e-08,113.700001520067786,39.9955165273270055,15.2880000000000003,0,0,0.0237515420632470921,1.05728805481567758e-10,-6.85028882131185225e-05,4.78351733027568889e-09,1.4690610466811608e-06
0.21,31.2221848088436893,131.01038722653837,3.74905730552401684,4.22722562033261262,0.000390310433246848657,36.0064697775761644,0.000620601272787201603,3.30359776763142721,404.818761014464428,8.48018829437500621,3.47992805775657654,69.9997890742529592,2.02433263776548733e-08,113.700001697833756,44.0315784885794201,15.2880000000000003,0,0,0.0249212734096428447,1.31320595517854955e-10,-8.07208291683553139e-05,5.93661589182972911e-09,1.81631626331753899e-06
0.22,31.2221846819136672,131.010387570319409,3.82840670130281646,4.2176244726165093,0.000410696285369717819,43.5935627685881499,0.000655758920494764063,3.29841875767922987,472.542185872136486,8.94831461811120121,3.67066782999472752,69.9997397083127737,2.88926538075102191e-08,113.700001886238866,49.0266756129506618,15.2880000000000003,0,0,0.0262970098082033268,1.61186003536399267e-10,-9.43348117723774896e-05,7.29106197993283208e-09,2.23980539128825791e-06
0.23,31.2221845484548304,131.01038793178239,3.91183756115468473,4.25320537954326383,0.0004356497720089569,36.207459360748949,0.000683686922722525747,3.29355466128287455,406.340642146102141,9.31799902525197865,3.82760028360492655,69.9996821549030983,3.9766623706965518e-08,113.70000208621326,53.1608354775167555,15.2880000000000003,0,0,0.0273834518362109196,1.95767624418301473e-10,-0.000109505708778552874,8.87784718088286285e-09,2.70740355927931971e-06
0.24,31.2221844093456014,131.010388308538637,3.99866964940866776,4.27135264557773553,0.00045883378920767232,37.3286080087975947,0.000713911697673520317,3.2882529474867046,416.232824001711379,9.7203332459195213,3.9956861712714935,69.9996155408946805,5.32509871046438109e-08,113.700002296918697,57.8502398901668755,15.2880000000000003,0,0,0.0285658473732890855,2.35534745143307651e-10,-0.00012617657385590063,1.07071802425012536e-08,3.25424194465518317e-06
0.25,31.2221842644570167,131.010388700938847,4.08900446593793809,4.29698686981540234,0.000482848983334858658,38.3649566400252979,0.000742483922667206905,3.28284626589867479,425.364080791506922,10.1009615935159527,4.1562806652626314,69.9995389781877293,6.97479781374676735e-08,113.700002518962805,62.4689963611702623,15.2880000000000003,0,0,0.0296844577155840929,2.80933085873043406e-10,-0.000144451636124542286,1.28055329635332884e-08,3.87142965072796435e-06
0.26,31.2221841140756986,131.010389108203611,4.18262110402873155,4.32755423691547136,0.000507438991606541483,41.7865661614553829,0.000769736419800412888,3.27732087646770287,455.80158342417883,10.4644497354123782,4.31094871887776954,69.9994515368878751,8.97024502886333285e-08,113.700002752408935,67.0452443356678742,15.2880000000000003,0,0,0.0307527002093570291,3.32431765373287754e-10,-0.00016436315770221847,1.51925047864838523e-08,4.56355359993810651e-06
0.27,31.2221839578137299,131.010389531387915,4.27982215321117465,4.33742811840656994,0.000529702335486379188,38.2242911032538473,0.000800211178185602123,3.27123004841987974,423.842199659872563,10.8736118498261902,4.48123226393084195,69.9993522521519935,1.13587393208351198e-07,113.700002998306658,72.3900346549699947,15.2880000000000003,0,0,0.0319551720828357214,3.90484337603431509e-10,-0.000186059811616844751,1.79019946498730075e-08,5.36790267753501075e-06
0.28,31.2221837957695953,131.010389970223883,4.38053283172365671,4.35979025650862262,0.000553527510562852902,44.1207307275094038,0.000828072271385077072,3.26514386100193477,476.346873201222195,11.2478718916014184,4.63949182586423614,69.9992400702920463,1.41938296327408329e-07,113.700003257081931,77.4582454645660761,15.2880000000000003,0,0,0.0330550782151640757,4.55595825375374429e-10,-0.000209619220926101062,2.09616181379585756e-08,6.25569396794615011e-06
0.29,31.2221836278828384,131.010390424876022,4.48480177698289584,4.38135974025744623,0.00057737648726709299,35.3536197607625553,0.000855659611391794222,3.2588361863853601,397.970310422111766,11.6195889013503368,4.79682445966682813,69.9991139044831527,1.7532937395312496e-07,113.700003529427192,82.6616578528940948,15.2880000000000003,0,0,0.0341475147840558241,5.28268525040872464e-10,-0.000235137545717689308,2.44023887909330158e-08,7.24907222782668121e-06
0.3,31.2221834544381096,131.010390894570321,4.59240982688131272,4.39617507281761988,0.000600356665334356751,33.1490797613948018,0.000884158719714270942,3.25217107922164672,378.185945710871067,12.0052186882677852,4.95887519756831807,69.998972627127344,2.14383684192303281e-07,113.700003815596887,88.2385269149682756,15.2880000000000003,0,0,0.0352808420099011907,6.09029939588318471e-10,-0.000262641159892275291,2.82471356422800846e-08,8.36561857411674722e-06
0.31,31.2221832755909574,131.01039137888381,4.7032380575360353,4.42235615181669761,0.000624899913490765827,34.9528590290802086,0.000910025197609511073,3.24555398289468222,394.16562209302117,12.3556398803864607,5.10879227158949156,69.9988150759387651,2.59766173767152649e-07,113.700004116072961,93.4639131761651498,15.2880000000000003,0,0,0.0363107024397255479,6.98403788157463991e-10,-0.000292187019282257228,3.25229566712151178e-08,9.57826248689966157e-06
0.32,31.2221830914257232,131.010391877587324,4.81722282885169673,4.45155794779377789,0.000649944303128982049,38.0379859115142835,0.000934821026682707218,3.23882361682650144,421.559393462426954,12.6924793110791878,5.25399282922068878,69.9986400687318024,3.12179641788393281e-07,113.700004431478234,98.6283237403037703,15.2880000000000003,0,0,0.0373006526995305274,7.96905013945712519e-10,-0.000323836613651358495,3.72580440687311147e-08,1.09050644159405278e-05
0.33,31.22218290196043,131.01039239063175,4.9343519698327194,4.48019701204722054,0.000675004219851668761,37.7093551175013246,0.000959261610436717115,3.23189933669563656,418.515630199168186,13.0256844327599097,5.39788776638052958,69.9984463826819052,3.72372687880250348e-07,113.700004762578004,103.87354288045799,15.2880000000000003,0,0,0.0382799263433428877,9.05047894999210997e-10,-0.000357667290238851605,4.24836225249657193e-08,1.23603484615852587e-05
0.34,31.222182707020778,131.010392918491164,5.05476263450916541,4.49049305198152204,0.000697378143373914754,29.5227085089536203,0.000987142430045659337,3.22427911658814059,345.465636880756449,13.4081741031825317,5.55863100914667463,69.9982327456812641,4.41143957445642244e-07,113.700005110463266,110.062177258613033,15.2880000000000003,0,0,0.0394040418267209702,1.02333461745717641e-09,-0.000393806243978271305,4.82396483202145133e-08,1.40087103268591529e-05
0.35,31.2221825067937928,131.010393460657156,5.17831168393457641,4.50711781535187139,0.000720712543856854714,32.3530371383660977,0.00101333646443235357,3.21661305844837253,370.576570052703289,13.7686530554979374,5.71176159517965232,69.9979978091806316,5.19362042776584697e-07,113.700005475786654,116.058400304168075,15.2880000000000003,0,0,0.0404634764462946869,1.15232390415689195e-09,-0.000432299813734132244,5.45552399130644805e-08,1.57912776608867467e-05
0.36,31.2221823012122108,131.010394017312592,5.30505329869157727,4.52767240178778962,0.000744729708600240731,36.5526511043957356,0.00103828652712813154,3.20885713174522058,407.862523277719447,14.1132764952183631,5.85938873702120233,69.9977401961163537,6.07939829707116331e-07,113.700005859608282,121.939407863977465,15.2880000000000003,0,0,0.0414763190843316643,1.29254043868676357e-09,-0.000473255972436325862,6.14699225552327593e-08,1.77198251922661022e-05
0.37,31.222182090341061,131.010394588280832,5.43493909097431604,4.55039311415752579,0.00076918150115683735,34.6835787828593496,0.00106234372950533948,3.20097384516078431,391.121890829766642,14.446930470491731,6.00318739776240751,69.9974584775585669,7.0785096329375243e-07,113.700006262864989,127.771540530283914,15.2880000000000003,0,0,0.042456928843506235,1.4445318520011827e-09,-0.000516746496826029863,6.90186481791334769e-08,1.98053803654614999e-05
0.38,31.2221818741223878,131.010395173719473,5.56801609611825477,4.56315131642791805,0.000792019287104061913,36.2353933787001239,0.00108827974821363053,3.19255015153205646,404.818761014460279,14.8084413239345949,6.1564787166299757,69.9971511865591651,8.20121521966083772e-07,113.700006686723384,134.244380272309172,15.2880000000000003,0,0,0.0435194095147296359,1.60882660749176723e-09,-0.000562873331420229127,7.72423853301427293e-08,2.21128406351508731e-05
0.39,31.2221816525004634,131.010395773780147,5.704329739781131,4.57922628245169783,0.000815489716137310881,30.9425419640016202,0.00111309493143926189,3.18402316666385765,357.640624933827439,15.1559126959619999,6.30488433186772657,69.9968167722787769,9.45855271408966431e-07,113.700007132429306,140.616382889747683,15.2880000000000003,0,0,0.0445406353688629561,1.78596578656278109e-09,-0.000611756345505213715,8.61868943159197994e-08,2.45968452142520012e-05
0.4,31.2221814256617982,131.010396387955836,5.84373750626454935,4.59349479979191955,0.000838670682925170751,29.5834243852937959,0.00113797512888990423,3.17521289611434332,345.465636880754005,15.505969085398343,6.45410901523083158,69.9964536498379317,1.08621525395706341e-06,113.700007600947828,147.185065961143067,15.2880000000000003,0,0,0.045569462889951777,1.97653506559195414e-09,-0.000663427505461186432,9.58835144134294998e-08,2.72901174189528038e-05
0.41,31.2221811937141673,131.010397015953487,5.98615797249314241,4.60939449845229365,0.000862163931524819621,33.360545626359837,0.00116210409424792778,3.16624854525325983,378.946870776686467,15.8471768437686258,6.60022848408685459,69.9960602026584695,1.24241947051318175e-06,113.700008093413757,153.73182724817184,15.2880000000000003,0,0,0.0465722905345462151,2.18109996727848554e-09,-0.000717942131686907965,1.06367950505874699e-07,3.01820283711074823e-05
0.42,31.2221809567080335,131.010397657635991,6.13155423418529733,4.63387609959193458,0.000887317919769279608,37.5676427387571721,0.001183742077125155,3.15743374731593907,416.232824001711379,16.155026338188506,6.73482947265292431,69.9956347739890248,1.41574639558456e-06,113.700008611107208,159.760443802515937,15.2880000000000003,0,0,0.0474770882933877245,2.400206535531791e-09,-0.00077537935552726017,1.17680930846389008e-07,3.32294321368729263e-05
0.43,31.222180714655078,131.010398312971745,6.27991949833728835,4.65367427313455995,0.000911660169575580258,33.0386483003103493,0.00120612360190941372,3.14823214930187856,375.903139513433644,16.4750454055619109,6.87353555569934649,69.9951756835756242,1.60752723178871754e-06,113.700009155418982,166.15023929888028,15.2880000000000003,0,0,0.0484176551665520677,2.63438237315801404e-09,-0.000835821567166909188,1.29864614855892046e-07,3.65287677570896608e-05
0.44,31.2221804673911407,131.010398982407111,6.43138341412837455,4.65757387742934892,0.000932929976641759203,30.4788052564327749,0.00123214974254881528,3.13809943757763454,353.075012538921555,16.8483715860516412,7.03046484016701978,69.9946811832270441,1.81916859536649675e-06,113.700009728069276,173.762989227436179,15.2880000000000003,0,0,0.0495148886868988364,2.88411342836306464e-09,-0.000899417740154189794,1.42975581697416844e-07,4.01983191819108926e-05
0.45,31.2221802146980103,131.010399666535704,6.58611776122768511,4.65827001030579346,0.000953562143933252499,35.4620561517945134,0.00125873275223327787,3.12754579585638304,397.209385356286873,17.2316459864824161,7.19073264961644831,69.9941493995125938,2.05218870761162579e-06,113.700010330973456,181.755888424112015,15.2880000000000003,0,0,0.0506413642318551335,3.14987863732273609e-09,-0.000966369542842942814,1.57083782729145849e-07,4.41725079750487196e-05
0.46,31.2221799565319174,131.010400365476642,6.74415901717088939,4.66907507286434065,0.00097630283571516251,41.3913707355688842,0.0012823814722795761,3.11722412848720953,449.71405889764344,17.5754687869478978,7.33738035579407555,69.9935783582983362,2.30821229426708146e-06,113.700010965912341,189.078525726536213,15.2880000000000003,0,0,0.0516519027755614896,3.43223060675433133e-09,-0.00103681314204437207,1.7224885851047691e-07,4.83373548649469587e-05
0.47,31.2221796928065203,131.010401079464799,6.90557672428163105,4.67806301106434042,0.000998761260684927557,28.0209900204918974,0.00130616618884544979,3.10657060381263461,331.007810630253402,17.9233234115620377,7.48533101007974988,69.9929660462147325,2.5889364060732201e-06,113.700011634803886,196.634049649816575,15.2880000000000003,0,0,0.0526742959306323727,3.73170463860384924e-09,-0.0011108841623615434,1.88532207060213475e-07,5.28148505664365441e-05
0.48,31.2221794239793269,131.010401807256216,7.07001851744381948,4.68642527483421745,0.00102109091231145262,27.6007969606275125,0.00132978852885184593,3.09563681785184297,327.203122301157407,18.2709832353803314,7.63313726727991071,69.9923104035261474,2.89614261094227829e-06,113.700012338884164,204.33305198470137,15.2880000000000003,0,0,0.0536961221459722679,4.04904859899578719e-09,-0.00118849531779471017,2.05948560519311644e-07,5.75998398329450787e-05
0.49,31.2221791502289392,131.010402548365278,7.23734841566291642,4.70156796398202914,0.00104489945272251677,34.6487244505178253,0.00135120419031512233,3.08484494341801163,389.60000969812296,18.589315545984995,7.7707981814672209,69.9916093757078812,3.23165731652504743e-06,113.700013079832303,211.511801733856089,15.2880000000000003,0,0,0.0546317638991248022,4.38486615800834454e-09,-0.00126967773493266863,2.2453662401782158e-07,6.26054017926546362e-05
0.5,31.2221788715876762,131.010403302704333,7.40754387012007864,4.72212438923579736,0.00106996435823571525,35.6033845714535389,0.00137072557486675028,3.0741588573465477,397.970310422105001,18.8826594549893159,7.8998011517407587,69.9908609011483378,3.5973597360057951e-06,113.700013859590555,218.236320199079358,15.2880000000000003,0,0,0.0554939729313439212,4.73968531279909998e-09,-0.00135450679800636423,2.44344941868023912e-07,6.78409867869358833e-05
0.51,31.2221785881337617,131.010404070060673,7.5805467220577798,4.73558879650721298,0.00109346949398930206,27.1956639286467201,0.00139183542187690463,3.06284319292573448,323.39843497208409,19.200774511812984,8.03722958125224807,69.9900628955037689,3.99519228958782199e-06,113.700014680103109,225.647740475438098,15.2880000000000003,0,0,0.0564289867670437692,5.11403675587933804e-09,-0.00144303978709531136,2.65418546512062939e-07,7.34915902759761199e-05
0.52,31.2221782998783155,131.010404850466045,7.75636858307395194,-5.36741371714530757,-10.9446670545701235,32.8237320791662128,0.558736771272545396,3.58686793745629506,372.098451184341457,18.6675545209042468,8.17799735960560348,69.9892125255241098,8.88034658211434618e-06,113.70002028280571,213.285346640904379,15.2880000000000003,0,5.0128861411609531,0.0548620200554753787,5.51000170225421598e-09,-0.00152839713376319813,8.99474923471529065e-06,7.56757795238421194e-05
0.53,31.2221780062816805,131.010405644474332,7.93511119642195251,-5.20490384531430639,-10.7875793290182145,34.4656862002540052,0.573561864056478354,3.58937289570206008,386.55624643486243,18.9778912782606959,8.32239155567876132,69.9883619081595185,-0.000116968184373389815,113.699886758541524,220.431987837989311,15.2880000000000003,0,5.03194861035952634,0.0557741802833176745,5.85279334132249719e-09,-0.00143379302633125168,-0.000189682156954585902,7.21705848188274339e-05
0.54,31.22217770698186,131.010406452426508,8.11684276610288613,-5.04813888062241301,-10.6359943390511038,30.2617248535534351,0.588566853610393736,3.59179228158807629,349.270324209843579,19.2865956552328974,8.46614273587804256,69.9875657699993923,-0.000559079016482527235,113.699416655821921,227.657667129815138,15.2880000000000003,0,5.05096958490484749,0.0566815486839384597,6.03616521682712507e-09,-0.00133817157400890571,-0.000393646237065445499,6.84519152210375458e-05
0.55,31.2221774022176888,131.010407273615726,8.30136197088403449,-4.89819383412322029,-10.4925977624280016,32.0756192987844102,0.603569640924010664,3.59404835371258757,365.250000591990727,19.5880516024721629,8.60728905962085022,69.9868246482164551,-0.0013255943379070728,113.698601305697693,234.82585606701889,15.2880000000000003,0,5.06991771657826806,0.0575676200968144106,6.06119763218006605e-09,-0.00124170789228098856,-0.000602678318024034996,6.45091343734615106e-05
0.56,31.2221770919806723,131.010408108037353,8.48866844848250679,-4.75564680693391839,-10.3591290710600301,29.9326846761829835,0.618425670890436763,3.59608543027943606,346.226561946578727,19.8779246272154388,8.74432442845819047,69.9861390148213331,-0.0024245273601825254,113.697432177083911,241.823055005189332,15.2880000000000003,0,5.08879360740340214,0.058419655739298651,5.92905934390625762e-09,-0.00114443428028825436,-0.000816858470334615389,6.03343474584809819e-05
0.57,31.2221767763292171,131.010408955505511,8.67871017998939998,-4.61533701044284861,-10.2250253351183336,29.5957384907405121,0.63375469661542061,3.59815542901471153,343.182829683302316,20.175505342483941,8.88398760573751822,69.9855092997237449,-0.00386389706613572692,113.695900732918915,249.11308622944361,15.2880000000000003,0,5.10759636987932808,0.0592943491559751387,5.64117575361152974e-09,-0.00104642927625603192,-0.00103616851058687819,5.59924022181636303e-05
0.58,31.2221764552340275,131.010409816073064,8.87150326239922293,-4.4742978273269749,-10.0837883357236286,38.9869535264095646,0.65001008589423126,3.60042828458131536,426.12500585731533,20.4941986765227817,9.03094972538116458,69.9849359037645371,-0.00565180696449280647,113.693998346588302,257.040491844471603,15.2880000000000003,0,5.12632453375477581,0.0602310967835474886,5.1990576735570402e-09,-0.000947723772932409516,-0.00126069536025697816,5.15109398799931017e-05
0.59,31.222176128311677,131.010410690754668,9.06733805938368675,-4.34348684971093491,-9.95960887941348005,31.5908669582038151,0.665616919808302954,3.60228546311262399,360.68438819711065,20.7855406015347413,9.1683148059522015,69.9844192720521789,-0.00779690395159485239,113.691715813964748,264.39555004624691,15.2880000000000003,0,5.14500589942933573,0.061087466422189908,4.60392631836323827e-09,-0.000848146783890591795,-0.00149098980623824464,4.67531562222528034e-05
0.6,31.222175795749429,131.010411579013265,9.26606253721839401,-4.20833868678017886,-9.8202741288544626,28.0670330948537874,0.682745784415553891,3.60455991579221813,329.48595949860578,21.1152681092942061,9.31899429623724629,69.9839598230662432,-0.0103079634321376432,113.68904379366343,272.845255249921252,15.2880000000000003,0,5.16362133580858806,0.0620566550597436012,3.8575432360705346e-09,-0.00074785266409735417,-0.00172687588835483815,4.18777122747603035e-05
0.61,31.2221754574928454,131.010412480969109,9.4677121219453948,-4.0761217056035326,-9.68190752948515865,32.8995738418555135,0.70035464255931057,3.60683830371500447,372.09845118432969,21.4511511273446764,9.47174778130682249,69.9835579633214593,-0.0131939844266194383,113.685972706993695,281.589204735996191,15.2880000000000003,0,5.18217289845110773,0.06304394088296425,2.96157945229132613e-09,-0.000646856510455458516,-0.00196849385602480007,3.67976810065379726e-05
0.62,31.2221751136381194,131.010413396332353,9.67220537916828782,-3.9596487987916702,-9.57500005249755404,40.9234147488494031,0.716119276795818549,3.60826783111027494,442.86563930529212,21.724594474938165,9.60270547661785301,69.9832140841547385,-0.0164641848995725378,113.682492742396789,288.808269934528539,15.2880000000000003,0,5.20065950304013125,0.0638477255260405246,1.91782982106897151e-09,-0.000545233039614140096,-0.00221584558044621511,3.14113939472067123e-05
0.63,31.2221747640068301,131.010414325562522,9.87967451113993356,-3.84272094672728226,-9.46228143710836811,23.1714605199844748,0.73274960016834656,3.6098557933407176,286.112512747078938,22.0163122204383761,9.73997248085619738,69.9829284793046185,-0.0201274563863882115,113.678594436508462,296.610668081187384,15.2880000000000003,0,5.21908399466906125,0.0647052239082477332,7.28399645463719166e-10,-0.000442961984561903756,-0.00246917257736678454,2.58616211758550214e-05
0.64,31.222174409128769,131.010415267192229,10.0897024598166389,-3.72337135725440671,-9.33876771703275743,22.7449397474218209,0.750701993685245039,3.61174383284921952,282.307824417967538,22.3391767711777511,9.88800726280278575,69.9827014087484116,-0.0241927923313571998,113.674268216912566,305.367762409746206,15.2880000000000003,0,5.23739407157764081,0.0656542678595720963,-6.0444569944547279e-10,-0.000340375224179213136,-0.00272784459162886926,2.01632743993926833e-05
0.65,31.22217404897766,131.010416221268002,10.3023038307908763,-3.61532622667969639,-9.23819407485598632,40.263219666998026,0.767242763840973563,3.61297011412505897,436.778144778747503,22.6136135635572124,10.0191471293222722,69.9825330551574751,-0.0286689837231819955,113.669504727889176,312.910346797233956,15.2880000000000003,0,5.25563721873219958,0.066460989960526351,-2.07838619781236652e-09,-0.000237487619793058413,-0.00299200085219527515,1.42409194615006444e-05
0.66,31.2221736830797738,131.010417189055659,10.5178407767211937,-3.50807349963303317,-9.1351242366791876,34.2316357768027828,0.784413217145143005,3.61425361609035223,383.512515171600171,22.8988257894673772,10.153981971035817,69.9824235696789145,-0.0335649286726391258,113.664294500801759,320.846590537905286,15.2880000000000003,0,5.27379781432004435,0.0672993870352762563,-3.69082854632506868e-09,-0.000134116637331780302,-0.00326230512951542709,8.14355379308400686e-06
0.67,31.2221733115964213,131.01041817009056,10.7361822308784802,-3.39911039625230682,-9.02293501621345762,23.5348209310225691,0.802848713193290653,3.6157959218379343,289.156244010342505,23.212323460386866,10.2985844019977719,69.9823731064425658,-0.0388901539218462558,113.658627400339654,329.684951650042933,15.2880000000000003,0,5.29187618077372779,0.0682209211476023925,-5.43941428160374602e-09,-3.04017883739376546e-05,-0.00353860518020800326,1.87122814123159478e-06
0.68,31.2221729346735231,131.010419163950502,10.9572092802820009,-3.294207772736363,-8.91643864726203361,29.4114280002396917,0.821271912027676465,3.61716046586497209,340.899992485846269,23.517412196903333,10.4402062761604739,69.982381876434431,-0.0446542002985480663,113.652493268334297,338.401080966704683,15.2880000000000003,0,5.3098879599933424,0.0691177480106227177,-7.32174434927743926e-09,7.35400549024512417e-05,-0.00382079751275286178,-4.58578044628150103e-06
0.69,31.2221725523754792,131.010420170436134,11.1808665823774493,-3.19585003736788531,-8.82288168083532653,36.2413381714742897,0.8389226618558,3.6181025461885743,401.014072685363431,23.7936188318300132,10.5717466970404264,69.9824499132967048,-0.0508664658794545296,113.645882107579652,346.389207159283785,15.2880000000000003,0,5.32779695286006749,0.0699296966231263278,-9.33525033582635957e-09,0.000177621603076142856,-0.00410885400224962095,-1.12058998067201111e-05
0.7,31.2221721645686792,131.010421189889172,11.4072530029419212,-3.09948952350243134,-8.73048367191473318,30.3735066865280423,0.856876928523990444,3.61897745185675479,349.270324209852845,24.070982778905158,10.7036358762075565,69.9825772249179039,-0.057536269674417044,113.638784003051128,354.504338697627361,15.2880000000000003,0,5.34561580225403343,0.0707450528729298977,-1.14770204133265454e-08,0.000281850816823547596,-0.00440301603106935894,-1.79884659466049905e-05
0.71,31.2221717712937483,131.010422222176146,11.6363320425107979,-3.0028563787536946,-8.63289145821018344,24.9345606062457676,0.875803959617671102,3.61998999804735,301.331264063405797,24.3672931863912545,10.8420400240780737,69.9827638005597521,-0.0646731842233812526,113.631188770212859,363.277863130536161,15.2880000000000003,0,5.36336323549911409,0.0716160995949759877,-1.37443256550810224e-08,0.0003861454468589793,-0.00470327975469128894,-2.49476511095489777e-05
0.72,31.2221713725438619,131.010423267293135,11.8681041364337627,-2.9056238282485074,-8.52889872807184091,30.5590287662659499,0.895900825875246887,3.62118402153414021,350.79220534145287,24.6871516494560623,10.9885459231650611,69.9830095677055937,-0.0722869969818130953,113.623085999304735,372.869328421652312,15.2880000000000003,0,5.38103077303567723,0.0725563615423947816,-1.61343738940049547e-08,0.000490457824846340235,-0.00500973926475561677,-3.21021737785606861e-05
0.73,31.2221709683071929,131.010424325249147,12.1025734739332957,-2.81715397563536518,-8.44585992032881627,38.6942232938062602,0.914214058490327997,3.62166084571578795,422.320318528233997,24.9515220419806703,11.115763668544,69.9833145581183658,-0.0803878956089794372,113.614464846695228,380.889497457190544,15.2880000000000003,0,5.39859058133318914,0.0733335489238835792,-1.86443988476356435e-08,0.00059475004501406757,-0.00532252039961439959,-3.93444552460737364e-05
0.74,31.2221705585173339,131.010425396204539,12.3397873804489198,-2.72848481615402561,-8.35805506099717022,24.1688938936027391,0.933476558035127524,3.62225268982276916,294.482813471059444,25.2337772194969965,11.2491240362614313,69.983678595962445,-0.0889857121550160363,113.605314856494729,389.546716689070024,15.2880000000000003,0,5.41608096938837047,0.0741633069713286686,-2.12713516821436458e-08,0.000698974536451488692,-0.00564173635537428431,-4.67612095637729054e-05
0.75,31.2221701434981078,131.010426479254335,12.5794896497973596,-2.64043350526009268,-8.26778651833603284,28.2399559467701913,0.95348233502608315,3.62288441367580605,330.246885564414924,25.527879610311011,11.3865257539038467,69.9841014626348112,-0.0980903867884466985,113.595625457869772,398.670874199977447,15.2880000000000003,0,5.43348342946048035,0.0750278912001346859,-2.40130667064202561e-08,0.000802911714878789748,-0.00596696741271909512,-5.433937737327008e-05
0.76,31.2221697231392774,131.010427574679426,12.8217620201547184,-2.5563468433294485,-8.1855061821917019,30.4088258572790373,0.972996767832560505,3.62319856589146294,349.270324209861712,25.8016620897030862,11.5168324398937152,69.9845829917845492,-0.107711833320999026,113.585386100680751,407.258619387630347,15.2880000000000003,0,5.45079378792229097,0.0758327607668309867,-2.68662630396053796e-08,0.000906564017435480579,-0.00629847071130298745,-6.20109203161700172e-05
0.77,31.2221692973799172,131.010428682626781,13.0666480968368344,-2.47442240770783872,-8.10604785944116735,28.422761597658976,0.992585773035496333,3.62335869979857028,331.76876669607077,26.0700746030800197,11.6452223786699491,69.9851228267096559,-0.117860072687067163,113.574586132898958,415.766269707461277,15.2880000000000003,0,5.46799632855266271,0.076621854271458234,-2.98277375609368157e-08,0.001009897270678167,-0.00663640542754815807,-6.97961191682039444e-05
0.78,31.2221688662719679,131.010429802935562,13.3141037959945283,-2.39243431571828902,-8.02220984171382412,23.317695754372501,1.01316473329588574,3.62361387068668828,286.873437812889904,26.3562818390327891,11.7797090617712765,69.9857207117174482,-0.128545227387746097,113.563214783491105,424.935163573239038,15.2880000000000003,0,5.48511678216679588,0.0774632545171624193,-3.28946907566368945e-08,0.00111281389830481469,-0.00698073165097153753,-7.77513908628115532e-05
0.79,31.2221684298890914,131.010430935385472,13.5640681740448983,-2.31120839308017922,-7.9365242538342331,33.1975032650819912,1.03446546591189614,3.62387820288780382,373.620332315953419,26.6528534973284792,11.9177157660668431,69.9863762004073635,-0.139777543194068071,113.55126116239046,434.541624681385713,15.2880000000000003,0,5.50215162588202134,0.0783351236434864512,-3.60644033249456653e-08,0.00121521723793480575,-0.00733140604374741753,-8.58595664245389109e-05
0.8,31.2221679880195637,131.0104320805371,13.8167027482623048,-2.23475651022539212,-7.86278134832233011,33.6366530849319858,1.0546353402514399,3.62366420078396612,377.42502064505743,26.9133472595069243,12.043187218483169,69.9870889356641754,-0.151567610804390324,113.538714004885051,443.066437434313627,15.2880000000000003,0,5.51911410407998737,0.0791009636039649022,-3.933295586979187e-08,0.00131715367907253166,-0.00768888065294309579,-9.39690173471496848e-05
0.81,31.2221675407508172,131.010433238133771,14.0719362228069063,-2.15783255779207517,-7.78335665688815137,21.8535679517689054,1.07601147942371789,3.62357938738703744,273.937492693991885,27.1964556007027305,12.1764140461662453,69.9878584577331679,-0.163925978921703575,113.525562094253686,452.425832269947591,15.2880000000000003,0,5.53597587877669994,0.0799332769267996762,-4.2697845360403357e-08,0.00141849836981797596,-0.00805303501203415498,-0.000102261233039274281
0.82,31.2221670882495843,131.010434407701297,14.3296354331362128,-2.08166253879268037,-7.70233231677126984,28.0993393321331553,1.09809315286238052,3.62348149873515801,328.725004432770049,27.4890343213853185,12.3128455781691386,69.9886842874076649,-0.176863246439307786,113.511794158188863,462.201123970194658,15.2880000000000003,0,5.55273557232284443,0.0807934318246789213,-4.61568972342311901e-08,0.00151910712621404292,-0.00842366527436781004,-0.000110689649626847931
0.83,31.2221666304933585,131.010435589284214,14.5898149751118744,-2.01035137697177779,-7.63494960139571344,35.7360539236303012,1.11863036349957157,3.62281702729020383,395.68750322465047,27.7364942035755817,12.4336250040561822,69.9895657832804687,-0.190390102849735954,113.49739883758366,470.5484125573646,15.2880000000000003,0,5.56941250992778603,0.0815209841678931901,-4.97069013114388421e-08,0.00161893353786122141,-0.00880091666319530487,-0.000119022443977345041
0.84,31.2221661673781163,131.010436783153153,14.8525538234887406,-1.93965429721189397,-7.5660050311569691,22.0344447824889542,1.1397934867490862,3.6221261846190087,275.459374825645227,27.99205636423914,12.5571418012587799,69.9905023362492642,-0.204517061151548774,113.482364953429311,479.247469678918378,15.2880000000000003,0,5.58600787770589768,0.0822723568265481542,-5.3344348900879172e-08,0.00171794007346605685,-0.00918499021973324253,-0.000127461825155193947
0.85,31.2221656991701941,131.010437988562245,15.1176415200101637,-1.867683257307033,-7.48798061514329927,24.0328881030474122,1.16280746028519655,3.6216827621945149,292.960932339393764,28.2842879336285868,12.6932507089755866,69.9914932386717368,-0.219254630617666812,113.466681333775028,489.293744958637262,15.2880000000000003,0,5.602508155419609,0.0831315127065981735,-5.70679266797326787e-08,0.00181592929241530961,-0.00957546773988963811,-0.000136135203955130301
0.86,31.2221652257025823,131.010439205955095,15.3852063739718758,-1.79893538471587022,-7.41841586208161008,30.1122009936122943,1.18494824364628348,3.62084229855329598,346.226561946558718,28.5481478385052689,12.8194964427955735,69.9925377163434348,-0.234613718684798439,113.450336387473058,498.452615375327582,15.2880000000000003,0,5.61892491160491048,0.0839072874976231897,-6.08734522304373948e-08,0.00191291841437164723,-0.00997276318801286477,-0.000144740306445379949
0.87,31.2221647469919041,131.010440435272272,15.6552334598796623,-1.73223691475738395,-7.35320529300023118,28.0325561743544824,1.20679193382744665,3.61974599794006879,327.964078366998024,28.7978405355565954,12.9407860824073833,69.9936350458525283,-0.250605209624366276,113.433318539436357,507.196896601319906,15.2880000000000003,0,5.63525159564707323,0.0846414296507731756,-6.47581070167631734e-08,0.00200882272011936513,-0.0103769082809011294,-0.000153322317355684056
0.88,31.2221642630657996,131.010441676425017,15.9276995083791491,-1.66552512292578747,-7.28393059877268989,24.2147151848367415,1.22973416569010152,3.61869966662613507,294.482813471041823,29.0658135179773005,13.0683131965074146,69.9947843155744067,-0.267239947757789365,113.415616267229808,516.666548423204176,15.2880000000000003,0,5.65147329243375296,0.0854293074563189508,-6.87193690025547936e-08,0.00210354164296726234,-0.0107878714361887146,-0.000162041432252655438
0.89,31.2221637739942501,131.01044292920804,16.2025481202839572,-1.59894718136107605,-7.21082964778898994,26.5631199917987999,1.25380868036761939,3.6176964848096147,315.028134248086985,29.3521759312824067,13.2021093981477922,69.9959845656636759,-0.284528901542607682,113.397217916506804,526.883403066611095,15.2880000000000003,0,5.66760701390515198,0.0862712422180223065,-7.27548258541398638e-08,0.00219697438637555002,-0.0112056153239883417,-0.000170901670677098678
0.9,31.2221632797026878,131.010444193814038,16.4798362238803158,-1.53618764386374362,-7.15051195255281336,29.3471143174619193,1.27605478192075372,3.61610894422318507,339.378142354214447,29.5894129906093539,13.3188941557185867,69.9972349119984898,-0.302483411643712174,113.378111429061917,535.420565407269692,15.2880000000000003,0,5.6836590234429929,0.0869687960348736466,-7.68608765129394518e-08,0.00228908146555119015,-0.0116303768728087936,-0.0001795010716676678
0.91,31.2221627802518285,131.010445470065463,16.7595153234072782,-1.47344154065191213,-7.08621424018380441,22.309886134252416,1.29942514681758348,3.6145598610175047,277.742181023078899,29.8450243707086784,13.4419428300288786,69.998534207732277,-0.321114394478287324,113.358285211344139,544.696468874854759,15.2880000000000003,0,5.69962451463267428,0.0877203623039564534,-8.1035349244051321e-08,0.00237974804852045555,-0.01206207377810814,-0.000188217802822579592
0.92,31.222162275822356,131.010446757452598,17.0414424428975586,-1.41082381052997774,-7.018168241771364,26.5722974537694903,1.3239414007178163,3.61303611815810433,315.028134248062145,30.1189515811983632,13.5712270940055184,69.9998813650155256,-0.340432904185999474,113.337727514828643,554.726132835480371,15.2880000000000003,0,5.71549585232811719,0.0885257695394406491,-8.52772995476497634e-08,0.00246881719842457223,-0.0125004022728280925,-0.000197049259671483863
0.93,31.2221617663271687,131.010448056206116,17.325685358742696,-1.35137664535984459,-6.96148519827199763,31.6195645475578111,1.34668285153722844,3.61096182775923946,359.162507065472823,30.3464816349321076,13.6844495174416085,70.0012752146956529,-0.360450083718003189,113.316426499121661,563.123643310537432,15.2880000000000003,0,5.73128135793169058,0.0891948130470368583,-8.95826893824338394e-08,0.00255625585627560891,-0.012945654974943821,-0.000205563893073221302
0.94,31.222161251662591,131.010449366605457,17.612325684577641,-1.29104251283633698,-6.89601091293535351,22.9240624535372959,1.37157264769719589,3.60909696587936635,283.068750483778672,30.6140699233721136,13.811397076974723,70.0027144768664726,-0.381176901358616316,113.294370512785704,573.082640452270994,15.2880000000000003,0,5.74698086992571167,0.0899816033953486777,-9.39481535283475354e-08,0.00264200146517616207,-0.0133980175269053526,-0.000214326728798999456
0.95,31.2221607320892964,131.010450687919359,17.9011574856797075,-1.23197685659278822,-6.83264623690099082,29.7134224592164919,1.39648354846788125,3.60702195236264167,342.421873617487279,30.8748240221499834,13.9359097498474487,70.0041978428438085,-0.402624755321787819,113.271547446084782,582.870463267389482,15.2880000000000003,0,5.7625880140676955,0.0907483137999355455,-9.83735905862025974e-08,0.00272588211461013714,-0.0138570875718300804,-0.000223008658557412667
0.96,31.2221602073365148,131.010452020891393,18.1923944849745141,-1.17480090556511718,-6.77516484940631614,29.107584107845824,1.4205885943579486,3.60459171979821358,337.095335156783449,31.111010102094145,14.0518866426728337,70.005723947076163,-0.424804988752377211,113.247945247965092,591.805698148592796,15.2880000000000003,0,5.77811524376449626,0.0914428203078428009,-1.028531181360376e-07,0.0028079127365728449,-0.014323483167029305,-0.000231470545598629404
0.97,31.222159677419647,131.010453365472529,18.4860248992855958,-1.11808491307726321,-6.71584728012143994,18.5757974778936727,1.44549275491450802,3.60209469620871525,245.021887192993233,31.3571784677555065,14.1712228847565278,70.0072912888263943,-0.44772918604172518,113.223551616903521,601.191216202226997,15.2880000000000003,0,5.79356104520097936,0.0921666743306831654,-1.07384447423766386e-07,0.00288799274604601168,-0.0147972258116600783,-0.000239948945064872768
0.98,31.222159142597981,131.010454720935769,18.7818440895484464,-1.06085451803619701,-6.64851246122979145,27.1110645052245935,1.47263061697724096,3.59975852708882904,319.593746642958081,31.6430566283661712,14.3041398774851771,70.0088984268227534,-0.471408912294213334,113.198354261780793,612.18571172808322,15.2880000000000003,0,5.8089148422352137,0.0930072529604286657,-1.11968680005548746e-07,0.00296593547425361538,-0.0152778072782462793,-0.000248664367367919671
0.99,31.2221586027339484,131.010456087657076,19.0799612207378573,-1.00689621109489469,-6.59661885656643054,29.6397964926682427,1.49669772643230292,3.59668828423752451,341.660948551705417,31.8577187662923187,14.4124723921873255,70.0105436940378354,-0.495855981029864223,113.172340641042197,620.50208539370874,15.2880000000000003,0,5.82418850457448656,0.0936385163398827519,-1.16600708656215376e-07,0.00304171484785485668,-0.0157656748100169219,-0.000256740372552862893
1,31.2221580578249736,131.010457465641025,19.3803797737823587,-0.952460569652597067,-6.53694778772961804,26.5060692344560422,1.52296517249499552,3.59376110045887787,314.26720818227642,32.1110520357838567,14.5340262076312037,70.0122254673584621,-0.521081681398226526,113.145498760104431,630.391625328197051,15.2880000000000003,0,5.83937737782376587,0.0943834517938585554,-1.21278765485248187e-07,0.00311521895909257695,-0.0162607964637733575,-0.000265027888119213136
1.01,31.2221575080318914,131.010458854434404,19.6829730513840886,-0.89908400120265719,-6.47936794712388853,27.7285087119304698,1.54915782892282561,3.59059590202300338,324.920316103697928,32.3559121333870081,14.6525802759800357,70.0139419966327949,-0.547097776776833356,113.117816125879685,640.023675111865487,15.2880000000000003,0,5.85447931396911248,0.0951034895032366601,-1.26002350156366932e-07,0.00318631018538354004,-0.0167629359228250729,-0.000273135117446660883
1.02,31.2221569532843866,131.010460254230964,19.9877983690821175,-0.846814114843242094,-6.42458927305764238,23.1102721102642583,1.57506569630036264,3.58716270293283834,284.590631615404163,32.5882145041202023,14.766732303643991,70.0156914379856943,-0.573915798457075188,113.089280493449962,649.227880842941545,15.2880000000000003,0,5.86949810067379119,0.095786623584925526,-1.30767977356669341e-07,0.00325491399282910009,-0.0172723012930949479,-0.00028101092932913583
1.03,31.222156393642976,131.010461664860173,20.2948094563406087,-0.794604259303324567,-6.36483894949729478,18.8383522347493901,1.60264570612589696,3.5837468721904826,247.30469339049705,32.8472016074651663,14.8899689545122094,70.0174718312441087,-0.601547180928104108,113.059879723799213,659.568605289410243,15.2880000000000003,0,5.88443100850416823,0.0965481995221683376,-1.35574424964271197e-07,0.00332091008079769519,-0.01778879109639794,-0.000288978687308314439
1.04,31.2221558291614265,131.010463086169068,20.6039650541479347,-0.743854078794042084,-6.31104342252406347,30.0907690315146326,1.62911580171890491,3.57993647346059829,345.465636880722968,33.0771176862570897,15.0031266430428509,70.019281283689466,-0.630003794906963011,113.029601204315966,668.814445229558601,15.2880000000000003,0,5.89928023190488116,0.09722433395987716,-1.40419802525480612e-07,0.00338419311819488028,-0.0183123963969135627,-0.000296537909812405627
1.05,31.2221552595858114,131.010464518871089,20.9154701842888819,-0.693343786425696829,-6.25339925858978951,18.0530199478520217,1.65702272985470844,3.57609137136184341,240.456258798199826,33.3284382221989759,15.1235510652262573,70.0211176837568274,-0.659297302411832487,112.998432555247973,678.996068725676537,15.2880000000000003,0,5.9140540997555977,0.0979633905468805383,-1.45297848459942212e-07,0.00344472501634990455,-0.018843728759295339,-0.000304126282786033463
1.06,31.2221546851265117,131.010465962375065,21.2291590613135206,-0.643221160384015667,-6.19265411601452342,25.8200432526741714,1.6862551856385104,3.57217528538865059,308.179683655939243,33.598199867252319,15.2502159374896475,70.0229788448849035,-0.689439904533917458,112.966360823842095,690.011402114378711,15.2880000000000003,0,5.92874627366342111,0.098756659522183432,-1.50210129746675277e-07,0.00350234497320537404,-0.0193823660073759937,-0.000311706800166823615
1.07,31.2221541056801861,131.010467416971409,21.5451165199577837,-0.594757018188524778,-6.14112549695607779,30.4483778785213204,1.71335300120497513,3.56773571195135908,348.509368144030759,33.8196315422811935,15.3601938883427636,70.0248626383025083,-0.720444095804193219,112.933372735597956,699.115309352567692,15.2880000000000003,0,5.94336534974729336,0.0994078777601797303,-1.55151972567106838e-07,0.00355698268601780873,-0.019928693562011171,-0.000318646233939338399
1.08,31.222153521158571,131.010468882912591,21.8634164950297674,-0.546800496855667562,-6.08831846406896648,20.4094490011434253,1.74120823318612139,3.56315163023155401,261.001578574662346,34.0488081244497209,15.4727426461807909,70.026766717772972,-0.752322025983409026,112.899455392182034,708.60076947316611,15.2880000000000003,0,5.95791229318134263,0.100081868395523368,-1.60120212916391825e-07,0.0036085387823271654,-0.0204829247689495494,-0.000325445432441668898
1.09,31.2221529318054358,131.010470359513477,22.183866587458084,-0.498762242261234889,-6.0270067446192277,18.7498838399164462,1.7720132040068679,3.55866650012427721,246.543753324744074,34.3270446049389051,15.6020335731111874,70.0286886830999435,-0.785085949675165096,112.864595780997178,720.206858469424333,15.2880000000000003,0,5.97237841861738072,0.100900071778604092,-1.65118015777118991e-07,0.00365684294588059129,-0.0210444969455104887,-0.0003324866751779602
1.1,31.2221523376880405,131.010471846585801,22.5064155790886602,-0.451871814738991462,-5.97096299259994279,37.8829655834357411,1.8017268478758286,3.55378635306054314,413.189061738584087,34.5774133628775502,15.7216623790758216,70.0306260440440838,-0.818748206057702932,112.828780799976116,730.728376611120098,15.2880000000000003,0,5.98676661591566717,0.101636369492293197,-1.70143818386931208e-07,0.00370178057224848948,-0.0216133829505710459,-0.000339016816013473462
1.11,31.2221517384545493,131.010473345131203,22.8313502529319834,-0.406334815753786605,-5.92468140539146404,27.6626944395222054,1.82880431828644241,3.54836124772881023,324.159391037639693,34.7720566778726692,15.8220838781195354,70.0325762212551126,-0.853321334999398329,112.7919971343333,738.955306517710596,15.2880000000000003,0,6.00109082541477257,0.102208876128243115,-1.75188063176503068e-07,0.00374330598465440548,-0.0221905469247973101,-0.000344738843148578006
1.12,31.2221511341628286,131.010474854995095,23.158628828597891,-0.360295255463844333,-5.86176147481734411,10.2694458384715439,1.86162447736832681,3.54328677155250249,172.73281794065943,35.0652978692396857,15.9562258870569931,70.0345365336272323,-0.888817568051882834,112.754231796830098,751.447816634010337,15.2880000000000003,0,6.0153447337871091,0.103071209046642548,-1.80251457788753038e-07,0.00378127283304814524,-0.0227758118272174473,-0.000351161104977700097
1.13,31.2221505253299547,131.010476374708418,23.4878365676999756,-0.31554608188665062,-5.80867036298435035,32.6500999912090606,1.89173680378381204,3.53765170858410993,367.532807790070478,35.3019922869268683,16.0708738318558275,70.0365042207803867,-0.925250202621391571,112.715470665559948,761.602674370697741,15.2880000000000003,0,6.02951877766062783,0.103767335955235476,-1.85342226395651861e-07,0.00381549087398258243,-0.0233680282846634793,-0.00035671942704955373
1.14,31.2221499113808107,131.010477905919146,23.8194435013895962,-0.271749122214018202,-5.76248805617039928,17.960340646737599,1.91991445872723454,3.53156634797347735,239.695317731955441,35.4971141007768693,16.1711778232012335,70.0384764018842816,-0.962631293164438406,112.675700942631792,770.020502492293758,15.2880000000000003,0,6.0436320160497683,0.104341271119792842,-1.90445343359493233e-07,0.00384592239706773448,-0.0239687352026924268,-0.000361540419036930139
1.15,31.2221492927424862,131.010479447419556,24.1531089581080636,-0.227790271915716214,-5.69979077477771767,17.6966121522510065,1.95421274716477522,3.52577286387167499,237.412511535467729,35.7949965999647191,16.3065974350678324,70.0404500978401074,-1.00097287306827831,112.634909850906837,782.973254873757014,15.2880000000000003,0,6.0576671231986996,0.105217271965381137,-1.95570493682107889e-07,0.00387237477632698451,-0.0245767580997216829,-0.000367070161214259167
1.16,31.2221486695355317,131.010480998868474,24.4887385112513876,-0.185197778458454754,-5.65597906167410258,46.7464793351775825,1.98229352614214438,3.51914130940197545,490.043774384589426,35.9759254023504127,16.401841027280021,70.0424222369288287,-1.04028798877874507,112.593083535638954,790.882968683125341,15.2880000000000003,0,6.07163016580373238,0.105749501995627729,-2.00716196801030937e-07,0.00389472911300456446,-0.0251920155743765584,-0.000371043308808534941
1.17,31.2221480410107084,131.010482562430099,24.8269482446551102,-0.142865145009163724,-5.60373601307081781,8.0673264872611572,2.01377372856606618,3.5125279376772105,153.709379294867944,36.210136590869503,16.5152438219286424,70.044389634836989,-1.08058853261464005,112.550209370917997,801.188104102854709,15.2880000000000003,0,6.08553557759238029,0.106438360762301912,-2.05863730173448998e-07,0.00391291488564340061,-0.025816498260588433,-0.000375190495785165164
1.18,31.2221474081650179,131.010484135251744,25.1669311193970415,-0.100878760643536944,-5.5403022684476726,22.5958761749461985,2.04991426490557371,3.50597419686171774,280.025018221967457,36.5184568134829277,16.6539130679240621,70.0463490061080876,-1.12188712639650401,112.506273951614872,814.86341010729609,15.2880000000000003,0,6.09933803072169223,0.107345068540279212,-2.11037375813292154e-07,0.00392671825031530326,-0.0264474563247746146,-0.00037970755558646422
1.19,31.2221467705542288,131.010485718618867,25.5090540774555166,-0.0599288076915884538,-5.50269957843459157,39.6718531773493908,2.0766338819845549,3.49841731117769683,428.407813052929214,36.6578764332053169,16.7346506234716621,70.0482969549522068,-1.16419674835386644,112.461263495015245,821.070250143479711,15.2880000000000003,0,6.11307999964648552,0.107755304978520552,-2.16220197209823653e-07,0.00393605385698933639,-0.027086436320962394,-0.000382050826797833475
1.2,31.2221461278031782,131.010487313636531,25.8536323742346745,-0.0192752570550541978,-5.44506957456760876,3.85163893078689901,2.11150783894666771,3.49115694644182062,117.184374136023607,36.9302164521740224,16.8607908102260531,70.0502299790907443,-1.20752890975940907,112.415165778228584,833.287835402635778,15.2880000000000003,0,6.12676319733255603,0.108556266720677197,-2.21404117694735275e-07,0.00394077912970504634,-0.0277343208348234428,-0.0003853384811738681
1.21,31.2221454809034569,131.010488917446963,26.1998581447157264,0.0207442619500091026,-5.38892229230338682,31.795384507081689,2.14630508182368329,3.48356628592676287,359.923432132008998,37.1945122881380499,16.9840618627551443,70.0521444588647029,-1.25189672705664146,112.367966867762988,845.229465700263631,15.2880000000000003,0,6.14036437485037201,0.109333590781517387,-2.26613390750882165e-07,0.00394074446106304141,-0.0283883809317139781,-0.000388079884206977814
1.22,31.2221448291092472,131.010490532226328,26.5483503439999033,0.0603228286105322031,-5.35028275330245062,22.9463918320531555,2.17426301383370024,3.4752558702210905,283.068750482576149,37.338213815924604,17.0659718378318459,70.054036664779332,-1.29731232069509006,112.319653891358897,851.744680762324037,15.2880000000000003,0,6.15391165027977305,0.109756434328149272,-2.31822784172755448e-07,0.0039358183608070238,-0.0290509980186855685,-0.000389079220452736977
1.23,31.2221441727278552,131.010492157105489,26.8988645961272397,0.0991974708153927215,-5.29327354961791663,8.74574067220199858,2.21027479472230404,3.46710866674397256,159.796873822227951,37.609748090815863,17.1915042907465043,70.0559027660819567,-1.3437868376031803,112.27021500964571,864.148895982548083,15.2880000000000003,0,6.16738911514431631,0.110555052147570929,-2.37042734860071989e-07,0.00392585473345737242,-0.0297210977007982199,-0.000390903427533626944
1.24,31.2221435121778619,131.010493790877206,27.2510611509974012,0.137625989180948399,-5.24309897353540411,38.5526111495759238,2.24379175638742812,3.45849873201856806,418.515630199805003,37.8341092401603518,17.3007894871732084,70.0577388023516221,-1.39133259218169369,112.21963713977857,874.460232511763479,15.2880000000000003,0,6.18079198393459972,0.111215010945292278,-2.42281830249532244e-07,0.00391074486141515607,-0.0303975608098180743,-0.000391708622755859411
1.25,31.2221428467754407,131.010495435559136,27.6055134901273469,0.175878810877455383,-5.20281103932797429,18.4733413204061243,2.27321645075266998,3.44938214771051044,244.260946125734876,37.9863412981931461,17.3853111153519251,70.0595407080993056,-1.43996103072741732,112.167908122616979,881.481458335577599,15.2880000000000003,0,6.19411651952190567,0.111662950387613591,-2.47515951373066038e-07,0.00389029613022792448,-0.0310826097939261616,-0.000391214978834487014
1.26,31.2221421769872727,131.01049708981148,27.9618440649829765,0.212990631498852501,-5.14373705923276248,10.7519683579053709,2.31150042478760298,3.44033057245148699,177.298446336408631,38.275711892883173,17.5165989041838444,70.0613043120674774,-1.48968309801696774,112.115016329096647,894.931794065436179,15.2880000000000003,0,6.20736290591031459,0.112514023723571707,-2.52761146077748965e-07,0.00386440040766987012,-0.0317746440182533896,-0.000391557798229800189
1.27,31.2221415029687606,131.010498753190859,28.3199296632104129,0.25022556108238142,-5.10046714807550838,37.0710958657095162,2.34285905556538676,3.43066557939375505,405.579686079964688,38.4485663549539538,17.6079546484662117,70.0630252845294734,-1.54051136091733665,112.060948403248872,903.002069836406577,15.2880000000000003,0,6.22054382037319886,0.113022597776771719,-2.58016482249897775e-07,0.00383293655406211076,-0.0324734595908038604,-0.000390110215997679368
1.28,31.2221408241831071,131.010500427306255,28.6802274073490224,0.286857483764422716,-5.05396152358743755,11.7991631911679011,2.37602551293180753,3.42074783153356021,186.429688124688823,38.6446928239046628,17.7071580613915991,70.064699222569871,-1.59245634078132992,112.005693164105963,912.20643524275647,15.2880000000000003,0,6.23367123976082027,0.113599588957532013,-2.632643046921231e-07,0.00379567342890400634,-0.0331806821135244567,-0.000388274804550093461
