Time,Latitude,Longitude,Altitude,Angle of Attack,Angle of Sideslip,X-Acceleration,Y-Acceleration,Z-Acceleration,Thrust,True Velocity,Ground Velocity,Pitch,Roll,Yaw,Dynamic Pressure,cp,cg,parachute_deploy_gain,Wind Speed,Wind Direction,Mach,omega_x,omega_y,omega_z,Cmq,Angle of Attack(total),Angle of Attack(gust),True Velocity(gust),Acceleration
0.0,31.222216000000007,131.010392,3.000000004412624,0.0,0.0,0.0,0.0,0.0,2.2828121974499247,0.0,0.0,69.99999999623412,0.0,119.9999999935444,0.0,1.274,1.0271675151847728,0,0.0,0.0,0.0,0.0,0.0,0.0,-0.0,0.0,90.0,0.0,0.0
0.01,31.22221599999084,131.01039200000497,3.000002745347096,0.0,0.0,0.0,0.0,0.0,34.242186961749226,3.465174813755316e-14,2.8705476994166025e-14,69.9999999962611,-2.1713911667908447e-11,119.99999999352175,7.352495975525499e-28,1.274,1.0271659134330349,0,0.0,0.0,1.0183245502395064e-16,-3.3305335486039093e-18,7.169286865560398e-18,5.624298769768554e-18,-7.715917190115602e-34,0.0,89.99999999999979,3.465174813755316e-14,0.0
0.02,31.222215999994315,131.0103920000094,3.0000030495639742,0.0,0.0,0.0,0.0,0.0,25.871876237766216,3.8197434737535036e-11,2.4171837235633357e-11,69.99999999628672,-1.1921727947863515e-11,119.99999999353136,8.93414285188691e-22,1.274,1.027164492361118,0,0.0,0.0,1.1225230367947217e-13,-6.657678965418802e-18,1.4338573731120796e-17,1.1241821275959074e-17,-1.7010872994127372e-30,0.0,89.99999999975682,3.8197434737535036e-11,0.0
0.03,31.222215999994315,131.0103920000094,3.0000030495639742,0.0,0.0,9.81877837424427,-2.5122800045972096e-05,3.3498614629347925,180.34219359854663,1.2659015405517447e-10,1.1364406173918436e-10,69.99999999631459,-1.6431898037347223e-11,119.99999999352724,9.812605835254651e-21,1.274,1.0271551940870716,0,0.0,0.0,3.720154642239108e-13,-9.991600645811728e-18,2.150108433310316e-17,1.6859343782149594e-17,-8.453698244545225e-30,0.0,89.99999999919412,1.2659015405517447e-10,10.374487003414373
0.04,31.222215999994315,131.0103920000094,3.0000030495639742,18.83801224594347,-0.0001111777826462,48.68248476615645,-1.016330065874988e-05,3.3497854396877287,548.635972453808,0.1556173050466994,0.0975908358443652,69.99999999633813,-2.0932768807056278e-11,119.99999999352085,0.0148286043323172,1.274,1.027133720825283,0,0.0,0.0,0.0004573186944143,-1.3322134194415637e-17,-1.04744143520903e-11,1.336824254131964e-11,5.0626055458604615e-15,18.83801224625964,89.06236267790787,0.1555998412814392,48.79759610369246
0.05,31.22221599164764,131.01039201704114,3.002326315126219,5.772385609593056,-4.395076213712875e-06,71.20344550265034,4.905512691849684e-05,3.349217396035405,761.6984298824663,0.8326471944351852,0.3620326097059287,70.00000001316391,-1.0866255162484559e-10,120.00000000231074,0.4245281043148827,1.274,1.027093426565204,0,0.0,0.0,0.0024469331205246,-5.0245994431125096e-18,-7.32924164976824e-07,2.217344936947165e-11,1.895424184525467e-09,5.772385609594774,84.74112356985832,0.8326465040582279,71.28217104309611
0.06,31.22221596664444,131.01039206837547,3.015081730143309,4.056581213689704,3.169093567502233e-05,53.16249142470188,0.0001203825427859,3.3481235983850643,590.4875390737236,1.657216205300742,0.6755452977614796,69.99999964391398,-3.9285905645317736e-10,120.0000000287861,1.6816755551786196,1.274,1.027050317124926,0,0.0,0.0,0.0048701272653724,3.095757869075056e-13,-7.483541766772344e-06,3.074135420506017e-11,3.8518749565858254e-08,4.056581213813337,79.59316473687034,1.657221183301277,53.26781792157489
0.07,31.22221592883117,131.0103921460222,3.034593611434361,4.115662018628709,6.450869598349036e-05,81.18203554989698,0.0001593212642178,3.347059402768047,855.2937749779172,2.099899704220947,0.8579771146174259,69.99999543281565,-8.233801910783518e-10,120.00000006883089,2.700101932075157,1.274,1.027003201295312,0,0.0,0.0,0.006171060252819,3.4704292086287e-12,-2.6327204536316785e-05,1.9541142932033486e-10,1.7170712165327165e-07,4.115662019133419,76.90111966094352,2.099909837223217,81.2510043180746
0.08,31.22221588914193,131.01039222747755,3.0542761843835606,3.459696193892355,8.037433511260004e-05,16.298214211652088,0.0002413456836072,3.344878926597744,241.2171988638792,3.051964775152957,1.2149999716613011,69.99998042886442,-1.0128995578004475e-09,120.00000011111383,5.703497661025892,1.274,1.0269597189470347,0,0.0,0.0,0.0089689344021769,1.458982438104473e-11,-5.702803872814215e-05,7.043261397829576e-10,5.405702492731987e-07,3.459696194824858,71.30331929508368,3.051977400323993,16.63790856991177
0.09,31.2222158241468,131.01039236098703,3.0886872184095737,4.313676956300389,0.0001337561018991,50.35975918308536,0.0002293282821279,3.344215841840564,563.0937377043203,2.893161298572128,1.191209213966114,69.99994788602814,-7.098432023887522e-10,120.00000018106356,5.125380275808925,1.274,1.026918932011013,0,0.0,0.0,0.0085022553945842,3.8672912027154325e-11,-0.0001115933708951,2.016054215232918e-09,1.0027525988343615e-06,4.313676958370176,72.2316578138625,2.893182308931483,50.47067588835877
0.1,31.2222157788302,131.01039245392113,3.109877853389092,4.035124630954496,0.0001457499816535,47.804664812504015,0.0002878217657545,3.341734392237128,538.7437595981891,3.5677148583138303,1.4531247507621967,69.99988403958329,1.9248461973355822e-09,120.0000002323013,7.7939962029572305,1.274,1.0268846934974103,0,0.0,0.0,0.0104845969583028,8.579678749070606e-11,-0.0001726817043215,3.984565639703107e-09,1.913455350430327e-06,4.0351246335824245,68.43243098813296,3.567737752667411,47.92132267234452
0.11,31.222215703308,131.01039260899836,3.148841432727305,4.043401107254707,0.0001752764476999,37.67622367577205,0.0003286462930162,3.3392563999062723,442.86563930529127,4.034183355956686,1.6436552022667772,69.99978525353545,7.302513231814865e-09,120.00000031883242,9.96528118825134,1.274,1.026848594915519,0,0.0,0.0,0.0118554331868328,1.5870341853361987e-10,-0.0002596204409236,7.232030302688121e-09,3.252930323390323e-06,4.04340111104746,65.92012987243639,4.034210888316708,37.82391391539392
0.12,31.222215627491828,131.01039276462643,3.186995101203875,4.17874459224363,0.0002066711490009,41.15991989399172,0.0003576945202315,3.336766085769504,475.58594813540793,4.361857560629481,1.7865750500940407,69.99963665601238,1.781774420198147e-08,120.00000041104812,11.649831899889556,1.274,1.0268114448194128,0,0.0,0.0,0.0128183893919737,2.682972478760441e-10,-0.0003710216542429,1.2215991071490164e-08,5.026311388647148e-06,4.178744597345269,64.21681651392016,4.361890024457652,41.29495143136631
0.13,31.22221554594398,131.01039293200228,3.2277173449026786,4.202734874672792,0.0002327160860324,45.44886120763352,0.0003953741266062,3.333578629398489,515.9156326236897,4.792165672014363,1.9646716520715424,69.99942424225341,3.613383418913551e-08,120.00000051758742,14.061726603124043,1.274,1.026779572895131,0,0.0,0.0,0.0140829618979635,4.248908088871395e-10,-0.0005056103199642,1.908859219307828e-08,7.5253154423526356e-06,4.202734881104192,62.048594618540655,4.792202226971676,45.570952718869485
0.14,31.222215454191247,131.01039312033683,3.2737880595608355,4.184830647080848,0.000257138757548,42.32232525579263,0.0004369426767266,3.329727443445437,486.2390860568421,5.269261304374574,2.158791628597544,69.99913473613935,6.515851355725497e-08,120.00000064630268,17.000925061330125,1.274,1.0267449573927567,0,0.0,0.0,0.0154850332441425,6.382432869666793e-10,-0.0006690086306358,2.8426433029675884e-08,1.0948547100483978e-05,4.184830654966803,59.74181173116622,5.269301695636157,42.45310707234106
0.15,31.222215353826755,131.0103933263496,3.3242182719560263,4.21963947489699,0.0002846467688673,40.886944113003565,0.0004726792395108,3.325585650885676,472.5421858721398,5.6781946837482895,2.329510773545807,69.99875162806286,1.0876776246115984e-07,120.00000079954532,19.742017654108928,1.274,1.0267115958081523,0,0.0,0.0,0.0166867950518804,9.204756288136623e-10,-0.000865746478554,4.08948221429571e-08,1.526771148078443e-05,4.219639484480408,57.84996018384879,5.678239395958187,41.02196629910223
0.16,31.222215247130432,131.01039354534575,3.3775922280208457,4.253495568077899,0.0003118339050386,32.26872905470846,0.0005078415214353,3.32090791922544,391.1218908297597,6.081244877834229,2.4981889727471702,69.99825581174558,1.7187028096464329e-07,120.0000009800088,22.644030778355887,1.274,1.026675762255412,0,0.0,0.0,0.0178712695992133,1.2856146928958252e-09,-0.0010961187242953,5.6923362293832417e-08,2.0702404729358337e-05,4.253495579487569,56.06022383757386,6.081293860589489,32.43916312841722
0.17,31.22221513260033,131.01039378041813,3.4348437275053194,4.364838523348639,0.0003448792023946,40.840448242802736,0.0005326487904353,3.3162727284953744,471.78125980632416,6.362544479165355,2.6250789114832647,69.99762801982864,2.5997588617291615e-07,120.00000119506798,24.78723182122683,1.274,1.0266409836796937,0,0.0,0.0,0.0186979513961862,1.747791994374917e-09,-0.0013624931601664,7.706724512977917e-08,2.6923621797558364e-05,4.364838536947241,54.85936171416122,6.362598652663785,40.97486885600156
0.18,31.222215014088988,131.01039402363364,3.4935801365785646,4.353948305387995,0.0003681615230806,33.992183768165326,0.0005718025428208,3.310131992647221,407.1015672119096,6.81502088160835,2.810667639293692,69.99684761766231,3.794979223522764e-07,120.00000144728236,28.437950785509614,1.274,1.0266048342046536,0,0.0,0.0,0.020027681385988,2.3221419748804155e-09,-0.0016616990447559,1.0147209890543081e-07,3.517105786247627e-05,4.353948320923495,52.99157233768714,6.815078712285162,34.152972512863755
0.19,31.22221488419521,131.01039429023237,3.558399965607869,4.432620772533925,0.0003996774584738,38.45149959021069,0.0005986099513107,3.304145139297767,448.95313283182486,7.1223367465208405,2.946425726785696,69.99589577323147,5.440084577183829e-07,120.00000176148238,31.060341085698347,1.274,1.026566130444714,0,0.0,0.0,0.0209308229359413,3.022391489754689e-09,-0.0020041563310821,1.3135864879722746e-07,4.433199397898183e-05,4.432620790516937,51.77883352025967,7.122399527709208,38.59320142454953
0.2,31.222214751373183,131.01039456280608,3.624052454705669,4.443889400961181,0.0004246617145652,35.23432408779927,0.0006337972852267,3.2968110145188256,418.5156301991588,7.530482904611057,3.1167566004785483,69.99474776398331,7.478025600151903e-07,120.00000211715036,34.72195181863731,1.274,1.026529240027363,0,0.0,0.0,0.0221302820454282,3.866698391504749e-09,-0.0023849544920781,1.668144671071589e-07,5.57780533277244e-05,4.443889421210987,50.22448880200342,7.530549610317194,35.38822625098952
0.21,31.222214608673173,131.01039485566503,3.6948551453492566,4.493351735844891,0.0004538195602194,33.79371564104691,0.0006629296043866,3.2891790438445727,404.8187610144608,7.868284042829251,3.2629204975089228,69.99338155599101,1.0150082652278477e-06,120.00000255293388,37.906665490338085,1.274,1.0264923657015164,0,0.0,0.0,0.0231230169900677,4.871073773182836e-09,-0.0028117605859743,2.089322918608601e-07,6.870935089180403e-05,4.493351758715364,48.992529909481824,7.868355328639073,33.95340801819282
0.22,31.22221446109996,131.01039515850383,3.767700382407304,4.5412639153933885,0.000482649303782,41.008966751568416,0.0006914639179131,3.2808061382386606,472.5421858721387,8.20057841132235,3.4071691679735228,69.9917708347139,1.3454961520984431e-06,120.00000305929996,41.175744234065135,1.274,1.0264494137127138,0,0.0,0.0,0.0240995709751246,6.054779813287368e-09,-0.0032829112061357,2.580881224843564e-07,8.3609968899004e-05,4.54126394098788,47.82515604752711,8.2006542256977,41.13999323561041
0.23,31.22221430675399,131.0103954752338,3.843768625625224,4.52371495179584,0.0005047555656171,33.98493478127787,0.0007294889663961,3.2705214710765107,406.340642146096,8.647938096586296,3.5908865300848416,69.98989017772566,1.7539876018835507e-06,120.00000365514876,45.79040229326471,1.274,1.0264133390858623,0,0.0,0.0,0.0254142776666487,7.436335125872812e-09,-0.0038001790077148,3.1489825108822685e-07,0.0001020628978177,4.523714979897577,46.31461705147579,8.648017383405135,34.14194053232237
0.24,31.222214142622448,131.0103958120587,3.92493179063287,4.57837522350066,0.0005351929930195,35.051650311058864,0.0007555049947555,3.26053011385611,416.2328240017099,8.954297884844461,3.72617527247482,69.98771316795013,2.25257161141768e-06,120.0000043564586,49.09180568115741,1.274,1.0263750048312463,0,0.0,0.0,0.0263146218848643,9.034877387788232e-09,-0.0043732521010013,3.809642748985157e-07,0.00012161410144,4.578375254714954,45.32798984252032,8.954381952763216,35.20297212911011
0.25,31.22221397517227,131.0103961556623,4.0071748888306855,4.6034117733065,0.0005618935542827,36.03738579534623,0.000785606492708,3.249069743648399,425.3640807915084,9.311611941121669,3.8789349536029696,69.98520781816889,2.8559738498748624e-06,120.00000517181904,53.08749562138344,1.274,1.0263373768840591,0,0.0,0.0,0.0273647110956883,1.0873791100894836e-08,-0.0049950711786164,4.5609738277273444e-07,0.0001444478241125,4.603411807525074,44.2165428352526,9.311700203154778,36.183554686886296
0.26,31.22221379934012,131.01039651647062,4.09364247475714,4.621386912291471,0.0005881033207375,39.29107511182762,0.0008162761165496,3.236407051295005,455.80158342417656,9.67833954512075,4.034902068846398,69.98234620927953,3.5784678110229355e-06,120.00000612171208,57.350948423913096,1.274,1.0263006300381676,0,0.0,0.0,0.0284424679130479,1.2973286442992724e-08,-0.0056712051373577,5.414206381221602e-07,0.0001704578711045,4.621386949630312,43.12063533194282,9.678431924174348,39.42414126789902
0.27,31.222213616776543,131.01039689108487,4.183310605341074,4.617158109135719,0.0006115457810536,35.90419462403674,0.0008503454714941,3.221982799915672,423.8421996598744,10.088790784535757,4.205862468567124,69.97909721779352,4.436165972465058e-06,120.000007221354,62.31798301949865,1.274,1.026260090595354,0,0.0,0.0,0.0296487219805601,1.5355910600537293e-08,-0.0064045199323113,6.379142666348734e-07,0.0002006609239367,4.617158149547818,41.94410287616451,10.08888684592241,36.048472443180565
0.28,31.22221342607797,131.0103972823952,4.277051150896916,4.642105655370123,0.0006389739579882,41.51133203546672,0.0008785747638736,3.2071101123224945,476.3468732012228,10.432377224420517,4.35383399240675,69.97542808435722,5.446665372087172e-06,120.00000849080963,66.63429581008447,1.274,1.0262212716723291,0,0.0,0.0,0.0306584788590473,1.8045308789081613e-08,-0.0072006835403936,7.469524967369969e-07,0.0002332868227611,4.642105699250441,41.0023231023774,10.432477594215127,41.63503624837164
0.29,31.22221323001776,131.01039768469093,4.373143569786686,4.62134615173668,0.0006600657405645,33.17552944492765,0.0009148746278066,3.1894209319791806,397.9703104221098,10.876662296046485,4.536381530986506,69.9713027936179,6.629751536885327e-06,120.00000994797426,72.43000748232016,1.274,1.026183007522519,0,0.0,0.0,0.0319641703260467,2.1067646517035105e-08,-0.0080566154554079,8.688043379161898e-07,0.000272130659453,4.621346198772975,39.83162628795024,10.876765978930557,33.32848872465723
0.3,31.22221302403368,131.01039810736614,4.4744193758467325,4.664362353358112,0.0006905183788532,31.08096762732793,0.0009381960428197,3.172549142946348,378.1859457108735,11.168362145070317,4.66647911311536,69.96668711012893,8.005507138509574e-06,120.00001161892672,76.36634300732833,1.274,1.0261430389738484,0,0.0,0.0,0.0328214509167604,2.4447409007156216e-08,-0.0089829108229115,1.0056222251461646e-06,0.0003115527202986,4.664362404357781,39.09908960432563,11.168470611443622,31.242464973103964
0.31,31.22221281503337,131.01039853619727,4.576593712520673,4.700143580504286,0.0007196683316923,32.79732593144512,0.0009620705970519,3.154230688182399,394.1656220930229,11.470279728974068,4.800072153432283,69.96154070456518,9.597499105113692e-06,120.00001352112182,80.55022837857167,1.274,1.0261054058068628,0,0.0,0.0,0.0337087616009043,2.8214060606649844e-08,-0.0099686353219717,1.1565909895184251e-06,0.0003550834484269,4.700143635477137,38.36463422765983,11.47039277421126,32.94865339301887
0.32,31.222212598991007,131.01039897947376,4.68216432480395,4.718667719113184,0.0007464384342556,35.7316568886908,0.0009885845337584,3.133859770838664,421.5593934624264,11.808280530415894,4.946054328851105,69.95582953472353,1.14278227255889e-05,120.00001568218067,85.36654007972253,1.274,1.026068246703101,0,0.0,0.0,0.0347021168382987,3.2392058795580455e-08,-0.0110163301561155,1.3226102501723267e-06,0.0004039614423012,4.718667778018562,37.5686120062341,11.808397780690962,35.8688218659563
0.33,31.222212376029034,131.0103994369436,4.791055524254013,4.72141404831576,0.0007708346814671,35.42013590291081,0.0010176135371143,3.1111955852784385,418.5156301991632,12.181577273013426,5.104163223586657,69.94951809396906,1.351997394754887e-05,120.00001812674968,90.84831229869296,1.274,1.0260310883392356,0,0.0,0.0,0.0357992034445943,3.700677535501642e-08,-0.0121310534481307,1.5051409581878843e-06,0.0004588955105349,4.721414111097893,36.7208578211118,12.181698355442045,35.55651229220977
0.34,31.222212145785647,131.0103999093516,4.903491659547144,4.73024573449122,0.0007962944975467,27.63851074646407,0.0010446307681611,3.0871492806781062,345.4656368807584,12.53557620048282,5.2556261014174765,69.94256797855994,1.5899658158227497e-05,120.000020882338,96.20413272674828,1.274,1.0259901535019136,0,0.0,0.0,0.0368395817555172,4.208561016221623e-08,-0.0133180771902383,1.7057647550599631e-06,0.0005184333231541,4.730245801363397,35.94841996438923,12.535701282129995,27.810389570354005
0.35,31.222211909310875,131.01040039453565,5.018822212845608,4.780248518778662,0.0008286678570753,30.332092807652543,0.0010618579815451,3.063967690608957,370.5765700527057,12.774786382148209,5.367579971644358,69.93493776125636,1.8594985713558667e-05,120.00002397748868,99.9096898192772,1.274,1.025950003202184,0,0.0,0.0,0.0375426220587071,4.7658312175989686e-08,-0.0145774693288123,1.9252724355785177e-06,0.0005782798420984,4.780248590437683,35.44790728185619,12.774916548990808,30.486451961956565
0.36,31.22221166933814,131.0104008868675,5.135354490370708,4.798132156899578,0.0008554457330409,34.32674769697476,0.0010851169437774,3.0374319611165923,407.8625232777224,13.09301701329486,5.506730645516068,69.92658597246795,2.163521613217148e-05,120.0000274401514,104.94818266210537,1.274,1.0259105142325406,0,0.0,0.0,0.0384778908056978,5.3755109608570216e-08,-0.0158991451700967,2.162609490834569e-06,0.0006464142451675,4.798132232978766,34.796094028187134,13.09315138639638,34.46087058603792
0.37,31.222211421355144,131.01040139563804,5.255882891363927,4.797392186816851,0.0008791822061288,32.551601855236584,0.00111162791192,3.0078619428913056,391.1218908297639,13.457513730739372,5.661815946371007,69.91747693543164,2.5047738471809164e-05,120.0000313040604,110.87154396328836,1.274,1.025872170958032,0,0.0,0.0,0.0395491312153729,6.040098808671168e-08,-0.0172926678053148,2.420031948898497e-06,0.0007226353721561,4.797392267189059,34.07332166419882,13.457651832357364,32.69027405888565
0.38,31.22221116634284,131.01040191882743,5.379799334000849,4.811698494594017,0.0009057112478668,34.02947987649063,0.0011338447913587,2.9774881690446744,404.81876101445977,13.77554886562956,5.800899861213392,69.90756948297444,2.886339581486796e-05,120.00003560072224,116.17243393848278,1.274,1.02583050512925,0,0.0,0.0,0.0404838339452728,6.762496638941508e-08,-0.0187646375218858,2.69955777313946e-06,0.0008026686661094,4.8116985796350695,33.46655348088405,13.775691134419684,34.15949264475229
0.39,31.222210906095896,131.01040245274032,5.505993307722699,4.813508003664984,0.000929862892873,29.00025983045028,0.0011579891265804,2.9442136901860865,357.6406249338268,14.124492165837273,5.950648592462506,69.8968186645841,3.311602501056718e-05,120.00004036395212,122.13093644173792,1.274,1.02579027384009,0,0.0,0.0,0.0415093739609825,7.545934774906889e-08,-0.020311592409804,3.0013532510753577e-06,0.0008908380763632,4.813508093268025,32.821616487639595,14.124638228358922,29.149330452482886
0.4,31.222210638473225,131.0104030017851,5.635788650457906,4.841647069358873,0.0009592124397379,27.71178845184976,0.0011749448424961,2.91135549588368,345.4656368807565,14.390874239274588,6.07193451174791,69.8851815212744,3.783947407715338e-05,120.00004563180136,126.77947425345651,1.274,1.0257493418632293,0,0.0,0.0,0.0422922854866381,8.39343718693383e-08,-0.021938519432511,3.3271332720311508e-06,0.0009803271643914,4.841647164150728,32.348088166612904,14.391024912012275,27.864299944624147
0.41,31.22221036681104,131.01040355909262,5.767123077463226,4.86553909860892,0.0009876699832274,31.306062598221665,0.0011918093836199,2.876450850006428,378.9468707766882,14.663028799871563,6.195223154320929,69.87261222561014,4.307011032901644e-05,120.0000514391194,131.6183642808765,1.274,1.025708445186429,0,0.0,0.0,0.0430921644173401,9.308325447883581e-08,-0.0236371933433427,3.6760977501392174e-06,0.0010761942383903,4.865539198612839,31.87689439156756,14.663183942709727,31.437931330109585
0.42,31.22221008906472,131.01040412887247,5.901259531771367,4.867510642114694,0.0010118258958528,35.308283402190774,0.0012128114559048,2.8374461227958245,416.23282400171047,14.9952917972178,6.33928625560071,69.85906967380902,4.884273094936628e-05,120.00005782486392,137.64909586091787,1.274,1.0256701057426505,0,0.0,0.0,0.0440686959134695,1.0293499639582845e-07,-0.0254093547296826,4.049238334851429e-06,0.0011830797791891,4.867510747027452,31.315270489291198,14.995450734457847,35.422111438762386
0.43,31.222209804115888,131.01040471342728,6.038886819939341,4.854590670645608,0.0010330089741511,31.00586934514032,0.0012363751872706,2.794478603999558,375.90313951343126,15.369430568701889,6.497852263156962,69.8445117629242,5.519340856908871e-05,120.00006482835984,144.60167924299955,1.274,1.0256308158337524,0,0.0,0.0,0.0451682983415116,1.135186446762958e-07,-0.0272634397889413,4.449073329427772e-06,0.0013010625065656,4.854590780289497,30.70250814963406,15.369592833372094,31.13154422839874
0.44,31.22220951192321,131.01040531284193,6.180028459770617,4.866912332640401,0.0010595850174406,28.57707721036899,0.0012525768202179,2.752165534925872,353.07501253892326,15.659290812546615,6.627318538707029,69.82889155423543,6.216182865383864e-05,120.00007249162944,150.1053167542629,1.274,1.025586171750536,0,0.0,0.0,0.0460202245100907,1.2486676023179565e-07,-0.0292060158163984,4.8779154055816594e-06,0.001420032405556,4.866912447705031,30.24619499837236,15.659457251771938,28.709297424144207
0.45,31.222209215425703,131.01040592106523,6.322872201489905,4.881836476567178,0.0010866574689855,33.31904824532484,0.0012669045761511,2.7082028218433374,397.2093853562887,15.934249290371609,6.751662050993672,69.81215834018458,6.97909417564726e-05,120.00008085697964,155.42080512416243,1.274,1.0255397023523487,0,0.0,0.0,0.0468283602442113,1.3701614206272197e-07,-0.0312276295846745,5.334643585560923e-06,0.0015449645531859,4.8818365972149325,29.82567893138932,15.934419982127675,33.428929688274074
0.46,31.22220891307435,131.0104065412864,6.468371919199588,4.869610441729251,0.0011078049156487,38.95909776354321,0.0012868374716666,2.6582856015412624,449.7140588976424,16.292139278621757,6.904766425053949,69.79426683863348,7.812149592850748e-05,120.00008996920153,162.4785746623087,1.274,1.02549635315424,0,0.0,0.0,0.0478802236363867,1.499987870203256e-07,-0.0333272350234362,5.819761874615242e-06,0.0016858511402973,4.869610567434908,29.29014635640275,16.292313292210977,39.04968351401366
0.47,31.22220860266524,131.01040717804253,6.6178810515614845,4.838450928223533,0.0011247917292402,26.253747818137555,0.0013104398935566,2.6026193242279367,331.0078106302504,16.710658191447514,7.078951441335346,69.77517236812905,8.719457259907165e-05,120.0000998741591,170.9309671061642,1.274,1.025453319323251,0,0.0,0.0,0.0491102725711187,1.6384464803343264e-07,-0.0355167087264168,6.3368207228363735e-06,0.0018427306558807,4.838451058652396,28.68386015667837,16.710834873319172,26.382435512333956
0.48,31.222208284201663,131.0104078313267,6.771393590864176,4.869339340099417,0.0011561785713505,25.860860976019296,0.0013165328518772,2.5543454292827983,327.20312230115803,16.911139899671,7.177575416403102,69.75482343794755,9.70562828082882e-05,120.00011062072316,175.0543877818846,1.274,1.0254092882449153,0,0.0,0.0,0.0496995461609974,1.7858865391586845e-07,-0.0378054080201581,6.88909442277235e-06,0.0019849793891693,4.869339477030596,28.40887970825325,16.911321511776286,25.986704537635287
0.49,31.22220796480208,131.01040848648364,6.924537656029012,4.881367714530694,0.0011829003785372,32.565703383222065,0.0013261973190012,2.5011623511055703,389.6000096981238,17.169005224738054,7.296160258358563,69.73316318155707,0.0001077573203115,120.000122255028,180.4309832312717,1.274,1.025367445590036,0,0.0,0.0,0.05045746454003,1.942747077649401e-07,-0.0401641298712614,7.47069711110948e-06,0.002140948887153,4.881367857509675,28.058569663954906,17.169191034294997,32.66161128464712
0.5,31.222207637929923,131.01040915697027,7.081324512896956,4.862566137860805,0.001202418260511,33.47759680712428,0.0013425340759632,2.4399894027711366,397.970310422106,17.52898693231981,7.450304424940405,69.71015149227495,0.0001193385310595,120.0001348274002,188.0736471953394,1.274,1.0253278572281015,0,0.0,0.0,0.0515154948878309,2.109295159784217e-07,-0.0426011733481599,8.084173008518589e-06,0.0023184335011768,4.862566286171007,27.57768313050809,17.529175807738486,33.56639745442473
0.51,31.22220730314019,131.01040984370235,7.24202048914867,4.8479762258125,0.001223054804074,25.49162310288008,0.0013562860883156,2.3767006597692686,323.39843497208153,17.86914397471067,7.597652147346554,69.68574349602717,0.0001318441288964,120.00014838524436,195.4407439266201,1.274,1.025286455263166,0,0.0,0.0,0.0525152689856776,2.2858192086249162e-07,-0.0451315948093539,8.734206149830708e-06,0.002503767471626,4.847976379721193,27.13799345359824,17.86933609171003,25.602178740977283
0.52,31.222206962738102,131.01041054193402,7.405210501673173,4.865306299521403,0.0012516517170965,30.733671928447727,0.0013599291289974,2.317711624364424,372.098451184342,18.08534843773428,7.701914987606457,69.65988568649581,0.0001453248538387,120.00016298000436,200.19561780583155,1.274,1.0252426840672306,0,0.0,0.0,0.0531507657929359,2.4726951523704535e-07,-0.0477531686556663,9.421346966092632e-06,0.0026812161964639,4.865306460134566,26.8699055233151,18.085545046726228,30.820940596104087
0.53,31.222206619320115,131.01041124632013,7.569307468221277,4.848802699234936,0.0012715119568563,32.301199055744725,0.0013711327835325,2.2490252325653923,386.55624643486095,18.41963113311156,7.8474319110539055,69.6325258319474,0.0001598315062727,120.0001786629144,207.6614205945027,1.274,1.0251993415311351,0,0.0,0.0,0.0541332845214831,2.67031759303889e-07,-0.0504479325599339,1.0141887756417996e-05,0.0028848299490111,4.848802865552398,26.45837260670532,18.419830861742675,32.37940050117613
0.54,31.22220626697288,131.01041196903336,7.737918664599091,4.831496690588052,0.0012913635058467,28.31291960103712,0.0013809098107221,2.177242866245296,349.2703242098436,18.75116898748492,7.992112829440902,69.60362200959217,0.0001754082864028,120.00019548734956,215.20067397992847,1.274,1.0251561018460285,0,0.0,0.0,0.0551077428911958,2.878941684235108e-07,-0.0532336286085667,1.090122304443916e-05,0.003098869611663,4.831496862756785,26.061835558272342,18.751371834390056,28.396510432451375
0.55,31.222205908994248,131.01041270328463,7.909026079894722,12.755903477510111,14.794421726616704,30.4011232242592,-0.9138835564803836,1.6094188870041668,365.2500005919912,21.25288039252061,8.113323699629928,69.57312211246325,0.0001921068626005,120.00021350480982,276.4492350024227,1.274,1.025112921033824,0,6.26600891486463,0.0,0.0624601340772573,3.0989272306468813e-07,-0.0561100530405476,1.1700476995263424e-05,0.0037020324998483,19.440775871503323,39.111542026911415,23.551045040360247,30.457408057896902
0.56,31.222205546564343,131.01041344664463,8.081909946161325,4.791246718974835,17.98658056381342,28.331178941647,-1.2136161953293216,1.9151439845313984,346.22656194657776,20.32288876609348,8.245531141149062,69.54097415464405,0.0002099796112633,120.00023276987916,252.7804409401016,1.274,1.0250709539098009,0,6.288869463612746,30.000012855656493,0.0597270962505732,3.329899590246196e-07,-0.0650818414309746,0.0110861030447479,0.0041060082041404,18.59337734819992,41.09549316888518,23.10203688805148,28.42175823158509
0.57,31.22220517944269,131.01041420523154,8.25837496244494,4.787191301582861,17.777419106962068,28.020764647386898,-1.4679671508236467,1.8370980134969588,343.1828296833045,20.58716642530578,8.372661395282748,69.50368479041882,0.0172040712215395,120.01837335924364,259.39307565443926,1.274,1.0250279191823897,0,6.311551412028188,30.0000128556565,0.0605039043683715,3.658538247828562e-07,-0.0681093012038821,0.0232006780184603,0.004352814716777,18.390576827555076,40.64941102029651,23.335046754976386,28.11926578151249
0.58,31.222204807204072,131.01041497464027,8.436665951333874,4.772286032268198,17.56274982623644,36.95534695711444,-1.7316862826893176,1.7559430351270864,426.12500585731766,20.85698112869885,8.499615710404889,69.46465369679011,0.0526645620201679,120.0562353854152,266.232266448918,1.274,1.024981594484354,0,6.3342758069878045,30.000012855656493,0.0612969897689373,4.064622072472745e-07,-0.0712205528495087,0.0354990430804204,0.0046112273514777,18.17984500014087,40.19694384622383,23.57273221991461,37.03754503264185
0.59,31.22220443012513,131.01041575637737,8.617678683137374,4.723309370040052,17.237002435717436,29.933025093789063,-2.017689300035876,1.659850979120444,360.68438819710633,21.25591188995612,8.674288896747614,69.42381983868495,0.1067527489831014,120.114001625781,276.50928980192606,1.274,1.0249386802161349,0,6.356835961653172,30.000012855656493,0.0624695427490752,4.549336088469893e-07,-0.0744114347011786,0.0479812084246983,0.0049098883575534,17.85347177791498,39.52664761058002,23.922836177106603,30.046832888838253
0.6,31.22220404415817,131.0104165585452,8.80358490341191,4.70786271807121,17.031232707517614,26.592918481790665,-2.3012474570253225,1.5730553529826703,329.4859594986072,21.51239373154312,8.79651213117733,69.38111744402848,0.1796180730482374,120.1918430954508,283.2174235991963,1.274,1.024891335813742,0,6.379343088187012,30.000012855656493,0.0632234563825424,5.113789192507694e-07,-0.0777032554829868,0.0607239288566342,0.0051888653110491,17.65134279413593,39.10631369817638,24.148430335250936,26.738615453706206
0.61,31.22220365658212,131.01041736619703,8.990024104267523,4.693595760767615,16.83455067264364,31.19377624458282,-2.591537818001642,1.4847235087738615,372.0984511843332,21.754823599381616,8.913622301302228,69.33646091699764,0.2715139386060195,120.290042842977,289.6315371147901,1.274,1.0248423929069768,0,6.402054360592314,30.000012855656493,0.0639360756849325,5.759725563257538e-07,-0.081071214868692,0.0736311529072153,0.0054746822456998,17.458351586298708,38.71096843527591,24.361304869652702,31.336434841199438
0.62,31.22220326383356,131.01041818660195,9.179128152353412,4.65793150173027,16.569902241527696,38.82417969499664,-2.9013798995781888,1.3851377434380918,442.86563930529206,22.07916660340065,9.06114863077399,69.28977129069985,0.3825338560494613,120.40871413186532,298.3267410810005,1.274,1.0247996097896497,0,6.424434846563927,30.000012855656493,0.0648894380631316,6.488214890214046e-07,-0.0845120294422862,0.0866888042864339,0.0057920191837821,17.194460085066016,38.18442522539912,24.645830850887563,38.957073053289854
0.63,31.222202863972097,131.010419023681,9.372034735936486,4.600816922986001,16.23908603107581,21.95752176717365,-3.236119376236126,1.2724598624201786,286.11251274707456,22.49130952819522,9.241272924156144,69.24096369619951,0.5127363671707165,120.54793386519913,309.56244699455794,1.274,1.024756158874558,0,6.446732209650412,30.000012855656493,0.066100846960984,7.300177717295106e-07,-0.088038794025868,0.0999415883588869,0.0061462407380213,16.861356321721345,37.527823161244605,25.00812473558468,22.23115797421776
0.64,31.22220245608616,131.01041987921235,9.569253881313577,4.6043264434801054,16.113837312427172,21.5591026892199,-3.5381440967701616,1.1857857135775425,282.3078244179702,22.62519686038264,9.318570929903847,69.18993750969585,0.6622329653576917,120.707836652266,313.25304039038474,1.274,1.024708534665538,0,6.469090085106688,30.000012855656493,0.0664944831545863,8.196810302380594e-07,-0.0916657417254021,0.1134378306051369,0.006437421388126,16.741966137877803,37.303284625131504,25.12311697839193,21.879658593596993
0.65,31.222202050398906,131.01042073253757,9.764759211594452,4.588581540461745,15.928243388273556,38.20981913206273,-3.857220737140676,1.0889064346854185,436.7781447787504,22.834265901168624,9.423799233147095,69.13657512882861,0.8311915128443038,120.888618620665,319.06305301770726,1.274,1.0246641738210605,0,6.49155704435216,30.000012855656493,0.0671090761111601,9.179935135960368e-07,-0.0953429034501269,0.1269947161064335,0.0067574025157008,16.55954606754437,36.96105457047006,25.30416529753111,38.419450115058574
0.66,31.222201637706767,131.0104216021411,9.963941441284128,4.518564450697833,15.56811431368188,32.47629313971015,-4.230296620738432,0.9609956752681532,383.5125151715984,23.284907726348244,9.618861523170883,69.08078050095105,1.0194891276908848,121.09016607984654,331.77460778949217,1.274,1.0246195561629028,0,6.513451167088787,30.000012855656493,0.0684336498015841,1.0249909988517855e-06,-0.0990819485706112,0.1406527280720691,0.0071608588876714,16.195013002035633,36.26290884241161,25.70036164912494,32.764745356613105
0.67,31.22220121376519,131.01042249629847,10.169196809407223,4.481667150551448,15.320653157797311,22.31117315290397,-4.585071528373172,0.8475782346173637,289.15624401033847,23.573601566437524,9.753991214690096,69.02244262350406,1.2270482075279334,121.31241491554032,340.0458038541927,1.274,1.024572383541697,0,6.535385933241356,30.000012855656493,0.0692822728210923,1.140715780821217e-06,-0.1029240928277702,0.1545539537234117,0.0075306156473941,15.94761923548642,35.80703438172631,25.951588069725275,22.793194537908857
0.68,31.22220078868604,131.01042339486133,10.374661089508065,4.466965775211321,15.148889740243908,27.89484770049624,-4.922184875542186,0.7457407213891502,340.89999248584934,23.743623831780816,9.845121869088196,68.96141674572766,1.453984692140626,121.55550957650752,344.96177983137625,1.274,1.0245245285832842,0,6.557605502452608,30.000012855656493,0.0697821260991468,1.265346473074398e-06,-0.1068387987193776,0.1685877269247581,0.0078732660363261,15.77895152075504,35.5177796087244,26.095577981798343,28.33560589446491
0.69,31.22220036097689,131.01042430081333,10.58120689699136,4.423551663222438,14.887117746099792,34.37945107535511,-5.29443230359604,0.6250772858485836,401.0140726853658,24.043329542946857,9.98471794575494,68.8975680943616,1.7002304296125277,121.81939885882456,353.7183397592349,1.274,1.024479631064582,0,6.579469155568502,30.000012855656493,0.0706631209885405,1.3989893237340184e-06,-0.1108029357740957,0.1826720080362252,0.0082682993127731,15.516171166391034,35.04622352088985,26.355569122489985,34.790349111116726
0.7,31.22219992474776,131.01042522549346,10.792124168313007,4.3651671694046925,14.580917540751145,28.794993281470266,-5.6930298512370845,0.4918965562412711,349.270324209851,24.410286822146745,10.149632321601432,68.83076828369794,1.9655777463889508,122.1038834352006,364.590483631276,1.274,1.0244351749185203,0,6.60110555854444,30.000012855656493,0.0717417757130871,1.5416639727235611e-06,-0.114837539087867,0.1968768439350827,0.0086999804546175,15.206727218163518,34.486929144874594,26.676010245530698,29.356501651065923
0.71,31.222199481502823,131.01042616575447,11.006494804889224,4.326562123288969,14.341405008379784,23.61791592985776,-6.073521129992101,0.3698455179855925,301.3312640634036,24.665676633484463,10.273111323099291,68.76086774519207,2.249903082354732,122.4088555455296,372.25170103531497,1.274,1.0243880468141104,0,6.622855024530032,30.000012855656493,0.0724925410890381,1.6934422972495952e-06,-0.1189522874322294,0.2112321562170618,0.0091058063203299,14.966706868050696,34.077454828993574,26.89496953241997,24.38914507508337
0.72,31.22219903556235,131.01042711326244,11.221901773776723,4.294620387115905,14.125583386473668,28.95164887526299,-6.447393335744699,0.251695874463763,350.7922053414578,24.87339039047363,10.3789447042926,68.68770239214471,2.5531053714256013,122.73423316427076,378.539856210189,1.274,1.024337302174265,0,6.644559282541242,30.000012855656493,0.0731031904618415,1.8544466653901431e-06,-0.1231246381987356,0.2256588333479666,0.0095043746518827,14.75128917666593,33.7271961946037,27.06982283360833,29.661931903292206
0.73,31.222198585405863,131.01042807085997,11.439171241647816,4.241455226105936,13.84555283019049,36.66518003462296,-6.856334336304356,0.116241166172823,422.3203185282354,25.183863015100407,10.523501297504543,68.61111480960297,2.874946870503749,123.07978926647976,388.04069707822015,1.274,1.024292465384646,0,6.666032886647665,30.000012855656493,0.0740158546274734,2.024739830740917e-06,-0.1273434661958571,0.240117287974581,0.0099525312064554,14.46850387008082,33.24520021336865,27.33761232950967,37.30091499562998
0.74,31.22219812711584,131.0104290456455,11.660360656055916,4.171159479326445,13.51539245824274,22.843248992029643,-7.300950664706509,-0.0357982500582867,294.4828134710563,25.58114559685537,10.70093418087404,68.53094781954567,3.2151121563887823,123.4452149860778,400.3716646661326,1.274,1.0242470321640116,0,6.687360935751742,30.000012855656493,0.0751836633408985,2.204328311105764e-06,-0.1316242323788367,0.2546567288070932,0.0104491544626527,14.132953843954493,32.65975564052577,27.684504832241444,23.981642700929577
0.75,31.22219766037204,131.01043003789437,11.885549481921304,4.140552150124074,13.311217907666398,26.69187001932508,-7.680030898585933,-0.1554795073144124,330.24688556441737,25.740656895108653,10.78924438490163,68.44702700711288,3.573335419143857,123.83025635121815,405.37150268175753,1.274,1.0241984712898409,0,6.708736632446463,30.0000128556565,0.0756526634633077,2.393250248421983e-06,-0.1359792231620238,0.2693149311089553,0.0108619574767183,13.929214685601291,32.36030272569395,27.81281933328512,27.77522229630169
0.76,31.22219719479745,131.01043103007075,12.109656570910255,4.086334542498238,13.03666645243555,28.72697492165147,-8.102580791372416,-0.2962609996383687,349.2703242098581,26.02372492017854,10.924282437804337,68.35916237722184,3.949381402278602,124.23469402642988,414.3272869369104,1.274,1.0241522053390697,0,6.730120702138136,30.000012855656493,0.076484803368227,2.5916494204763214e-06,-0.1403625917884918,0.2839384598125792,0.0113351535814543,13.651503412663867,31.911909318457862,28.05389593023793,29.84926589063484
0.77,31.22219671947301,131.01043204169295,12.338342354162457,4.028237729788352,12.752036133807913,26.81029924019508,-8.535468108018005,-0.4418576324052705,331.76876669606884,26.318290632276447,11.063993393320391,68.26718944445017,4.342775056932523,124.65805256364862,423.7507077093503,1.274,1.0241065975906936,0,6.751082116291961,30.0000128556565,0.0773507437401574,2.7994791464723814e-06,-0.1447929632909229,0.2985867144874589,0.0118250277288528,13.363091611771043,31.449181146054418,28.30487949497366,28.139680157015146
0.78,31.22219623872643,131.0104330647308,12.56928032139956,3.974189328435173,12.482510858211604,21.927412922469603,-8.961024911224035,-0.5841759131069171,286.8734378128874,26.57569006854684,11.189926893178892,68.17092553184595,4.753104742633405,125.09992628960444,432.07043359939127,1.274,1.0240588105546735,0,6.77215150086522,30.000012855656493,0.0781074567807888,3.0167596017142546e-06,-0.149268635560089,0.3132508227661956,0.0123095028975929,13.090320954712777,31.027667418482103,28.52096443463863,23.69499243362443
0.79,31.22219575316442,131.0104340980006,12.802130045902908,3.9276317004336025,12.237478067476898,31.27869813608357,-9.36739820767048,-0.7182914532154832,373.6203323159581,26.771709587980546,11.29285187454851,68.07018418673273,5.17992478124838,125.55987458231658,438.4579484919747,1.274,1.0240083170932772,0,6.793110269608292,30.000012855656493,0.0786837759436928,3.2435205603583407e-06,-0.1537791336577964,0.3278952131613526,0.012774714577889,12.843161503583156,30.670563713302165,28.679386436298223,32.65916485278012
0.8,31.222195263948272,131.01043513940706,13.03628610573075,3.8540067430072775,11.91324419265868,31.65242936693712,-9.838914837593528,-0.8824004230761487,377.42502064505805,27.12893756940617,11.45736174404808,67.96478227357537,5.6227193998969645,126.03738294100896,450.2270079074637,1.274,1.0239625010683884,0,6.81390807013682,30.000012855656493,0.0797339025907596,3.4797790252015944e-06,-0.1583097725081035,0.3424709376701874,0.0133262647090708,12.51255449572421,30.137909344005752,28.986810871539426,33.15809343911387
0.81,31.222194763601145,131.0104362012252,13.275315935925688,3.784746791555696,11.604387808090012,20.41094513558257,-10.301740193217125,-1.04285824777468,273.9374926939922,27.446861653273952,11.607327845068232,67.85454442684025,6.080886785312583,126.53184558921193,460.83068435899327,1.274,1.0239149950770308,0,6.834493474622748,30.000012855656493,0.0806685219299587,3.7254390017105673e-06,-0.1628843770861539,0.3570510389250277,0.0138717125367338,12.197937028935575,29.64805534616149,29.25723809610467,22.88711614994905
0.82,31.22219425817336,131.01043727305645,13.516204558640233,3.737556641681037,11.363193438382648,26.29666216408124,-10.699493753379018,-1.1753288225173872,328.725004432774,27.5990337713738,11.694276922211635,67.73927472985108,6.553905947157412,127.04274543855487,465.9439870187958,1.274,1.0238644186635044,0,6.855199111993957,30.000012855656493,0.0811159884118029,3.98052349972499e-06,-0.1674912585386883,0.3715956970519374,0.0143427996851205,11.9544054593569,29.3257877457704,29.372281970353,28.414345063567072
0.83,31.222193751669213,131.01043834842906,13.757072842799312,3.6677890058375775,11.05710579206518,33.495217697539765,-11.15718360499067,-1.3352771628385027,395.6875032246518,27.89326546127391,11.835910341121192,67.61878373843075,7.041182770772685,127.56948801477196,475.9207387914926,1.274,1.0238188483711983,0,6.875760870364122,30.000012855656493,0.0819809840222921,4.2450863643726686e-06,-0.1720972137697044,0.3860000715594895,0.0148939901640659,11.642370889948328,28.856820782282,29.61935091504484,35.32980780732683
0.84,31.22219323424361,131.0104394428456,14.002434846290956,3.585668328511264,10.716858028899956,20.41538856637036,-11.652962562370456,-1.5125776208758672,275.45937482564227,28.26535474250164,12.007928936799388,67.4929070559747,7.541967898836054,128.11131230672277,488.6912438288375,1.274,1.0237739661568126,0,6.896023090499244,30.000012855656493,0.0830748201011646,4.518980313049612e-06,-0.1767217597376218,0.4003224867427436,0.0154978730138369,11.29414612302004,28.312102436184063,29.93895621935618,23.55562603402991
0.85,31.2221927078558,131.0104405526714,14.2512416748085,3.5320076561625244,10.461347782421118,22.25113671901036,-12.049004770408937,-1.6478508976130553,292.9609323393965,28.41086348186253,12.093072528359924,67.36146537962554,8.055576661836097,128.66752827042987,493.7239175890672,1.274,1.0237227741398531,0,6.916366798214522,30.000012855656493,0.0835027198383575,4.80211727859394e-06,-0.181372549973516,0.4145830848854359,0.0159872308268949,11.035211967872058,27.9824787935518,30.045013029827885,25.357582964986875
0.86,31.222192182583985,131.0104416623848,14.498972295869764,3.4639570982038728,10.165849343634948,27.956091904592444,-12.484678475684872,-1.8017089192979543,346.2265619465616,28.64844361579435,12.214040909716903,67.22427369717371,8.581337106523318,129.2374607509163,502.0038335986636,1.274,1.023674789281455,0,6.936689011705472,30.000012855656493,0.0842012298890104,5.094575497662545e-06,-0.1860063373920052,0.4286489882384759,0.0165323920399641,10.733931454916757,27.562074958240625,30.23692640396821,30.670122697001492
0.87,31.22219164745828,131.01044278847422,14.750440427449524,3.3844198903438847,9.838739500979862,25.902920484334924,-12.956253470677137,-1.9722739919335337,327.9640783669946,28.96204307308724,12.364940055096165,67.08118410141353,9.11839587086708,129.8202387998574,513.0419407184513,1.274,1.0236288969245204,0,6.9566164749945445,30.000012855656493,0.0851231780159664,5.396184018222121e-06,-0.1906332475463845,0.4425492657284151,0.0171286949312491,10.399147074542942,27.069955820255803,30.499924605894392,29.02956524499581
0.88,31.222191103714525,131.0104439285518,15.004959917289929,3.3101736073496006,9.52869636572236,22.1947178661973,-13.39996520306202,-2.1324185295160376,294.4828134710421,29.21848566160758,12.494100760061704,66.93204396114729,9.665932422009991,130.41502740097516,522.1547958072329,1.274,1.0235805388426191,0,6.976559939572881,30.000012855656493,0.0858771424497685,5.7067920953018e-06,-0.1952599300852761,0.4563005217301612,0.0176993228243723,10.082265413331152,26.62810101350004,30.708359723224685,26.01368442547872
0.89,31.2221905550466,131.01044507703455,15.26090428565954,3.239093333850702,9.229151206511892,24.34012427451608,-13.81916066421862,-2.283888186590093,315.02813424808807,29.43141261877417,12.6066897403859,66.77669904756434,10.223143141969842,131.02101021184197,529.7798110404062,1.274,1.0235293752791452,0,6.996462295270958,30.000012855656493,0.0865032138205926,6.02633535840117e-06,-0.1998711201828159,0.4698556735411104,0.0182488834126691,9.776402198590318,26.221358059387548,30.87486327855021,28.082503385759964
0.9,31.22219000084088,131.0104462346839,15.518500784851591,3.160160490565214,8.909078186510385,26.891795075390736,-14.260742600980524,-2.4465751829182474,339.3781423542166,29.69544588286476,12.739712180037072,66.61501286032183,10.78916438763885,131.63730571146448,539.3145619178558,1.274,1.0234837388140003,0,7.016197307410767,30.000012855656493,0.0872794997578682,6.354712084933258e-06,-0.2044540477854371,0.4831756413291122,0.0188343207687065,9.44868545040076,25.768177791110887,31.08924817106903,30.5372420502229
0.91,31.222189437883056,131.01044740565436,15.778976454304225,3.0763706809352955,8.577227666718574,20.10824715631972,-14.714186114229625,-2.6160305010198224,277.7421810230785,29.987901235042592,12.884434955834596,66.44686609890968,11.363087968654998,132.2629835213343,549.9759835163462,1.274,1.023436404813438,0,7.035785303849741,30.000012855656493,0.0881393302189248,6.691731319389281e-06,-0.2090104905143368,0.4962632913907183,0.0194431976543576,9.108351883209966,25.290087264004608,31.330182369292935,25.053791974192134
0.92,31.2221888666786,131.0104485888634,16.042023852922327,3.002765672114079,8.274721955449303,24.05596662084833,-15.102861708745376,-2.7604075967389736,315.0281342480675,30.16863194199724,12.9855884625097,66.27214508142065,11.94401616170122,132.897123959197,556.6110750190916,1.274,1.0233859136578225,0,7.055320312288954,30.000012855656493,0.0886707903973704,7.037213373287759e-06,-0.213538267713426,0.5091098086681437,0.0199836076982294,8.799138510253439,24.90016228025525,31.46390854833181,28.53779620007457
0.93,31.22218829263012,131.01044977698507,16.305492259564527,2.917556095622848,7.942223791437748,28.74081086355056,-15.53584105967462,-2.925345993504437,359.16250706547066,30.44265889344394,13.124110582977805,66.09074582304555,12.531050090764632,133.53880513766066,566.7542480763738,1.274,1.0233407575091376,0,7.074778638494287,30.000012855656493,0.0894764686552931,7.3910759545866415e-06,-0.2180142048593324,0.521647831404933,0.0205872788634842,8.457922494688193,24.43357995921332,31.68622902297086,32.80174104689521
0.94,31.22218770737044,131.01045098066774,16.57252869337922,2.8257572360258028,7.59366359979901,20.365720631961004,-15.992470495237864,-3.1022039529389653,283.06875048378083,30.768063218017595,13.283710275689662,65.90259406627577,13.12322579253958,134.18703264537285,578.9203309012503,1.274,1.0232914783978162,0,7.0940037647377165,30.000012855656493,0.0904331631656859,7.753034438731311e-06,-0.2224454938364827,0.5338953983552509,0.0212297171706975,8.09949478754896,23.92702231895752,31.95738414698202,26.079596598984537
0.95,31.22218711234425,131.01045219753644,16.842446911344,2.7463893170704137,7.279668777358154,26.69749157842027,-16.359011712196402,-3.243946964474629,342.421873617488,30.947442068231847,13.385623336915604,65.70761891020159,13.71961866538669,134.84085326407077,585.6750757417435,1.274,1.0232418269359267,0,7.113227589026453,30.000012855656493,0.0909606685899907,8.122839264853368e-06,-0.226832343701886,0.5458498505483661,0.0217740350290739,7.777891449984927,23.528625472578813,32.087855738806475,31.478508743076198
0.96,31.222186515256485,131.01045341789532,17.112382572504853,2.6526292644881084,6.929641883366266,25.995978933848992,-16.79607355529769,-3.4172473119502604,337.09533515678265,31.263820109708192,13.542960052866428,65.50575947188709,14.319321085327692,135.49933031371427,597.6955913900085,1.274,1.0231951201821403,0,7.132398661806386,30.000012855656493,0.0918908462603407,8.500407990249734e-06,-0.2311471200890684,0.5574340728824986,0.0224144687296404,7.417683684501242,23.02824152024268,32.34967392766735,31.138024773500362
0.97,31.222185903696104,131.0104546565764,17.38674288361553,2.56113229629722,6.586958945371511,15.86251909218436,-17.201496963045038,-3.579892670691512,245.0218871929888,31.539933368699288,13.68484398872053,65.29699165694485,14.92136409811046,136.16145722623716,608.2835413487327,1.274,1.0231476260761452,0,7.151315712729648,30.0000128556565,0.0927026873253686,8.885354253382678e-06,-0.2354014196947182,0.568676769086735,0.0230280055443682,7.065302504253494,22.556369385052527,32.572332788071,23.6712196824167
0.98,31.22218528567291,131.0104559035481,17.66256295691067,2.480340076227811,6.27294750894662,23.839649981490712,-17.50827704037256,-3.7043416425490734,319.593746642963,31.670304646178728,13.768317967232724,65.08129243238493,15.524839440197068,136.82629105143005,613.3064049714704,1.274,1.0230935628253934,0,7.170290148498132,30.000012855656493,0.0930861664122225,9.277466491126268e-06,-0.2395820896692464,0.5795397485737281,0.0235332311835301,6.743689912111842,22.18307693293537,32.65368960300119,29.80924056676302
0.99,31.22218466569737,131.01045715361383,17.93829627443779,2.3839617140536777,5.921099361948271,26.10163494331304,-17.906204893527967,-3.869086011651437,341.66094855170127,31.97129404092391,13.92160991370531,64.85866349491965,16.12882873845937,137.49287435003615,625.0027766177337,1.274,1.0230490803133316,0,7.189114886766926,30.000012855656493,0.0939711344734002,9.676615209994817e-06,-0.2436635253888658,0.5899550371112922,0.0241609612519229,6.381413828862145,21.69224937671529,32.89972353288294,31.88882793343998
1.0,31.22218402988931,131.0104584221789,18.21855303839145,2.2868361692993213,5.568991255330055,22.982007425208742,-18.290542977372127,-4.030957029515485,314.2672081822764,32.26803084095087,14.074030350401896,64.62914407283651,16.73237871254163,138.1602071477429,636.6412203712708,1.274,1.022999484445133,0,7.207688843048669,30.000012855656493,0.0948436134704259,1.0082303492321942e-05,-0.247659949554899,0.5999562020768506,0.0247844921582491,6.0188705369326,21.20482235004749,33.141429214758695,29.647347980439108
1.01,31.22218338599245,131.01045970006825,18.50060824885818,2.192633264274425,5.225906468411593,23.99728707650537,-18.627106045434203,-4.1759105594304575,324.92031610370094,32.50873221088743,14.204221167441842,64.39277344504922,17.334610911959423,138.82736766409673,646.1571121057657,1.274,1.0229507481225095,0,7.226325509840901,30.000012855656493,0.0955513976073801,1.0494226698531408e-05,-0.2515629045607156,0.6095180964334292,0.0253621840450096,5.666074350916212,20.753280303316068,33.328477979750346,30.663938032490638
1.02,31.222182734790177,131.010460986317,18.784178353362147,2.094866974080644,4.875944050291727,19.46063609287564,-18.9699193006528,-4.326365900395637,284.59063161543185,32.781789303721126,14.348482022201052,64.14961272843904,17.93466200233892,139.4934461925928,657.0395979659629,1.274,1.0229039803623294,0,7.244841198229015,30.000012855656493,0.0963542898646325,1.091212113884214e-05,-0.2553578902563377,0.6186024748848165,0.0259603249589737,5.305911596090985,20.281319619055797,33.54677665459515,27.518932343329016
1.03,31.222182072216512,131.0104622849395,19.070481368597395,2.0006522999979954,4.535661108651548,15.252455203640714,-19.25171192251388,-4.454582768907264,247.3046933904342,32.98377012131895,14.46402863395131,63.899750985406406,18.531674905804863,140.1575348067005,665.1427822106949,1.274,1.022853416101322,0,7.26321970520801,30.000012855656493,0.0969482777388566,1.1335594163129973e-05,-0.2590406532643289,0.6271956981203975,0.0264962533524633,4.956457015855415,19.85152859521843,33.69548621161628,24.962153539540118
1.04,31.22218140396968,131.0104635897721,19.357670826893568,1.9075403256010008,4.199110385242564,25.786849117835512,-19.49093626633396,-4.568190570829342,345.4656368807608,33.14718131325661,14.564083356000216,63.64329570617792,19.1248262243867,140.8187574001653,671.731201169242,1.274,1.0228049544826707,0,7.281541810006463,30.000012855656493,0.0974289034326825,1.1764364694269444e-05,-0.2625960561129648,0.6352591451441671,0.0269922489047411,4.611368624373074,19.442761702899176,33.80618572224244,32.64546751167336
1.05,31.22218072895493,131.01046490180997,19.646053250657303,1.8025242546529257,3.837915132923648,14.195080761928494,-19.83057212725528,-4.726611485981481,240.4562587980608,33.490747855261205,14.740398700387296,63.38038351401977,19.71330528658596,141.47624601818944,685.7091988534893,1.274,1.022755494436122,0,7.299690763516115,30.000012855656493,0.0984390626071848,1.2198089497244018e-05,-0.266013365665001,0.642766013632903,0.0276261611947279,4.23955481613597,18.931883286844645,34.09315542919798,24.84135191311774
1.06,31.222180035691327,131.01046623185843,19.938921713545383,1.7094121572846532,3.50371037906594,21.417724250718045,-20.00415549802191,-4.819282186930428,308.1796836557233,33.61022520218592,14.823212323526114,63.11117594437217,20.296328764301848,142.12915673661794,690.5909984438824,1.274,1.0227013895379469,0,7.31769004764055,30.000012855656493,0.0987905678008632,1.2636113904782506e-05,-0.2693025982477835,0.6497337149277206,0.0280667410492745,3.898003701196752,18.54513345850933,34.16024379474187,29.700347305479458
1.07,31.22217934509505,131.0104675595585,20.230101859950857,1.606183181789396,3.150320272375407,25.65305488017116,-20.269184983319395,-4.953252008918007,348.5093681440431,33.897328037615175,14.977659291218492,62.83583937204383,20.873180878283986,142.7767145054986,702.4199776909094,1.274,1.0226540159946436,0,7.335745930292765,30.000012855656493,0.0996347768112072,1.307833221366494e-05,-0.2724357540999663,0.6560993948672287,0.0286350170056691,3.5357802269119705,18.068429186250285,34.391929889075655,33.06741281136074
1.08,31.222178635322543,131.010468905341,20.525822745349533,1.5010008826999934,2.7949656280630006,15.957583817626796,-20.534280036676304,-5.0907840352352975,261.0015785751465,34.21353910504677,15.145666366957157,62.55458126938871,21.44314408151358,143.41813532494055,715.5658212566835,1.274,1.0226061614050743,0,7.353478992400624,30.000012855656493,0.1005645549399366,1.3524058057929498e-05,-0.275420463949784,0.6618748750790064,0.029217950352987,3.1722309261496218,17.579170114235335,34.65239717831988,26.49938150249236
1.09,31.2221779141408,131.0104702613986,20.82372653676505,1.4028201382382408,2.454967331722045,14.225930869826128,-20.66742974013845,-5.176562043961384,246.54375332456465,34.36523173624366,15.24404558603126,62.26761592056698,22.005565056913657,144.05270006467046,721.9044424895651,1.274,1.0225512795791307,0,7.371273206709662,30.000012855656493,0.1010107677464723,1.397279437469092e-05,-0.2782508264533434,0.6670419277650141,0.0296482356559873,2.827289242469498,17.174120444586464,34.75073911962117,25.618675917611604
1.1,31.222177190785857,131.01047161944348,21.121276808305588,1.3026377617489855,2.11274567281016,32.24068195813141,-20.79416769824864,-5.262999864978841,413.1890617384087,34.54109356333281,15.353451080436468,61.97517732471054,22.559828107650706,144.67972460767626,729.2911025360398,1.274,1.0224981043155532,0,7.388984695469731,30.000012855656493,0.1015280246382888,1.4424321767936022e-05,-0.2809070357423067,0.6715604898407426,0.0300835720715725,2.4818924701689205,16.757204140386364,34.8728876745054,38.72412879545562
1.11,31.222176456014807,131.01047298749097,21.420940968925688,1.1908604544081656,1.7535412856693893,22.371544271414727,-21.08903268647996,-5.424067338831474,324.1593910379213,34.997225002168896,15.585735239221128,61.67753116780889,23.105339824537523,145.29854235319053,748.6579973159622,1.274,1.0224548851875197,0,7.406466413211387,30.000012855656493,0.1028690979594122,1.4878113310223592e-05,-0.2833847535428912,0.675419213985127,0.0307488085804309,2.1195784587534154,16.211903103353396,35.27262762493758,31.21944585087102
1.12,31.22217569449261,131.0104743779002,21.72655834200674,1.0878636256202467,1.4110057401224545,5.7013800791979925,-21.199568689132136,-5.5112705771585775,172.7328179403806,35.217193640159444,15.716345189442915,61.37496014606364,23.64155214630428,145.90853017560212,758.0764249750849,1.274,1.0223979224661404,0,7.4238677409853935,30.000012855656493,0.1035160197980222,1.5333210864046104e-05,-0.2856938120346763,0.6786231533469599,0.0311932792397588,1.781613091496075,15.779176832059242,35.438811501024055,22.634079411086308
1.13,31.222174933861936,131.01047576722868,22.030900878531167,0.9907699862811306,1.078257306645486,26.8103267536934,-21.148963959195164,-5.533478512251576,367.5328077894322,35.23825093469659,15.759960443784273,61.067752105407685,24.16797082980553,146.50911820160488,758.9610575853726,1.274,1.0223460397860296,0,7.441408844703994,30.000012855656493,0.1035782704933405,1.578948907441329e-05,-0.2878116681940109,0.6811328373914814,0.031442386292678,1.464290987430073,15.434335231891112,35.40761319905439,34.59323173154966
1.14,31.222174172758844,131.01047715701017,22.3344290275516,0.8809021623709171,0.7319838735928939,12.70723915754613,-21.347665393953285,-5.665679920551059,239.6953177322812,35.66065908345961,15.982066222967976,60.75622683731207,24.684125135767047,147.09975540428115,777.243098867576,1.274,1.0223022138470996,0,7.458676057870609,30.000012855656493,0.104820243512368,1.624676379995806e-05,-0.2897225922614912,0.6829278627966686,0.0320296228487019,1.1453151497768344,14.920851398307688,35.775635713756174,25.48130047194216
1.15,31.22217337744708,131.01047857352677,22.645339847235448,0.7799917030841738,0.3976981637115688,12.31966571115733,-21.30423911589033,-5.69831393456027,237.4125115347709,35.76762266892976,16.064998924067464,60.44072778598112,25.189583434762703,147.6799273475436,781.8893982221609,1.274,1.0222426194541194,0,7.475703737569738,30.000012855656493,0.1051350190466993,1.6703785179302665e-05,-0.2914391934728975,0.6840073340442696,0.0323150743157041,0.8755233381019843,14.541687213108766,35.83009244877338,25.260949096154345
1.16,31.22217259152857,131.01047998230152,22.95290702791925,0.6770219864750286,0.0642206829585392,39.76963428324908,-21.27963214777472,-5.742569086606539,490.043774385954,35.94082126726733,16.17820522901188,60.1216019140364,25.683957643408995,148.2491614195037,789.4567406738436,1.274,1.02219674531104,0,7.492949004194278,30.000012855656493,0.1056444840718112,1.7160564680020975e-05,-0.2929420904985742,0.6843518465553281,0.0326380400043709,0.6800609342829874,14.13854471468312,35.95090902644462,45.468930656905016
1.17,31.22217178912817,131.01048140335956,23.2633811170334,0.5656304354585235,-0.2683089972800138,2.898751570386961,-21.510490467627523,-5.90198158310469,153.70937929500428,36.52903008097788,16.480733719814808,59.79922033908405,26.1668979327794,148.80702105822172,815.4844313067739,1.274,1.022149394360584,0,7.509814954654577,30.000012855656493,0.1073738418110232,1.76164257637575e-05,-0.2942289511752013,0.6839539249285452,0.0333169233990225,0.6260392710100104,13.583926455287214,36.48688435627879,22.493051092104476
