Time,Latitude,Longitude,Altitude,Angle of Attack,Angle of Sideslip,X-Acceleration,Y-Acceleration,Z-Acceleration,Thrust,True Velocity,Ground Velocity,Pitch,Roll,Yaw,Dynamic Pressure,cp,cg,parachute_deploy_gain,Wind Speed,Wind Direction,Mach,omega_x,omega_y,omega_z,Cmq,Angle of Attack(total),Angle of Attack(gust),True Velocity(gust),Acceleration
0.0,31.222216000000007,131.010392,3.000000004412624,0.0,0.0,0.0,0.0,0.0,2.2828121974499247,0.0,0.0,69.99999999623412,0.0,119.9999999935444,0.0,1.274,1.0271675151847728,0.0,0.0,0.0,0.0,0.0,0.0,0.0,-0.0,0.0,90.0,0.0,0.0
0.01,31.22221599999084,131.01039200000497,3.000002745347096,0.0,0.0,0.0,0.0,0.0,34.242186961749226,3.465174813755316e-14,2.8705476994166025e-14,69.9999999962611,-2.1713911667908447e-11,119.99999999352175,7.352495975525499e-28,1.274,1.0271659134330349,0.0,0.0,0.0,1.0183245502395064e-16,-3.3305335486039093e-18,7.169286865560398e-18,5.624298769768554e-18,-7.715917190115602e-34,0.0,89.99999999999979,3.465174813755316e-14,0.0
0.02,31.222215999994315,131.0103920000094,3.0000030495639742,0.0,0.0,0.0,0.0,0.0,25.871876237766216,3.8197434737535036e-11,2.4171837235633357e-11,69.99999999628672,-1.1921727947863515e-11,119.99999999353136,8.93414285188691e-22,1.274,1.027164492361118,0.0,0.0,0.0,1.1225230367947217e-13,-6.657678965418802e-18,1.4338573731120796e-17,1.1241821275959074e-17,-1.7010872994127372e-30,0.0,89.99999999975682,3.8197434737535036e-11,0.0
0.03,31.222215999994315,131.0103920000094,3.0000030495639742,0.0,0.0,9.81877837424427,-2.5122800045972096e-05,3.3498614629347925,180.34219359854663,1.2659015405517447e-10,1.1364406173918436e-10,69.99999999631459,-1.6431898037347223e-11,119.99999999352724,9.812605835254651e-21,1.274,1.0271551940870716,0.0,0.0,0.0,3.720154642239108e-13,-9.991600645811728e-18,2.150108433310316e-17,1.6859343782149594e-17,-8.453698244545225e-30,0.0,89.99999999919412,1.2659015405517447e-10,10.374487003414373
0.04,31.222215999994315,131.0103920000094,3.0000030495639742,18.83801224594347,-0.0001111777826462,48.68248476615645,-1.016330065874988e-05,3.3497854396877287,548.635972453808,0.1556173050466994,0.0975908358443652,69.99999999633813,-2.0932768807056278e-11,119.99999999352085,0.0148286043323172,1.274,1.027133720825283,0.0,0.0,0.0,0.0004573186944143,-1.3322134194415637e-17,-1.04744143520903e-11,1.336824254131964e-11,5.0626055458604615e-15,18.83801224625964,89.06236267790787,0.1555998412814392,48.79759610369246
0.05,31.22221599164764,131.01039201704114,3.002326315126219,5.772385609593056,-4.395076213712875e-06,71.20344550265034,4.905512691849684e-05,3.349217396035405,761.6984298824663,0.8326471944351852,0.3620326097059287,70.00000001316391,-1.0866255162484559e-10,120.00000000231074,0.4245281043148827,1.274,1.027093426565204,0.0,0.0,0.0,0.0024469331205246,-5.0245994431125096e-18,-7.32924164976824e-07,2.217344936947165e-11,1.895424184525467e-09,5.772385609594774,84.74112356985832,0.8326465040582279,71.28217104309611
0.06,31.22221596664444,131.01039206837547,3.015081730143309,4.056581213689704,3.169093567502233e-05,53.16249142470188,0.0001203825427859,3.3481235983850643,590.4875390737236,1.657216205300742,0.6755452977614796,69.99999964391398,-3.9285905645317736e-10,120.0000000287861,1.6816755551786196,1.274,1.027050317124926,0.0,0.0,0.0,0.0048701272653724,3.095757869075056e-13,-7.483541766772344e-06,3.074135420506017e-11,3.8518749565858254e-08,4.056581213813337,79.59316473687034,1.657221183301277,53.26781792157489
0.07,31.22221592883117,131.0103921460222,3.034593611434361,4.115662018628709,6.450869598349036e-05,81.18203554989698,0.0001593212642178,3.347059402768047,855.2937749779172,2.099899704220947,0.8579771146174259,69.99999543281565,-8.233801910783518e-10,120.00000006883089,2.700101932075157,1.274,1.027003201295312,0.0,0.0,0.0,0.006171060252819,3.4704292086287e-12,-2.6327204536316785e-05,1.9541142932033486e-10,1.7170712165327165e-07,4.115662019133419,76.90111966094352,2.099909837223217,81.2510043180746
0.08,31.22221588914193,131.01039222747755,3.0542761843835606,3.459696193892355,8.037433511260004e-05,16.298214211652088,0.0002413456836072,3.344878926597744,241.2171988638792,3.051964775152957,1.2149999716613011,69.99998042886442,-1.0128995578004475e-09,120.00000011111383,5.703497661025892,1.274,1.0269597189470347,0.0,0.0,0.0,0.0089689344021769,1.458982438104473e-11,-5.702803872814215e-05,7.043261397829576e-10,5.405702492731987e-07,3.459696194824858,71.30331929508368,3.051977400323993,16.63790856991177
0.09,31.2222158241468,131.01039236098703,3.0886872184095737,4.313676956300389,0.0001337561018991,50.35975918308536,0.0002293282821279,3.344215841840564,563.0937377043203,2.893161298572128,1.191209213966114,69.99994788602814,-7.098432023887522e-10,120.00000018106356,5.125380275808925,1.274,1.026918932011013,0.0,0.0,0.0,0.0085022553945842,3.8672912027154325e-11,-0.0001115933708951,2.016054215232918e-09,1.0027525988343615e-06,4.313676958370176,72.2316578138625,2.893182308931483,50.47067588835877
0.1,31.2222157788302,131.01039245392113,3.109877853389092,4.035124630954496,0.0001457499816535,47.804664812504015,0.0002878217657545,3.341734392237128,538.7437595981891,3.5677148583138303,1.4531247507621967,69.99988403958329,1.9248461973355822e-09,120.0000002323013,7.7939962029572305,1.274,1.0268846934974103,0.0,0.0,0.0,0.0104845969583028,8.579678749070606e-11,-0.0001726817043215,3.984565639703107e-09,1.913455350430327e-06,4.0351246335824245,68.43243098813296,3.567737752667411,47.92132267234452
0.11,31.222215703308,131.01039260899836,3.148841432727305,4.043401107254707,0.0001752764476999,37.67622367577205,0.0003286462930162,3.3392563999062723,442.86563930529127,4.034183355956686,1.6436552022667772,69.99978525353545,7.302513231814865e-09,120.00000031883242,9.96528118825134,1.274,1.026848594915519,0.0,0.0,0.0,0.0118554331868328,1.5870341853361987e-10,-0.0002596204409236,7.232030302688121e-09,3.252930323390323e-06,4.04340111104746,65.92012987243639,4.034210888316708,37.82391391539392
0.12,31.222215627491828,131.01039276462643,3.186995101203875,4.17874459224363,0.0002066711490009,41.15991989399172,0.0003576945202315,3.336766085769504,475.58594813540793,4.361857560629481,1.7865750500940407,69.99963665601238,1.781774420198147e-08,120.00000041104812,11.649831899889556,1.274,1.0268114448194128,0.0,0.0,0.0,0.0128183893919737,2.682972478760441e-10,-0.0003710216542429,1.2215991071490164e-08,5.026311388647148e-06,4.178744597345269,64.21681651392016,4.361890024457652,41.29495143136631
0.13,31.22221554594398,131.01039293200228,3.2277173449026786,4.202734874672792,0.0002327160860324,45.44886120763352,0.0003953741266062,3.333578629398489,515.9156326236897,4.792165672014363,1.9646716520715424,69.99942424225341,3.613383418913551e-08,120.00000051758742,14.061726603124043,1.274,1.026779572895131,0.0,0.0,0.0,0.0140829618979635,4.248908088871395e-10,-0.0005056103199642,1.908859219307828e-08,7.5253154423526356e-06,4.202734881104192,62.048594618540655,4.792202226971676,45.570952718869485
0.14,31.222215454191247,131.01039312033683,3.2737880595608355,4.184830647080848,0.000257138757548,42.32232525579263,0.0004369426767266,3.329727443445437,486.2390860568421,5.269261304374574,2.158791628597544,69.99913473613935,6.515851355725497e-08,120.00000064630268,17.000925061330125,1.274,1.0267449573927567,0.0,0.0,0.0,0.0154850332441425,6.382432869666793e-10,-0.0006690086306358,2.8426433029675884e-08,1.0948547100483978e-05,4.184830654966803,59.74181173116622,5.269301695636157,42.45310707234106
0.15,31.222215353826755,131.0103933263496,3.3242182719560263,4.21963947489699,0.0002846467688673,40.886944113003565,0.0004726792395108,3.325585650885676,472.5421858721398,5.6781946837482895,2.329510773545807,69.99875162806286,1.0876776246115984e-07,120.00000079954532,19.742017654108928,1.274,1.0267115958081523,0.0,0.0,0.0,0.0166867950518804,9.204756288136623e-10,-0.000865746478554,4.08948221429571e-08,1.526771148078443e-05,4.219639484480408,57.84996018384879,5.678239395958187,41.02196629910223
0.16,31.222215247130432,131.01039354534575,3.3775922280208457,4.253495568077899,0.0003118339050386,32.26872905470846,0.0005078415214353,3.32090791922544,391.1218908297597,6.081244877834229,2.4981889727471702,69.99825581174558,1.7187028096464329e-07,120.0000009800088,22.644030778355887,1.274,1.026675762255412,0.0,0.0,0.0,0.0178712695992133,1.2856146928958252e-09,-0.0010961187242953,5.6923362293832417e-08,2.0702404729358337e-05,4.253495579487569,56.06022383757386,6.081293860589489,32.43916312841722
0.17,31.22221513260033,131.01039378041813,3.4348437275053194,4.364838523348639,0.0003448792023946,40.840448242802736,0.0005326487904353,3.3162727284953744,471.78125980632416,6.362544479165355,2.6250789114832647,69.99762801982864,2.5997588617291615e-07,120.00000119506798,24.78723182122683,1.274,1.0266409836796937,0.0,0.0,0.0,0.0186979513961862,1.747791994374917e-09,-0.0013624931601664,7.706724512977917e-08,2.6923621797558364e-05,4.364838536947241,54.85936171416122,6.362598652663785,40.97486885600156
0.18,31.222215014088988,131.01039402363364,3.4935801365785646,4.353948305387995,0.0003681615230806,33.992183768165326,0.0005718025428208,3.310131992647221,407.1015672119096,6.81502088160835,2.810667639293692,69.99684761766231,3.794979223522764e-07,120.00000144728236,28.437950785509614,1.274,1.0266048342046536,0.0,0.0,0.0,0.020027681385988,2.3221419748804155e-09,-0.0016616990447559,1.0147209890543081e-07,3.517105786247627e-05,4.353948320923495,52.99157233768714,6.815078712285162,34.152972512863755
0.19,31.22221488419521,131.01039429023237,3.558399965607869,4.432620772533925,0.0003996774584738,38.45149959021069,0.0005986099513107,3.304145139297767,448.95313283182486,7.1223367465208405,2.946425726785696,69.99589577323147,5.440084577183829e-07,120.00000176148238,31.060341085698347,1.274,1.026566130444714,0.0,0.0,0.0,0.0209308229359413,3.022391489754689e-09,-0.0020041563310821,1.3135864879722746e-07,4.433199397898183e-05,4.432620790516937,51.77883352025967,7.122399527709208,38.59320142454953
0.2,31.222214751373183,131.01039456280608,3.624052454705669,4.443889400961181,0.0004246617145652,35.23432408779927,0.0006337972852267,3.2968110145188256,418.5156301991588,7.530482904611057,3.1167566004785483,69.99474776398331,7.478025600151903e-07,120.00000211715036,34.72195181863731,1.274,1.026529240027363,0.0,0.0,0.0,0.0221302820454282,3.866698391504749e-09,-0.0023849544920781,1.668144671071589e-07,5.57780533277244e-05,4.443889421210987,50.22448880200342,7.530549610317194,35.38822625098952
0.21,31.222214608673173,131.01039485566503,3.6948551453492566,4.493351735844891,0.0004538195602194,33.79371564104691,0.0006629296043866,3.2891790438445727,404.8187610144608,7.868284042829251,3.2629204975089228,69.99338155599101,1.0150082652278477e-06,120.00000255293388,37.906665490338085,1.274,1.0264923657015164,0.0,0.0,0.0,0.0231230169900677,4.871073773182836e-09,-0.0028117605859743,2.089322918608601e-07,6.870935089180403e-05,4.493351758715364,48.992529909481824,7.868355328639073,33.95340801819282
0.22,31.22221446109996,131.01039515850383,3.767700382407304,4.5412639153933885,0.000482649303782,41.008966751568416,0.0006914639179131,3.2808061382386606,472.5421858721387,8.20057841132235,3.4071691679735228,69.9917708347139,1.3454961520984431e-06,120.00000305929996,41.175744234065135,1.274,1.0264494137127138,0.0,0.0,0.0,0.0240995709751246,6.054779813287368e-09,-0.0032829112061357,2.580881224843564e-07,8.3609968899004e-05,4.54126394098788,47.82515604752711,8.2006542256977,41.13999323561041
0.23,31.22221430675399,131.0103954752338,3.843768625625224,4.52371495179584,0.0005047555656171,33.98493478127787,0.0007294889663961,3.2705214710765107,406.340642146096,8.647938096586296,3.5908865300848416,69.98989017772566,1.7539876018835507e-06,120.00000365514876,45.79040229326471,1.274,1.0264133390858623,0.0,0.0,0.0,0.0254142776666487,7.436335125872812e-09,-0.0038001790077148,3.1489825108822685e-07,0.0001020628978177,4.523714979897577,46.31461705147579,8.648017383405135,34.14194053232237
0.24,31.222214142622448,131.0103958120587,3.92493179063287,4.57837522350066,0.0005351929930195,35.051650311058864,0.0007555049947555,3.26053011385611,416.2328240017099,8.954297884844461,3.72617527247482,69.98771316795013,2.25257161141768e-06,120.0000043564586,49.09180568115741,1.274,1.0263750048312463,0.0,0.0,0.0,0.0263146218848643,9.034877387788232e-09,-0.0043732521010013,3.809642748985157e-07,0.00012161410144,4.578375254714954,45.32798984252032,8.954381952763216,35.20297212911011
0.25,31.22221397517227,131.0103961556623,4.0071748888306855,4.6034117733065,0.0005618935542827,36.03738579534623,0.000785606492708,3.249069743648399,425.3640807915084,9.311611941121669,3.8789349536029696,69.98520781816889,2.8559738498748624e-06,120.00000517181904,53.08749562138344,1.274,1.0263373768840591,0.0,0.0,0.0,0.0273647110956883,1.0873791100894836e-08,-0.0049950711786164,4.5609738277273444e-07,0.0001444478241125,4.603411807525074,44.2165428352526,9.311700203154778,36.183554686886296
0.26,31.22221379934012,131.01039651647062,4.09364247475714,4.621386912291471,0.0005881033207375,39.29107511182762,0.0008162761165496,3.236407051295005,455.80158342417656,9.67833954512075,4.034902068846398,69.98234620927953,3.5784678110229355e-06,120.00000612171208,57.350948423913096,1.274,1.0263006300381676,0.0,0.0,0.0,0.0284424679130479,1.2973286442992724e-08,-0.0056712051373577,5.414206381221602e-07,0.0001704578711045,4.621386949630312,43.12063533194282,9.678431924174348,39.42414126789902
0.27,31.222213616776543,131.01039689108487,4.183310605341074,4.617158109135719,0.0006115457810536,35.90419462403674,0.0008503454714941,3.221982799915672,423.8421996598744,10.088790784535757,4.205862468567124,69.97909721779352,4.436165972465058e-06,120.000007221354,62.31798301949865,1.274,1.026260090595354,0.0,0.0,0.0,0.0296487219805601,1.5355910600537293e-08,-0.0064045199323113,6.379142666348734e-07,0.0002006609239367,4.617158149547818,41.94410287616451,10.08888684592241,36.048472443180565
0.28,31.22221342607797,131.0103972823952,4.277051150896916,4.642105655370123,0.0006389739579882,41.51133203546672,0.0008785747638736,3.2071101123224945,476.3468732012228,10.432377224420517,4.35383399240675,69.97542808435722,5.446665372087172e-06,120.00000849080963,66.63429581008447,1.274,1.0262212716723291,0.0,0.0,0.0,0.0306584788590473,1.8045308789081613e-08,-0.0072006835403936,7.469524967369969e-07,0.0002332868227611,4.642105699250441,41.0023231023774,10.432477594215127,41.63503624837164
0.29,31.22221323001776,131.01039768469093,4.373143569786686,4.62134615173668,0.0006600657405645,33.17552944492765,0.0009148746278066,3.1894209319791806,397.9703104221098,10.876662296046485,4.536381530986506,69.9713027936179,6.629751536885327e-06,120.00000994797426,72.43000748232016,1.274,1.026183007522519,0.0,0.0,0.0,0.0319641703260467,2.1067646517035105e-08,-0.0080566154554079,8.688043379161898e-07,0.000272130659453,4.621346198772975,39.83162628795024,10.876765978930557,33.32848872465723
0.3,31.22221302403368,131.01039810736614,4.4744193758467325,4.664362353358112,0.0006905183788532,31.08096762732793,0.0009381960428197,3.172549142946348,378.1859457108735,11.168362145070317,4.66647911311536,69.96668711012893,8.005507138509574e-06,120.00001161892672,76.36634300732833,1.274,1.0261430389738484,0.0,0.0,0.0,0.0328214509167604,2.4447409007156216e-08,-0.0089829108229115,1.0056222251461646e-06,0.0003115527202986,4.664362404357781,39.09908960432563,11.168470611443622,31.242464973103964
0.31,31.22221281503337,131.01039853619727,4.576593712520673,4.700143580504286,0.0007196683316923,32.79732593144512,0.0009620705970519,3.154230688182399,394.1656220930229,11.470279728974068,4.800072153432283,69.96154070456518,9.597499105113692e-06,120.00001352112182,80.55022837857167,1.274,1.0261054058068628,0.0,0.0,0.0,0.0337087616009043,2.8214060606649844e-08,-0.0099686353219717,1.1565909895184251e-06,0.0003550834484269,4.700143635477137,38.36463422765983,11.47039277421126,32.94865339301887
0.32,31.222212598991007,131.01039897947376,4.68216432480395,4.718667719113184,0.0007464384342556,35.7316568886908,0.0009885845337584,3.133859770838664,421.5593934624264,11.808280530415894,4.946054328851105,69.95582953472353,1.14278227255889e-05,120.00001568218067,85.36654007972253,1.274,1.026068246703101,0.0,0.0,0.0,0.0347021168382987,3.2392058795580455e-08,-0.0110163301561155,1.3226102501723267e-06,0.0004039614423012,4.718667778018562,37.5686120062341,11.808397780690962,35.8688218659563
0.33,31.222212376029034,131.0103994369436,4.791055524254013,4.72141404831576,0.0007708346814671,35.42013590291081,0.0010176135371143,3.1111955852784385,418.5156301991632,12.181577273013426,5.104163223586657,69.94951809396906,1.351997394754887e-05,120.00001812674968,90.84831229869296,1.274,1.0260310883392356,0.0,0.0,0.0,0.0357992034445943,3.700677535501642e-08,-0.0121310534481307,1.5051409581878843e-06,0.0004588955105349,4.721414111097893,36.7208578211118,12.181698355442045,35.55651229220977
0.34,31.222212145785647,131.0103999093516,4.903491659547144,4.73024573449122,0.0007962944975467,27.63851074646407,0.0010446307681611,3.0871492806781062,345.4656368807584,12.53557620048282,5.2556261014174765,69.94256797855994,1.5899658158227497e-05,120.000020882338,96.20413272674828,1.274,1.0259901535019136,0.0,0.0,0.0,0.0368395817555172,4.208561016221623e-08,-0.0133180771902383,1.7057647550599631e-06,0.0005184333231541,4.730245801363397,35.94841996438923,12.535701282129995,27.810389570354005
0.35,31.222211909310875,131.01040039453565,5.018822212845608,4.780248518778662,0.0008286678570753,30.332092807652543,0.0010618579815451,3.063967690608957,370.5765700527057,12.774786382148209,5.367579971644358,69.93493776125636,1.8594985713558667e-05,120.00002397748868,99.9096898192772,1.274,1.025950003202184,0.0,0.0,0.0,0.0375426220587071,4.7658312175989686e-08,-0.0145774693288123,1.9252724355785177e-06,0.0005782798420984,4.780248590437683,35.44790728185619,12.774916548990808,30.486451961956565
0.36,31.22221166933814,131.0104008868675,5.135354490370708,4.798132156899578,0.0008554457330409,34.32674769697476,0.0010851169437774,3.0374319611165923,407.8625232777224,13.09301701329486,5.506730645516068,69.92658597246795,2.163521613217148e-05,120.0000274401514,104.94818266210537,1.274,1.0259105142325406,0.0,0.0,0.0,0.0384778908056978,5.3755109608570216e-08,-0.0158991451700967,2.162609490834569e-06,0.0006464142451675,4.798132232978766,34.796094028187134,13.09315138639638,34.46087058603792
0.37,31.222211421355144,131.01040139563804,5.255882891363927,4.797392186816851,0.0008791822061288,32.551601855236584,0.00111162791192,3.0078619428913056,391.1218908297639,13.457513730739372,5.661815946371007,69.91747693543164,2.5047738471809164e-05,120.0000313040604,110.87154396328836,1.274,1.025872170958032,0.0,0.0,0.0,0.0395491312153729,6.040098808671168e-08,-0.0172926678053148,2.420031948898497e-06,0.0007226353721561,4.797392267189059,34.07332166419882,13.457651832357364,32.69027405888565
0.38,31.22221116634284,131.01040191882743,5.379799334000849,4.811698494594017,0.0009057112478668,34.02947987649063,0.0011338447913587,2.9774881690446744,404.81876101445977,13.77554886562956,5.800899861213392,69.90756948297444,2.886339581486796e-05,120.00003560072224,116.17243393848278,1.274,1.02583050512925,0.0,0.0,0.0,0.0404838339452728,6.762496638941508e-08,-0.0187646375218858,2.69955777313946e-06,0.0008026686661094,4.8116985796350695,33.46655348088405,13.775691134419684,34.15949264475229
0.39,31.222210906095896,131.01040245274032,5.505993307722699,4.813508003664984,0.000929862892873,29.00025983045028,0.0011579891265804,2.9442136901860865,357.6406249338268,14.124492165837273,5.950648592462506,69.8968186645841,3.311602501056718e-05,120.00004036395212,122.13093644173792,1.274,1.02579027384009,0.0,0.0,0.0,0.0415093739609825,7.545934774906889e-08,-0.020311592409804,3.0013532510753577e-06,0.0008908380763632,4.813508093268025,32.821616487639595,14.124638228358922,29.149330452482886
0.4,31.222210638473225,131.0104030017851,5.635788650457906,4.841647069358873,0.0009592124397379,27.71178845184976,0.0011749448424961,2.91135549588368,345.4656368807565,14.390874239274588,6.07193451174791,69.8851815212744,3.783947407715338e-05,120.00004563180136,126.77947425345651,1.274,1.0257493418632293,0.0,0.0,0.0,0.0422922854866381,8.39343718693383e-08,-0.021938519432511,3.3271332720311508e-06,0.0009803271643914,4.841647164150728,32.348088166612904,14.391024912012275,27.864299944624147
0.41,31.22221036681104,131.01040355909262,5.767123077463226,4.86553909860892,0.0009876699832274,31.306062598221665,0.0011918093836199,2.876450850006428,378.9468707766882,14.663028799871563,6.195223154320929,69.87261222561014,4.307011032901644e-05,120.0000514391194,131.6183642808765,1.274,1.025708445186429,0.0,0.0,0.0,0.0430921644173401,9.308325447883581e-08,-0.0236371933433427,3.6760977501392174e-06,0.0010761942383903,4.865539198612839,31.87689439156756,14.663183942709727,31.437931330109585
0.42,31.22221008906472,131.01040412887247,5.901259531771367,4.867510642114694,0.0010118258958528,35.308283402190774,0.0012128114559048,2.8374461227958245,416.23282400171047,14.9952917972178,6.33928625560071,69.85906967380902,4.884273094936628e-05,120.00005782486392,137.64909586091787,1.274,1.0256701057426505,0.0,0.0,0.0,0.0440686959134695,1.0293499639582845e-07,-0.0254093547296826,4.049238334851429e-06,0.0011830797791891,4.867510747027452,31.315270489291198,14.995450734457847,35.422111438762386
0.43,31.222209804115888,131.01040471342728,6.038886819939341,4.854590670645608,0.0010330089741511,31.00586934514032,0.0012363751872706,2.794478603999558,375.90313951343126,15.369430568701889,6.497852263156962,69.8445117629242,5.519340856908871e-05,120.00006482835984,144.60167924299955,1.274,1.0256308158337524,0.0,0.0,0.0,0.0451682983415116,1.135186446762958e-07,-0.0272634397889413,4.449073329427772e-06,0.0013010625065656,4.854590780289497,30.70250814963406,15.369592833372094,31.13154422839874
0.44,31.22220951192321,131.01040531284193,6.180028459770617,4.866912332640401,0.0010595850174406,28.57707721036899,0.0012525768202179,2.752165534925872,353.07501253892326,15.659290812546615,6.627318538707029,69.82889155423543,6.216182865383864e-05,120.00007249162944,150.1053167542629,1.274,1.025586171750536,0.0,0.0,0.0,0.0460202245100907,1.2486676023179565e-07,-0.0292060158163984,4.8779154055816594e-06,0.001420032405556,4.866912447705031,30.24619499837236,15.659457251771938,28.709297424144207
0.45,31.222209215425703,131.01040592106523,6.322872201489905,4.881836476567178,0.0010866574689855,33.31904824532484,0.0012669045761511,2.7082028218433374,397.2093853562887,15.934249290371609,6.751662050993672,69.81215834018458,6.97909417564726e-05,120.00008085697964,155.42080512416243,1.274,1.0255397023523487,0.0,0.0,0.0,0.0468283602442113,1.3701614206272197e-07,-0.0312276295846745,5.334643585560923e-06,0.0015449645531859,4.8818365972149325,29.82567893138932,15.934419982127675,33.428929688274074
0.46,31.22220891307435,131.0104065412864,6.468371919199588,4.869610441729251,0.0011078049156487,38.95909776354321,0.0012868374716666,2.6582856015412624,449.7140588976424,16.292139278621757,6.904766425053949,69.79426683863348,7.812149592850748e-05,120.00008996920153,162.4785746623087,1.274,1.02549635315424,0.0,0.0,0.0,0.0478802236363867,1.499987870203256e-07,-0.0333272350234362,5.819761874615242e-06,0.0016858511402973,4.869610567434908,29.29014635640275,16.292313292210977,39.04968351401366
0.47,31.22220860266524,131.01040717804253,6.6178810515614845,4.838450928223533,0.0011247917292402,26.253747818137555,0.0013104398935566,2.6026193242279367,331.0078106302504,16.710658191447514,7.078951441335346,69.77517236812905,8.719457259907165e-05,120.0000998741591,170.9309671061642,1.274,1.025453319323251,0.0,0.0,0.0,0.0491102725711187,1.6384464803343264e-07,-0.0355167087264168,6.3368207228363735e-06,0.0018427306558807,4.838451058652396,28.68386015667837,16.710834873319172,26.382435512333956
0.48,31.222208284201663,131.0104078313267,6.771393590864176,4.869339340099417,0.0011561785713505,25.860860976019296,0.0013165328518772,2.5543454292827983,327.20312230115803,16.911139899671,7.177575416403102,69.75482343794755,9.70562828082882e-05,120.00011062072316,175.0543877818846,1.274,1.0254092882449153,0.0,0.0,0.0,0.0496995461609974,1.7858865391586845e-07,-0.0378054080201581,6.88909442277235e-06,0.0019849793891693,4.869339477030596,28.40887970825325,16.911321511776286,25.986704537635287
0.49,31.22220796480208,131.01040848648364,6.924537656029012,4.881367714530694,0.0011829003785372,32.565703383222065,0.0013261973190012,2.5011623511055703,389.6000096981238,17.169005224738054,7.296160258358563,69.73316318155707,0.0001077573203115,120.000122255028,180.4309832312717,1.274,1.025367445590036,0.0,0.0,0.0,0.05045746454003,1.942747077649401e-07,-0.0401641298712614,7.47069711110948e-06,0.002140948887153,4.881367857509675,28.058569663954906,17.169191034294997,32.66161128464712
0.5,31.222207637929923,131.01040915697027,7.081324512896956,4.862566137860805,0.001202418260511,33.47759680712428,0.0013425340759632,2.4399894027711366,397.970310422106,17.52898693231981,7.450304424940405,69.71015149227495,0.0001193385310595,120.0001348274002,188.0736471953394,1.274,1.0253278572281015,0.0,0.0,0.0,0.0515154948878309,2.109295159784217e-07,-0.0426011733481599,8.084173008518589e-06,0.0023184335011768,4.862566286171007,27.57768313050809,17.529175807738486,33.56639745442473
0.51,31.22220730314019,131.01040984370235,7.24202048914867,4.8479762258125,0.001223054804074,25.49162310288008,0.0013562860883156,2.3767006597692686,323.39843497208153,17.86914397471067,7.597652147346554,69.68574349602717,0.0001318441288964,120.00014838524436,195.4407439266201,1.274,1.025286455263166,0.0,0.0,0.0,0.0525152689856776,2.2858192086249162e-07,-0.0451315948093539,8.734206149830708e-06,0.002503767471626,4.847976379721193,27.13799345359824,17.86933609171003,25.602178740977283
0.52,31.222206962738102,131.01041054193402,7.405210501673173,4.865306299521403,0.0012516517170965,30.733671928447727,0.0013599291289974,2.317711624364424,372.098451184342,18.08534843773428,7.701914987606457,69.65988568649581,0.0001453248538387,120.00016298000436,200.19561780583155,1.274,1.0252426840672306,0.0,0.0,0.0,0.0531507657929359,2.4726951523704535e-07,-0.0477531686556663,9.421346966092632e-06,0.0026812161964639,4.865306460134566,26.8699055233151,18.085545046726228,30.820940596104087
0.53,31.222206619320115,131.01041124632013,7.569307468221277,4.848802699234936,0.0012715119568563,32.301199055744725,0.0013711327835325,2.2490252325653923,386.55624643486095,18.41963113311156,7.8474319110539055,69.6325258319474,0.0001598315062727,120.0001786629144,207.6614205945027,1.274,1.0251993415311351,0.0,0.0,0.0,0.0541332845214831,2.67031759303889e-07,-0.0504479325599339,1.0141887756417996e-05,0.0028848299490111,4.848802865552398,26.45837260670532,18.419830861742675,32.37940050117613
0.54,31.22220626697288,131.01041196903336,7.737918664599091,4.831496690588052,0.0012913635058467,28.31291960103712,0.0013809098107221,2.177242866245296,349.2703242098436,18.75116898748492,7.992112829440902,69.60362200959217,0.0001754082864028,120.00019548734956,215.20067397992847,1.274,1.0251561018460285,0.0,0.0,0.0,0.0551077428911958,2.878941684235108e-07,-0.0532336286085667,1.090122304443916e-05,0.003098869611663,4.831496862756785,26.061835558272342,18.751371834390056,28.396510432451375
0.55,31.222205908994248,131.01041270328463,7.909026079894722,15.583667740966511,19.664999119857367,30.720439458472708,-1.3368252415728843,1.3946302070072405,365.2500005919912,22.576858604022103,8.113323699629928,69.57312211246325,0.0001921068626005,120.00021350480982,311.9656824561849,1.274,1.025112921033824,0.0,8.77241248081048,0.0,0.0663511763773331,3.0989272306468813e-07,-0.0561100530405476,1.1700476995263424e-05,0.0039326558448982,24.8978919174017,43.03553878934265,25.605539229253623,30.78112239120741
0.56,31.222205546564343,131.01041344664463,8.081909946161325,23.811383215432027,-0.0460003791776289,28.727638821939543,-0.3065972281267599,0.2729639693518889,346.22656194657776,24.423327783286336,8.244196224145494,69.54097415464405,0.0002099796112633,120.00023276987916,365.0751422299078,1.274,1.0250709539098009,0.0,8.804417249057844,300.0001285565649,0.0717779084489889,3.329453068617489e-07,-0.0676788746658307,0.0162031517425457,0.0051313602690731,23.811425060649547,30.82614089760213,24.416102061398256,28.730571582769937
0.57,31.22220518050852,131.0104142056356,8.258482545612129,23.59108197737969,-0.0382913855323041,28.448602711444952,-0.3090660402950369,-0.2036040338034171,343.1828296833045,24.702856320290422,8.351426736491657,69.50219571939748,0.0250463022753114,120.02674470608842,373.4733078897637,1.274,1.0250279191823897,0.0,8.836171976839461,300.0001285565649,0.0725995616572669,3.695218143669535e-07,-0.0899570456175211,0.0161474894847257,0.006898418426615,23.591111277012725,30.538632713883757,24.69684152396396,28.45101004627916
0.58,31.222204807745047,131.01041496996768,8.437036150025786,23.36633071600406,-0.0461345966241908,37.41595074724528,-0.3103898587158834,-0.6982448341862368,426.12500585731766,24.989272563214765,8.464532715350662,69.45064886519101,0.0496708982733788,120.0530383584878,382.17740352981696,1.274,1.024981594484354,0.0,8.868005395768742,300.0001285565649,0.0734414621936752,4.154338075629226e-07,-0.1125671278166666,0.0160987353419774,0.0087322252527919,23.36637370678425,30.236605096627763,24.982025758506296,37.42375259154467
0.59,31.222204430619705,131.01041574688313,8.618354804765348,23.01197333111715,-0.0536078174548435,30.425997631675592,-0.3136227451509051,-1.238517906803918,360.68438819710633,25.400430798042944,8.625287409667264,69.38614350313374,0.0740494431053739,120.07907914320444,394.8502170520002,1.274,1.0249386802161349,0.0,8.89963533117429,300.0001285565649,0.0746499758702795,4.708128350152423e-07,-0.1355151261083945,0.0160405812353027,0.0106851599010492,23.01203237825556,29.78622169699885,25.39201010299698,30.45280968505991
0.6,31.222204044304064,131.01041654202626,8.804672685600428,22.78347313425716,-0.0611784540808958,27.11872416614477,-0.3142326790286198,-1.7688142878081756,329.4859594986072,25.673919571363363,8.733424038015865,69.30848612954465,0.0981232577686156,120.10480639713684,403.391552305966,1.274,1.024891335813742,0.0,8.931196719093819,300.0001285565649,0.0754538976165997,5.357808840169176e-07,-0.1589174098786118,0.0159724124574363,0.0126650834087084,22.783550897018564,29.49285439919146,25.664309684094512,27.17816488581906
0.61,31.22220365618488,131.01041734080272,8.991619121218235,22.558611725537688,-0.0686533554918612,31.751988893107463,-0.3143593506986723,-2.311031932420319,372.0984511843332,25.93402865794036,8.836523717511074,69.21741656834229,0.1218334594365018,120.13015912053828,411.5992959174745,1.274,1.0248423929069768,0.0,8.963059835374317,300.0001285565649,0.0762185012142352,6.105246976508563e-07,-0.1826202695812708,0.0158943441478013,0.0147012942353809,22.558710738108985,29.209938481951657,25.92324461665801,31.837532710027293
0.62,31.22220326269792,131.01041815052335,9.181325021756855,22.25151083689055,-0.0757958224392988,39.413598359411296,-0.3155525593696782,-2.892163699804205,442.86563930529206,26.27330928849629,8.97033536879344,69.11276275632697,0.145123141914172,120.15507829906436,422.4315005352468,1.274,1.0247996097896497,0.0,8.994473219352678,300.0001285565649,0.0772157911874681,6.951633679939978e-07,-0.2065978070490661,0.0158061941224934,0.0168488078833821,22.251633372718764,28.83508236939394,26.26140331202152,39.52082893767765
0.63,31.222202861896072,131.01041897515333,9.374926651711508,21.86310476654152,-0.0825470061715306,22.576677286418164,-0.3178476789547524,-3.5218727143304127,286.11251274707456,26.6977891347971,9.13724733115943,68.99436748674569,0.1679372165221119,120.1795066846486,436.1835298006168,1.274,1.024756158874558,0.0,9.02578598666522,300.00012855656485,0.0784634851588983,7.898014645074506e-07,-0.2309153559320643,0.0157074291727777,0.0191358929205309,21.86325296166987,28.368579966523058,26.68482268587456,22.85193584486951
0.64,31.22220245286268,131.0104198165405,9.572931754650806,21.699733742250263,-0.0899259941302005,22.207676237852752,-0.3153797697478203,-4.080889678712299,282.3078244179702,26.85268691926554,9.2005445869886,68.8620361382572,0.1902218709950327,120.20338819089817,441.2512055017048,1.274,1.024708534665538,0.0,9.057192708279464,300.0001285565649,0.0789188983906634,8.945714348315945e-07,-0.2556437536194903,0.0155973880040107,0.0213076373032583,21.699911077583288,28.18010483531992,26.838561382938572,22.581718465481686
0.65,31.222202045820847,131.0104206537806,9.769321579790011,21.462392155296087,-0.0969676187061116,38.88555924744354,-0.3138399794138482,-4.67419303165997,436.7781447787504,27.080671321629087,9.29246686162209,68.7155335006947,0.2119245245718611,120.22666781064218,448.76716210075375,1.274,1.0246641738210605,0.0,9.088762884566504,300.0001285565649,0.079589111131021,1.009670488251925e-06,-0.2804917137108676,0.0154770409584081,0.0235767334553564,21.46260086264355,27.90864944572329,27.06543969097208,39.166737086670096
0.66,31.222201631568595,131.01042150567153,9.969477336310169,21.021503461400968,-0.1030620360015712,33.17586357130352,-0.3157526501599252,-5.375191293321992,383.5125151715984,27.54299542408469,9.476359285755809,68.55479131183495,0.2329985453516582,120.249296672963,464.2118376500798,1.274,1.0246195561629028,0.0,9.119542483702778,300.0001285565649,0.0809480476884435,1.135147017667102e-06,-0.3055173381921046,0.0153459136614895,0.0261181767218294,21.02174466173823,27.39748636656635,27.52680648605647,33.60997329480688
0.67,31.222201205860458,131.0104223808299,10.17578424282808,20.701734232530136,-0.1095331939046564,23.03266109403491,-0.3147637628345608,-6.035715422805176,289.15624401033847,27.84827642775201,9.599675783492192,68.37970802500665,0.2533998575944984,120.27122835149616,474.5499257907068,1.274,1.024572383541697,0.0,9.150388366323424,300.0001285565649,0.081845450005229,1.2710546354141418e-06,-0.3309369811810972,0.0152025524320652,0.0286042683032021,20.702011280841468,27.03986546800964,27.831071004367235,23.812442419125166
0.68,31.222200778798783,131.01042325864665,10.382392043723458,20.46198933751739,-0.1162965996350881,28.635718189573137,-0.3116251369652458,-6.659009149739948,340.89999248584934,28.03848744562672,9.678349751187085,68.19005812108063,0.2730845302585341,120.2924162489802,481.0451212999672,1.274,1.0245245285832842,0.0,9.18163346635494,300.0001285565649,0.0824046679255529,1.4175864563255967e-06,-0.3565708854520351,0.0150475463286845,0.0310298063848439,20.46230565221203,26.78638349410229,28.02021963101783,29.401426314295684
0.69,31.222200348892297,131.01042414216903,10.590171426587936,20.114052019346897,-0.1224198956995576,35.13560000248383,-0.3101109178492607,-7.3511412203674045,401.0140726853658,28.354847634967488,9.807720666215108,67.98571910668379,0.2920143625252742,120.3128196104586,491.95187700953824,1.274,1.024479631064582,0.0,9.21239894662288,300.0001285565649,0.0833346408241188,1.5748624202467163e-06,-0.3822841037516488,0.0148814171582329,0.0336421309432258,20.11440912618201,26.407736997629907,28.33561797734952,35.897713486484
0.7,31.22219991026421,131.01042504332955,10.802393464559229,19.70938612856052,-0.1280996391014285,29.56219081103705,-0.3091902473289561,-8.093077366646048,349.270324209851,28.73685954000545,9.96435908193138,67.76664582225831,0.3101569449236399,120.33240356573664,505.2865592714567,1.274,1.0244351749185203,0.0,9.242855263125064,300.0001285565649,0.0844575725671535,1.7429120828036363e-06,-0.4081789876178573,0.0147032420354815,0.0364041620109235,19.709785860394987,25.966208301268544,28.71673771251261,30.65153544962675
0.71,31.22219946441877,131.0104259590406,11.01813753975034,19.374906480357662,-0.1340719021129793,24.39233558305444,-0.306216056489281,-8.796499717891086,301.3312640634036,29.010419047064715,10.078676048656533,67.53273446021254,0.327482053729556,120.35113522033912,514.9417948319985,1.274,1.0243880468141104,0.0,9.27345685767976,300.0001285565649,0.0852617709322272,1.921816477366376e-06,-0.4342943329344348,0.0145123820119382,0.0391012153201545,19.37535253776148,25.618031272497863,28.989359101147425,25.931799219422736
0.72,31.22219901566122,131.01042688055483,11.234999147497744,19.0619066135711,-0.1400941225202959,29.72875881157911,-0.3021781966927117,-9.4850507359142,350.7922053414578,29.23761754289856,10.175265489227677,67.28385898625702,0.3439624809311915,120.36898454577118,523.0281403975871,1.274,1.024337302174265,0.0,9.30401695166731,300.0001285565649,0.0859297187136268,2.11170856632648e-06,-0.4604983057029433,0.0143094078257783,0.0417842936600586,19.06240227764645,25.303847150815734,29.215611631519703,31.206675561527945
0.73,31.22219856247755,131.01042781094034,11.453796999157625,18.6698546543622,-0.1454881451101389,37.439286067669286,-0.2991980394625787,-10.24040729107,422.3203185282354,29.56528595090996,10.31394127642206,67.01996891217685,0.359577125950928,120.385927727645,534.8058349164523,1.274,1.024292465384646,0.0,9.334260701608525,300.0001285565649,0.0868929546960064,2.312659170426116e-06,-0.4867207989176006,0.0140945536224802,0.0446576547467827,18.670401310760685,24.89872081918328,29.542432751075573,38.81566181595508
0.74,31.2221981009786,131.01042875805663,11.676563746893452,18.214620878945524,-0.1502959395300237,23.608241552661912,-0.2969429142553182,-11.062367296007627,294.4828134710563,29.978119569288943,10.489205404679655,66.74105392074158,0.3743100985858272,120.40194619602964,549.8338255006847,1.274,1.0242470321640116,0.0,9.364305887546305,300.0001285565649,0.0881065022191691,2.5246773945296985e-06,-0.5130291381303203,0.0138669531465396,0.0477277599798683,18.21521991315538,24.421528756398438,29.95451116538913,26.073227926264483
0.75,31.22219763085685,131.0104297224993,11.903367593740215,17.898317891534937,-0.1560501487371605,27.442850472978986,-0.2909960507331478,-11.753697066607367,330.24688556441737,30.1584722563395,10.5697392897379,66.44706511469823,0.3881479913183988,120.41702366240968,556.4573656193047,1.274,1.0241984712898409,0.0,9.39439144811038,300.0001285565649,0.0886367904330872,2.747800554351769e-06,-0.539471752475379,0.0136257550212069,0.0504885874717883,17.8989758836085,24.12706571983025,30.13395998660139,29.855386708555624
0.76,31.22219716165533,131.01043068496517,12.129183120710705,17.49596268281243,-0.1610331399758454,29.45691085638149,-0.286293749021244,-12.52727472071232,349.2703242098581,30.460129676022127,10.70211563780102,66.13792582981401,0.4010799313093151,120.43114616742622,567.6325589934332,1.274,1.0241522053390697,0.0,9.424514163096864,300.0001285565649,0.0895236000696372,2.982177745336989e-06,-0.5658003070861832,0.0133728092669461,0.0534811432773445,17.496680565355877,23.73150539892098,30.434834682847395,32.011313207048104
0.77,31.222196682561204,131.01043166730167,12.359595479346291,17.07699041347757,-0.165765006814785,27.51225626099774,-0.28127157596333,-13.317721035117364,331.76876669606884,30.77309390151602,10.841125099933445,65.8137017107015,0.4131036563236908,120.4443087542954,579.344004929412,1.274,1.0241065975906936,0.0,9.454052227573737,300.0001285565649,0.0904436501775315,3.2277539285144654e-06,-0.592096215858066,0.0131070322954364,0.0565404934073685,17.077770964072013,23.32315526147504,30.74705563145912,30.567385426945854
0.78,31.2221961978693,131.0104326608096,12.592298143847335,16.67008122455298,-0.1704939659303859,22.594385882087728,-0.275302503216467,-14.09068273467004,286.8734378128874,31.04993303243024,10.96643771733666,65.47441172275435,0.4242185459759526,120.45650784493976,589.8014336157465,1.274,1.0240588105546735,0.0,9.483738496963817,300.0001285565649,0.0912575337056565,3.4845396680395714e-06,-0.6183341550463843,0.0128282726494479,0.0595758635047657,16.6709283288358,22.9383433285422,31.02315194241085,26.629483749898174
0.79,31.222195708183296,131.01043366426435,12.826951019475716,16.286153353122884,-0.1753519333856795,31.90354245781412,-0.2681341954768822,-14.823597720789865,373.6203323159581,31.26660264133545,11.06743639284172,65.1200893393132,0.4344275817669846,120.4677434161918,598.0480663237715,1.274,1.0240083170932772,0.0,9.513264002065911,300.0001285565649,0.0918945813899843,3.752551969019401e-06,-0.6444474761769523,0.0125368374810304,0.0625237296899297,16.287071766569845,22.59226614293604,31.23905846704824,35.18020703026261
0.8,31.222195214650643,131.01043467534635,13.062954956340556,15.806948487969972,-0.1791488226449337,32.22638714581036,-0.2624292645566021,-15.67775101853842,377.42502064505805,31.64207070225656,11.239554168848308,64.75080620621686,0.4437380656538424,120.47801980986884,612.4838649418463,1.274,1.0239625010683884,0.0,9.542535112010862,300.0001285565649,0.0929983540932899,4.031791709964682e-06,-0.670349045824485,0.0122333390091294,0.065816184942652,15.807937765257458,22.130524039835684,31.613930116853243,35.83853756209688
0.81,31.22219470993071,131.0104357088285,13.30379371452574,15.340594817136008,-0.1829476235492726,20.925917442847588,-0.2557053681256996,-16.510443773047456,273.9374926939922,31.979098062916897,11.397254325171508,64.36668389344518,0.4521618903664354,120.48734607739756,625.58630981593,1.274,1.0239149950770308,0.0,9.571540791995854,300.0001285565649,0.0939891574788783,4.322130465908039e-06,-0.6961370174019565,0.0119162106469055,0.0690744931743533,15.341659478224711,21.6945029288024,31.950360766242078,26.65622178109874
0.82,31.22219419998373,131.01043675269125,13.546503714925844,14.94633242409553,-0.1874524484044091,26.7452183962052,-0.2466282001570948,-17.214686748556776,328.725004432774,32.15302231300193,11.48407790696649,63.96778770330717,0.4597108799715974,120.49573083195284,632.3948083074056,1.274,1.0238644186635044,0.0,9.600704866861518,300.0001285565649,0.0945005936991518,4.623560099501609e-06,-0.7217364478900522,0.0115858416646778,0.0720024186700622,14.947481080870212,21.364219283344703,32.12357740379037,31.807435803295462
0.83,31.222193688728485,131.01043779905237,13.789251952099084,14.474001642799132,-0.1909546726785334,33.86799610049568,-0.2386644646140378,-18.02864654143725,395.6875032246518,32.46729802563696,11.636039640981956,63.55422586481042,0.4664005376184289,120.50318643139336,644.8027232263896,1.274,1.0238188483711983,0.0,9.629663967218232,300.0001285565649,0.0954245393293723,4.9361047452807285e-06,-0.746974786365528,0.0112440476027702,0.0752468998153193,14.475234307679113,20.93909573723831,32.43730299132243,38.36834915273183
0.84,31.22219316654847,131.0104388672409,14.036422565165443,13.958940477723557,-0.1937929937373273,20.70295672879292,-0.2309551423453395,-18.9089948328928,275.45937482564227,32.85868800742264,11.826094539722604,63.12620547133488,0.4722522417525274,120.50973149162677,660.4268125881181,1.274,1.0237739661568126,0.0,9.658205622375728,300.0001285565649,0.0965751417803607,5.259563360934856e-06,-0.7719253904878565,0.0108894274745021,0.0786958367791879,13.960258915346936,20.465561306255022,32.82824713319185,28.039540709191627
0.85,31.2221926353893,131.01043995332392,14.286973429118214,13.5348428802741,-0.1977007946713983,22.445966848013743,-0.220422881844991,-19.59480725626248,292.9609323393965,33.02631959544915,11.915003724504944,62.68389155614852,0.4772868642927475,120.51538378580666,667.1664028867543,1.274,1.0237227741398531,0.0,9.686828473492891,300.0001285565649,0.0970681030519899,5.593786328867598e-06,-0.7966020475880351,0.0105211993732302,0.0816239035735275,13.536259736011056,20.12837653150461,32.995264888865506,29.79641732489075
0.86,31.22219210506041,131.0104410375962,14.536524517835796,13.06170036287498,-0.200855123499268,28.048850504062603,-0.2103746708449824,-20.350062828360183,346.2265619465616,33.28526618017594,12.048457490847564,62.22744122702184,0.4815258609586874,120.5201614725458,677.6531634963442,1.274,1.023674789281455,0.0,9.715396227581952,300.0001285565649,0.0978294519096651,5.938802490197588e-06,-0.8207913127356772,0.0101420742217614,0.0847598423790052,13.063217744583635,19.73438473835939,33.25371599577561,34.65410984601384
0.87,31.22219156490871,131.0104421414462,14.789720336978885,12.549760475782405,-0.2033283528462029,25.884188780140903,-0.2005267235836773,-21.1662119235291,327.9640783669946,33.61961096660264,12.220520586417283,61.7571338935448,0.484996877910177,120.52408948631624,691.318547135299,1.274,1.0236288969245204,0.0,9.743446044401104,300.0001285565649,0.0988124142420333,6.294362635081385e-06,-0.844520568171402,0.009751203622359,0.0880841381890638,12.551381085097,19.297001178085456,33.5876722906616,33.43710464386217
0.88,31.222191016169216,131.0104432623773,15.045874558499744,12.053036784318424,-0.20589832110265,22.05594017214452,-0.1896338835566886,-21.92267708731212,294.4828134710421,33.897590353418686,12.368313687634965,61.273233242639336,0.4877272187297717,120.52719219897509,702.7806764770733,1.274,1.0235805388426191,0.0,9.771503544111267,300.0001285565649,0.0996297197947304,6.660225973594163e-06,-0.8677970507396062,0.0093478945957583,0.0912580339076659,12.054769289647885,18.893313134949963,33.86524799038214,31.098299448065823
0.89,31.22219046242597,131.01044439319358,15.303414347057922,11.564210024785616,-0.2084848609794866,24.07297140546329,-0.177902049495399,-22.625900356226573,315.02813424808807,34.132584257982046,12.497593525297544,60.77599879928981,0.4897440235460815,120.52949364321844,712.5408347017247,1.274,1.0235293752791452,0.0,9.799489233048664,300.0001285565649,0.1003206909810042,7.036236931851592e-06,-0.8905345918648153,0.0089330580358011,0.0942960138881939,11.56606361750573,18.51435180399089,34.099835604868254,33.03741770110614
0.9,31.22218990309245,131.01044553506912,15.562550583390433,11.049652275503888,-0.2105209678490524,26.487552823470608,-0.1661222081745323,-23.36303230888383,339.3781423542166,34.41848865819828,12.654653212366208,60.26573944649633,0.4910765302829469,120.53102012876894,724.5096937083201,1.274,1.0234837388140003,0.0,9.82723260377061,300.0001285565649,0.1011613018836905,7.42219225428303e-06,-0.912659419594318,0.0085075062004892,0.0974457939289836,11.05163262501698,18.110434021503536,34.38542017630342,35.31924871553959
0.91,31.2221893351014,131.01044669414537,15.824436796841487,10.519364962898248,-0.2121364341425445,19.55845102002504,-0.154051099108147,-24.113358625110024,277.7421810230785,34.73284228653141,12.829075727213924,59.742806320259504,0.4917555068781397,120.5317996517941,737.785870847804,1.274,1.023436404813438,0.0,9.854760620923251,300.0001285565649,0.1020855378296243,7.817779580362362e-06,-0.934157389237282,0.0080709187184648,0.1006495914760732,10.521479663385817,17.696012384455475,34.699520049510646,31.04852335018564
0.92,31.222188758967608,131.01044786938246,16.0887601006217,10.017497906322824,-0.2141647179253933,23.353623381907543,-0.1407266391912216,-24.73454902985605,315.0281342480675,34.93620218076816,12.949855027575644,59.20755864162901,0.4918113334290746,120.53185972409504,746.4316486956061,1.274,1.0233859136578225,0.0,9.88219754358836,300.0001285565649,0.102683552252425,8.222685486899977e-06,-0.9549969451902552,0.0076232485316746,0.1034947426084622,10.019763595909698,17.341324613175566,34.90256134388052,34.01778130274386
0.93,31.22218817986116,131.01044905042028,16.353476751839125,9.48107431870736,-0.2153754956482964,27.878001302123447,-0.1276065931023235,-25.42832730725611,359.16250706547066,35.23263731363699,13.121277389318552,58.66037368903784,0.49127424963141,120.53122767969944,759.1330964600413,1.274,1.0233407575091376,0.0,9.909510225198815,300.0001285565649,0.1035551357737611,8.636697271568441e-06,-0.9750660817834446,0.0071663167577721,0.1065635735388187,9.48349791348717,16.946462862422273,35.19880628956553,37.733262113005104
0.94,31.222187589830188,131.01045025318248,16.621538853680615,8.92568048707719,-0.2160182707239418,19.33505010759245,-0.1142956913214248,-26.154891362188348,283.06875048378083,35.58039912603265,13.32316333129024,58.10169291683237,0.4901765442465652,120.5299332916568,774.173087773391,1.274,1.0232914783978162,0.0,9.936491026478055,300.0001285565649,0.1045775873566106,9.059366719099576e-06,-0.994370450534336,0.0066993066849485,0.1097431490486015,8.928272954800565,16.535300778931763,35.54646713580389,32.525921483273
0.95,31.22218699029465,131.01045147481736,16.892271955091957,8.403694703234205,-0.2172690673089196,25.493757304956432,-0.0997075603166088,-26.70508958402364,342.421873617488,35.78272246272731,13.45103948914601,57.53195451565698,0.4885488637431092,120.52800448039052,782.9822321127617,1.274,1.0232418269359267,0.0,9.963435426892037,300.0001285565649,0.1051725755494647,9.49026768665806e-06,-1.0128855688707428,0.0062219334440163,0.1124192966764121,8.40648270784457,16.198537762890794,35.74859399923492,36.92023040031483
0.96,31.22218638855364,131.01045270071052,17.16299138507168,7.84305163809377,-0.2174368058960746,24.61257248483824,-0.0854278248777123,-27.37316564710392,337.09533515678265,36.12191751370917,13.655542296006152,56.95161068208535,0.4864208875187113,120.52546811140806,797.8760857699694,1.274,1.0231951201821403,0.0,9.990277006183458,300.0001285565649,0.1061698619246355,9.929153485748495e-06,-1.0304896372970735,0.0057366380164944,0.1154543323417827,7.846046271099901,15.810327806139506,36.08776270209072,36.81135992840348
0.97,31.22218577292234,131.01045395425052,17.43778085934047,7.288367061432721,-0.2175755304653279,14.294785052081368,-0.070489906945486,-27.971038481721976,245.0218871929888,36.42096607388716,13.841988994701438,56.36118341053894,0.4838243127468674,120.52235360483472,811.1203858051283,1.274,1.0231476260761452,0.0,10.016764074445696,300.0001285565649,0.1070491600253906,1.0375426617567792e-05,-1.0471991305003523,0.0052420409383886,0.1182946440041734,7.291596390389273,15.450807609196138,36.38678947162133,31.412176655847357
0.98,31.222185150982405,131.01045522025743,17.713863284270342,6.760027503152087,-0.2182991327657821,22.08502666988233,-0.0546158457457504,-28.377853196075502,319.593746642963,36.57457260926193,13.9506261033606,55.761185216378365,0.4807882423436211,120.51868744639208,817.9549750081109,1.274,1.0230935628253934,0.0,10.043296297639971,300.00012855656485,0.1075009780015059,1.082867007059163e-05,-1.0629439027611776,0.0047392206048475,0.1205764343425126,6.763534950437226,15.162865806541951,36.5402823446348,35.95905919122514
0.99,31.222184526949263,131.01045649029635,17.98981438383684,6.194206920130557,-0.2177404873121234,24.15605675995252,-0.0390710295704493,-28.93749628193656,341.66094855170127,36.89877496811879,14.157995482410596,55.15216879645914,0.4773419095707752,120.5144964788699,832.4981253789463,1.274,1.0230490803133316,0.0,10.069606485519076,300.0001285565649,0.1084542200764804,1.1288555988389323e-05,-1.0776214266873072,0.0042307627555929,0.1233216957116975,6.198017863638595,14.818552626209067,36.86457245467904,37.69476483283179
1.0,31.222183887901696,131.01045779022328,18.26983769710226,5.627828374751146,-0.2169331139505002,20.8435103608064,-0.023100789833829,-29.458637423166422,314.2672081822764,37.218746223196895,14.367133245712168,54.53474560239716,0.4735159194059457,120.50980948917235,846.9761216004798,1.274,1.022999484445133,0.0,10.095566916083207,300.0001285565649,0.1093950368625417,1.1754333584468645e-05,-1.091251422259404,0.0037149014466811,0.1259610301364473,5.631994384711745,14.491653427163238,37.18467053075582,36.08689203349488
1.01,31.222183241110564,131.01045910548643,18.55140863871773,5.069259254215865,-0.2161744383050984,21.66542507533281,-0.0066353711280298,-29.87993044699584,324.92031610370094,37.48282789525237,14.547556187169569,53.9095157500102,0.4693376937173199,120.5046516602998,859.0147904597427,1.274,1.0229507481225095,0.0,10.121573678163312,300.00012855656485,0.1101715877876504,1.2225449627300907e-05,-1.1037822873922631,0.0031923130577177,0.1283079796920755,5.073854429785452,14.202624740118807,37.44887137445179,36.90800632979677
1.02,31.222182587311927,131.01046043461392,18.834260560042328,4.504580087084291,-0.2149531488981808,16.935457303894843,0.0100603179608229,-30.29820992180121,284.59063161543185,37.77932523405972,14.75048974522146,53.27710892338251,0.4648339826108858,120.49904765244744,872.6348224013569,1.274,1.0229039803623294,0.0,10.147392655280187,300.0001285565649,0.1110434234652579,1.27013901270946e-05,-1.1151498555032964,0.0026644516758304,0.1306512377679892,4.509695264584869,13.91924536750999,37.74556055159284,34.71010428920628
1.03,31.222181922785666,131.01046178505024,19.11947081854548,3.9482233760293193,-0.2138519051691749,12.536296650669009,0.0271169069650916,-30.593595843756297,247.3046933904342,38.004683856865526,14.914569275971084,52.638191566483925,0.4600314403566702,120.49302235088686,883.0524455903043,1.274,1.022853416101322,0.0,10.173003818675989,300.0001285565649,0.1117061715231491,1.3181488767556155e-05,-1.1253175557500972,0.0021315589166737,0.1326253127708752,3.9540015242720647,13.68020242738978,37.97109215614797,33.0624798781235
1.04,31.22218125280345,131.01046314624753,19.40536287729701,3.395026618457196,-0.2126780193165417,22.883400862310683,0.0443472114075947,-30.80001812961597,345.4656368807608,38.19145932871817,15.058173857878703,51.993451052860806,0.4549554256139765,120.486599390176,891.7288778738899,1.274,1.0228049544826707,0.0,10.198507153619788,300.00012855656485,0.1122555179018604,1.3665198186357567e-05,-1.1342263644442812,0.0015953655247208,0.1343285321486402,3.4016738129618407,13.474020245113472,38.158052020281794,38.370471960676134
1.05,31.222180576372267,131.01046452019435,19.69220042371827,2.824612629056566,-0.2102282348485723,11.107262174961312,0.0616853520921719,-31.168632813253893,240.4562587980608,38.5586048374588,15.315808633190418,51.343608573694446,0.4496311930693588,120.47980269290387,908.9311399636366,1.274,1.022755494436122,0.0,10.223757356083295,300.0001285565649,0.113335029379363,1.4151900155516404e-05,-1.1418333680787356,0.0010571818162021,0.1365256820711195,2.832418861144917,13.2275128504257,38.52558233764618,33.0886498599359
1.06,31.22217988309452,131.0104659277012,19.982860889443327,2.2745873261893648,-0.2087167736320626,18.15350614522676,0.0791735841788485,-31.23105367501241,308.1796836557233,38.70129263973229,15.437979218862,50.689409917172135,0.4440833782570767,120.47265586791424,915.6451034842617,1.274,1.0227013895379469,0.0,10.24878381962841,300.0001285565649,0.1137548036983586,1.4640613748480344e-05,-1.148129378627118,0.0005152426059265,0.1377826361757549,2.284138198205086,13.078422781384532,38.66850755810565,36.1238808473387
1.07,31.222179191994464,131.01046733069597,20.27189229013636,1.714097249662588,-0.2060226297926437,22.218377257846967,0.0968151960241741,-31.43885534692909,348.5093681440431,39.01192467722528,15.668643850019238,50.031606083853184,0.4383336407125943,120.46517914401184,930.3769309721288,1.274,1.0226540159946436,0.0,10.273830631888512,300.0001285565649,0.1146682191828056,1.513097063641551e-05,-1.153048910428168,-2.647859021497915e-05,0.139479775447489,1.7264304334637086,12.8970826457691,38.97956278795153,38.49762702660158
1.08,31.22217848333113,131.01046876869347,20.56472998750444,1.1558636171612613,-0.2029089904512209,12.360758565443732,0.1146706259720609,-31.63051192980768,261.0015785751465,39.35152332121194,15.922372218329183,49.37098565143862,0.4324049982246299,120.45739504082376,946.6186616133144,1.274,1.0226061614050743,0.0,10.298425831302527,300.0001285565649,0.1156667877668497,1.5621951958347496e-05,-1.1565769909270216,-0.0005694882589299,0.1411204701464509,1.1735361836735996,12.731113784573791,39.31965051814792,33.96013525602272
1.09,31.22217776420825,131.0104702274802,20.859271615805905,0.607858640658999,-0.2003702596385527,10.47866655451838,0.1323120665377973,-31.57939287499199,246.54375332456465,39.52640918955415,16.0732103857607,48.70834572958858,0.4263177240598228,120.44932300093969,955.024257107252,1.274,1.0225512795791307,0.0,10.323050237707424,300.0001285565649,0.1161812197442007,1.6112737347411702e-05,-1.1586763056644531,-0.0011132994723804,0.1420009074359311,0.6400303599677484,12.641245098387568,39.49493516692411,33.27278187342964
1.1,31.222177042899016,131.01047169049454,21.153328550775736,0.0618777102281509,-0.1974254152672834,28.354706441485973,0.1499086744505033,-31.503933298018776,413.1890617384087,39.72545737613317,16.242447006799555,48.0445048027628,0.4200909124119813,120.44098143065136,964.639905924024,1.274,1.0224981043155532,0.0,10.347525867562204,300.0001285565649,0.1167666758029851,1.6602822490755558e-05,-1.1593137709095092,-0.0016547627744404,0.1427904841538646,0.2068952161424863,12.567806724732147,39.69444592578802,42.38525289814298
1.11,31.22217631116345,131.01047317423803,21.44900425650273,-0.4813864546199704,-0.1928390932475737,18.35727186653944,0.1683424207200126,-31.69866624301885,324.1593910379213,40.2049085862846,16.602225662170575,47.380300331083056,0.4137441493357642,120.43238997506224,988.0370634004076,1.274,1.0224548851875197,0.0,10.371676722246375,300.0001285565649,0.1181763408175812,1.7091368810533582e-05,-1.1584683449309634,-0.0021933152351784,0.1444043519513708,0.5185739673036835,12.434091068024664,40.17461754953949,36.63090513676883
1.12,31.222175555525915,131.01047470570927,21.74949370067911,-1.0171955657191,-0.1891494533274993,1.5754347852909625,0.1861170798321232,-31.564112194544727,172.7328179403806,40.447865199987,16.808132371521374,46.716581840812765,0.40729573631978,120.42356717119377,999.9856168636076,1.274,1.0223979224661404,0.0,10.395682790927763,300.0001285565649,0.1188908787353317,1.757704232621562e-05,-1.1560922712928987,-0.0027317478966779,0.1449748272186273,1.034630646995091,12.396352755436704,40.41815372730505,31.603952489521262
1.13,31.22217480048557,131.01047623584256,22.048672012490016,-1.5515155214293663,-0.1861148683626417,22.590777403429765,0.2028840089475309,-31.14681459560528,367.5328077894322,40.49188444894212,16.880530564079297,46.05422615811444,0.4007608446455334,120.4145278447746,1002.1345639311044,1.274,1.0223460397860296,0.0,10.41980228076852,300.0001285565649,0.1190206690189865,1.805943459690031e-05,-1.1521746764126388,-0.0032659286397323,0.144636642426538,1.5626358150462627,12.4406046187918,40.46264964519575,38.47737575596093
1.14,31.222174044744268,131.01047776723357,22.346960535884048,-2.068254742533993,-0.180979083004232,8.40780404377982,0.2211841794498638,-31.13225092897503,239.6953177322812,40.9371681340518,17.232593815735548,45.39411637680908,0.3941556452962174,120.40528881711188,1024.2670784181364,1.274,1.0223022138470996,0.0,10.443546269418876,300.00012855656485,0.120329927982547,1.8538103006805625e-05,-1.1467330154194086,-0.0037923091815603,0.145532398585447,2.0761543489696743,12.389208385103997,40.908740053443296,32.2483664576131
1.15,31.222173258899502,131.01047935881235,22.65110240509704,-2.5884630950693266,-0.177007230580426,7.962311296399567,0.2378585254621711,-30.70196052774225,237.4125115347709,41.066799799959526,17.36899962498816,44.73712563668025,0.3874967025026488,120.39586817098724,1030.7341272146905,1.274,1.0222426194541194,0.0,10.466959720445846,300.0001285565649,0.1207113791118371,1.9011420053078405e-05,-1.139685355809742,-0.0043150687279628,0.1450917490051639,2.594504082788524,12.45184488319758,41.03899561342622,31.718533353639643
1.16,31.222172481039983,131.01048093425035,22.952222082224456,-3.0977592578908726,-0.1724871408212065,35.37371721118663,0.2545276098427325,-30.29187455917776,490.043774385954,41.26274775266312,17.554203172260223,44.084173906221295,0.3807969357171424,120.38627947103684,1040.5636778923251,1.274,1.02219674531104,0.0,10.49057100496587,300.0001285565649,0.121287758885792,1.947915404540872e-05,-1.1310810698326954,-0.0048292176033366,0.1446792353128136,3.1025530194222752,12.515043791584816,41.235653576866426,46.572119534654355
