Time,Latitude,Longitude,Altitude,Angle of Attack,Angle of Sideslip,X-Acceleration,Y-Acceleration,Z-Acceleration,Thrust,True Velocity,Ground Velocity,Pitch,Roll,Yaw,Dynamic Pressure,cp,cg,parachute_deploy_gain,Wind Speed,Wind Direction,Mach,omega_x,omega_y,omega_z,Cmq,Angle of Attack(total),Angle of Attack(gust),True Velocity(gust),Acceleration
0.0,31.222216000000007,131.010392,3.000000004412624,0.0,0.0,0.0,0.0,0.0,2.2828121974499247,0.0,0.0,69.99999999623412,0.0,119.9999999935444,0.0,1.274,1.0271675151847728,0,0.0,0.0,0.0,0.0,0.0,0.0,-0.0,0.0,90.0,0.0,0.0
0.01,31.22221599999084,131.01039200000497,3.000002745347096,0.0,0.0,0.0,0.0,0.0,34.242186961749226,3.465174813755316e-14,2.8705476994166025e-14,69.9999999962611,-2.1713911667908447e-11,119.99999999352175,7.352495975525499e-28,1.274,1.0271659134330349,0,0.0,0.0,1.0183245502395064e-16,-3.3305335486039093e-18,7.169286865560398e-18,5.624298769768554e-18,-7.715917190115602e-34,0.0,89.99999999999979,3.465174813755316e-14,0.0
0.02,31.222215999994315,131.0103920000094,3.0000030495639742,0.0,0.0,0.0,0.0,0.0,25.871876237766216,3.8197434737535036e-11,2.4171837235633357e-11,69.99999999628672,-1.1921727947863515e-11,119.99999999353136,8.93414285188691e-22,1.274,1.027164492361118,0,0.0,0.0,1.1225230367947217e-13,-6.657678965418802e-18,1.4338573731120796e-17,1.1241821275959074e-17,-1.7010872994127372e-30,0.0,89.99999999975682,3.8197434737535036e-11,0.0
0.03,31.222215999994315,131.0103920000094,3.0000030495639742,0.0,0.0,9.81877837424427,-2.5122800045972096e-05,3.3498614629347925,180.34219359854663,1.2659015405517447e-10,1.1364406173918436e-10,69.99999999631459,-1.6431898037347223e-11,119.99999999352724,9.812605835254651e-21,1.274,1.0271551940870716,0,0.0,0.0,3.720154642239108e-13,-9.991600645811728e-18,2.150108433310316e-17,1.6859343782149594e-17,-8.453698244545225e-30,0.0,89.99999999919412,1.2659015405517447e-10,10.374487003414373
0.04,31.222215999994315,131.0103920000094,3.0000030495639742,18.83801224594347,-0.0001111777826462,48.68248476615645,-1.016330065874988e-05,3.3497854396877287,548.635972453808,0.1556173050466994,0.0975908358443652,69.99999999633813,-2.0932768807056278e-11,119.99999999352085,0.0148286043323172,1.274,1.027133720825283,0,0.0,0.0,0.0004573186944143,-1.3322134194415637e-17,-1.04744143520903e-11,1.336824254131964e-11,5.0626055458604615e-15,18.83801224625964,89.06236267790787,0.1555998412814392,48.79759610369246
0.05,31.22221599164764,131.01039201704114,3.002326315126219,5.772385609593056,-4.395076213712875e-06,71.20344550265034,4.905512691849684e-05,3.349217396035405,761.6984298824663,0.8326471944351852,0.3620326097059287,70.00000001316391,-1.0866255162484559e-10,120.00000000231074,0.4245281043148827,1.274,1.027093426565204,0,0.0,0.0,0.0024469331205246,-5.0245994431125096e-18,-7.32924164976824e-07,2.217344936947165e-11,1.895424184525467e-09,5.772385609594774,84.74112356985832,0.8326465040582279,71.28217104309611
0.06,31.22221596664444,131.01039206837547,3.015081730143309,4.056581213689704,3.169093567502233e-05,53.16249142470188,0.0001203825427859,3.3481235983850643,590.4875390737236,1.657216205300742,0.6755452977614796,69.99999964391398,-3.9285905645317736e-10,120.0000000287861,1.6816755551786196,1.274,1.027050317124926,0,0.0,0.0,0.0048701272653724,3.095757869075056e-13,-7.483541766772344e-06,3.074135420506017e-11,3.8518749565858254e-08,4.056581213813337,79.59316473687034,1.657221183301277,53.26781792157489
0.07,31.22221592883117,131.0103921460222,3.034593611434361,4.115662018628709,6.450869598349036e-05,81.18203554989698,0.0001593212642178,3.347059402768047,855.2937749779172,2.099899704220947,0.8579771146174259,69.99999543281565,-8.233801910783518e-10,120.00000006883089,2.700101932075157,1.274,1.027003201295312,0,0.0,0.0,0.006171060252819,3.4704292086287e-12,-2.6327204536316785e-05,1.9541142932033486e-10,1.7170712165327165e-07,4.115662019133419,76.90111966094352,2.099909837223217,81.2510043180746
0.08,31.22221588914193,131.01039222747755,3.0542761843835606,3.459696193892355,8.037433511260004e-05,16.298214211652088,0.0002413456836072,3.344878926597744,241.2171988638792,3.051964775152957,1.2149999716613011,69.99998042886442,-1.0128995578004475e-09,120.00000011111383,5.703497661025892,1.274,1.0269597189470347,0,0.0,0.0,0.0089689344021769,1.458982438104473e-11,-5.702803872814215e-05,7.043261397829576e-10,5.405702492731987e-07,3.459696194824858,71.30331929508368,3.051977400323993,16.63790856991177
0.09,31.2222158241468,131.01039236098703,3.0886872184095737,4.313676956300389,0.0001337561018991,50.35975918308536,0.0002293282821279,3.344215841840564,563.0937377043203,2.893161298572128,1.191209213966114,69.99994788602814,-7.098432023887522e-10,120.00000018106356,5.125380275808925,1.274,1.026918932011013,0,0.0,0.0,0.0085022553945842,3.8672912027154325e-11,-0.0001115933708951,2.016054215232918e-09,1.0027525988343615e-06,4.313676958370176,72.2316578138625,2.893182308931483,50.47067588835877
0.1,31.2222157788302,131.01039245392113,3.109877853389092,4.035124630954496,0.0001457499816535,47.804664812504015,0.0002878217657545,3.341734392237128,538.7437595981891,3.5677148583138303,1.4531247507621967,69.99988403958329,1.9248461973355822e-09,120.0000002323013,7.7939962029572305,1.274,1.0268846934974103,0,0.0,0.0,0.0104845969583028,8.579678749070606e-11,-0.0001726817043215,3.984565639703107e-09,1.913455350430327e-06,4.0351246335824245,68.43243098813296,3.567737752667411,47.92132267234452
0.11,31.222215703308,131.01039260899836,3.148841432727305,4.043401107254707,0.0001752764476999,37.67622367577205,0.0003286462930162,3.3392563999062723,442.86563930529127,4.034183355956686,1.6436552022667772,69.99978525353545,7.302513231814865e-09,120.00000031883242,9.96528118825134,1.274,1.026848594915519,0,0.0,0.0,0.0118554331868328,1.5870341853361987e-10,-0.0002596204409236,7.232030302688121e-09,3.252930323390323e-06,4.04340111104746,65.92012987243639,4.034210888316708,37.82391391539392
0.12,31.222215627491828,131.01039276462643,3.186995101203875,4.17874459224363,0.0002066711490009,41.15991989399172,0.0003576945202315,3.336766085769504,475.58594813540793,4.361857560629481,1.7865750500940407,69.99963665601238,1.781774420198147e-08,120.00000041104812,11.649831899889556,1.274,1.0268114448194128,0,0.0,0.0,0.0128183893919737,2.682972478760441e-10,-0.0003710216542429,1.2215991071490164e-08,5.026311388647148e-06,4.178744597345269,64.21681651392016,4.361890024457652,41.29495143136631
0.13,31.22221554594398,131.01039293200228,3.2277173449026786,4.202734874672792,0.0002327160860324,45.44886120763352,0.0003953741266062,3.333578629398489,515.9156326236897,4.792165672014363,1.9646716520715424,69.99942424225341,3.613383418913551e-08,120.00000051758742,14.061726603124043,1.274,1.026779572895131,0,0.0,0.0,0.0140829618979635,4.248908088871395e-10,-0.0005056103199642,1.908859219307828e-08,7.5253154423526356e-06,4.202734881104192,62.048594618540655,4.792202226971676,45.570952718869485
0.14,31.222215454191247,131.01039312033683,3.2737880595608355,4.184830647080848,0.000257138757548,42.32232525579263,0.0004369426767266,3.329727443445437,486.2390860568421,5.269261304374574,2.158791628597544,69.99913473613935,6.515851355725497e-08,120.00000064630268,17.000925061330125,1.274,1.0267449573927567,0,0.0,0.0,0.0154850332441425,6.382432869666793e-10,-0.0006690086306358,2.8426433029675884e-08,1.0948547100483978e-05,4.184830654966803,59.74181173116622,5.269301695636157,42.45310707234106
0.15,31.222215353826755,131.0103933263496,3.3242182719560263,4.21963947489699,0.0002846467688673,40.886944113003565,0.0004726792395108,3.325585650885676,472.5421858721398,5.6781946837482895,2.329510773545807,69.99875162806286,1.0876776246115984e-07,120.00000079954532,19.742017654108928,1.274,1.0267115958081523,0,0.0,0.0,0.0166867950518804,9.204756288136623e-10,-0.000865746478554,4.08948221429571e-08,1.526771148078443e-05,4.219639484480408,57.84996018384879,5.678239395958187,41.02196629910223
0.16,31.222215247130432,131.01039354534575,3.3775922280208457,4.253495568077899,0.0003118339050386,32.26872905470846,0.0005078415214353,3.32090791922544,391.1218908297597,6.081244877834229,2.4981889727471702,69.99825581174558,1.7187028096464329e-07,120.0000009800088,22.644030778355887,1.274,1.026675762255412,0,0.0,0.0,0.0178712695992133,1.2856146928958252e-09,-0.0010961187242953,5.6923362293832417e-08,2.0702404729358337e-05,4.253495579487569,56.06022383757386,6.081293860589489,32.43916312841722
0.17,31.22221513260033,131.01039378041813,3.4348437275053194,4.364838523348639,0.0003448792023946,40.840448242802736,0.0005326487904353,3.3162727284953744,471.78125980632416,6.362544479165355,2.6250789114832647,69.99762801982864,2.5997588617291615e-07,120.00000119506798,24.78723182122683,1.274,1.0266409836796937,0,0.0,0.0,0.0186979513961862,1.747791994374917e-09,-0.0013624931601664,7.706724512977917e-08,2.6923621797558364e-05,4.364838536947241,54.85936171416122,6.362598652663785,40.97486885600156
0.18,31.222215014088988,131.01039402363364,3.4935801365785646,4.353948305387995,0.0003681615230806,33.992183768165326,0.0005718025428208,3.310131992647221,407.1015672119096,6.81502088160835,2.810667639293692,69.99684761766231,3.794979223522764e-07,120.00000144728236,28.437950785509614,1.274,1.0266048342046536,0,0.0,0.0,0.020027681385988,2.3221419748804155e-09,-0.0016616990447559,1.0147209890543081e-07,3.517105786247627e-05,4.353948320923495,52.99157233768714,6.815078712285162,34.152972512863755
0.19,31.22221488419521,131.01039429023237,3.558399965607869,4.432620772533925,0.0003996774584738,38.45149959021069,0.0005986099513107,3.304145139297767,448.95313283182486,7.1223367465208405,2.946425726785696,69.99589577323147,5.440084577183829e-07,120.00000176148238,31.060341085698347,1.274,1.026566130444714,0,0.0,0.0,0.0209308229359413,3.022391489754689e-09,-0.0020041563310821,1.3135864879722746e-07,4.433199397898183e-05,4.432620790516937,51.77883352025967,7.122399527709208,38.59320142454953
0.2,31.222214751373183,131.01039456280608,3.624052454705669,4.443889400961181,0.0004246617145652,35.23432408779927,0.0006337972852267,3.2968110145188256,418.5156301991588,7.530482904611057,3.1167566004785483,69.99474776398331,7.478025600151903e-07,120.00000211715036,34.72195181863731,1.274,1.026529240027363,0,0.0,0.0,0.0221302820454282,3.866698391504749e-09,-0.0023849544920781,1.668144671071589e-07,5.57780533277244e-05,4.443889421210987,50.22448880200342,7.530549610317194,35.38822625098952
0.21,31.222214608673173,131.01039485566503,3.6948551453492566,4.493351735844891,0.0004538195602194,33.79371564104691,0.0006629296043866,3.2891790438445727,404.8187610144608,7.868284042829251,3.2629204975089228,69.99338155599101,1.0150082652278477e-06,120.00000255293388,37.906665490338085,1.274,1.0264923657015164,0,0.0,0.0,0.0231230169900677,4.871073773182836e-09,-0.0028117605859743,2.089322918608601e-07,6.870935089180403e-05,4.493351758715364,48.992529909481824,7.868355328639073,33.95340801819282
0.22,31.22221446109996,131.01039515850383,3.767700382407304,4.5412639153933885,0.000482649303782,41.008966751568416,0.0006914639179131,3.2808061382386606,472.5421858721387,8.20057841132235,3.4071691679735228,69.9917708347139,1.3454961520984431e-06,120.00000305929996,41.175744234065135,1.274,1.0264494137127138,0,0.0,0.0,0.0240995709751246,6.054779813287368e-09,-0.0032829112061357,2.580881224843564e-07,8.3609968899004e-05,4.54126394098788,47.82515604752711,8.2006542256977,41.13999323561041
0.23,31.22221430675399,131.0103954752338,3.843768625625224,4.52371495179584,0.0005047555656171,33.98493478127787,0.0007294889663961,3.2705214710765107,406.340642146096,8.647938096586296,3.5908865300848416,69.98989017772566,1.7539876018835507e-06,120.00000365514876,45.79040229326471,1.274,1.0264133390858623,0,0.0,0.0,0.0254142776666487,7.436335125872812e-09,-0.0038001790077148,3.1489825108822685e-07,0.0001020628978177,4.523714979897577,46.31461705147579,8.648017383405135,34.14194053232237
0.24,31.222214142622448,131.0103958120587,3.92493179063287,4.57837522350066,0.0005351929930195,35.051650311058864,0.0007555049947555,3.26053011385611,416.2328240017099,8.954297884844461,3.72617527247482,69.98771316795013,2.25257161141768e-06,120.0000043564586,49.09180568115741,1.274,1.0263750048312463,0,0.0,0.0,0.0263146218848643,9.034877387788232e-09,-0.0043732521010013,3.809642748985157e-07,0.00012161410144,4.578375254714954,45.32798984252032,8.954381952763216,35.20297212911011
0.25,31.22221397517227,131.0103961556623,4.0071748888306855,4.6034117733065,0.0005618935542827,36.03738579534623,0.000785606492708,3.249069743648399,425.3640807915084,9.311611941121669,3.8789349536029696,69.98520781816889,2.8559738498748624e-06,120.00000517181904,53.08749562138344,1.274,1.0263373768840591,0,0.0,0.0,0.0273647110956883,1.0873791100894836e-08,-0.0049950711786164,4.5609738277273444e-07,0.0001444478241125,4.603411807525074,44.2165428352526,9.311700203154778,36.183554686886296
0.26,31.22221379934012,131.01039651647062,4.09364247475714,4.621386912291471,0.0005881033207375,39.29107511182762,0.0008162761165496,3.236407051295005,455.80158342417656,9.67833954512075,4.034902068846398,69.98234620927953,3.5784678110229355e-06,120.00000612171208,57.350948423913096,1.274,1.0263006300381676,0,0.0,0.0,0.0284424679130479,1.2973286442992724e-08,-0.0056712051373577,5.414206381221602e-07,0.0001704578711045,4.621386949630312,43.12063533194282,9.678431924174348,39.42414126789902
0.27,31.222213616776543,131.01039689108487,4.183310605341074,4.617158109135719,0.0006115457810536,35.90419462403674,0.0008503454714941,3.221982799915672,423.8421996598744,10.088790784535757,4.205862468567124,69.97909721779352,4.436165972465058e-06,120.000007221354,62.31798301949865,1.274,1.026260090595354,0,0.0,0.0,0.0296487219805601,1.5355910600537293e-08,-0.0064045199323113,6.379142666348734e-07,0.0002006609239367,4.617158149547818,41.94410287616451,10.08888684592241,36.048472443180565
0.28,31.22221342607797,131.0103972823952,4.277051150896916,4.642105655370123,0.0006389739579882,41.51133203546672,0.0008785747638736,3.2071101123224945,476.3468732012228,10.432377224420517,4.35383399240675,69.97542808435722,5.446665372087172e-06,120.00000849080963,66.63429581008447,1.274,1.0262212716723291,0,0.0,0.0,0.0306584788590473,1.8045308789081613e-08,-0.0072006835403936,7.469524967369969e-07,0.0002332868227611,4.642105699250441,41.0023231023774,10.432477594215127,41.63503624837164
0.29,31.22221323001776,131.01039768469093,4.373143569786686,4.62134615173668,0.0006600657405645,33.17552944492765,0.0009148746278066,3.1894209319791806,397.9703104221098,10.876662296046485,4.536381530986506,69.9713027936179,6.629751536885327e-06,120.00000994797426,72.43000748232016,1.274,1.026183007522519,0,0.0,0.0,0.0319641703260467,2.1067646517035105e-08,-0.0080566154554079,8.688043379161898e-07,0.000272130659453,4.621346198772975,39.83162628795024,10.876765978930557,33.32848872465723
0.3,31.22221302403368,131.01039810736614,4.4744193758467325,4.664362353358112,0.0006905183788532,31.08096762732793,0.0009381960428197,3.172549142946348,378.1859457108735,11.168362145070317,4.66647911311536,69.96668711012893,8.005507138509574e-06,120.00001161892672,76.36634300732833,1.274,1.0261430389738484,0,0.0,0.0,0.0328214509167604,2.4447409007156216e-08,-0.0089829108229115,1.0056222251461646e-06,0.0003115527202986,4.664362404357781,39.09908960432563,11.168470611443622,31.242464973103964
0.31,31.22221281503337,131.01039853619727,4.576593712520673,4.700143580504286,0.0007196683316923,32.79732593144512,0.0009620705970519,3.154230688182399,394.1656220930229,11.470279728974068,4.800072153432283,69.96154070456518,9.597499105113692e-06,120.00001352112182,80.55022837857167,1.274,1.0261054058068628,0,0.0,0.0,0.0337087616009043,2.8214060606649844e-08,-0.0099686353219717,1.1565909895184251e-06,0.0003550834484269,4.700143635477137,38.36463422765983,11.47039277421126,32.94865339301887
0.32,31.222212598991007,131.01039897947376,4.68216432480395,4.718667719113184,0.0007464384342556,35.7316568886908,0.0009885845337584,3.133859770838664,421.5593934624264,11.808280530415894,4.946054328851105,69.95582953472353,1.14278227255889e-05,120.00001568218067,85.36654007972253,1.274,1.026068246703101,0,0.0,0.0,0.0347021168382987,3.2392058795580455e-08,-0.0110163301561155,1.3226102501723267e-06,0.0004039614423012,4.718667778018562,37.5686120062341,11.808397780690962,35.8688218659563
0.33,31.222212376029034,131.0103994369436,4.791055524254013,4.72141404831576,0.0007708346814671,35.42013590291081,0.0010176135371143,3.1111955852784385,418.5156301991632,12.181577273013426,5.104163223586657,69.94951809396906,1.351997394754887e-05,120.00001812674968,90.84831229869296,1.274,1.0260310883392356,0,0.0,0.0,0.0357992034445943,3.700677535501642e-08,-0.0121310534481307,1.5051409581878843e-06,0.0004588955105349,4.721414111097893,36.7208578211118,12.181698355442045,35.55651229220977
0.34,31.222212145785647,131.0103999093516,4.903491659547144,4.73024573449122,0.0007962944975467,27.63851074646407,0.0010446307681611,3.0871492806781062,345.4656368807584,12.53557620048282,5.2556261014174765,69.94256797855994,1.5899658158227497e-05,120.000020882338,96.20413272674828,1.274,1.0259901535019136,0,0.0,0.0,0.0368395817555172,4.208561016221623e-08,-0.0133180771902383,1.7057647550599631e-06,0.0005184333231541,4.730245801363397,35.94841996438923,12.535701282129995,27.810389570354005
0.35,31.222211909310875,131.01040039453565,5.018822212845608,4.780248518778662,0.0008286678570753,30.332092807652543,0.0010618579815451,3.063967690608957,370.5765700527057,12.774786382148209,5.367579971644358,69.93493776125636,1.8594985713558667e-05,120.00002397748868,99.9096898192772,1.274,1.025950003202184,0,0.0,0.0,0.0375426220587071,4.7658312175989686e-08,-0.0145774693288123,1.9252724355785177e-06,0.0005782798420984,4.780248590437683,35.44790728185619,12.774916548990808,30.486451961956565
0.36,31.22221166933814,131.0104008868675,5.135354490370708,4.798132156899578,0.0008554457330409,34.32674769697476,0.0010851169437774,3.0374319611165923,407.8625232777224,13.09301701329486,5.506730645516068,69.92658597246795,2.163521613217148e-05,120.0000274401514,104.94818266210537,1.274,1.0259105142325406,0,0.0,0.0,0.0384778908056978,5.3755109608570216e-08,-0.0158991451700967,2.162609490834569e-06,0.0006464142451675,4.798132232978766,34.796094028187134,13.09315138639638,34.46087058603792
0.37,31.222211421355144,131.01040139563804,5.255882891363927,4.797392186816851,0.0008791822061288,32.551601855236584,0.00111162791192,3.0078619428913056,391.1218908297639,13.457513730739372,5.661815946371007,69.91747693543164,2.5047738471809164e-05,120.0000313040604,110.87154396328836,1.274,1.025872170958032,0,0.0,0.0,0.0395491312153729,6.040098808671168e-08,-0.0172926678053148,2.420031948898497e-06,0.0007226353721561,4.797392267189059,34.07332166419882,13.457651832357364,32.69027405888565
0.38,31.22221116634284,131.01040191882743,5.379799334000849,4.811698494594017,0.0009057112478668,34.02947987649063,0.0011338447913587,2.9774881690446744,404.81876101445977,13.77554886562956,5.800899861213392,69.90756948297444,2.886339581486796e-05,120.00003560072224,116.17243393848278,1.274,1.02583050512925,0,0.0,0.0,0.0404838339452728,6.762496638941508e-08,-0.0187646375218858,2.69955777313946e-06,0.0008026686661094,4.8116985796350695,33.46655348088405,13.775691134419684,34.15949264475229
0.39,31.222210906095896,131.01040245274032,5.505993307722699,4.813508003664984,0.000929862892873,29.00025983045028,0.0011579891265804,2.9442136901860865,357.6406249338268,14.124492165837273,5.950648592462506,69.8968186645841,3.311602501056718e-05,120.00004036395212,122.13093644173792,1.274,1.02579027384009,0,0.0,0.0,0.0415093739609825,7.545934774906889e-08,-0.020311592409804,3.0013532510753577e-06,0.0008908380763632,4.813508093268025,32.821616487639595,14.124638228358922,29.149330452482886
0.4,31.222210638473225,131.0104030017851,5.635788650457906,4.841647069358873,0.0009592124397379,27.71178845184976,0.0011749448424961,2.91135549588368,345.4656368807565,14.390874239274588,6.07193451174791,69.8851815212744,3.783947407715338e-05,120.00004563180136,126.77947425345651,1.274,1.0257493418632293,0,0.0,0.0,0.0422922854866381,8.39343718693383e-08,-0.021938519432511,3.3271332720311508e-06,0.0009803271643914,4.841647164150728,32.348088166612904,14.391024912012275,27.864299944624147
0.41,31.22221036681104,131.01040355909262,5.767123077463226,4.86553909860892,0.0009876699832274,31.306062598221665,0.0011918093836199,2.876450850006428,378.9468707766882,14.663028799871563,6.195223154320929,69.87261222561014,4.307011032901644e-05,120.0000514391194,131.6183642808765,1.274,1.025708445186429,0,0.0,0.0,0.0430921644173401,9.308325447883581e-08,-0.0236371933433427,3.6760977501392174e-06,0.0010761942383903,4.865539198612839,31.87689439156756,14.663183942709727,31.437931330109585
0.42,31.22221008906472,131.01040412887247,5.901259531771367,4.867510642114694,0.0010118258958528,35.308283402190774,0.0012128114559048,2.8374461227958245,416.23282400171047,14.9952917972178,6.33928625560071,69.85906967380902,4.884273094936628e-05,120.00005782486392,137.64909586091787,1.274,1.0256701057426505,0,0.0,0.0,0.0440686959134695,1.0293499639582845e-07,-0.0254093547296826,4.049238334851429e-06,0.0011830797791891,4.867510747027452,31.315270489291198,14.995450734457847,35.422111438762386
0.43,31.222209804115888,131.01040471342728,6.038886819939341,4.854590670645608,0.0010330089741511,31.00586934514032,0.0012363751872706,2.794478603999558,375.90313951343126,15.369430568701889,6.497852263156962,69.8445117629242,5.519340856908871e-05,120.00006482835984,144.60167924299955,1.274,1.0256308158337524,0,0.0,0.0,0.0451682983415116,1.135186446762958e-07,-0.0272634397889413,4.449073329427772e-06,0.0013010625065656,4.854590780289497,30.70250814963406,15.369592833372094,31.13154422839874
0.44,31.22220951192321,131.01040531284193,6.180028459770617,4.866912332640401,0.0010595850174406,28.57707721036899,0.0012525768202179,2.752165534925872,353.07501253892326,15.659290812546615,6.627318538707029,69.82889155423543,6.216182865383864e-05,120.00007249162944,150.1053167542629,1.274,1.025586171750536,0,0.0,0.0,0.0460202245100907,1.2486676023179565e-07,-0.0292060158163984,4.8779154055816594e-06,0.001420032405556,4.866912447705031,30.24619499837236,15.659457251771938,28.709297424144207
0.45,31.222209215425703,131.01040592106523,6.322872201489905,4.881836476567178,0.0010866574689855,33.31904824532484,0.0012669045761511,2.7082028218433374,397.2093853562887,15.934249290371609,6.751662050993672,69.81215834018458,6.97909417564726e-05,120.00008085697964,155.42080512416243,1.274,1.0255397023523487,0,0.0,0.0,0.0468283602442113,1.3701614206272197e-07,-0.0312276295846745,5.334643585560923e-06,0.0015449645531859,4.8818365972149325,29.82567893138932,15.934419982127675,33.428929688274074
0.46,31.22220891307435,131.0104065412864,6.468371919199588,4.869610441729251,0.0011078049156487,38.95909776354321,0.0012868374716666,2.6582856015412624,449.7140588976424,16.292139278621757,6.904766425053949,69.79426683863348,7.812149592850748e-05,120.00008996920153,162.4785746623087,1.274,1.02549635315424,0,0.0,0.0,0.0478802236363867,1.499987870203256e-07,-0.0333272350234362,5.819761874615242e-06,0.0016858511402973,4.869610567434908,29.29014635640275,16.292313292210977,39.04968351401366
0.47,31.22220860266524,131.01040717804253,6.6178810515614845,4.838450928223533,0.0011247917292402,26.253747818137555,0.0013104398935566,2.6026193242279367,331.0078106302504,16.710658191447514,7.078951441335346,69.77517236812905,8.719457259907165e-05,120.0000998741591,170.9309671061642,1.274,1.025453319323251,0,0.0,0.0,0.0491102725711187,1.6384464803343264e-07,-0.0355167087264168,6.3368207228363735e-06,0.0018427306558807,4.838451058652396,28.68386015667837,16.710834873319172,26.382435512333956
0.48,31.222208284201663,131.0104078313267,6.771393590864176,4.869339340099417,0.0011561785713505,25.860860976019296,0.0013165328518772,2.5543454292827983,327.20312230115803,16.911139899671,7.177575416403102,69.75482343794755,9.70562828082882e-05,120.00011062072316,175.0543877818846,1.274,1.0254092882449153,0,0.0,0.0,0.0496995461609974,1.7858865391586845e-07,-0.0378054080201581,6.88909442277235e-06,0.0019849793891693,4.869339477030596,28.40887970825325,16.911321511776286,25.986704537635287
0.49,31.22220796480208,131.01040848648364,6.924537656029012,4.881367714530694,0.0011829003785372,32.565703383222065,0.0013261973190012,2.5011623511055703,389.6000096981238,17.169005224738054,7.296160258358563,69.73316318155707,0.0001077573203115,120.000122255028,180.4309832312717,1.274,1.025367445590036,0,0.0,0.0,0.05045746454003,1.942747077649401e-07,-0.0401641298712614,7.47069711110948e-06,0.002140948887153,4.881367857509675,28.058569663954906,17.169191034294997,32.66161128464712
0.5,31.222207637929923,131.01040915697027,7.081324512896956,4.862566137860805,0.001202418260511,33.47759680712428,0.0013425340759632,2.4399894027711366,397.970310422106,17.52898693231981,7.450304424940405,69.71015149227495,0.0001193385310595,120.0001348274002,188.0736471953394,1.274,1.0253278572281015,0,0.0,0.0,0.0515154948878309,2.109295159784217e-07,-0.0426011733481599,8.084173008518589e-06,0.0023184335011768,4.862566286171007,27.57768313050809,17.529175807738486,33.56639745442473
0.51,31.22220730314019,131.01040984370235,7.24202048914867,4.8479762258125,0.001223054804074,25.49162310288008,0.0013562860883156,2.3767006597692686,323.39843497208153,17.86914397471067,7.597652147346554,69.68574349602717,0.0001318441288964,120.00014838524436,195.4407439266201,1.274,1.025286455263166,0,0.0,0.0,0.0525152689856776,2.2858192086249162e-07,-0.0451315948093539,8.734206149830708e-06,0.002503767471626,4.847976379721193,27.13799345359824,17.86933609171003,25.602178740977283
0.52,31.222206962738102,131.01041054193402,7.405210501673173,4.865306299521403,0.0012516517170965,30.733671928447727,0.0013599291289974,2.317711624364424,372.098451184342,18.08534843773428,7.701914987606457,69.65988568649581,0.0001453248538387,120.00016298000436,200.19561780583155,1.274,1.0252426840672306,0,0.0,0.0,0.0531507657929359,2.4726951523704535e-07,-0.0477531686556663,9.421346966092632e-06,0.0026812161964639,4.865306460134566,26.8699055233151,18.085545046726228,30.820940596104087
0.53,31.222206619320115,131.01041124632013,7.569307468221277,4.848802699234936,0.0012715119568563,32.301199055744725,0.0013711327835325,2.2490252325653923,386.55624643486095,18.41963113311156,7.8474319110539055,69.6325258319474,0.0001598315062727,120.0001786629144,207.6614205945027,1.274,1.0251993415311351,0,0.0,0.0,0.0541332845214831,2.67031759303889e-07,-0.0504479325599339,1.0141887756417996e-05,0.0028848299490111,4.848802865552398,26.45837260670532,18.419830861742675,32.37940050117613
0.54,31.22220626697288,131.01041196903336,7.737918664599091,4.831496690588052,0.0012913635058467,28.31291960103712,0.0013809098107221,2.177242866245296,349.2703242098436,18.75116898748492,7.992112829440902,69.60362200959217,0.0001754082864028,120.00019548734956,215.20067397992847,1.274,1.0251561018460285,0,0.0,0.0,0.0551077428911958,2.878941684235108e-07,-0.0532336286085667,1.090122304443916e-05,0.003098869611663,4.831496862756785,26.061835558272342,18.751371834390056,28.396510432451375
0.55,31.222205908994248,131.01041270328463,7.909026079894722,15.583667740966511,19.664999119857367,30.720439458472708,-1.3368252415728843,1.3946302070072405,365.2500005919912,22.576858604022103,8.113323699629928,69.57312211246325,0.0001921068626005,120.00021350480982,311.9656824561849,1.274,1.025112921033824,0,8.77241248081048,0.0,0.0663511763773331,3.0989272306468813e-07,-0.0561100530405476,1.1700476995263424e-05,0.0039326558448982,24.8978919174017,43.03553878934265,25.605539229253623,30.78112239120741
0.56,31.222205546564343,131.01041344664463,8.081909946161325,4.780537962120508,24.43542107896346,28.636971832043983,-1.734799025702998,1.8659196277348025,346.22656194657776,21.236374093010184,8.244196224145494,69.54097415464405,0.0002099796112633,120.00023276987916,276.01540464623844,1.274,1.0250709539098009,0,8.804417249057844,30.000012855656493,0.0624117454002191,3.329453068617489e-07,-0.0676788746658307,0.0162031517425457,0.0044617788061879,24.87046571708101,45.7708016189014,24.95938023083733,28.750084163807706
0.57,31.22220518050852,131.0104142056356,8.258482545612129,4.777417616252289,24.162505567484256,28.326906051177424,-2.096457393515984,1.7873346155288408,343.1828296833045,21.495642554971504,8.3733987272815,69.50219571939748,0.0250463022753114,120.02674470608842,282.7913277168196,1.274,1.0250279191823897,0,8.836171976839463,30.000012855656493,0.0631738373408422,3.696373226539912e-07,-0.0706902112735877,0.0334270078845872,0.0047171196067464,24.602448089868595,45.3088789174958,25.179577036676427,28.460557005493193
0.58,31.22220480904931,131.01041497595037,8.436851649659761,4.760122830388752,23.88086595694437,37.261062202963664,-2.471476849731516,1.7057270375035145,426.12500585731766,21.760454172437992,8.501473141589061,69.46167707620214,0.0761268464922665,120.0812853605672,289.7968737971812,1.274,1.024981594484354,0,8.868005395768739,30.000012855656493,0.0639522245016661,4.168113650043551e-07,-0.0737872001697552,0.0509089641065776,0.0049843522362969,24.32337114639002,44.8370105894571,25.40398039733676,37.38187340193582
0.59,31.222204433213506,131.0104157587583,8.61798858981805,4.708751842190304,23.45484655539469,30.237310932260108,-2.878054886022134,1.6088016295196037,360.68438819710633,22.149394178665663,8.677297110209015,69.4193424815993,0.1536698851297141,120.16410335501584,300.243722295136,1.274,1.0249386802161349,0,8.899602943586945,30.000012855656493,0.0650954209121207,4.746215940187727e-07,-0.0769637860535777,0.068648948396813,0.005291763917246,23.89663217419548,44.13741483198254,25.73163026564401,30.416548374598282
0.6,31.222204048753017,131.0104165623594,8.804045371540411,4.6906789843377,23.18204739268224,26.89502286294287,-3.281382596677553,1.5215458220352895,329.4859594986072,22.40181574651564,8.800687652672504,69.37510528208378,0.257876502042004,120.27543024854133,307.12057647913906,1.274,1.024891335813742,0,8.931133674343036,30.000012855656493,0.0658374072997784,5.432145443718056e-07,-0.0802415487234801,0.0867533170315074,0.0055799068528543,23.626157801737367,43.692080143904825,25.944700807322132,27.13714849118365
0.61,31.22220366297608,131.01041737177576,8.990663436452992,4.673645933294424,22.919850243455024,31.49267859362523,-3.694390933265532,1.4327667348143809,372.0984511843332,22.64096885097663,8.918984772322673,69.32885113521644,0.3890908505243014,120.41565186617252,313.70735760360714,1.274,1.0248423929069768,0,8.962953879817174,30.000012855656493,0.0665404020337769,6.228171657248761e-07,-0.083595605490767,0.1050892611375618,0.005875097774535,23.36630617228534,43.26978962955711,26.145956511613967,31.740985332619495
0.62,31.222203272308448,131.0104181942716,9.179974654148054,4.635215995837783,22.56862313449116,39.118524004460326,-4.135169715612598,1.3324844371868374,442.86563930529206,22.959099608253744,9.067725261383952,69.28046466299554,0.5474346954236697,120.58491796883116,322.5793035866617,1.274,1.0247996097896497,0,8.994314778537321,30.000012855656493,0.067475512685906,7.135701160363858e-07,-0.0870227715496631,0.1236374548542159,0.0062017822257002,23.01531367131781,42.70841304597725,26.41320679851917,39.35904043088199
0.63,31.222202874796498,131.01041903376247,9.373116583610091,4.5753953030183245,22.130320276285104,22.24581565590153,-4.611272011817963,1.2188496077066235,286.11251274707456,23.36220341195376,9.249091565486353,69.22981664859498,0.7329798367919845,120.78332645113584,333.99990472755405,1.274,1.024756158874558,0,9.025564153297596,30.000012855656493,0.0686603618751569,8.155969846331837e-07,-0.0905363290023022,0.1424598376910433,0.0065653423374091,22.575060305914207,42.00819646232761,26.752634081819718,22.75138980654887
0.64,31.22220246951163,131.01041989201795,9.570599102963122,4.5756319210879886,21.95740387327408,21.84016065327212,-5.041298530463604,1.131928812926971,282.3078244179702,23.497152269830483,9.327615886300824,69.17675368250146,0.9458689625308312,121.01105269580692,337.8632598568275,1.274,1.024708534665538,0,9.056900667365555,30.000012855656493,0.0690571237518858,9.290588092535968e-07,-0.094150659014647,0.161623398973102,0.0068667471261057,22.405991460770263,41.754754172544686,26.862406907150607,22.443007175321327
0.65,31.222202066740216,131.01042074841124,9.76639614547178,4.556618849308868,21.705244845698427,38.4819275764162,-5.4956087397284525,1.0345718621467126,436.7781447787504,23.704821038822367,9.434091780468556,69.12109643821825,1.1863196386772423,121.26835412168704,343.8552836348154,1.274,1.0246641738210605,0,9.088393108994884,30.000012855656493,0.0696676072512369,1.0541928632736135e-06,-0.0978157002984076,0.1808749762837733,0.0071969675263137,22.155747815462387,41.37618840512029,27.033307314050383,38.8861261165813
0.66,31.22220165720376,131.01042162138748,9.965898056752188,4.4837786635107,21.225206255353704,32.73726872810184,-6.026426607018914,0.905525356576978,383.5125151715984,24.146106027520275,9.630441757631854,69.06268000168485,1.4541431913118028,121.55505548718644,356.7699167172189,1.274,1.0246195561629028,0,9.119086679847427,30.000012855656493,0.0709646875071623,1.1910508401609889e-06,-0.1015432871010572,0.2002706639421729,0.0076101688919053,21.67221964563063,40.62254247072283,27.404418276102547,33.29964801010881
0.67,31.22220123658188,131.01042251918,10.171500594600325,4.443641262529972,20.890436375519457,22.55914212904525,-6.5314572720409085,0.7913655058658449,289.15624401033847,24.431140240789425,9.76684709912542,69.00131613794657,1.7492088721747745,121.87104544956884,365.2354462918582,1.274,1.024572383541697,0,9.149840046171704,30.000012855656493,0.0718025611281444,1.3396976376945531e-06,-0.105374817816884,0.2200071531420829,0.0079903899229455,21.3371292992445,40.1188742832039,27.640378780695197,23.498959276079326
0.68,31.222200815094087,131.010423421698,10.377339911317428,4.425306839059032,20.653262065788034,28.12779685715091,-7.011619067476135,0.689060544891025,340.89999248584934,24.60149979589293,9.859244752622164,68.93677271967397,2.0716475884996783,122.2164951508502,370.3394949847174,1.274,1.0245245285832842,0,9.180992448602046,30.000012855656493,0.0723034118561667,1.5003698526147405e-06,-0.1092797535137538,0.2399310193688737,0.0083441116409238,21.101767875778325,39.78726130335702,27.7759046973465,28.996733650862623
0.69,31.22220039123396,131.0104243319174,10.584288506941828,4.378527792875561,20.29784402110495,34.594859695209294,-7.541626904290978,0.5675743865906908,401.0140726853658,24.897680625177056,10.00012373207498,68.86882010823432,2.421328408517687,122.5912978736568,379.3027704655896,1.274,1.024479631064582,0,9.211652572481842,30.000012855656493,0.0731740533844405,1.6732100259918432e-06,-0.1132350230032715,0.2599284744765784,0.00875003618892,20.745236878812783,39.26145582166865,28.019783861309527,35.41189905072949
0.7,31.22219995898545,131.01042526110345,10.795635623942683,4.31693734281791,19.88338755822169,28.990178190526432,-8.109004967880791,0.4333831700206027,349.270324209851,25.259421415742704,10.1663243955398,68.79722823655425,2.797919347572809,122.9951339315148,390.396768781549,1.274,1.0244351749185203,0,9.24199723633859,30.000012855656493,0.0742373832328249,1.858252966333876e-06,-0.1172617356021432,0.2800963091996273,0.0091926576657883,20.32807383204697,38.64016104868726,28.32038357939169,30.10604945952967
0.71,31.22219951984464,131.01042620610167,11.010462923108568,4.274737037470955,19.55495850075496,23.79023473345837,-8.650779200065417,0.3105850253995867,301.3312640634036,25.51312598354057,10.291075877527428,68.72173692886433,3.201195294650431,123.42780084877263,398.27019385136975,1.274,1.0243880468141104,0,9.272496202359372,30.000012855656493,0.0749832021213585,2.05560146015152e-06,-0.1213695879302338,0.3004756458180206,0.0096100569810077,19.998860647627048,38.17362887040197,28.525524026389924,25.31615516817939
0.72,31.222199078220942,131.0104271586291,11.226353595156132,4.238974806358336,19.256578450978413,29.09825519746564,-9.183212703397071,0.1917939779125219,350.7922053414578,25.72066410396639,10.398172761448857,68.64206284788665,3.6309513717605855,123.88912087398246,404.76766398630303,1.274,1.024337302174265,0,9.302939886174478,30.000012855656493,0.0755933417887448,2.265420744293904e-06,-0.1255360768087087,0.3209564788829561,0.0100206095004367,19.7003238083786,37.76682916514566,28.688855457346012,30.513548401040364
0.73,31.2221986325484,131.0104281215004,11.444133426939956,4.182306317800848,18.87333157109377,36.78283519247456,-9.765318183620227,0.0554417775523017,422.3203185282354,26.028413619210085,10.543983574775636,68.5579234259422,4.0867819152683404,124.37870392261298,414.503089009395,1.274,1.024292465384646,0,9.333062847644282,30.000012855656493,0.0764980092735861,2.487799325510717e-06,-0.1297501151434957,0.3414835251687625,0.010480687628305,19.314679346217236,37.2181394131044,28.93970685237629,38.05708183524831
0.74,31.222198178756784,131.01042910171915,11.665858890679385,4.108825381002877,18.423484225308847,22.928460974534048,-10.397890620515948,-0.0976971687318759,294.4828134710563,26.4211172266468,10.722651279996631,68.46903067704862,4.5681611677144645,124.89603403965684,427.09597768507376,1.274,1.0242470321640116,0,9.362984060406788,30.000012855656493,0.0776523669886648,2.7227557591144648e-06,-0.1340271064669188,0.3621243936195838,0.0109892713807232,18.86057048638565,36.55696132878369,29.265458622980876,25.176179153194045
0.75,31.22219771646571,131.0104300995202,11.891608796095143,4.074081094872533,18.137663617523348,26.74138057543409,-10.93748952041728,-0.2178862591029379,330.24688556441737,26.58217583266317,10.81218933726808,68.37507178888224,5.074617751374339,125.4406569595386,432.3094841623089,1.274,1.0241984712898409,0,9.392964298438969,30.000012855656493,0.0781259214968542,2.970349957430551e-06,-0.1383792224058698,0.3829307463422458,0.0114150305002118,18.574569011096717,36.195599684235546,29.3838865238303,28.89251782921224
0.76,31.22219725565615,131.01043109758723,12.116303554701023,4.016191148540864,17.758823158645058,28.73702344755152,-11.538560807604751,-0.3594465104317551,349.2703242098581,26.86407547733008,10.948424847976138,68.27571087304766,5.605707006607944,126.01215078132664,441.5177192669759,1.274,1.0241522053390697,0,9.422966496294023,30.000012855656493,0.0789546343168912,3.230771954357724e-06,-0.1427607444801558,0.4036892099775655,0.0119010970341556,18.19300861412863,35.67389579948911,29.609174098068213,30.969083033402516
0.77,31.2221967849445,131.01043211514784,12.345600858622117,3.9544679357584935,17.365897651362143,26.77695709995617,-12.154063726263107,-0.5058064907563143,331.76876669606884,27.157415832718304,11.089305438573732,68.17063759683077,6.160638158651542,126.60972481955189,451.20267031800233,1.274,1.0241065975906936,0,9.45237866671227,30.000012855656493,0.0798169802930928,3.5039705867745325e-06,-0.1471901189182691,0.4244812922846506,0.0124040591520774,17.796917004818194,35.13409488701767,29.843670826898432,29.41058545491825
0.78,31.222196308796686,131.0104331442541,12.5771744520685,3.896623279453344,16.99192518940479,21.846695785397248,-12.75889748605526,-0.6487413659640155,286.8734378128874,27.41470603890528,11.216386460912029,68.05951742622979,6.738691633482662,127.23266840297664,459.78236064730737,1.274,1.0240588105546735,0,9.48194323733311,30.000012855656493,0.0805733793657551,3.789979258955999e-06,-0.1516655190608388,0.4452936699702751,0.0129020143780472,17.420140319130592,34.63532616117911,30.044838389535524,25.3078732247353
0.79,31.222195827830088,131.0104341837266,12.810683581205916,3.8459713019291177,16.649248990768243,31.1465411870482,-13.336204996612306,-0.7832551598440439,373.6203323159581,27.61208505845837,11.320444900511584,67.94200893280605,7.339084229816451,127.88020592667098,466.41637080326217,1.274,1.0240083170932772,0,9.51135413874125,30.000012855656493,0.0811537013204329,4.0888418682606045e-06,-0.1561763785230683,0.4660760207888942,0.0133811020948189,17.07542603461108,34.20226120400198,30.190693010599627,33.890631157793145
0.8,31.22219534325228,131.01043523149707,13.04552271072669,3.769041050041433,16.201878779187805,31.464270481569883,-14.005425994868904,-0.9480452457460192,377.42502064505805,27.96771510383637,11.48600460834279,67.81777314625174,7.960919885621027,128.5514436400588,478.4973755155104,1.274,1.0239625010683884,0,9.540527116588487,30.000012855656493,0.0821991387776901,4.400584002642393e-06,-0.16070794613515,0.4867593862024981,0.0139463922986864,16.623049218882723,33.5801521066682,30.47891845673829,34.45360741668601
0.81,31.222194847101857,131.0104362995251,13.285255494800133,3.696318846516245,15.773884725433552,20.162196691222977,-14.66177941424497,-1.1089698851439376,273.9374926939922,28.28511670606644,11.636993645586196,67.68648023037392,8.603168609236326,129.24534655466735,489.4085337374359,1.274,1.0239149950770308,0,9.56941645874492,30.000012855656493,0.0831322299063473,4.725087910903583e-06,-0.1652836074384235,0.5074435079253617,0.0145059207120307,16.190465647291994,33.00071186494403,30.731691485788144,24.954193339270585
0.82,31.222194345749767,131.010437377614,13.526868428924784,3.644833772252505,15.43388218339874,25.982944849678592,-15.225279253924256,-1.241381307183372,328.725004432774,28.4399888376644,11.72499568292808,67.54777576424823,9.264894950474812,129.96098507170453,494.7711342181016,1.274,1.0238644186635044,0,9.598474567208696,30.000012855656493,0.0835876393953689,5.062385295341124e-06,-0.169891485278374,0.528071755695935,0.0149916177162704,15.848235253732474,32.5967711742938,30.83512458630238,30.140729569325956
0.83,31.22219384347506,131.01043845946964,13.768484054188324,3.571535545018948,15.008011385490484,33.111660028349704,-15.873060103188536,-1.401433597461658,395.6875032246518,28.73467811093436,11.867575697266748,67.40131432980012,9.945048256968455,130.69730841506887,505.065969008488,1.274,1.0238188483711983,0,9.62733180785212,30.000012855656493,0.0844539874205053,5.412543243629763e-06,-0.1744984272120379,0.548497522726747,0.0155573363378304,15.417623626085575,32.03446027850606,31.06526503976361,36.74642952724171
0.84,31.22219332969572,131.01043956010733,14.014610039923058,3.4863601487578486,14.536601159385636,19.956876961022648,-16.573983271186897,-1.578813916457233,275.45937482564227,29.106268929572725,12.040452912800324,67.2467841703322,10.642353468234388,131.45302567614104,518.2009972378378,1.274,1.0237739661568126,0,9.655770395875336,30.000012855656493,0.0855463661899221,5.775371542234382e-06,-0.179123392378198,0.5687997747052357,0.0161758073445269,14.940063353649869,31.38903782769756,31.36525467390403,25.989738607646263
0.85,31.22219280643449,131.01044067592633,14.26419685057682,3.428442240230417,14.175604229267014,21.713045673224368,-17.13256092335181,-1.7134195598166209,292.9609323393965,29.254997434601407,12.126541425750544,67.08385868953624,11.355611986131228,132.22693103358077,523.4978328962077,1.274,1.0237227741398531,0,9.68432296355067,30.000012855656493,0.0859837369349574,6.150753888881085e-06,-0.1837735125795689,0.5890043655851753,0.0166801400835606,14.57604530227189,30.9696237875802,31.45904871661365,27.71131182004654
0.86,31.22219228457549,131.01044179193812,14.512730016127108,3.356683082942243,13.761447274705496,27.333427833249484,-17.74629392577561,-1.866564082346692,346.2265619465616,29.49463563890221,12.24835253648021,66.91220827868419,12.083631972869634,133.01782833705403,532.0965766702104,1.274,1.023674789281455,0,9.71282634796702,30.000012855656493,0.08668830372503,6.538781689175741e-06,-0.188405698149227,0.608925712886559,0.0172402443246038,14.157231498661735,30.45138125755472,31.635555230047068,32.642476724185386
0.87,31.22219175221114,131.01044292400138,14.765014022715064,3.273939258175852,13.305245325348409,25.19049429345626,-18.409720700869048,-2.036288927807961,327.9640783669946,29.80946869124812,12.399990268867429,66.73155580466491,12.824969790396082,133.82424961528758,543.5034968519611,1.274,1.0236288969245204,0,9.740795551197424,30.000012855656493,0.087613885553432,6.939225511990059e-06,-0.1930294777058891,0.6286018505761015,0.0178514581534728,13.69506556504782,29.854604113768872,31.88071815220996,31.26700004205987
0.88,31.222191210603714,131.01044406973688,15.020361553918228,3.196220846156385,12.870763622585873,21.387510084140565,-19.03229875351448,-2.195127284953035,294.4828134710421,30.06815859986189,12.529883533115326,66.54162491290899,13.578222322445477,134.6447716063169,552.9640361813457,1.274,1.0235805388426191,0,9.768786580022445,30.000012855656493,0.0883744632728419,7.3518791611548274e-06,-0.1976508617991712,0.6480533696186676,0.0184370197055106,13.2551850663198,29.30882879162097,32.07293285083555,28.71363033890679
0.89,31.22219066375809,131.0104452237669,15.277148394689922,3.1214749940841475,12.449392993846011,23.43320503927514,-19.61866341019335,-2.344822871928616,315.02813424808807,30.28405548061836,12.643192274157723,66.342144504246,14.342007606773445,135.4779945090966,560.9195513932121,1.274,1.0235293752791452,0,9.796719337599228,30.000012855656493,0.0890092718502732,7.776643158581563e-06,-0.2022542687137034,0.6672129004617594,0.0190014260048515,12.828762187390812,28.79795858734849,32.224250348147514,30.65134983513595
0.9,31.22219011098445,131.01044638679713,15.535600227527173,3.039258235198669,12.000578939718263,25.880107633940163,-20.235148219968863,-2.505436010478128,339.3781423542166,30.550681490724568,12.776841655304336,66.13287434221856,15.114865347644876,136.32243292647289,570.8257252136442,1.274,1.0234837388140003,0,9.82441732935238,30.000012855656493,0.0897931865622446,8.213366316516233e-06,-0.2068265675563099,0.6860240893935691,0.0196015724738936,12.37398437327674,28.2356677222367,32.42197566037788,32.94720631906501
0.91,31.22218954869432,131.01044756271835,15.796938543466895,2.952444203010611,11.535827417840911,18.98674226177152,-20.86665186439064,-2.6724180254306207,277.7421810230785,30.84567277586548,12.922118405271748,65.91360544662494,15.895281931935465,137.17654204323938,581.8878999790551,1.274,1.023436404813438,0,9.851908828607623,30.000012855656493,0.0906604789809505,8.661779348420333e-06,-0.2113688485640771,0.704488171951764,0.0202249759714388,11.90269358398112,27.644878462274853,32.64549861320321,28.33823141706738
0.92,31.222188977389287,131.01044875043675,16.060854345561996,2.875211344013102,11.108826750514144,22.82005629722285,-21.40446118568481,-2.813583272654723,315.0281342480675,31.03019592417012,13.023882118968157,65.68414577986374,16.681766872351567,138.03880032115185,588.8556685285662,1.274,1.0233859136578225,0,9.879324882989042,30.000012855656493,0.0912030942820934,9.121623312955198e-06,-0.2158782603979832,0.7225901292766681,0.0207795053718804,11.470353362003666,27.14505714899994,32.76425416729276,31.413725963184792
0.93,31.222188403049607,131.0104499430232,16.325203458180304,2.787043343939243,10.642212408378011,27.385678083300206,-22.002979642174648,-2.9749654583349456,359.16250706547066,31.307382614082165,13.16287877301878,65.44432600196083,17.472840571857535,138.90769547629455,599.4077042881056,1.274,1.0233407575091376,0,9.906632171934737,30.00001285565649,0.0920180681970172,9.592760002586008e-06,-0.2203314436729815,0.7402345993559922,0.0213970545235718,10.997033599986676,26.56235609856109,32.96946187855077,35.2555938355091
0.94,31.222187816312857,131.0104511504227,16.593118108450966,2.6927120213043105,10.154251044960247,18.88658025924026,-22.63271235672577,-3.1477708441711942,283.06875048378083,31.6357573609126,13.3228665043487,65.19402629770808,18.266955012456204,139.78163636599575,612.0319528983317,1.274,1.0232914783978162,0,9.933612254623116,30.000012855656493,0.0929835021347612,1.0074786624694522e-05,-0.2247346312189225,0.757443245306314,0.0220530070060823,10.501591784388143,25.9356526501548,33.22244686141345,29.64542197032158
0.95,31.222187218718776,131.0104523703146,16.86391118548111,2.60999622700652,9.7107678039923,25.090280861977785,-23.132449653659087,-3.284524210979564,342.421873617488,31.819376649932387,13.42526767076012,64.93314222503733,19.06263346735972,140.6591054482163,619.1411432208748,1.274,1.0232418269359267,0,9.96058829269218,30.000012855656493,0.0935234798653138,1.0567340769375942e-05,-0.2290871570986616,0.774209048034168,0.0226100068300819,10.052150589649855,25.420693751066324,33.33744826073357,34.28440636797598
0.96,31.222186618903176,131.01045359365847,17.134731429364006,2.513859047274575,9.220135318895656,24.25626300736433,-23.72948395524878,-3.4524196545282213,337.09533515678265,32.13927359544868,13.582930532202704,64.66159358106067,19.85844355964928,141.53862867924485,631.636396869356,1.274,1.0231951201821403,0,9.98748822009976,30.000012855656493,0.0944640093002009,1.107027089354334e-05,-0.2333613338309819,0.7904234256093579,0.0232627976289094,9.55383335853955,24.79701589058564,33.58132635820732,34.10826740448441
0.97,31.22218600284496,131.01045483412838,17.409958984099617,2.419847135824452,8.73867561850194,13.986385398348474,-24.278960450542204,-3.60883497347364,245.0218871929888,32.41932898747351,13.725155830448498,64.37935982780152,20.652900618832703,142.41866773100435,642.6752831536121,1.274,1.0231476260761452,0,10.01403065932008,30.000012855656493,0.0952874462528482,1.158302835353976e-05,-0.2375674653561433,0.8061219881554843,0.0238878186610931,9.065022399540544,24.201473203552855,33.78668130965696,28.250851083390295
0.98,31.22218537952828,131.010456082379,17.68664263648906,2.335729896732903,8.293848084508305,21.82404610895916,-24.686026580642928,-3.726016194833832,319.593746642963,32.554571047737994,13.809061448048285,64.08643313469284,21.44462619159781,143.29779422159774,648.0312784053789,1.274,1.0230935628253934,0,10.040639574447164,30.000012855656493,0.0956852507494146,1.2105285317421834e-05,-0.2416918589140828,0.8212490963943748,0.0244032667139403,8.614254864741804,23.70702566758746,33.85282063028943,33.159796344223054
0.99,31.222184754074537,131.01045733365478,17.96324611029286,2.237225632992802,7.799983457492697,23.94308214414368,-25.219080313871675,-3.882984364254104,341.66094855170127,32.85974357869838,13.962616233312866,63.7828494535876,22.232259890363743,144.1745915332245,660.2202136323373,1.274,1.0230490803133316,0,10.06704032267478,30.000012855656493,0.0965825233078362,1.2636815856851863e-05,-0.2457089360099867,0.8357092558855853,0.0250407626310207,8.1125802924587,23.08873464977163,34.08118115615775,34.99072394237884
1.0,31.22218411064273,131.0104586019198,18.24434164125004,2.1380721047444555,7.305617543016681,20.67761005798619,-25.729703792872844,-4.036185597900094,314.2672081822764,33.16084730179955,14.115303421498847,63.46870509065951,23.014431921018023,145.04762294472815,672.3570909952657,1.274,1.022999484445133,0,10.0930941963196,30.000012855656493,0.0974678471866365,1.3176913428686612e-05,-0.2496313487619402,0.8495440964563815,0.0256729306344106,7.610426864321496,22.472681372906628,34.305304022950665,33.25465394737709
1.01,31.222183457991463,131.01045987872538,18.52722026410312,2.0416133802636933,6.82263263950058,21.5447483329868,-26.169487570107783,-4.171459808626586,324.92031610370094,33.40630484648938,14.245796578304237,63.14410725944019,23.789900767161523,145.91558423369233,682.3290043842137,1.274,1.0229507481225095,0,10.119231011928134,30.0000128556565,0.0981896204000322,1.3725115145972726e-05,-0.2534499139155382,0.862715762304171,0.026257870021332,7.120167146159734,21.892500705849358,34.47547059620662,34.152881830802365
1.02,31.22218279700172,131.01046116317266,18.811599143185862,1.941923455878544,6.330751270212396,16.857908029031346,-26.614699855063243,-4.311330178090689,284.59063161543185,33.684143863742506,14.390351825419817,62.80920224970082,24.55747919491132,146.7772209375926,693.7070658791449,1.274,1.0229039803623294,0,10.145198487170251,30.000012855656493,0.0990065775796948,1.4281006855696143e-05,-0.2571497158704658,0.8751690968888385,0.0268620162074242,6.62073396358353,21.290111429267164,34.67655374832612,31.79809553094176
1.03,31.222182122967887,131.01046245878808,19.098680762731483,1.845477228857118,5.851045841679042,12.498387225506915,-26.97025470264288,-4.4278807969573775,247.3046933904342,33.891205504231046,14.506221043229322,62.46418279406394,25.31602457622793,147.6313167476423,702.2425656790517,1.274,1.022853416101322,0,10.17097437924344,30.000012855656493,0.0996155090072903,1.4844002608633731e-05,-0.2607255937126962,0.8868818521380138,0.0274022201955277,6.13422167106513,20.72984668963589,34.80868903111128,30.053459872637106
1.04,31.222181442412868,131.0104637600154,19.38663453159621,1.7500295120383196,5.375934729897014,22.88097503305484,-27.26226365622028,-4.528788139215699,345.4656368807608,34.059871687672185,14.606597661455089,62.10927521128135,26.06447217812017,148.4767302965396,709.2300371512129,1.274,1.0228049544826707,0,10.196669047671172,30.000012855656493,0.1001115902661719,1.5413657471597754e-05,-0.2641621556241852,0.8977989564321267,0.0279008006593449,5.652812071399762,20.189918143786244,34.9030830456524,35.8786839242251
1.05,31.2221807540584,131.01046506770533,19.675761588941448,1.6439214901847077,4.870024144423115,11.136757405057084,-27.692278179773016,-4.673662942716072,240.4562587980608,34.40845086003228,14.783254844555408,61.7447524732596,26.80181014533993,149.31236651702818,723.8011783167356,1.274,1.022755494436122,0,10.222122648488424,30.000012855656493,0.1011364929357399,1.5989442564118594e-05,-0.2674482797482975,0.9078815186998048,0.0285361860482309,5.139367800144922,19.54555188574273,35.17251167541512,30.211467385533325
1.06,31.22218004455701,131.01046639121952,19.969306753886368,1.5484940974399788,4.3977689470007215,18.208062023011028,-27.884504652707182,-4.751510560603574,308.1796836557233,34.53336482914976,14.86640007976641,61.37092785705086,27.527096614684048,150.13719546423025,729.0454342682117,1.274,1.0227013895379469,0,10.247359165290357,30.000012855656493,0.1015039878109004,1.657041872683482e-05,-0.2705920884548021,0.9171477034207276,0.0289756205515161,4.661919639355656,19.025980707718457,35.223486661653915,33.64009475266371
1.07,31.22217933813819,131.0104677127318,20.261175598814543,1.4441017732800887,3.902005546076301,22.292742873583595,-28.20195540997232,-4.869736646723998,348.5093681440431,34.82579644045245,15.021263006341076,60.98812918777839,28.2395036700402,150.95030227001544,741.4241718399207,1.274,1.0226540159946436,0,10.272662644017728,30.0000128556565,0.1023638697546622,1.7156358933115458e-05,-0.2735665642261551,0.9255126753945548,0.0295413714238973,4.160270665063692,18.41543755517378,35.43824835698294,36.27714168429241
1.08,31.22217860939727,131.0104690499111,20.557504124794807,1.3380705194952025,3.4042495712782737,12.44805519450035,-28.5156412471362,-4.990413628923766,261.0015785751465,35.14736296165575,15.189807261102404,60.59674304461015,28.93823748377908,151.75079625015525,755.1578794639283,1.274,1.0226061614050743,0,10.297514128946416,30.000012855656493,0.1033093994249379,1.7746276952769182e-05,-0.276377558401251,0.9329872061641876,0.0301196375381108,3.657491002445155,17.792285212644906,35.68178666851413,31.51190413238227
1.09,31.22217786730263,131.01047039585467,20.85596089440121,1.2382185335939588,2.925328354164107,10.57012196890056,-28.639980617558034,-5.058168023091257,246.54375332456465,35.30461179984614,15.288625427436562,60.197171666774366,29.62261012547467,152.5378927617738,761.9082866283583,1.274,1.0225512795791307,0,10.322443350650277,30.000012855656493,0.1037719537991963,1.8339429020011565e-05,-0.2790184034381844,0.939543314312694,0.0305426038582975,3.176381371838249,17.252641566753216,35.76392168935948,30.94448306178917
1.1,31.22217712263444,131.0104717434857,21.1540518479978,1.1366575205694602,2.444073750905181,28.441870330135327,-28.751830318458268,-5.125548123936811,413.1890617384087,35.48605218159397,15.39852905084394,59.78984841032245,30.29200693639846,153.3108763155962,769.7376957042125,1.274,1.0224981043155532,0,10.34725135229991,30.000012855656493,0.1043056180625583,1.8935432712239284e-05,-0.2814700927010179,0.9451276959069124,0.0309684363883753,2.695311309424517,16.701018899587492,35.86984996884907,40.766149905386456
1.11,31.222176364571272,131.01047309956405,21.454197692032626,1.0252470982821886,1.944087045787756,18.4324662192715,-29.09601994538152,-5.2664184129838265,324.1593910379213,35.947717433524204,15.631928353515622,59.3752502591344,30.945869368431463,154.06908088910092,789.8734208499645,1.274,1.0224548851875197,0,10.371735931257852,30.000012855656493,0.1056629676667916,1.9533504523826136e-05,-0.2837277095968432,0.9497227692249844,0.0316220402043017,2.1977721964471653,16.024413927655782,36.25303531960773,34.84349796572151
1.12,31.22217557506145,131.01047447423565,21.76014876100562,0.921432243010988,1.4638864352364844,1.6272745188538775,-29.17769849534808,-5.332317566908627,172.7328179403806,36.17330370670342,15.763363272588403,58.95387962958648,31.58371667742004,154.81191518917964,799.7945649203895,1.274,1.0223979224661404,0,10.396102501951498,30.000012855656493,0.1063264120437584,2.013229379859376e-05,-0.2857983486847808,0.9533267354946476,0.03205176445037,1.7296867105045566,15.458132263559293,36.40322543345849,29.705550364864663
1.13,31.222174786516085,131.0104758478766,22.06482130484432,0.822584196278555,0.9946879887107016,22.60755471168349,-29.030388540636807,-5.332364208798276,367.5328077894322,36.20003839400856,15.807330806938928,58.52625229378358,32.205148145675096,155.53886590464177,800.9537744340602,1.274,1.0223460397860296,0,10.420652395179468,30.000012855656493,0.1064053607772376,2.0731535767372208e-05,-0.2876611023342546,0.955890080048984,0.0322835670900202,1.2907288540276516,14.976575687987744,36.35627576957263,37.17928316841749
1.14,31.22217399737133,131.01047722188326,22.368673353858085,0.7133045836595776,0.513270328790783,8.380568003645777,-29.22898284320564,-5.441102997098298,239.6953177322812,36.62811720381957,16.031055784736385,58.09292422116975,32.80981419052719,156.2494645815234,819.9849951981347,1.274,1.0223022138470996,0,10.44481830919302,30.000012855656493,0.1076640125850561,2.1330894486889296e-05,-0.2893018269709957,0.9573899417959664,0.0328506857575691,0.8787697358909001,14.334988690351372,36.70874044018043,30.889690188429746
1.15,31.2221731678404,131.0104786175422,22.679693107898263,0.611454138438577,0.0443888377250182,7.877379585810495,-29.08564464681641,-5.449594968545092,237.4125115347709,36.740704252871694,16.11471643981078,57.65447918399361,33.397431458963226,156.9433057052565,825.0090151454781,1.274,1.0222426194541194,0,10.46864817427908,30.0000128556565,0.1079953279144714,2.1928641191335315e-05,-0.2907293355681392,0.9578127217139756,0.0331132666805368,0.6130631758037008,13.821790082712075,36.74767683449911,30.622310804069244
1.16,31.222172349289373,131.01048000675422,22.98741609821805,0.5080548046920772,-0.4218578278149007,35.21939462847823,-28.9659925082995,-5.468784450778897,490.043774385954,36.91959447683127,16.228969792865616,57.21151342752455,33.96777380648631,157.62003678489725,833.0378766878055,1.274,1.02219674531104,0,10.492765950136633,30.000012855656493,0.1085215332317932,2.252469415636087e-05,-0.2919270846131487,0.957141258336692,0.033410591918618,0.6603628147571045,13.287270141657205,36.853329802910665,45.927574324760776
1.17,31.22217151119392,131.01048140569372,23.29793051560464,0.3985044894234113,-0.88041495972624,-1.752779426709046,-29.199544432763755,-5.601418448309572,153.70937929500428,37.51343915654522,16.534784185601684,56.76464786572705,34.52067711934111,158.279364909945,860.0262624997349,1.274,1.022149394360584,0,10.516365528401671,30.000012855656493,0.1102674679092136,2.3118079097739644e-05,-0.2928921592142189,0.9553636290562983,0.0340592069422669,0.9663973459079565,12.615296750316343,37.37514934034078,29.783578015958764
