Time,Latitude,Longitude,Altitude,Angle of Attack,Angle of Sideslip,X-Acceleration,Y-Acceleration,Z-Acceleration,Thrust,True Velocity,Ground Velocity,Pitch,Roll,Yaw,Dynamic Pressure,cp,parachute_deploy_gain,Wind Speed,Mach,omega_x,omega_y,omega_z,Cmq,Angle of Attack(total),Angle of Attack(gust),True Velocity(gust),Acceleration
0.0,31.222186000000004,131.010384,3.000000003643237,0.0,0.0,0.0,0.0,0.0,2.2828121974499247,0.0,0.0,69.99999999623421,0.0,113.69999999388332,0.0,15.288,0.0,0.0,0.0,0.0,0.0,0.0,-0.0,0.0,90.0,0.0,0.0
0.01,31.22218600000153,131.01038399999584,2.99999882256592,0.0,0.0,0.0,0.0,0.0,34.24218696174923,7.502283530665459e-11,7.190531319924593e-11,69.99999999623329,-4.83564628150269e-13,113.69999999388072,3.446445726795683e-21,15.288,0.0,0.0,2.204725565824978e-13,-3.659182332138578e-19,7.589415207398531e-19,4.811147140404426e-19,-1.5108918610345807e-31,0.0,89.9999999995224,7.502283530665459e-11,0.0
0.02,31.22218600000288,131.01038399999217,2.999997775701936,0.0,0.0,0.0,0.0,0.0,25.871876237766408,1.5320717031631675e-10,1.4674636035870463e-10,69.99999999623222,-9.67129256300373e-13,113.69999999387804,1.4372842949972735e-20,15.288,0.0,0.0,4.5023593667086093e-13,-7.284483346386986e-19,1.5178830414797062e-18,9.757819552369542e-19,-6.170906918166791e-31,0.0,89.99999999902465,1.5320717031631675e-10,0.0
0.03,31.22218599928065,131.01038400193067,3.000201659671132,18.81500467334555,-0.00012974450181,11.96616230539064,-1.8916256735984712e-05,3.349833086198469,180.34219359854663,0.0882870268161719,0.0553390044312322,69.99999999799445,-4.212591857125379e-12,113.69999999488518,0.0047728553458352,15.288,0.0,0.0,0.0002594525584132,3.2187251995663407e-17,-7.20264389268894e-10,1.2365134327422308e-11,1.6874092354518158e-13,18.815004673776716,89.46786891739345,0.0882666465974854,12.426199017587786
0.04,31.22218599548236,131.0103840121632,3.001799604587872,9.46752327608497,-4.6177622759613696e-05,55.21900012092241,3.931876292165237e-06,3.349616504302861,548.6359724538078,0.3767519978512604,0.1853356633749705,70.00000000507204,-2.4624598767003407e-11,113.70000000019972,0.086915163246288,15.288,0.0,0.0,0.0011071759353184,1.6174128009138757e-15,-1.3693172015529268e-08,2.7753303060112748e-11,1.3689612277852356e-11,9.467523276196548,87.63554493451223,0.3767447442872393,55.32050167054111
0.05,31.222185984749512,131.01038404118162,3.00777936418888,5.376730308971262,-2.257790939128127e-06,80.28807156553681,5.266841443842784e-05,3.348887800834877,761.6984298824644,1.018787885905993,0.4366201147110198,70.00000000894464,-1.1355399380652658e-10,113.70000001523856,0.635552918586145,15.288,0.0,0.0,0.0029939522895272,1.6418815498809788e-14,-9.32122351075408e-08,4.303264669380585e-11,2.5199270302492604e-10,5.3767303089717045,83.57022052969386,1.0187875312530217,80.35788377762394
0.06,31.22218596447235,131.01038409608267,3.0201664202003013,4.296730121134882,2.4863835723705905e-05,60.21296515808257,0.0001057204249726,3.347700952379021,590.4875390737208,1.721098934225416,0.7081674028809783,69.99999995523842,-3.0560354507026086e-10,113.70000004366592,1.8138247671743823,15.288,0.0,0.0,0.0050578622752421,8.328976953118383e-14,-3.2824985336199985e-07,5.923438275930214e-11,1.4991363363716091e-09,4.296730121206683,79.20467073327266,1.7211028398275985,60.305955550063224
0.07,31.22218593493329,131.01038417609837,3.038741944736831,3.8204913578752526,4.8016684030909405e-05,91.4060317508128,0.0001597686613101,3.346072557365335,855.2937749779139,2.4375792548422868,0.9844712334613328,69.99999973536046,-5.939103491363046e-10,113.7000000850886,3.6383156301599167,15.288,0.0,0.0,0.007163413150771,2.709313825263564e-13,-7.906546256197275e-07,7.920022733617308e-11,5.114174483651565e-09,3.820491358176508,74.87999294483174,2.437586797285377,91.46725557277466
0.08,31.222185894468456,131.01038428575305,3.0647976109320942,3.588632851766762,7.220043782492885e-05,19.18449428359557,0.0002119618497595,3.3440615022685813,241.2171988638848,3.1292508166901074,1.2522236515868983,69.99999919480445,-9.914748373602156e-10,113.7000001418522,5.996012698481753,15.288,0.0,0.0,0.0091960591623389,6.80386533246681e-13,-1.5973238302190878e-06,1.0839624626357699e-10,1.3263625118823921e-08,3.58863285249208,70.86684630658345,3.1292621579083604,19.473766155861934
0.09,31.22218584634549,131.01038441616095,3.0957981580345013,3.551302481506045,9.685468678862004e-05,57.102946699906326,0.0002554087225869,3.341892818148368,563.0937377043176,3.701810007254615,1.479132491047967,69.99999812344194,-1.4359264356978275e-09,113.7000002093888,8.390904013834115,15.288,0.0,0.0,0.010878666406854,1.440096519545733e-12,-2.748643691533636e-06,1.5214952332699618e-10,2.6999776649034504e-08,3.5513024828250237,67.68737872952666,3.701825221153239,57.20065357568538
0.1,31.222185790329306,131.01038456796124,3.1319266121977414,3.608446747536112,0.0001234669721807,54.26147302645416,0.0002914860332524,3.3396271157106168,538.7437595981919,4.174070299823608,1.6716491241860567,69.9999963052332,-1.902380107712657e-09,113.70000028805804,10.668380938744466,15.288,0.0,0.0,0.0122665227999911,2.687800116751415e-12,-4.315796035622946e-06,2.1749089204950437e-10,4.7802076800548326e-08,3.608446749645647,65.17160335282355,4.174089693970246,54.36414778470795
0.11,31.222185727066616,131.0103847393952,3.172681775073216,3.633547373470009,0.0001485939126744,42.987553988990406,0.0003293995000288,3.337005588796181,442.8656393052949,4.672024955140527,1.8729475711242067,69.99999349387662,-2.3433348587116544e-09,113.70000037699285,13.365573690709628,15.288,0.0,0.0,0.0137298902182575,4.5789425819531184e-12,-6.340230783164189e-06,3.1157625832417107e-10,7.860218435507205e-08,3.6335473765043056,62.62546922225161,4.672048296217748,43.116880735560244
0.12,31.22218565692512,131.0103849294629,3.2177790417108385,3.650108937861461,0.0001727442530266,46.86777100765684,0.000367618259785,3.334068179146888,475.58594813540446,5.17479364099247,2.0758708919414386,69.99998941286465,-2.702771525550512e-09,113.70000047573096,16.396890189902592,15.288,0.0,0.0,0.0152074069417046,7.288473386564583e-12,-8.86736416607888e-06,4.42271554299792e-10,1.217615295152289e-07,3.6501089419435786,60.16906436414164,5.174820775596283,46.986210423745625
0.13,31.222185580265183,131.0103851371844,3.2669395832841857,3.7280113734654137,0.0001995014041665,51.64515456841877,0.0003986198234033,3.3311573548369657,515.9156326236895,5.579364582999854,2.2451120211463422,69.99998375846928,-2.9114380666036422e-09,113.70000058383452,19.060875702782603,15.288,0.0,0.0,0.0163963474924215,1.100846422415094e-11,-1.1941028436408576e-05,6.179653149059831e-10,1.7678562106638216e-07,3.728011378795934,58.279338776943774,5.579395920607139,51.75247433579817
0.14,31.22218549718016,131.01038536230575,3.320091807147376,3.768719651034081,0.0002242721760019,48.1660778383537,0.0004326225136175,3.32784677779744,486.2390860568404,6.025734265159953,2.428648685938864,69.99997621008868,-2.890941335368725e-09,113.70000070125378,22.232643351545065,15.288,0.0,0.0,0.0177081261985351,1.5941871344608664e-11,-1.560901486259027e-05,8.477542742712431e-10,2.495765160917323e-07,3.7687196576976176,56.27980129251342,6.025769493750979,48.280903250602165
0.15,31.22218540777004,131.01038560455507,3.377159065217065,3.821894709649632,0.000249725644238,46.56959330999435,0.0004643042952466,3.324387732286376,472.54218587214,6.441023336496372,2.6014999612196745,69.99996641132823,-2.546763407193136e-09,113.70000082794672,25.402620271850456,15.288,0.0,0.0,0.0189285691155931,2.2314099732464315e-11,-1.992367942778425e-05,1.1417519574710292e-09,3.4051816697623295e-07,3.821894717796148,54.501255563441134,6.441062563308839,46.68809885900716
0.16,31.22218531193176,131.01038586421257,3.4382223512025254,3.8463320955387794,0.0002733212404609,36.974247749122085,0.0004987816203583,3.3205066466509234,391.1218908297564,6.895451966878468,2.7877331692857847,69.99995397923414,-1.77088415515292e-09,113.70000096417354,29.113317717489338,15.288,0.0,0.0,0.0202640360420561,3.0367358387834494e-11,-2.4945905791363795e-05,1.5114297685186711e-09,4.5643121540033697e-07,3.846332105235269,52.641145594326446,6.895494900078523,37.12304892183151
0.17,31.222185210004127,131.010386140357,3.503019838429153,3.8860314262554336,0.000297865039677,46.520531453299206,0.0005306403365217,3.31650761597812,471.78125980632376,7.314788342774694,2.9619016331667103,69.99993849340957,-4.3039914767238207e-10,113.70000110959404,32.761746921137856,15.288,0.0,0.0,0.0214963781445172,4.0366633128431416e-11,-3.0713078585132897e-05,1.96747427715988e-09,5.961228045584824e-07,3.886031437653654,51.00464968745696,7.314835131305714,46.63860064094784
0.18,31.22218510147516,131.01038643438045,3.571950002194137,3.9107265153396016,0.0003214293682635,38.895647526122765,0.0005639254295027,3.312149448254175,407.10156721191447,7.754626295791602,3.1430587898572058,69.9999195084231,1.6149322372810674e-09,113.70000126508234,36.81988229018681,15.288,0.0,0.0,0.0227889722876034,5.2593391349219385e-11,-3.731786027786564e-05,2.525509173087448e-09,7.6786585232224e-07,3.9107265285284982,49.36615848311875,7.754676785798701,39.036415444581515
0.19,31.222184986476247,131.0103867459258,3.644912152926752,3.920599115663931,0.0003437679584038,43.86258669386953,0.0005989384366483,3.307389681300437,448.9531328318269,8.219206165926856,3.332657190859447,69.99989653019398,4.538529095696477e-09,113.70000143063515,41.36350714675367,15.288,0.0,0.0,0.02415428010977,6.735860419174937e-11,-4.481243905342629e-05,3.199401151670645e-09,9.773118416308382e-07,3.92059913071168,47.71893898797248,8.21926016487149,43.987104227715655
0.2,31.222184864792144,131.01038707557822,3.722074668489528,3.943376465171875,0.000367328732016,40.28070981710589,0.0006315894240138,3.30251450988504,418.51563019916136,8.65238089736321,3.511445117640573,69.99986902534273,8.534090245934178e-09,113.7000016067622,45.83799876721736,15.288,0.0,0.0,0.025427299120469,8.499785987217288e-11,-5.328041996372527e-05,4.006766070954748e-09,1.2232205148646746e-06,3.9433764822533854,46.2587826635041,8.652438597225508,40.41586552155969
0.21,31.22218473678744,131.01038742234647,3.803156063113743,3.9664546506877016,0.000390962054969,38.67679184347145,0.0006636984664108,3.297405915846789,404.8187610144644,9.079179692250786,3.688002035198235,69.99983642883521,1.3827831253856693e-08,113.70000179318536,50.47126980736161,15.288,0.0,0.0,0.0266815841422463,1.0586558589671407e-10,-6.275155280099118e-05,4.961340042512481e-09,1.5117124669161171e-06,3.9664546699249135,44.88773728276958,9.079241104426773,38.817098210937615
0.22,31.2221846022986,131.01038778667507,3.8882846911135607,3.956175711337521,0.0004112685792646,46.713636108302936,0.0007011135033803,3.291572407481395,472.5421858721365,9.580256326712124,3.889976788904857,69.99979815126248,2.0662823443484168e-08,113.70000199039316,56.195522894218605,15.288,0.0,0.0,0.0281541581291438,1.3033127211465288e-10,-7.330053770532661e-05,6.0817207473359025e-09,1.8632831045819008e-06,3.956175732680424,43.35679625546934,9.580320928629488,46.8294591882524
0.23,31.222184460898035,131.01038816972698,3.977794004014759,3.9879066397329104,0.0004360962274406,38.89105719050748,0.0007308686121188,3.286096544282012,406.3406421461021,9.977039034039262,4.056142701351626,69.99975353557706,2.9316661139418326e-08,113.70000219928508,60.9462612310605,15.288,0.0,0.0,0.0293202403623685,1.5880617816859538e-10,-8.505067486192354e-05,7.393319440773217e-09,2.2514912291167663e-06,3.987906663538912,42.20670487756048,9.97710753587448,39.0296395118868
0.24,31.222184313516166,131.01038856897196,4.070963590490852,4.003523997322975,0.000459165577055,40.0792299321398,0.0007630441688766,3.280134925833028,416.2328240017114,10.408422364424831,4.234121060914368,69.99970190737699,4.010976417051318e-08,113.70000241888,66.32994780718496,15.288,0.0,0.0,0.030588009649109,1.91711512587616e-10,-9.795845222523724e-05,8.904557280909524e-09,2.7052895870113487e-06,4.003524023611085,41.011349410369874,10.408494489985014,40.21323112692186
0.25,31.22218416001652,131.01038898478134,4.167901030441617,4.0261356185860135,0.0004830526730531,41.17760020658354,0.0007934613160587,3.2740610008587527,425.36408079150686,10.816813039390448,4.4041629376391525,69.99964258149416,5.3372865854010094e-08,113.70000264972064,71.63651430352668,15.288,0.0,0.0,0.0317882126436337,2.2947426169209347e-10,-0.0001121037688082,1.0637152702866709e-08,3.217380562698304e-06,4.026135647516394,39.93186687113378,10.816888917126896,41.30755663120434
0.26,31.222184000702686,131.0103894163294,4.26837241014618,4.053359329950934,0.000507503069958,44.80261175215926,0.0008224724146494,3.2678597736729302,455.8015834241788,11.207047269494833,4.567925492611352,69.99957484039399,6.947299261165984e-08,113.70000289176392,76.89781807056055,15.288,0.0,0.0,0.0329350617559806,2.7254099134167665e-10,-0.0001275114371842,1.260720913253598e-08,3.7915697709142366e-06,4.053359361668992,38.945390435244384,11.207126987890645,44.921630958721536
0.27,31.22218383516388,131.01038986473338,4.372698316214008,4.0614460923241,0.0005296455772492,41.029837477288126,0.0008548809954683,3.2610328932384265,423.84219965987256,11.645685385842508,4.748226940060522,69.99949794024376,8.879821051920497e-08,113.70000314600205,83.0342688744587,15.288,0.0,0.0,0.0342241635563461,3.2137296827284217e-10,-0.0001442952656441,1.4842505534226832e-08,4.458527942364847e-06,4.061446126801262,37.8838346421185,11.645768582375233,41.15922617924542
0.28,31.222183663504484,131.01039032970942,4.48079961904222,4.081133040992532,0.0005533279247169,47.27661484082626,0.0008845140695959,3.254218495915602,476.3468732012221,12.047344998676092,4.915789434712848,69.99941106884992,1.1178948978424788e-07,113.70000341275257,88.85982357848233,15.288,0.0,0.0,0.0354045979054623,3.764736350660473e-10,-0.0001625146963723,1.7365685655384934e-08,5.194620655212288e-06,4.081133078439725,36.956255322213885,12.047431915223257,47.38848224631549
0.29,31.22218348566054,131.0103908114315,4.592727908358551,4.1001100265020245,0.0005770279952742,37.989969791857405,0.0009138463939581,3.247164755122801,397.97031042211177,12.446314684600782,5.082367374004485,69.99931338876085,1.3891902435864665e-07,113.70000369260468,94.8417675268915,15.288,0.0,0.0,0.0365771315767517,4.3836067907166327e-10,-0.0001822432988888,2.0202163500922312e-08,6.018074062137429e-06,4.100110067036654,36.07377590258778,12.446405323946324,38.12849176886316
0.3,31.222183301933686,131.01039130907952,4.708251093558373,4.112858061667493,0.0005998635114143,35.655053282557844,0.000944131403186,3.2397207148238625,378.1859457108711,12.860033399289696,5.253940723820665,69.99920403105713,1.707002607527005e-07,113.7000039856728,101.2505662360602,15.288,0.0,0.0,0.03779301412572,5.075709863465428e-10,-0.0002035013069687,2.3370674033523645e-08,6.94335970778e-06,4.112858105337573,35.19685285507256,12.860127625629724,35.80193592228613
0.31,31.222183112488807,131.0103918222051,4.827243246502713,4.136140889545823,0.0006242383343011,37.56633644061071,0.0009716215464757,3.232339252743767,394.1656220930212,13.2364445751808,5.4126574282679245,69.99908210036875,2.0768081583188525e-07,113.7000042923011,107.26326115439352,15.288,0.0,0.0,0.0388992619788015,5.846561731689753e-10,-0.0002263323252403,2.6893437641668458e-08,7.948283231812338e-06,4.1361409365698805,34.43286455705216,13.236542630309057,37.70514091683033
0.32,31.22218291741533,131.01039235056504,4.949637017503345,4.1622282001352975,0.0006491019906456,40.83513712643371,0.0009979686925508,3.224840963348891,421.55939346242695,13.59846554462374,5.566374262777002,69.99894668612772,2.504388718903276e-07,113.70000461297312,113.2095365840355,15.288,0.0,0.0,0.0399632243410653,6.701756367872645e-10,-0.00025078340164,3.0793566854276295e-08,9.047716714467492e-06,4.16222825066026,33.72644865222576,13.598567505326,40.96227562489027
0.33,31.222182716732533,131.01039289410716,5.075419569102976,4.187801887681037,0.0006739743721461,40.48743503284469,0.0010239291638211,3.217136801802925,418.5156301991682,13.956637761217308,5.718704299733134,69.99879684673242,2.995902922462564e-07,113.70000494831164,119.25032483364384,15.288,0.0,0.0,0.0410158804634189,7.647061680070125e-10,-0.0002769136723495,3.509664608790402e-08,1.0253455741189656e-05,4.187801941818244,33.053267359159875,13.956743628864118,40.61505097607
0.34,31.222182510255863,131.01039345333336,5.204736257784645,4.19642921746386,0.0006961879027693,31.814592723444047,0.0010535137542081,3.208669900766693,345.46563688075645,14.367047160772364,5.88887983533068,69.99863160305904,3.557915789971256e-07,113.70000529927128,126.36523219087664,15.288,0.0,0.0,0.042222056531773,8.688448410811866e-10,-0.0003048202762282,3.9835373705550826e-08,1.1618525957862828e-05,4.196429275109305,32.30947868183619,14.367156517712404,31.97598901989736
0.35,31.222182298183583,131.0103940277045,5.337435501771672,4.210915783240843,0.0007193441544952,34.813487415034444,0.0010813034848195,3.200164272309822,370.5765700527033,14.754132934586384,6.050986755458457,69.99844991734221,4.1975736284587617e-07,113.70000566632532,133.26448209504355,15.288,0.0,0.0,0.0433596939127697,9.832256819293898e-10,-0.0003345386312107,4.503361101379695e-08,1.309465610343774e-05,4.210915844572415,31.63649055965014,14.75424592890194,34.96026256388454
0.36,31.222182080444604,131.0103946174141,5.4735747500461605,4.22903876037745,0.0007431682866607,39.2632255716727,0.0011077666085529,3.1915717453569297,407.8625232777193,15.124417129017054,6.2072589919251575,69.99825073022951,4.922382611919288e-07,113.70000605036684,140.03566173682628,15.288,0.0,0.0,0.0444479595865755,1.1084921261805627e-09,-0.0003661511460057,5.0723697896912267e-08,1.4691545926915382e-05,4.229038825557203,31.017264542603208,15.124533865618538,39.39272792946638
0.37,31.22218185710795,131.01039522227452,5.613102797925907,4.249164960780052,0.0007674149135003,37.28328237034959,0.001133274451316,3.1828514669894137,391.1218908297666,15.483077353331511,6.359470679857624,69.99803294268581,5.740349991123437e-07,113.70000645214331,146.75405277514704,15.288,0.0,0.0,0.0455020695186381,1.245311285088233e-09,-0.0003997125883071,5.6934243389647934e-08,1.641828325195534e-05,4.2491650299519,30.439178816713017,15.483197898584232,37.418894813348615
0.38,31.2221816281124,131.0103958424523,5.756069531572451,4.260095806433531,0.0007900626414612,38.9278000801764,0.0011607546399008,3.1735466295306622,404.8187610144602,15.87126705947922,6.521735074464384,69.99779542676283,6.659911329739736e-07,113.70000687263192,154.20298254405043,15.288,0.0,0.0,0.0466429667223463,1.3943646956867835e-09,-0.0004353006984059,6.369875435270817e-08,1.8328108041903096e-05,4.260095879559656,29.83470194713067,15.87139116222873,39.05694584372078
0.39,31.22218139339905,131.0103964781077,5.9025231349944285,4.274091258047817,0.0008133283308351,33.320076729592266,0.0011870382950339,3.164143363712209,357.64062493382744,16.24457853509073,6.678818328235205,69.9975369905506,7.690136753559805e-07,113.70000731287368,161.54010621938565,15.288,0.0,0.0,0.0477401448128051,1.5563705124515804e-09,-0.0004730068442167,7.105463478762673e-08,2.0383860516746246e-05,4.274091335289374,29.274934656826048,16.244706292406182,33.46997636540994
0.4,31.22218115316572,131.01039712870306,6.0523126585892895,4.286421841403391,0.0008363022448449,31.88018820767003,0.0012133780841982,3.1544430614236454,345.465636880754,16.62063299903514,6.836764518435374,69.99725641601981,8.840594270905819e-07,113.70000777359816,169.10340080049767,15.288,0.0,0.0,0.0488453895716005,1.7320643186450851e-09,-0.0005128553637434,7.9027539265021e-08,2.2612406375611563e-05,4.286421922834417,28.730746964325096,16.620764365084565,32.03586915718869
0.41,31.22218090752676,131.01039779392735,6.205351877049411,4.30025870409831,0.0008595777771371,35.882550741685804,0.0012389121673015,3.1445895889870297,378.94687077668647,16.987310563534386,6.99141560549392,69.9969524610574,1.0121301778427253e-06,113.70000825570062,176.64448930727934,15.288,0.0,0.0,0.0499230826371405,1.922193031274436e-09,-0.0005548883906878,8.764667734700782e-08,2.5005077415911235e-05,4.300258789847355,28.21875643368965,16.987445585695873,36.020076248499606
0.42,31.222180656535848,131.0103984736348,6.36160173428776,4.322008670726048,0.0008844838439129,40.34064925656127,0.001261804338223,3.134918999355981,416.2328240017114,17.318628721060172,7.133856886815013,69.99662385300175,1.154276942054023e-06,113.70000876021427,183.59942989625057,15.288,0.0,0.0,0.0508968652507098,2.1275184665783874e-09,-0.0005991661829955,9.694534598491077e-08,2.752657757470936e-05,4.322008761057615,27.772396468009568,17.318767655457478,40.462275036947325
0.43,31.222180400205527,131.0103991677914,6.521055075967404,4.339436441324956,0.0009085827200945,35.541853595187746,0.0012854696362701,3.124839917627212,375.9031395134336,17.662848429084132,7.280642039343927,69.99626930133451,1.3115939750280808e-06,113.70000928827632,190.96736675963504,15.288,0.0,0.0,0.0519085689713619,2.3488101247838237e-09,-0.0006457514522491,1.0695800287133593e-07,3.0255957891170616e-05,4.339436536261635,27.322335771349252,17.662991148924057,35.67895714766603
0.44,31.22218013836212,131.0103998768696,6.683849332059896,4.342209064313268,0.0009296474314902,32.82948243168077,0.0013129688908547,3.113754688841357,353.0750125389216,18.063580761318697,7.446730341918701,69.99588746395321,1.4852372182848018e-06,113.7000098413532,199.7278270846888,15.288,0.0,0.0,0.0530863610987301,2.586862292117705e-09,-0.0006947575786514,1.1773083546077225e-07,3.329010177793299e-05,4.342209163639375,26.81344244367223,18.06372678999575,32.9768158972058
0.45,31.22217987077456,131.0104006014978,6.850166573233225,4.3420317510315165,0.0009500780330031,38.11022602597878,0.001341042003417,3.1022288449712887,397.2093853562869,18.47486275310604,7.616350301328129,69.99547690348253,1.6764536248320808e-06,113.70001042108892,208.92306716049887,15.288,0.0,0.0,0.0542951637545535,2.842521175226318e-09,-0.0007463379956615,1.2932090054593452e-07,3.657529369088674e-05,4.342031854775571,26.30944884471334,18.47501199101448,38.23628058998621
0.46,31.22217959739673,131.01040134180155,7.020045503401754,4.351169003849846,0.0009725797783515,44.3937050866137,0.0013660055515545,3.09098240974522,449.7140588976434,18.844323061800488,7.771531995684422,69.99503610583268,1.8865779683531e-06,113.70001102895836,217.3591612614144,15.288,0.0,0.0,0.0553810645782081,3.1166808800591503e-09,-0.000800596194505,1.417768495237597e-07,4.001824400409673e-05,4.351169112337076,25.873596578896564,18.844475834274814,44.50118229261506
0.47,31.22217931813738,131.01040209802923,7.193559875579052,4.358630093683735,0.0009947969928181,30.22514089990685,0.0013910994973101,3.079396422776949,331.0078106302534,19.2180591098146,7.9280875671397615,69.99456352718363,2.1170044481277104e-06,113.70001166656292,226.0625808853568,15.288,0.0,0.0,0.0564795377574197,3.4102493884459798e-09,-0.0008576351980594,1.551487523304888e-07,4.3718862242359527e-05,4.35863020698899,25.44665981168229,19.218215372160817,30.381603425148434
0.48,31.22217903348153,131.01040286886197,7.370336324605091,4.365514409145237,0.001016880998596,29.779838936311712,0.001416009414045,3.067527859335786,327.2031223011574,19.5915905767454,8.084483592791102,69.99405758812365,2.369198154608765e-06,113.70001233476164,234.93171707892955,15.288,0.0,0.0,0.057577416115756,3.7241711041759195e-09,-0.0009173883913609,1.6944871263079066e-07,4.767297940601472e-05,4.365514527349481,25.03354780044292,19.59175030803913,29.937410312943754
0.49,31.22217874361868,131.01040365378466,7.5502307795521535,4.3786401372577615,0.0010404145545081,37.2489281064929,0.0014385799934191,3.0558405437943126,389.60000969812296,19.93403005898306,8.23012235628909,69.99351671352461,2.644660619562788e-06,113.700013034871,243.21198709852868,15.288,0.0,0.0,0.0585839249886784,4.059374595909599e-09,-0.0009798792959512,1.8470833984680338e-07,5.180951737438081e-05,4.378640260624215,24.667474291142685,19.934193486919103,37.37406598941686
0.5,31.22217844858332,131.0104044527036,7.733219389747018,24.90601005226608,-0.0053621725904184,39.23541941917161,0.0012021107294205,0.9061433528461684,397.97031042210494,26.04215375694817,8.365996061088087,69.99293932307316,2.9449363413826395e-06,113.70001376847225,415.0887137264048,15.288,0.0,10.020627911594472,0.0765351876701798,4.416566661548473e-09,-0.0010631047813644,4.472187932587112e-05,7.34323109260262e-05,24.906010592670626,30.98733171261405,26.041311468848534,39.245881748526
0.51,31.222178148980653,131.0104052645524,7.919343615968253,24.662276231844647,-0.0032213290557258,30.33200647949827,0.0009990456293233,0.8473743828458772,323.3984349720841,26.39203928868716,8.49381564812311,69.99218271906248,7.324846574509263e-05,113.70008900788768,426.30974879418494,15.288,0.0,10.060410751967416,0.0775636277983527,4.908771938240921e-09,-0.0016407635777219,4.463332861801432e-05,0.0001148538135601,24.6622764290696,30.6650434935898,26.39153328350261,30.34384058445998
0.52,31.22217784488401,131.01040608854754,8.108677633740946,24.41701895527925,-0.0031598709827843,36.17602948090327,0.0010184329486925,0.7866964585927348,372.0984511843415,26.75046558575276,8.62488007535517,69.99109143706582,0.0001434117263119,113.70016410437184,437.95971150050406,15.288,0.0,10.100087007946687,0.0786171756207517,5.611937983671214e-09,-0.0022329964689963,4.454915809301581e-05,0.0001584301925737,24.41701914721283,30.340002725692617,26.749969234379723,36.1845823709263
0.53,31.22217753617998,131.01040692504844,8.301335473330045,24.17999340195032,-0.0031000126596705,37.92423821358494,0.0010376203798812,0.7255374947308282,386.5562464348624,27.10576185394141,8.75425284160367,69.9896569030713,0.0002134306483505,113.70023905377712,449.66250260187786,15.288,0.0,10.13966076823966,0.0796615320422709,6.530725390805995e-09,-0.0028404346188436,4.446409085769044e-05,0.0002042005699628,24.17999358873003,30.0254610637533,27.105274905091765,37.93117780683395
0.54,31.222177222784744,131.010407774284,8.497396106649203,23.949377449572285,-0.0030414967643456,33.47662001160382,0.0010566749195324,0.6637112171097506,349.2703242098436,27.459447833278425,8.882501199226105,69.98787031508387,0.0002833001707831,113.7003138508372,461.46509887026775,15.288,0.0,10.179159491779505,0.0807011635891271,7.669895683058913e-09,-0.0034635718945605,4.4378109401021846e-05,0.0002522425599191,23.949377631321468,29.719302273972385,27.45897007608411,33.48319878831162
0.55,31.222176904987748,131.010408635468,8.696648803089289,23.72986231987477,-0.0029848823486349,35.407022705775326,0.0010753495465991,0.6018578755900011,365.2500005919907,27.80593080121418,9.007573863730842,69.98572279302765,0.0003530151753147,113.70038848969344,473.1750388651865,15.288,0.0,10.2185358169914,0.0817196335455301,9.034241438311017e-09,-0.004101908562503,4.429132509867934e-05,0.0003024944855484,23.729862496744257,29.426999090505145,27.80546193699148,35.41213762181091
0.56,31.222176582803964,131.01040950856049,8.899095403618166,23.524629276505355,-0.0029305062417885,33.14366024292418,0.001093448888362,0.5405015269338855,346.2265619465787,28.140890021290964,9.127875504256163,69.98320554996317,0.0004225705417937,113.7004629648725,484.6343206237708,15.288,0.0,10.257787901523855,0.0827042435174275,1.0628435171094168e-08,-0.004755692191824,4.420375242016319e-05,0.0003549254757679,23.52462944866069,29.152268151626664,28.14042969844714,33.14806717434127
0.57,31.222176256318697,131.01041039333035,9.104682945097128,23.31625582457071,-0.0028762993515568,32.79429685356387,0.0011118283538718,0.4774456701350972,343.1828296833023,28.48342399427913,9.250558807456818,69.980309734292,0.0004919688370094,113.70053728179607,496.4943660008548,15.288,0.0,10.296897554951936,0.0837111227097522,1.2457137497787008e-08,-0.0054249262969402,4.4115437210505206e-05,0.0004097916172936,23.31625599207802,28.874871243030995,28.4829721862337,32.79777220671798
0.58,31.222175925524127,131.01041128979966,9.313430639369091,23.093709119510702,-0.0028209933324502,42.7559779422928,0.0011310840518455,0.4110730939148492,426.1250058573153,28.84686555760532,9.380579045733578,69.97702650488914,0.0005611893754489,113.70061141282105,509.23528813761664,15.288,0.0,10.335859697481345,0.0847794559271287,1.4525003546343653e-08,-0.0061098780845948,4.402639259225325e-05,0.0004674116179915,23.093709282375716,28.58194146590229,28.846422437009046,42.757954022260236
0.59,31.222175590038063,131.01041219900853,9.525648447803238,22.89789014211557,-0.0027692791110917,34.924279796408825,0.0011490582310537,0.3470132922268442,360.68438819711065,29.183110129672563,9.499985842667405,69.97334634941662,0.0006302422940379,113.70068537495104,521.165343384369,15.288,0.0,10.374722133262011,0.0857678667859127,1.6836934976296878e-08,-0.0068119821271448,4.393648997846048e-05,0.0005271868294641,22.89789030056276,28.32107316659036,29.182675132327176,34.92600376285794
0.6,31.22217525008306,131.0104131203526,9.741177391711467,22.674169024509887,-0.0027148918610902,31.19648069620437,0.0011686709084163,0.2775220594479292,329.4859594986058,29.557489326591178,9.633099986980032,69.96925976462806,0.0006991063311971,113.70075913949444,534.6117192731614,15.288,0.0,10.413458438946458,0.0868683618627526,1.9397937117415504e-08,-0.0075308519360695,4.384582821399231e-05,0.0005902855341647,22.67416917846899,28.028623083700943,29.55706287237503,31.197715103640586
0.61,31.222174905625447,131.0104140539243,9.960057178015187,22.449836946415463,-0.0026609776200624,36.32616825603668,0.0011884922602661,0.2063100660233123,372.0984511843297,29.93801087439031,9.768004142318947,69.96475686801286,0.0007677913577419,113.70083272264672,548.4539233370074,15.288,0.0,10.45207447477422,0.0879869178025084,2.22130955685456e-08,-0.0082668890796111,4.3754409946820415e-05,0.0006563060598962,22.449837095963908,27.7363447641413,29.937592889003334,36.32675412725094
0.62,31.222174556791604,131.01041499938097,10.182203639518608,22.277987670753795,-0.0026134529121098,44.83916331527792,0.0012054737935941,0.1416881949019077,442.86563930529206,30.25628727893561,9.879382200886567,69.95982766076048,0.0008362841951447,113.70090610747742,560.1653868944492,15.288,0.0,10.490569698081384,0.0889225454793702,2.5287595354222824e-08,-0.0090201383608885,4.366228241312694e-05,0.0007237039317313,22.277987816242995,27.50622230091756,30.255876758712294,44.83938719264467
0.63,31.222174203414607,131.01041595717703,10.407758935837617,22.094354374916207,-0.0025650602666813,26.028952623739496,0.0012231920491511,0.0740091064098698,286.11251274707894,30.59268024732309,9.99703598566198,69.95446238981374,0.0009045789913183,113.70097928791068,572.6781961447899,15.288,0.0,10.528910406371232,0.08991142560982,2.8626348022513612e-08,-0.0097912737848239,4.3569417746732845e-05,0.0007942905824126,22.09435451635787,27.26329594978789,30.592277328598733,26.029057868714833
0.64,31.222173846079286,131.01041692572323,10.636283053365249,21.89019335234276,-0.0025148996366372,25.583700420139103,0.0012422276582506,0.0015782713633352,282.30782441796754,30.96012322919501,10.125767752370368,69.94865118598602,0.0009726703477331,113.70105225746912,586.5046021413884,15.288,0.0,10.5671130668598,0.0909915695743478,3.2234491264841114e-08,-0.0105787366608506,4.3476052553911006e-05,0.0008684596552635,21.89019348970908,26.997248101755243,30.959728189683982,25.58370049897973
0.65,31.22217348477934,131.01041790503743,10.867793413188792,21.724605253088765,-0.0024694449601313,44.161487036987616,0.0012590452712087,-0.065765936307624,436.7781447787475,31.27907562467796,10.236207288219294,69.94238430966648,0.0010405605266435,113.70112502145145,598.6379270093395,15.288,0.0,10.605075714852044,0.0919292083694893,3.6116856621643104e-08,-0.0113829168664139,4.338219102236003e-05,0.0009440847452803,21.724605386648864,26.77722952148519,31.278687725170823,44.161536024708184
0.66,31.22217311903209,131.01041889643287,11.102675745921475,21.55320511904699,-0.0024237670260973,37.774678824869,0.0012762646797433,-0.1353427734634557,383.51251517160017,31.60872430945418,10.350167601931789,69.93565202180542,0.001108226447807,113.70119754962272,611.3086622403736,15.288,0.0,10.64293348538598,0.0928982920752083,4.0278122561550985e-08,-0.0122055667346631,4.3287682057485625e-05,0.0010229599448765,21.55320524883964,26.551289564278168,31.608343585020133,37.77492130524148
0.67,31.222172749031007,131.01041989938423,11.3407930856387,21.36401674123484,-0.0023766260051385,26.44166770228195,0.0012946654781622,-0.2094297064250819,289.1562440103425,31.96661430048696,10.474130840099548,69.92844379937958,0.0011756808481913,113.7012698620791,625.215828031954,15.288,0.0,10.680653881647714,0.0939503859899121,4.47235517992774e-08,-0.0130463491376262,4.3192620130957e-05,0.0011057817493446,21.364016867243944,26.305389097497283,31.966240980947163,26.44249710893418
0.68,31.22217237495285,131.01042091341168,11.582021307125602,21.18327882635886,-0.0023308524543501,32.67821910453556,0.0013126209094904,-0.2834261364811775,340.8999924858462,32.315992465119564,10.594574578416792,69.92074924665336,0.0012429072239183,113.70134193713604,638.9422668374413,15.288,0.0,10.718152557578984,0.0949774724314249,4.9458342641464816e-08,-0.0139050383703848,4.30970858011678e-05,0.0011914159492335,21.183278948696987,26.070264845263807,32.315626335672306,32.67944821966624
0.69,31.22217199688686,131.0104219382734,11.826303583594928,21.02452869970608,-0.0022878081678853,39.9257047038784,0.0013292156934503,-0.354634926508865,401.0140726853634,32.63636050430301,10.70395484710894,69.91255800712389,0.0013099004542733,113.70141376949717,651.6582196561695,15.288,0.0,10.755518526291109,0.0959193060865095,5.448757653213733e-08,-0.0147816022443325,4.300113689815027e-05,0.0012790477720723,21.02452881854364,25.861718320787684,32.63600113623646,39.927279694454676
0.7,31.22217161471025,131.01042297430385,12.073746457482285,20.86657900824589,-0.0022452434084903,33.71151780163576,0.0013457810892551,-0.4268842333692142,349.27032420985284,32.957769452458294,10.813348283032834,69.9038597508571,0.0013766630915984,113.70148536513751,664.5409337456674,15.288,0.0,10.79270489216166,0.0968642076607296,5.9816142855013e-08,-0.0156767146812803,4.2904753254814766e-05,0.0013698281227669,20.86657912365162,25.65496641947441,32.9574167704485,33.714220507818816
0.71,31.22217122848601,131.01042402133257,12.3243129918623,20.697758706586043,-0.0022019705132754,27.95156208603786,0.001363110498417,-0.5025701697354124,301.33126406340574,33.298081737611874,10.929331554850185,69.89464396923208,0.0014431814394786,113.70155670655797,678.3191759877834,15.288,0.0,10.829691409546028,0.09786467578169,6.54491275708378e-08,-0.0165904127308101,4.2807986963729966e-05,0.0014646004660886,20.6977588185765,25.436313483031142,33.297735852892565,27.956079869738662
0.72,31.222170838226507,131.0104250793266,12.578005368709176,20.51581099534121,-0.0021577831528441,33.92066393808666,0.0013814092681822,-0.5824289837883162,350.79220534145287,33.66201074203541,11.053610346396782,69.88489990645434,0.0015094457571178,113.70162778201365,693.2105964568333,15.288,0.0,10.866544062006891,0.0989345639274416,7.139167451590653e-08,-0.0175229865073469,4.271086323707061e-05,0.0015637969545902,20.51581110392377,25.20303418539373,33.661671798250445,33.92566384656402
0.73,31.22217044393927,131.01042614826625,12.834829757469,20.371160277451725,-0.0021177470596551,42.552127056865565,0.0013971555609344,-0.6558237941765853,422.320318528234,33.97006505892548,11.157009775917905,69.87461639234571,0.0015754545441983,113.70169859160605,705.9389269780816,15.288,0.0,10.903224533350512,0.0998402423720594,7.76490896309239e-08,-0.0184747975129463,4.2613401679327183e-05,0.0016637862735136,20.37116038285224,25.0143313046331,33.96973240399532,42.5571806381095
0.74,31.222170045571502,131.01042722829567,13.094837914292954,20.216449652765714,-0.0020770760092364,27.15794797725471,0.001413604504837,-0.7325077116643223,294.48281347105944,34.29597860030905,11.26661590686922,69.86378252676643,0.0016412123404703,113.70176914413112,719.5316937642925,15.288,0.0,10.93970657834728,0.1007984192672395,8.422644755981496e-08,-0.0194461904547101,4.251562430780817e-05,0.0017680248374482,20.21644975500181,24.814636371929076,34.29565233397254,27.16782486474025
0.75,31.22216964348771,131.01042831842463,13.357759971652492,20.05596098559321,-0.0020362257232211,31.48017288795716,0.0014304993675692,-0.8118159377295827,330.24688556441487,34.6337387110214,11.380243273494267,69.8523874252392,0.0017066967496333,113.70183940923864,733.7554098093703,15.288,0.0,10.976019499242476,0.1017914231773895,9.112914350853257e-08,-0.0204361051013659,4.241770100173314e-05,0.0018762779103801,20.055961084702677,24.60890913150221,34.633418861432816,31.490638802964178
0.76,31.222169237587465,131.0104294189268,13.62368407773175,19.909246755917888,-0.0019970872514844,33.78565559283238,0.0014464023444201,-0.8892994417975429,349.27032420986166,34.95094487296122,11.486002372000453,69.84042012729697,0.0017719081755331,113.70190938986792,747.2386296522761,15.288,0.0,11.01217801349744,0.1027240265239109,9.836212496355166e-08,-0.0214452491218202,4.231961543410021e-05,0.0019869117949231,19.90924685201713,24.42011570446947,34.9506311712294,33.79735758053796
0.77,31.22216882782245,131.01043052993413,13.892657915602433,19.76671213795014,-0.0019587112060664,31.68558696049132,0.0014619757625315,-0.9669642276739296,331.7687666960708,35.26257327031529,11.589410983537489,69.82786955633205,0.0018368405622053,113.70197907964864,760.6033927997629,15.288,0.0,11.048087999411868,0.1036402454235903,1.0593042411558394e-07,-0.0224740839711834,4.222137931128628e-05,0.0021007450744909,19.76671223111481,24.2370405928416,35.26226559667858,31.70033821563789
0.78,31.22216841426484,131.01043165125108,14.164636232184808,19.614851371132094,-0.0019197993253719,26.27803537501561,0.0014782505566457,-1.0481237938008423,286.8734378128899,35.59206098437758,11.69904630658302,69.81472455520777,0.0019014878441378,113.7020484720268,774.8634673133193,15.288,0.0,11.083837690026067,0.1046089639163711,1.1383920857272428e-07,-0.0235225497299451,4.212305864453254e-05,0.0022192362719956,19.614851461382788,24.04372696893681,35.59175942300479,26.29892980413705
0.79,31.22216799701008,131.01043278261875,14.439555890721827,19.458369445781617,-0.0018808212396335,36.75914793015743,0.0014948980445152,-1.131820677058052,373.6203323159534,35.931937712062926,11.812181627726844,69.80097380463555,0.0019658439187899,113.7021175603732,789.7119721946525,15.288,0.0,11.119420269586625,0.1056082264021463,1.220937137994869e-07,-0.0245905728489361,4.2024720757365097e-05,0.0023420913376343,19.458369533158677,23.84568568799424,35.93164227335352,36.77656831232264
0.8,31.222167575847,131.01043392461196,14.717589363467344,19.323499227592343,-0.0018441863988407,37.23017188825499,0.001509842773426,-1.2113498593967762,377.42502064505743,36.23528156616221,11.911615399968223,69.78660566194027,0.0020299025860457,113.70218633838653,803.0805918673149,15.288,0.0,11.154857100723188,0.1065001240482231,1.306989158757328e-07,-0.0256793774437311,4.1926306156830205e-05,0.0024663748249026,19.32349931223248,23.67379659272542,36.23499188204013,37.24987341710705
0.81,31.22216715088484,131.01043507693416,14.998662454534603,19.17675815065236,-0.0018068002572497,24.74069412688116,0.0015256942218499,-1.295117587530242,273.9374926939919,36.56133402581168,12.019078596058751,69.77160850459822,0.0020936576853879,113.70225479935004,817.57611251621,15.288,0.0,11.190054881532252,0.1074587746799398,1.3966019463385501e-07,-0.0267886970478568,4.182790445524406e-05,0.002596000962978,19.1767582325668,23.48868047547643,36.561050214290994,24.774569174319964
0.82,31.222166722318345,131.01043623905665,15.28263542908358,19.025953846729013,-0.0017693963585585,31.36828486537544,0.0015418738355555,-1.3813649489282296,328.72500443277005,36.89688519199824,12.12973943083296,69.75597065627241,0.0021571030693288,113.70232293643647,832.6293060024888,15.288,0.0,11.225080383503828,0.1084453530308494,1.48983003001822e-07,-0.027918031198447,4.172962658787766e-05,0.0027301963014566,19.025953925958543,23.29945828873197,36.89660725586821,31.39868575107634
0.83,31.2221662901382,131.01043741100523,15.569524992274795,18.900423595548585,-0.0017345780040944,39.47116509422481,0.001555945620717,-1.4619522177986444,395.68750322465047,37.18666787943504,12.223371506279491,69.73968031616006,0.0022202325776226,113.70239074309056,845.7360583423385,15.288,0.0,11.259942106879324,0.1092974206038382,1.5867250290699724e-07,-0.0290677937316627,4.163149547661136e-05,0.0028648820741198,18.900423672235373,23.140706229496683,37.18639541255935,39.498230094570616
0.84,31.22216585424504,131.01043859305065,15.859415903348433,18.771012581399088,-0.0016997076565686,24.94622369700628,0.0015702714233286,-1.5446868502648452,275.4593748256452,37.48453467842374,12.319682239663903,69.72272586400915,0.0022830401524937,113.70245821299012,859.3151614448419,15.288,0.0,11.29464186899962,0.1101732579674459,1.6873363928784845e-07,-0.0302385657552791,4.1533520010873104e-05,0.0030040602358207,18.7710126555799,22.978064384631224,37.48426768896943,24.99400201392748
0.85,31.22216541493984,131.0104397843752,16.152086438576312,18.62307139894753,-0.0016635501932642,27.06948982602928,0.001586130098407,-1.6340115899512488,292.96093233939376,37.819449563234,12.429317752607083,69.70509566584803,0.0023455197792383,113.70252533928728,874.7147034692762,15.288,0.0,11.329132360097718,0.111157995366406,1.791719613762361e-07,-0.0314292798638836,4.143586298668722e-05,0.0031501610058883,18.623071470612683,22.79423598839307,37.81918825338074,27.11876243181842
0.86,31.22216497205501,131.01044098543494,16.44767353585509,18.490585828978965,-0.0016290495298519,33.52041969500599,0.0016006197281133,-1.7200652270702452,346.2265619465587,38.12547618063716,12.528134729943384,69.6867776793638,0.0024076653364411,113.70259211568056,888.9027384367989,15.288,0.0,11.363408739993265,0.1120578349927389,1.8999233465315072e-07,-0.0326410633362113,4.1338484264685206e-05,0.0032979978153424,18.490585898231103,22.62932540650157,38.125220290135424,33.56452239309693
0.87,31.222164525620634,131.01044219614863,16.746162412562807,18.365775990525503,-0.0015954924074994,31.31897579428771,0.0016143696435782,-1.804940237187252,327.964078366998,38.417014856493,12.621399165462527,69.6677598982399,0.002469470768174,113.70265853565384,902.5234028791652,15.288,0.0,11.397519089279088,0.1129151014341425,2.011999572328736e-07,-0.033874039430613,4.124143840453766e-05,0.0034486485932613,18.36577605743821,22.47413036495572,38.41676423713172,31.37094287185494
0.88,31.222164075678,131.0104434164045,17.047529384511847,18.23222694355375,-0.0015614939484259,27.27376904459452,0.0016288226067775,-1.893681441323929,294.4828134710418,38.72699862188677,12.721180294540588,69.64803031875073,0.0025309300739076,113.70272459272933,917.120394822771,15.288,0.0,11.431455079873691,0.1138265912467509,2.128000685512496e-07,-0.035128167220971,4.114479500455847e-05,0.0036050816119136,18.232227008148257,22.309257574152326,38.72675334299095,27.339431412378715
0.89,31.22216362231436,131.01044464596586,17.351715678304956,18.090276197269688,-0.001527112456783,29.767520924402262,0.0016439819781579,-1.986400158928476,315.028134248087,39.05557530164776,12.827550018182036,69.62757680651515,0.0025920372652586,113.70279028037224,932.7216609057384,15.288,0.0,11.465213572015475,0.1147927394854342,2.247979540718605e-07,-0.0364033839285727,4.104862560609151e-05,0.0037675400451336,18.09027625956999,22.135080339289622,39.055335423384015,29.833724043082427
0.9,31.22216316545968,131.0104458850235,17.65878243987731,17.97271178237748,-0.001495007635806,32.7233924667124,0.001656842569033,-2.0724036757980207,339.37814235421445,39.33411451135059,12.915369376373164,69.6063868755952,0.0026527862888006,113.70285559219649,946.045297825102,15.288,0.0,11.4988066649453,0.1156118267190808,2.3719867872093402e-07,-0.0377003471775013,4.0952940416160624e-05,0.0039294792631444,17.972711842503486,21.99036337331521,39.33387967610033,32.788950490539925
0.91,31.222162705189337,131.010447133373,17.968679121313777,17.84651416905548,-0.0014624783707708,25.26304463422384,0.0016704017463152,-2.1623396104363177,277.7421810230789,39.63121906992509,13.009777287152154,69.58444840972717,0.0027131712911019,113.7029205218177,960.3623223466436,15.288,0.0,11.532224206045129,0.1164854912826608,2.5000749411063056e-07,-0.0390188838388667,4.085782225997503e-05,0.0040975062199692,17.846514227028184,21.836062397120205,39.63098934435983,25.355416375439187
0.92,31.2221622417106,131.01044839045133,18.28125521903336,17.712042789867997,-0.0014295923692288,29.78618735265168,0.0016846576306722,-2.2562863523931185,315.02813424806214,39.946836709398674,13.110801145995234,69.56174917274073,0.0027731864488269,113.70298506269113,975.6903302253792,15.288,0.0,11.565414487535348,0.117413580004634,2.6323000647796214e-07,-0.040358211402878,4.076340403589119e-05,0.0042717774163457,17.712042845711736,21.67259442527765,39.94661214955445,29.871521353110452
0.93,31.22216177493689,131.01044965649425,18.59658314654618,17.59944246357759,-0.0013986876822946,35.14192862240953,0.0016967314847265,-2.3437045116093342,359.1625070654728,40.21509650432237,13.194278799149185,69.53827682443449,0.0028328259730801,113.70304920871943,988.8087253787372,15.288,0.0,11.59842303752295,0.1182024820988384,2.768709418896313e-07,-0.0417191366559791,4.066968550058846e-05,0.0044453461604474,17.59944251739771,21.53563542258327,40.21487679897502,35.21999575552447
0.94,31.22216130476104,131.01045093179332,18.91474978182129,17.468552544349794,-0.0013666367526348,25.92163428896174,0.0017104579596982,-2.4387354469756097,283.0687504837787,40.52404932065406,13.292488717303131,69.51401917946448,0.0028920842087218,113.7031129539712,1004.029466957288,15.288,0.0,11.631258904658306,0.1191110012751484,2.9093509203493065e-07,-0.0431022099749871,4.057669051368744e-05,0.004627860506964,17.46855259614184,21.37761622910127,40.52383464985497,26.036101046751966
0.95,31.222160831478405,131.01045221554628,19.23553798240519,17.34113504021979,-0.0013351363400414,33.12446532097656,0.0017237574316135,-2.533726310790361,342.4218736174873,40.82594055814778,13.387961219309062,69.48896362430978,0.002950955439423,113.7031762918733,1019.0131905012146,15.288,0.0,11.6639090134952,0.1199987745857472,3.054283441007198e-07,-0.0445063682541727,4.0484574114596366e-05,0.0048140751089492,17.341135090038424,21.22429417166277,40.82573083542193,33.22122777366769
0.96,31.22216035479665,131.01045350854776,19.559174232930285,17.224822453969768,-0.0013047201142485,32.48374863278047,0.0017358370212397,-2.6256694194609493,337.09533515678345,41.10266822893865,13.474016174491696,69.4630975885935,0.0030094340441048,113.70323921678036,1032.8421177961584,15.288,0.0,11.696397630630242,0.120812595230448,3.203548521014522e-07,-0.0459333106222658,4.0393271067744014e-05,0.0050019433649652,17.224822501886067,21.08473729038764,41.10246328398237,32.58969266733102
0.97,31.222159874738583,131.01045481073612,19.8856465221343,17.104117654691095,-0.0012742276809591,21.31461211855232,0.001748226226135,-2.7203460806271185,245.02188719299323,41.389466334607846,13.563596267320884,69.43640823866896,0.0030675144072616,113.70330172259996,1047.2730893717098,15.288,0.0,11.72872133548558,0.121656025734167,3.3571987850801005e-07,-0.0473831360276093,4.030284717567995e-05,0.0051956635024984,17.104117700736616,20.940562332664697,41.38926617939179,21.48750743150577
0.98,31.222159391597582,131.0104561213145,20.214738974409524,16.966475061904813,-0.0012427919246051,30.368566489872773,0.0017622444621324,-2.8229504275264223,319.5937466429581,41.71671615534286,13.667923493828091,69.40888277888965,0.0031251910274266,113.70336380297088,1063.865663563672,15.288,0.0,11.760858756408762,0.1226183662112051,3.51529599369554e-07,-0.0488545027072491,4.0213477532891806e-05,0.005399187040048,16.966475106083685,20.77683912078424,41.71652093804386,30.499489878875035
0.99,31.22215890522688,131.01045744068188,20.54656737190985,16.85944742147944,-0.0012137878571658,33.05186677381884,0.0017729684026102,-2.9143336584622,341.6609485517054,41.97111928482249,13.745324174686523,69.38050811752433,0.0031824583970323,113.70342545214204,1076.8465576870688,15.288,0.0,11.792833027418412,0.1233665978334339,3.6778849235695273e-07,-0.0503486313776017,4.012514156075609e-05,0.0055980663379518,16.85944746390408,20.65006388276805,41.97092862347175,33.1801030898117
1.0,31.222158415626275,131.01045876883907,20.88113560664858,16.735961144305648,-0.0011838701181823,29.728475108645046,0.0017852655395223,-3.0134981679034536,314.2672081822764,42.26492569878784,13.837087133522404,69.3512717029535,0.0032393113042119,113.70348666446264,1091.9405286779613,15.288,0.0,11.824634529381214,0.1242306582418917,3.845016828097748e-07,-0.0518654874559034,4.0037915603882205e-05,0.0058069012112809,16.735961184980322,20.504301810546373,42.26473973690455,29.880820046987644
1.01,31.22215792297973,131.01046010528643,21.21831009291596,16.61607223459624,-0.0011544557962616,31.02542859348928,0.0017970456655377,-3.112247954477961,324.9203161036979,42.54996760062484,13.925522164060778,69.3211604864416,0.0032957444791441,113.70354743395164,1106.682821785205,15.288,0.0,11.856258632152311,0.1250689669442991,4.016748692502849e-07,-0.0534044455099102,3.9951918980761935e-05,0.006019334016102,16.616072273570367,20.3633785263302,42.54978625913243,31.181137085892612
1.02,31.222157427211176,131.01046145023085,21.558151535583047,16.50126883698972,-0.0011256251956771,26.12671407303064,0.0018081243669695,-3.209815634315377,284.59063161540416,42.82205345433479,14.009074919656324,69.29016163403112,0.0033517528387704,113.7036077551878,1120.8448580455758,15.288,0.0,11.88771246968886,0.1258692033960055,4.1931271864439993e-07,-0.0549660992818836,3.9867182377451855e-05,0.0062347641634659,16.5012688743143,20.22907429456364,42.82187664154253,26.323147758759905
1.03,31.222156928390024,131.01046280348385,21.900611141669565,16.37563115550231,-0.0010963237825859,21.594705834913416,0.0018202347697316,-3.313252472657218,247.30469339049705,43.12135254603756,14.102578739188743,69.25826238897115,0.0034073314483364,113.70366762269416,1136.5302223890287,15.288,0.0,11.91899027472275,0.126749439397196,4.374204825587512e-07,-0.0565502064843634,3.978379732411017e-05,0.0064590687533261,16.375631191196174,20.082417923843472,43.121180335900505,21.84740179877844
1.04,31.222156426579307,131.0104641648744,22.2456454458432,16.261594987514613,-0.0010680240010973,33.530312741216186,0.0018309131248273,-3.4125481658537686,345.46563688072297,43.39078225723697,14.184984689852644,69.22544957413425,0.0034624753551588,113.70372703097536,1150.7389321410278,15.288,0.0,11.950096048174112,0.1275418885270669,4.5600336495620563e-07,-0.0581567559568103,3.970183913051893e-05,0.0066838485082019,16.261595021640478,19.95014051213074,43.3906144924192,33.70352149049531
1.05,31.222155921491687,131.0104655351831,22.59347078283432,16.138994492815964,-0.0010394069781231,20.7596935889524,0.001842377136874,-3.516827351889599,240.45625879819983,43.68204360806919,14.27535568095094,69.19171017579862,0.0035171797870316,113.7037859752165,1166.2005281932684,15.288,0.0,11.981045934690492,0.1283985195535925,4.750651173193581e-07,-0.0597874619407074,3.96212685148769e-05,0.0069171548983682,16.138994525396722,19.808205840708485,43.68188033840288,21.055473300891233
1.06,31.222155413366057,131.0104669137612,22.94391213873448,16.00933065852062,-0.0010106027320595,28.997364893011422,0.0018544991708616,-3.6257211570544015,308.17968365593924,43.992132494345306,14.372641895294413,69.15703062826275,0.0035714399271006,113.70384444980104,1182.7766665763345,15.288,0.0,12.011827062640812,0.1293105027923479,4.94612071687888e-07,-0.0614411917416615,3.954224083821936e-05,0.0071587049402718,16.009330689583724,19.65837072263181,43.99197374923938,29.223159105174283
1.07,31.222154902085663,131.01046830092585,23.297058952221967,15.898125982541128,-0.0009831680425588,33.905636493139724,0.0018643289361499,-3.726754474653734,348.5093681440308,44.25256266301405,14.451479041135538,69.12139708166457,0.0036252509984169,113.70390244964972,1196.7814217799234,15.288,0.0,12.04245612783049,0.1300765297734701,5.146487423885638e-07,-0.0631190142601257,3.94647658102713e-05,0.0073974786237144,15.898126012157327,19.53113870885189,44.25240822733907,34.10983565476389
1.08,31.22215438754736,131.0104696969574,23.6529889418786,15.783676374464214,-0.0009557486537117,23.25391498113989,0.001874333979701,-3.830324602743808,261.00157857466235,44.52083208273164,14.533136531536227,69.08479598845517,0.0036786084706695,113.7039599699182,1211.2943310382796,15.288,0.0,12.07293472316738,0.1308656098555875,5.351799001583459e-07,-0.064821555192263,3.9388886453712006e-05,0.0076428081218761,15.783676402665234,19.400590092654863,44.52068195408418,23.567264415404573
1.09,31.222153870027693,131.01047110110449,24.011498929465965,15.65090569729309,-0.000927493358848,21.490402769379248,0.0018863285310186,-3.9443570693116494,246.54375332474407,44.83939087768236,14.633434384997816,69.04721368619214,0.003731507929685,113.70401700533884,1228.6483237371756,15.288,0.0,12.103245370152708,0.1318025225148429,5.562122974462744e-07,-0.0665473059170335,3.931478014399028e-05,0.0079021535518785,15.650905724088355,19.24864120149374,44.839245187366245,21.849379108766623
1.1,31.222153349602664,131.01047251316092,24.372534658428805,15.5284920459839,-0.0009000916535678,41.785205520036016,0.0018969288438707,-4.054296816990337,413.1890617385841,45.12926032988016,14.723089078287492,69.0086363997834,0.0037839450759513,113.70407355104096,1244.541989478029,15.288,0.0,12.133393498769724,0.1326551157084961,5.77751247343635e-07,-0.068296198157001,3.9242531088123126e-05,0.0081619694483863,15.528492071428426,19.10961401249697,45.12911894381384,41.98143311787063
1.11,31.222152825863496,131.01047393423684,24.73639800283275,15.425919426536916,-0.0008740130646803,30.939678651243447,0.0019049037358739,-4.154540010581525,324.1593910376397,45.361756563885535,14.791343020484064,68.96905012666895,0.0038359156882061,113.70412960291422,1257.3542986282707,15.288,0.0,12.163406383840544,0.1333390738258637,5.997995663312138e-07,-0.0700709154757516,3.917206231326291e-05,0.0084169102609627,15.42591945069598,18.994942820557167,45.36161927423439,31.21736570196772
1.12,31.22215229886964,131.01047536417065,25.103044302803013,15.2878669179131,-0.0008461950331046,12.482798299817924,0.0019170209218111,-4.275209415360472,172.73281794065943,45.69554816257828,14.897277273238304,68.92844115696693,0.0038874158106191,113.70418515645856,1275.8817673050391,15.288,0.0,12.193271262271322,0.1343207966871594,6.223631105572525e-07,-0.0718710301472577,3.910348907655327e-05,0.0086963599554811,15.287866940773467,18.83823204176314,45.6954152425733,13.19460770974618
1.13,31.222151769219813,131.01047680133644,25.47203629921233,15.169862807907723,-0.0008197191312919,36.22274461633207,0.001926482580458,-4.385989557189622,367.5328077900705,45.97111419303569,14.98158650272722,68.88679468557383,0.0039384413060254,113.70424020620636,1291.2707532953275,15.288,0.0,12.222968991604311,0.1351313781006014,6.454506808279348e-07,-0.0736933336422336,3.9037081175992095e-05,0.0089703127659735,15.169862829534964,18.706104752403093,45.97098543185565,36.4873147223405
1.14,31.22215123623725,131.01047824757188,25.8438683587127,15.065854389522125,-0.0007941729836111,20.63348783880404,0.0019339356046593,-4.489589507170352,239.69531773195544,46.20378940654434,15.049839244276162,68.84409712617015,0.0039889885923138,113.70429474907868,1304.3283515600408,15.288,0.0,12.252536957199384,0.1358158932031605,6.690629358707007e-07,-0.0755421224420086,3.897268238350893e-05,0.0092415670624668,15.06585440996924,18.59137913274971,46.20366465814379,21.11627898274398
1.15,31.22215070041188,131.01047970154644,26.2181809749367,14.926416651181633,-0.0007670361072248,20.348070385337888,0.0019456893836663,-4.614963824795835,237.41251153546767,46.54220481641054,15.157672530869991,68.80033489865916,0.0040390542797028,113.7043487805396,1323.4576037769627,15.288,0.0,12.28194069057094,0.136811242160742,6.932085235428525e-07,-0.077414184730369,3.891055915357261e-05,0.0095396122571269,14.92641667044192,18.434520870536293,46.542084330660565,20.864847550282896
1.16,31.22215016188209,131.01048116288425,26.59487425046849,14.826378480770169,-0.0007421078911023,51.16427095162434,0.001952151442336,-4.717861042993041,490.0437743845894,46.7600624813881,15.220464177710564,68.75549336480518,0.004088634816535,113.70440229636726,1335.8281096697997,15.288,0.0,12.311191949264431,0.1374522211181763,7.178929402087198e-07,-0.0793092518403973,3.885080963824823e-05,0.0098185294299957,14.826378498926193,18.32566514420813,46.75994591135316,51.38132772363047
1.17,31.222149619752685,131.01048263401574,26.97459543531589,14.70793234679084,-0.0007164518832383,10.120199759814044,0.0019607269144602,-4.83265869091024,153.70937929486794,47.03272934137702,15.303737026937618,68.7095590184677,0.0041377271868394,113.704455294365,1351.4031743708665,15.288,0.0,12.340327338241869,0.1382543237585956,7.431152789888555e-07,-0.0812329406808691,3.879323321554168e-05,0.0101149566550385,14.707932363855734,18.19519213432356,47.03261680137837,11.21485787006775
1.18,31.222149075193208,131.01048411176524,27.35649464406903,14.565184466031656,-0.0006899024518274,25.527981339325606,0.0019723299924762,-4.964014017619219,280.02501822196746,47.381774059966816,15.415862173419132,68.66251759959621,0.0041863283497267,113.70450776937508,1371.4856674566452,15.288,0.0,12.36928676650572,0.1392809530013525,7.688894064073114e-07,-0.0831775876614203,3.8738313306920766e-05,0.0104335805825726,14.565184482017315,18.035839494958203,47.3816656903431,26.006139089033613
1.19,31.22214852767093,131.010485597579,27.74095707735844,14.476901062470176,-0.0006660819508335,43.63991782589103,0.0019763911738423,-5.0614110404330805,428.4078130529292,47.5564917358966,15.462505987643455,68.61435443492675,0.0042344353103788,113.70455971868796,1381.5678456696355,15.288,0.0,12.398118442292104,0.1397951503919106,7.952154596483444e-07,-0.0851474659466969,3.86859228532456e-05,0.0107196654951846,14.476901077465897,17.942900191537085,47.55638710798843,43.932451712565076
1.2,31.222147976720635,131.01048709271956,28.12831276092868,14.345378855967637,-0.0006404896699185,5.625587709188275,0.0019860003763548,-5.187715059167632,117.1843741360236,47.86829596095824,15.56076630046407,68.56505631125337,0.0042820457304468,113.70461114018944,1399.6916559014371,15.288,0.0,12.426825474578552,0.1407123326966779,8.220957385639748e-07,-0.0871451439904241,3.86360371214472e-05,0.0110426853073277,14.345378869965826,17.79819665855349,47.86819535307616,7.652426318043337
1.21,31.222147423521303,131.0104885939861,28.517711731206223,14.216468831111218,-0.0006152754876973,35.26729500940216,0.0019950533160865,-5.313587081300152,359.92343213200894,48.17175823261682,15.656124742567687,68.51460835540533,0.0043291569760134,113.70466202911,1417.441646533062,15.288,0.0,12.455351633921108,0.1416050044037405,8.495445496458183e-07,-0.0891629386890414,3.8589108419297214e-05,0.0113695732124688,14.216468844151107,17.657131419146758,48.171661585369215,35.66533763938035
1.22,31.222146867164657,131.0104901038441,28.90980319054587,14.12451358533008,-0.0005918093417349,25.870218505135668,0.0019986717662771,-5.414721048488987,283.0687504825761,48.35052475606098,15.704418390204676,68.46299664979689,0.0043757668926945,113.7047123841366,1427.9276997262195,15.288,0.0,12.483726652938063,0.1421311328482556,8.775584930937369e-07,-0.0912075150010712,3.854492212026185e-05,0.0116730070473982,14.124513597476156,17.56152387902549,48.35043179486696,26.430804254337446
