Time,Latitude,Longitude,Altitude,Angle of Attack,Angle of Sideslip,X-Acceleration,Y-Acceleration,Z-Acceleration,Thrust,True Velocity,Ground Velocity,Pitch,Roll,Yaw,Dynamic Pressure,cp,parachute_deploy_gain,Wind Speed,Mach,omega_x,omega_y,omega_z,Cmq,Angle of Attack(total),Angle of Attack(gust),True Velocity(gust),Acceleration
0.0,31.222216000000007,131.010392,3.000000004412624,0.0,0.0,0.0,0.0,0.0,2.2828121974499247,0.0,0.0,71.99999999612658,-1.0292491154817412e-14,119.99999999354436,0.0,15.288,0,0.0,0.0,0.0,0.0,0.0,-0.0,0.0,90.0,0.0,0.0
0.01,31.22221599999862,131.01039200000284,3.0000009727369523,0.0,0.0,0.0,0.0,0.0,34.24218696174923,5.916279387578309e-11,5.734623670548936e-11,71.99999999613168,-5.86671995824671e-13,119.9999999935449,2.1432944861733093e-21,15.288,0,0.0,1.7386402909615473e-13,-3.4220131069073734e-19,7.115076756936125e-19,5.488773498207866e-19,-1.1574302492039043e-31,0.0,89.99999999962336,5.916279387578309e-11,0.0
0.02,31.22221599999738,131.01039200000537,3.0000018317022668,0.0,0.0,0.0,0.0,0.0,25.871876237766408,1.2265415415436536e-10,1.1895038237325684e-10,71.9999999961369,-1.1836364828043265e-12,119.99999999354544,9.211895886571454e-21,15.288,0,0.0,3.6044858651615574e-13,-6.979551485375437e-19,1.4162390878091906e-18,1.0909784360635388e-18,-4.776231873571785e-31,0.0,89.99999999921916,1.2265415415436536e-10,0.0
0.03,31.22221599921969,131.01039200159065,3.0001883335529382,18.80143492628821,-0.0001350810307892,10.931161642028636,-1.75114298675875e-05,3.026590975169265,180.34219359854663,0.0798232026864394,0.0478175828508887,71.99999999765336,-5.341802909786072e-12,119.99999999436793,0.0039016003969354,15.288,0,0.0,0.0002345795854893,3.788270153300133e-17,-7.771883375645477e-10,1.1422790048099072e-11,1.7057759223764537e-13,18.80143492675591,89.51882325913425,0.079801984207741,11.342422482672777
0.04,31.222215995131297,131.01039200995308,3.001692634342189,9.19442604083399,-4.49173898918486e-05,52.29595764159784,6.445392950801871e-06,3.026413589912948,548.6359724538078,0.3504174083926908,0.1601447499964056,72.00000000319055,-3.111420077280171e-11,119.99999999870242,0.0751892535633216,15.288,0,0.0,0.0010297854387864,2.0082066977226968e-15,-1.520937588847922e-08,2.5623342884322286e-11,1.4654248781413086e-11,9.19442604094277,87.798916624545,0.3504103527855857,52.383455068075136
0.05,31.222215983575865,131.01039203366796,3.0074067499493786,5.158590039700252,1.707592688632746e-06,76.26884281015512,5.843947534199429e-05,3.0258124765658088,761.6984298824644,0.9592973585397016,0.3772700771701255,72.0000000004862,-1.3608731808076822e-10,120.0000000109612,0.5634958029902841,15.288,0,0.0,0.0028191251099456,2.086299069701397e-14,-1.0551247853743037e-07,3.973493515691201e-11,2.783064866637575e-10,5.158590039700515,83.94063169874748,0.959297626767734,76.32884071402438
0.06,31.222215961742712,131.0103920785344,3.019291017943491,4.109521257467909,3.140103977270004e-05,57.06876634333886,0.0001151069734147,3.024834864051463,590.4875390737208,1.6257536642597354,0.6118982818704327,71.99999992547217,-3.5903296759057166e-10,120.00000003412836,1.6184272268450337,15.288,0,0.0,0.0047776672697797,1.0694899894620088e-13,-3.741090980393931e-07,5.521401959501359e-11,1.6723176417636091e-09,4.109521257587776,79.78719176344794,1.6257585967235286,57.148873286519276
0.07,31.222215929936205,131.01039214392435,3.0371334573469446,3.649087515174788,5.707077112564807e-05,86.89643797254193,0.0001728541558773,3.0234947746384675,855.2937749779139,2.3057260079826607,0.8506307413593818,71.99999965378231,-6.907496536790437e-10,120.00000006788592,3.255354923652711,15.288,0,0.0,0.0067759305364855,3.495199904512709e-13,-9.036515915819006e-07,7.594816279105379e-11,5.728932851326001e-09,3.6490875156204896,75.6601668283889,2.305734972638426,86.94902215090157
0.08,31.222215886364623,131.01039223353447,3.0621840248716574,3.4254446680114707,8.413075603463509e-05,17.831756866644035,0.0002285946601282,3.021841001032126,241.2171988638848,2.961944911520492,1.0819695676346892,71.99999900671328,-1.141745983122182e-09,120.00000011415082,5.371998197385977,15.288,0,0.0,0.0087043901031071,8.800530155962314e-13,-1.829098470920821e-06,1.0943386634701918e-10,1.4896287129277132e-08,3.4254446690434226,71.81713637501419,2.9619581267487467,18.085991154451033
0.09,31.22221583454733,131.01039234010327,3.0919888289029,3.389560809024919,0.0001118726864415,54.09031716446879,0.0002748660999733,3.020060228038602,563.0937377043176,3.504225426410036,1.2780161667917422,71.99999774508822,-1.634190085504106e-09,120.00000016921716,7.519080503822694,15.288,0,0.0,0.0102980157586766,1.865782139518716e-12,-3.1503298654458527e-06,1.6284478329871028e-10,3.03536411425607e-08,3.389560810868955,68.76526501308032,3.504242999330529,54.17456206384468
0.1,31.22221577423132,131.0103924641528,3.1267248829165366,3.4447939461814814,0.0001419149103147,51.372195336549765,0.0003131602029306,3.0182021883815127,538.7437595981919,3.950569597142709,1.4443465951180965,71.99999562056465,-2.1287748602259068e-09,120.00000023339832,9.55649523509932,15.288,0,0.0,0.0116097108366932,3.485956000178229e-12,-4.949356763187612e-06,2.4573266549165286e-10,5.3761299442583966e-08,3.444793949101151,66.34639928474206,3.9505918890846927,51.460781166288626
0.11,31.222215706113143,131.01039260424562,3.165907002780892,3.4691423802630394,0.0001702373452339,40.591037561894986,0.0003534470100582,3.016051659024047,442.8656393052949,4.421478635995476,1.6182620895289603,71.99999235067894,-2.5564479031457968e-09,120.00000030601664,11.970509656144712,15.288,0,0.0,0.0129935974697161,5.942887149865172e-12,-7.273722517324353e-06,3.67769289312894e-10,8.842679949465076e-08,3.4691423844348632,63.88798785789768,4.421505376815134,40.70293476011277
0.12,31.222215630588888,131.0103927595646,3.2092596514826863,3.4852659299808075,0.0001974376474727,44.30042894095728,0.000394069215595,3.013641598889868,475.58594813540446,4.896982486381051,1.793579340340896,71.99998761802138,-2.8337988279882726e-09,120.00000038673312,14.683611096353944,15.288,0,0.0,0.0143909889875706,9.464337642181618e-12,-1.017558359402848e-05,5.395790443954697e-10,1.3700793350599625e-07,3.4852659355662303,61.5068242157714,4.897013499814194,44.40281567867803
0.13,31.222215548046687,131.0103929293088,3.256512891171917,3.5606043721293616,0.0002276507019012,48.86766833507025,0.0004268800875964,3.0112558910133567,515.9156326236895,5.278566579338586,1.939796541405244,71.99998107389406,-2.8573058577484587e-09,120.00000047523812,17.061052093156064,15.288,0,0.0,0.0155123760833565,1.4300406003001044e-11,-1.3705268062305584e-05,7.724776992181392e-10,1.989112774124932e-07,3.560604379397528,59.67313531776262,5.27860233862722,48.960358155653
0.14,31.222215458587108,131.01039311327068,3.30759734332425,3.6000732663755977,0.0002555702913645,45.540290862247225,0.0004629468001456,3.0085404980032777,486.2390860568404,5.70011779273801,2.098362647205908,71.99997235012626,-2.508533681468686e-09,120.00000057154703,19.894788765881632,15.288,0,0.0,0.0167512184495524,2.071534240530911e-11,-1.7917736259613292e-05,1.0787346240473087e-09,2.8081526258393346e-07,3.6000732754351943,57.72385750323359,5.700157937625502,45.639559681930805
0.15,31.222215362317904,131.01039331122794,3.3624387479639086,3.651605404442164,0.0002842753491325,44.01308509501,0.0004965057129938,3.005703619811542,472.54218587214,6.091938849578711,2.2476968067377374,71.99996103728932,-1.6446954747148112e-09,120.00000067569304,22.723773683610247,15.288,0,0.0,0.0179026934683374,2.9002783512213203e-11,-2.287326399669318e-05,1.47199345427166e-09,3.831202693354572e-07,3.651605415492516,55.98561718911576,6.091983503446133,44.115597174664394
0.16,31.22221525912812,131.01039352340948,3.421115382839859,3.67540086436193,0.0003108411545024,34.83804992586084,0.0005330990866742,3.002517946501868,391.1218908297564,6.521183188362317,2.4085903880902046,71.99994669525161,-1.0153513453738144e-10,120.00000078796704,26.03872642002185,15.288,0,0.0,0.019164148528834,3.9478358970291335e-11,-2.864207894220033e-05,1.9677461746207517e-09,5.135466997084602e-07,3.6754008774883777,54.15946979122355,6.521232015176687,34.96719658394182
0.17,31.2222151493826,131.01039374906244,3.4833737923187487,3.7139589864597298,0.0003384978477213,43.96471427482637,0.0005668629535037,2.999235483723449,471.78125980632376,6.916861975403744,2.559060925010733,71.99992884100092,2.3206494032971838e-09,120.0000009081849,29.29426197817256,15.288,0,0.0,0.0203269651395979,5.248754693205839e-11,-3.5267097947693114e-05,2.580363454062817e-09,6.706952682968329e-07,3.713959001863866,52.549031795895466,6.916915146521327,44.06689817851128
0.18,31.22221503253009,131.01039398932429,3.549599475912623,3.7380363034619775,0.0003650282082698,36.67395661481795,0.0006021794701355,2.9956556354306425,407.10156721191447,7.332140201215607,2.71556808256092,71.99990696207136,5.837017536380516e-09,120.00000103716444,32.917216366714264,15.288,0,0.0,0.0215473823438242,6.839750892601699e-11,-4.285557247677198e-05,3.331016495775474e-09,8.639362741436378e-07,3.738036321259578,50.93050624815799,7.332197539712479,36.796100973258795
0.19,31.22221490871209,131.01039424390297,3.619694897703461,3.747799769666444,0.0003901520189829,41.42208371271829,0.0006393759928961,2.991742733214697,448.9531328318269,7.771071983754382,2.879366399937307,71.99988049019642,1.0709144790974043e-08,120.00000117502664,36.97605053227239,15.288,0,0.0,0.0228373144884866,8.761416506509219e-11,-5.146771415177372e-05,4.238406957677133e-09,1.0996552116864756e-06,3.747799789945131,49.29705748437159,7.771133268690212,41.529983675580546
0.2,31.22221477769685,131.01039451327668,3.693822889232993,3.7700519460961166,0.0004166800650969,37.99697972290605,0.0006740224661302,2.987733789228414,418.51563019916136,8.179966026035371,3.0338260708461373,71.99984881140107,1.723179577184912e-08,120.0000013223286,40.969302182777255,15.288,0,0.0,0.024038975990988,1.1057590044953188e-10,-6.120032215177249e-05,5.3263847350253015e-09,1.376394225587184e-06,3.7700519690893857,47.8457752505109,8.180031477986942,38.11426270718793
0.21,31.222214639876928,131.01039479663547,3.771710975053407,3.7926098867321474,0.0004432924407074,36.46301043881366,0.0007080907240332,2.983530483977461,404.8187610144644,8.582757448615462,3.1863584283669346,71.99981127559042,2.5745201416596626e-08,120.00000147900325,45.103059028532826,15.288,0,0.0,0.0252227064089584,1.3774582723633048e-10,-7.20875523136271e-05,6.61341033873124e-09,1.7010673350603349e-06,3.792609912601061,46.47936953648762,8.582827080829217,36.584868250565684
0.22,31.22221449507626,131.01039509434258,3.8534832466471007,3.782921298925821,0.0004660920499522,44.14577847155813,0.0007479176313898,2.978724032883548,472.5421858721365,9.056569122268344,3.360845972992861,71.99976720416048,3.661811567390422e-08,120.00000164562512,50.21995530074818,15.288,0,0.0,0.0266151520780326,1.6960703048385348e-10,-8.421592474264931e-05,8.124635526119773e-09,2.0969540034515424e-06,3.7829213275976334,44.9464484092354,9.056642335836344,44.24615863872642
0.23,31.22221434283448,131.01039540734791,3.9394622486964206,3.813874679301352,0.0004940771488601,36.66675459308932,0.000779455230549,2.974212905336642,406.3406421461021,9.430647902846331,3.5044030163419806,71.99971583979395,5.0272885112871524e-08,120.00000182313076,54.45382429059888,15.288,0,0.0,0.0277145095638672,2.0669790509245914e-10,-9.77285871729516e-05,9.894576563683824e-09,2.5339062472561444e-06,3.813874711257219,43.79476959007253,9.430725512303388,36.78718303164376
0.24,31.222214184153326,131.01039573358457,4.028950821673608,3.829256049377765,0.0005200487408944,37.802126339316736,0.0008136255607606,2.9692962675112065,416.2328240017114,9.837806876534357,3.658163422426286,71.9996564062533,6.718950080713476e-08,120.0000020109434,59.25679777340223,15.288,0,0.0,0.0289110855155543,2.4956955046738006e-10,-0.0001125744417092,1.1934277804843484e-08,3.0448209172448607e-06,3.829256084638984,42.59361542722471,9.83788856559955,37.91856374864305
0.25,31.22221401888584,131.01039607335582,4.122052964664892,3.851417709838087,0.0005469594058717,38.85163035360012,0.0008459008130282,2.964283881833675,425.36408079150686,10.22297576958679,3.8050691648373967,71.99958811418384,8.786880969336211e-08,120.00000220974424,63.98709205399403,15.288,0,0.0,0.0300430411774988,2.987811646313829e-10,-0.0001288461362054,1.4273117985167728e-08,3.621333387698252e-06,3.8514177486178034,41.50703126619192,10.223061685769354,38.96455005232871
0.26,31.222213847358866,131.0103964259872,4.218542267117083,3.8780574625554745,0.0005745172425185,42.3164797140743,0.0008766626387865,2.959162938653076,455.8015834241788,10.590779679138215,3.946551912391076,71.99951013710364,1.1286401474734325e-07,120.00000241975916,68.67355887153568,15.288,0,0.0,0.0311239685467471,3.5491769188178554e-10,-0.0001465721578858,1.6932703957058654e-08,4.267712643344226e-06,3.8780575050466,40.51245375834074,10.590869924095635,42.41981967733593
0.27,31.22221366913008,131.0103967923915,4.318728802515264,3.886188503202341,0.0005994342651313,38.70936050721014,0.0009111181036949,2.953518013741325,423.84219965987256,11.004860953238978,4.102320296019413,71.99942161756776,1.4276417094868828e-07,120.0000026420792,74.14786134434608,15.288,0,0.0,0.0323408987462391,4.1858405402174807e-10,-0.0001658847815307,1.995072923688136e-08,5.018832267232506e-06,3.886188549362022,39.43841359495857,11.00495511215316,38.8218734782956
0.28,31.22221348431185,131.01039717233687,4.422535913956003,3.90556090261878,0.0006261175699806,44.68030766832924,0.0009425767186621,2.947879457547137,476.3468732012221,11.38358114165448,4.247086834352694,71.999321619057,1.7823531611327881e-07,120.000002877279,79.33831935330025,15.288,0,0.0,0.033453914386159,4.904408325040897e-10,-0.0001868529238516,2.3357766479368094e-08,5.847713054408178e-06,3.9055609527288775,38.49894431917428,11.383679491972384,44.77744842575601
0.29,31.222213292835256,131.0103975659655,4.530013412817602,3.9242599519377537,0.0006528240665589,35.802573724660256,0.0009737210635801,2.942037024315898,397.97031042211177,11.759725774384751,4.391004157029451,71.99920917567837,2.1999186079018322e-07,120.00000312617878,84.66717879828003,15.288,0,0.0,0.0345593650464213,5.711677680739745e-10,-0.0002095620322847,2.7188189988316943e-08,6.77505090435382e-06,3.9242600061534456,37.60352534239979,11.759828319749328,35.92324968749781
0.3,31.222213095024976,131.0103979726075,4.64093665799555,3.936939025755682,0.0006785438093183,33.570228713727204,0.0010059102294455,2.93586442972183,378.1859457108711,12.149968255527943,4.539237002744259,71.99908328532703,2.6880857935396905e-07,120.00000338923812,90.3787563598417,15.288,0,0.0,0.0357062504417728,6.614698865958865e-10,-0.0002340353597042,3.1467140861055e-08,7.817263716758327e-06,3.9369390841381695,36.71173884615234,12.150074840940263,33.698361337808635
0.31,31.22221289105846,131.01039839189684,4.755183729044857,3.9598342215431432,0.0007060286581592,35.396825578217346,0.0010350810412898,2.9297385597941448,394.1656220930212,12.504537499407316,4.6763673222047455,71.99894291513503,3.255120771695107e-07,120.00000366712923,95.72967338626896,15.288,0,0.0,0.0367483036680869,7.620720834468404e-10,-0.0002603234137215,3.622454560346964e-08,8.948994505138873e-06,3.9598342843844345,35.934338386209795,12.504648402129598,35.5178635353378
0.32,31.222212681031937,131.01039882363492,4.872689374180126,3.985461429033668,0.0007340760463279,38.52097867048992,0.0010630242168685,2.9235095146848846,421.55939346242695,12.84534566718622,4.809181081594425,71.99878701464397,3.909756427278764e-07,120.0000039606604,101.01782231644016,15.288,0,0.0,0.0377499198995686,8.737098716736534e-10,-0.0002884807530145,4.1491545539590986e-08,1.0187112828155184e-05,3.98546149652875,35.21473736963424,12.845460975581933,38.631757748577954
0.33,31.22221246496604,131.01039926777932,4.9934410812554,4.010606629086,0.0007621365968788,38.18822026147908,0.0010905599149574,2.917102431053817,418.5156301991682,13.18247167592885,4.940798912752974,71.99861449732019,4.661299779655886e-07,120.000004270781,106.38859400029033,15.288,0,0.0,0.0387407190563976,9.971421990244511e-10,-0.0003185760672934,4.7302669734505256e-08,1.154498667827874e-05,4.010606701382261,34.52805863348922,13.182591392065536,38.299473293007864
0.34,31.222212242662028,131.01039972474007,5.117579377337869,4.019339771238816,0.0007871574969313,29.898022638335373,0.0011220389395318,2.910051232417875,345.46563688075645,13.569536737955724,5.0878303926024735,71.99842423285973,5.519675040347761e-07,120.0000045987411,112.72655675097128,15.288,0,0.0,0.0398782837956187,1.1331556132162459e-09,-0.0003507224668667,5.37022358302301e-08,1.308298593306914e-05,4.019339848191799,33.76700548046532,13.5696603843662,30.039310197084795
0.35,31.22221201433324,131.01040019407705,5.2449575244483055,4.033762873683395,0.000813261106463,32.76415525156106,0.0011515840876071,2.902959820469776,370.5765700527033,13.934300103976534,5.227895396154902,71.99821502296155,6.495674834876441e-07,120.000004945438,118.8669740701126,15.288,0,0.0,0.040950312688979,1.2825853697215452e-09,-0.0003849609961885,6.072234695821837e-08,1.4746020857580124e-05,4.033762955530055,33.07785186209504,13.934427850732408,32.89250745069162
0.36,31.22221177990305,131.01040067594835,5.375631006350063,4.051723629010647,0.0008401329464575,37.01692984301412,0.0011797030485285,2.8957873473716007,407.8625232777193,14.282998147928636,5.362923567977223,71.9979856440668,7.600645476620651e-07,120.00000531213882,124.88900300695136,15.288,0,0.0,0.0419751331662584,1.4462801652534363e-09,-0.0004213876232777,6.84067806399068e-08,1.654507199147348e-05,4.051723715967022,32.44322602189087,14.283130115703262,37.13002398000203
0.37,31.222211539445663,131.01040117020102,5.509550188388412,4.071639898917391,0.0008674922629137,35.12417761390579,0.0012067983861697,2.88849906286036,391.1218908297666,14.620581431527652,5.494447309446232,71.99773482653193,8.846681943540367e-07,120.00000570002652,130.86067091914967,15.288,0,0.0,0.0429672939311924,1.6251202388969355e-09,-0.0004600660652957,7.679415042686734e-08,1.849041957573993e-05,4.071639991174516,31.85023865502424,14.620717696893658,35.24274792557624
0.38,31.222211292895075,131.01040167697127,5.646763233102716,4.08264881385344,0.0008930259828975,36.695642158537446,0.0012360471443664,2.880711738179021,404.8187610144602,14.986392916850402,5.634654729559426,71.99746126698146,1.0246533537040716e-06,120.0000061105033,137.4891296153862,15.288,0,0.0,0.0440424171304414,1.8200057922063743e-09,-0.0005010869196581,8.592980519823866e-08,2.0642694281337543e-05,4.082648911356968,31.228847973200924,14.986533193043764,36.808540518115166
0.39,31.22221104018777,131.0104021963902,5.787316652586672,4.096641430700089,0.0009192713382325,31.335681548387896,0.0012640110027448,2.872831219844713,357.64062493382744,15.337978856701952,5.770390286512262,71.99716358743511,1.1813915463769678e-06,120.00000654506955,144.01394309468844,15.288,0,0.0,0.0450757388736732,2.031886352449547e-09,-0.00054455673306,9.586443829735616e-08,2.295945663566148e-05,4.096641533664766,30.65298398882095,15.338123255506089,31.4670954954126
0.4,31.222210781536543,131.01040272801887,5.931064331106764,4.109028969993624,0.0009451871856381,29.95928076777898,0.0012920492774571,2.8646905607053603,345.465636880754,15.692185018814769,5.906873567965718,71.99684037970908,1.3563276523471372e-06,120.00000700500496,150.74021066990193,15.288,0,0.0,0.0461167659598875,2.2617341782092324e-09,-0.0005905037520737,1.0663253249436129e-07,2.5471259834659164e-05,4.1090290785164525,30.09246700352443,15.692333488470696,30.095929256306363
0.41,31.222210517064383,131.01040327160345,6.077922766619747,4.122888296344507,0.0009714525997821,33.78425365340317,0.0013192264430821,2.85640971467756,378.94687077668647,16.03742529732769,6.0405139809190125,71.99649020751959,1.5509747261474075e-06,120.0000074917568,157.44375780268788,15.288,0,0.0,0.0471314487675864,2.5105374204052982e-09,-0.0006389770219162,1.1827345344180344e-07,2.816813594418537e-05,4.122888410595805,29.56469007160549,16.037577892745222,33.904791300285986
0.42,31.22221024682894,131.0104038270252,6.227854084363214,4.14444025865494,0.0009995884754813,38.04468161607466,0.0013435485656724,2.8482703202464488,416.2328240017114,16.348862540904037,6.163613566771559,71.99611159893284,1.766920641656551e-06,120.00000800692096,163.6157044470786,15.288,0,0.0,0.0480467946810589,2.779304965995011e-09,-0.0006900467934588,1.308321832549104e-07,3.100973487310896e-05,4.144440378988911,29.104646754454564,16.34901955589459,38.15115260238947
0.43,31.222209970843565,131.0104043942566,6.380851271439565,4.1618082623168045,0.0010268052928652,33.45815353250911,0.0013687230309017,2.8397750580998298,375.9031395134336,16.67263197205097,6.290467308135904,71.99570306121484,2.005818691215035e-06,120.00000855220898,170.15779512382937,15.288,0,0.0,0.0489983878509763,3.0690566816849196e-09,-0.0007437862329608,1.443552931671376e-07,3.4086145072160934e-05,4.161808388761201,28.640125213458976,16.672793262249197,33.57845085853367
0.44,31.22220968892116,131.01040497368373,6.537047157143216,4.164954087655709,0.0010505545842624,30.86574023822051,0.0013980747538988,2.830419582421933,353.0750125389216,17.050421620730056,6.433992917638883,71.99526304125902,2.269416145406482e-06,120.00000912964636,177.9537948947602,15.288,0,0.0,0.050108743779844,3.380847125286677e-09,-0.0008003278134917,1.589055036683518e-07,3.750784460406397e-05,4.164954219916419,28.113519280259386,17.050586641458253,30.99524475496968
0.45,31.22220940081287,131.01040556582012,6.696617751072218,4.165241899529329,0.0010735835484822,35.912216710755274,0.0014280646808282,2.820677244966047,397.2093853562869,17.438293672974723,6.580571293039616,71.99478987454265,2.5595995397253085e-06,120.00000974147088,186.13940823302417,15.288,0,0.0,0.0512487363629523,3.7158016249566814e-09,-0.000859850913876,1.745604864109677e-07,4.121350642664912e-05,4.1652420376426775,27.591357195572936,17.43846231108416,36.02281959036367
0.46,31.222209106468902,131.0104061707686,6.859600379555308,4.174585124444534,0.0010989881252456,41.916816790010685,0.0014546917035209,2.811153314474766,449.7140588976434,17.786187321601275,6.714685486378061,71.99428180697711,2.8783880229668832e-06,120.0000103898448,193.6374175079873,15.288,0,0.0,0.0522712438446989,4.0751091178509895e-09,-0.0009224765531151,1.9138630415982226e-07,4.50966024037632e-05,4.1745852688465686,27.13985967570823,17.786359950252297,42.01097612387663
0.47,31.22220880579083,131.01040678873238,7.026066274755745,4.1823089530633855,0.0011240727220223,28.37640408484148,0.0014814747534716,2.801325368441072,331.0078106302534,18.138167428286582,6.849989708801916,71.99373704967608,3.2278903746588286e-06,120.00001107707628,201.37401505997488,15.288,0,0.0,0.0533057667609836,4.459978104761035e-09,-0.0009883252835099,2.094509673354327e-07,4.927107017839778e-05,4.182309103852639,26.69716826759888,18.13834399721685,28.514342615617974
0.48,31.222208499300592,131.0104074186346,7.195654207463586,4.189479568102716,0.0011490100608361,27.95074823096412,0.0015080719422187,2.7912412472910484,327.2031223011574,18.48995085190441,6.98515976370584,71.99315377257649,3.6103201777021456e-06,120.00001180491516,209.25751230436188,15.288,0,0.0,0.0543397174489847,4.8716620260348906e-09,-0.0010573190976925,2.2877013380347535e-07,5.373205427420879e-05,4.189479725385959,26.268461765425428,18.4901313379827,28.089773168283216
0.49,31.222208187201936,131.01040806005494,7.368224738812109,4.202723284133339,0.001175611380853,35.08821363242469,0.0015321405723077,2.781292092003844,389.60000969812296,18.812014261754847,7.111044804193205,71.99253015042137,4.027946338669921e-06,120.0000125755114,216.60722913930897,15.288,0,0.0,0.0552863302793499,5.311396446020465e-09,-0.0011294854492155,2.4938633613154685e-07,5.8398320167141767e-05,4.202723448262914,25.88860807032205,18.81219892635871,35.1982716047702
0.5,31.22220786953184,131.01040871291724,7.5437546994244835,4.220815778795054,0.0012036252596423,36.05491615971072,0.0015540388599792,2.7714444106710974,397.97031042210494,19.10875420627192,7.229005658018125,71.99186435180009,4.483102820610566e-06,120.00001339126192,223.4908652241728,15.288,0,0.0,0.0561585257949344,5.7804122391526605e-09,-0.0012048912160576,2.713531252030471e-07,6.327866493526626e-05,4.220815950099865,25.54902500917784,19.108943271285572,36.161276053538906
0.51,31.222207546379583,131.0104093770373,7.722184419225251,4.232567510615346,0.0012298790840397,27.54004661432325,0.0015777580800203,2.761017323676155,323.3984349720841,19.430597746636646,7.354673636736509,71.99115452520388,4.978202222778502e-06,120.00001425458936,231.07869697977367,15.288,0,0.0,0.0571045034845869,6.2799518101633574e-09,-0.0012835871653678,2.947201005874635e-07,6.854585242460463e-05,4.232567688976395,25.189423168613605,19.430790935591396,27.678103017910345
0.52,31.22220721768956,131.01041005239864,7.90352666581009,4.241141032778313,-7.242901617957962,33.16896462441213,0.4328263547436092,2.7500415102526,372.0984511843415,19.920158837563047,7.482788521551377,71.99039632461064,-1.9019614103232945e-05,119.99998936871825,242.8653846671525,15.288,0,2.5142906944631025,0.0585433923151117,6.8054225637292885e-09,-0.0013727472824139,-7.333416936718175e-05,7.515285471504431e-05,8.387547379723868,17.38089359600612,18.785474220727025,33.28558668879034
0.53,31.22220688304354,131.0104107391547,8.087892336424323,4.250437945594972,-7.141017828311229,34.83290998673536,0.4439372977168702,2.739024783938114,386.5562464348624,20.24542709536363,7.609959290734498,71.98958856461505,-0.0002640937465842,119.9997320218308,250.85699952301408,15.288,0,2.5239632278162825,0.0594994475579372,7.297608057181206e-09,-0.0014583861167442,-0.0002200696494531,8.114352469196467e-05,8.304618112445125,17.153026729157045,19.12662043072658,34.94325335791359
0.54,31.222206542301933,131.01041143750095,8.275355833407378,4.259527052228601,-7.042645306529692,30.57647996593076,0.4551740614914008,2.72777467503266,349.2703242098436,20.56880703446567,7.736447527468062,71.98873080340952,-0.0007707404683515,119.9991996289952,258.9302124170952,15.288,0,2.533613458490521,0.0604499592839135,7.744484031157209e-09,-0.0015477086786786,-0.0003706254790649,8.748727879199007e-05,8.225018101042734,16.932359889453362,19.46533447032124,30.701287680013834
0.55,31.222206195757543,131.01041214681626,8.465711545548498,4.2696138286056735,-6.949487226698731,32.41462371844136,0.4664036600999647,2.716378465528216,365.2500005919907,20.884560769339263,7.8604642204391215,71.98782093273384,-0.0015455364622849,119.99838527148908,266.93607693265744,15.288,0,2.543229499221335,0.0613780642256062,8.14563679509789e-09,-0.0016406852947388,-0.0005248445221601,9.416494997230358e-05,8.150794963072377,16.72248279690824,19.795612489030688,32.53158580749302
0.56,31.22220584340831,131.01041286708852,8.658959485125001,4.281561936378569,-6.862637235052687,30.24553117665116,0.4775198014544673,2.7049110095112767,346.2265619465787,21.188274456948825,7.980631466493875,71.98685682792654,-0.0025949437178763,119.99728215114936,274.75126621050515,15.288,0,2.5528107418583845,0.0622707903673871,8.500685447289142e-09,-0.0017374126186093,-0.0006827820706339,0.0001011647356406,8.083302677003365,16.525777761038587,20.112869559659764,30.36999711702215
0.57,31.222205485328367,131.01041359814883,8.855046692530092,4.291297667822001,-6.775408342759244,29.90547055288232,0.4889767334341387,2.6930628227332134,343.1828296833023,21.499693264035628,8.103117701898029,71.98583632701732,-0.0039254156098947,119.99588347840285,282.8817131622662,15.288,0,2.562352584391385,0.063186167258175,8.809288723069299e-09,-0.0018379453682304,-0.0008444238567984,0.0001085893602537,8.014701697716507,16.32894135098463,20.437893322623594,30.030465440987413
0.58,31.22220512149173,131.01041434003508,9.053990035976218,4.296160528150325,-6.683689324793102,39.41772913034821,0.5011070054100847,2.680594771908652,426.1250058573153,21.83251216673901,8.232198044640134,71.98475721816536,-0.0055434588650605,119.99418240726747,291.70204316013223,15.288,0,2.5718546842854457,0.0641644438619977,9.071121087273409e-09,-0.0019423848343571,-0.0010098301504909,0.0001165341212324,7.940080058851695,16.12357012546655,20.785020152921103,39.51194839988983
0.59,31.22220475146884,131.010415093617,9.25608752881918,4.306097745975852,-6.602766947963247,31.92851282313977,0.5127547776418988,2.6683125256869404,360.68438819711065,22.137209565225383,8.352402910517373,71.98361716361026,-0.0074559974769088,119.99217165297073,299.8951029991211,15.288,0,2.581331381888772,0.0650600795724682,9.285789448302433e-09,-0.0020510449530488,-0.0011793897619027,0.0001247681522868,7.877615283980562,15.940720681101034,21.10234346122891,32.04391892846649
0.6,31.222204375481,131.01041585842165,9.46118370230676,4.307832619549629,-6.512274643754491,28.36093106515072,0.5255121869561143,2.65508860710853,329.4859594986058,22.480946436468404,8.484704921855892,71.9824137646809,-0.0096700411540434,119.98984383942052,309.27459730932947,15.288,0,2.5907733702873887,0.0660704567945274,9.45297317346902e-09,-0.0021639145242996,-0.0013529767315066,0.0001336755033152,7.803020640205035,15.738856700896042,21.46020183350241,28.489788862897317
0.61,31.22220399347388,131.01041663454487,9.669315248754076,4.308021560740981,-6.42240027451802,33.25647285256275,0.5386147227479783,2.6414521481226507,372.0984511843297,22.83078663703501,8.61881798214792,71.98114454566316,-0.0121927605152796,119.98719142109296,318.9687522719743,15.288,0,2.600181961268733,0.0670987784328596,9.572337134705983e-09,-0.0022811257128559,-0.0015306886818896,0.0001431062333198,7.728418432586934,15.538706443150112,21.8240696254116,33.36555651961505
0.62,31.222203605565017,131.0104174217275,9.880399067317638,4.319956688144605,-6.3524389140993645,41.384230476765424,0.5503587076262559,2.6286449055952974,442.86563930529206,23.116743118639786,8.73289711741202,71.97980695257093,-0.0150314819194145,119.98420668794708,327.00235465791445,15.288,0,2.6095568542616387,0.0679393550005568,9.643566148966562e-09,-0.002402746510046,-0.0017125247668219,0.0001526209859599,7.6771705347357715,15.38043062269663,22.12094739235877,41.471281640441404
0.63,31.22220321155809,131.01041822035967,10.094571022388267,4.327787713232283,-6.278790441333316,23.40676479389357,0.5627286393180626,2.6152308978378067,286.11251274707894,23.42121269320452,8.852661951303718,71.97839844797933,-0.0181932537241456,119.9808822220228,335.66604409783594,15.288,0,2.6188914957538327,0.0688343474768023,9.666405681735408e-09,-0.0025289635373985,-0.0018986548469552,0.0001627506256837,7.62088526244349,15.215337805060829,22.43691543104201,23.559132715088847
0.64,31.22220281206481,131.01041902916347,10.311403967133597,4.329247631473008,-6.198366214652432,22.97614111597132,0.576064807746258,2.6009426613140474,282.30782441796754,23.7573021500028,8.98220891981565,71.97691639593576,-0.0216851762012188,119.9772105518214,345.3614459610813,15.288,0,2.6281889022841183,0.069822276627351,9.640691523647826e-09,-0.0026595393148384,-0.0020886304857777,0.0001736061932954,7.555721529399245,15.036697604653506,22.785563082382133,23.13006299107711
0.65,31.22220240706215,131.01041984817184,10.530913214717248,4.3393836676903135,-6.1324109708581584,40.719955734776526,0.5883552052061732,2.587277581814115,436.7781447787475,24.043875376837725,9.096215026946366,71.97535827759403,-0.02551419263945,119.97318436327691,353.73610860217434,15.288,0,2.6374259905945387,0.0706646850947543,9.566245472683488e-09,-0.0027946047107191,-0.0022825485549694,0.0001846194187093,7.5076446817002,14.889306523123912,23.082436610812607,40.80631032297592
0.66,31.22220199601604,131.01042067847365,10.75347030316838,4.346967433499554,-6.064907732124832,34.612721190500146,0.6011019263256993,2.573118784675229,383.51251517160017,24.34131316147353,9.213518075242762,71.9737213958701,-0.029687285915596,119.96879630819768,362.5343678023127,15.288,0,2.6466323456026792,0.0715390310895782,9.442896521052353e-09,-0.0029345589973209,-0.0024808773305225,0.0001962592304489,7.457115812490837,14.739439590112443,23.390417768193103,34.71343734085086
0.67,31.222201579117755,131.0104215196592,10.978941226804496,4.348894999725252,-5.991657983489711,23.780491238856943,0.6147703350265848,2.5580984846593564,289.1562440103425,24.6674478848842,9.339684726277053,71.97200293659384,-0.0342119270539188,119.96403852095597,372.3061511006104,15.288,0,2.655808713283866,0.0724977242694097,9.270489690324285e-09,-0.0030793977930185,-0.0026835076297261,0.0002087006747514,7.398907630329608,14.57805796939485,23.72799490803702,23.925584088657
0.68,31.22220115654081,131.01042237135553,11.207204438900126,4.35196898055804,-5.921949832005788,29.733861292282867,0.6284167009885882,2.5429276171391924,340.8999924858462,24.98488525637514,9.463047804446395,71.97020004500207,-0.0390955552156894,119.95890316863708,381.94160774494384,15.288,0,2.6649223447233235,0.0734308630243556,9.048903211130884e-09,-0.0032291375358909,-0.0028903638680825,0.0002216604560198,7.34449502734777,14.42505543624912,24.056322885718835,29.849018338377697
0.69,31.222200728365472,131.010423233383,11.438203527927872,4.359780817972981,-5.860478800658249,36.65286297398756,0.6414933231394756,2.528043142398122,401.0140726853634,25.272789654365745,9.577105863572724,71.96830980628336,-0.0443454805440324,119.95338255583172,390.7859896793846,15.288,0,2.673998771256098,0.0742772109086076,8.778065629172022e-09,-0.0033838320852383,-0.0031014235490415,0.000234950662133,7.299763121370524,14.29039869794718,24.35383213356937,36.74554231472665
0.7,31.222200294445383,131.01042410603097,11.67204014593216,4.366883145031043,-5.799770527972478,30.711511416010524,0.6547871441363144,2.51283508813712,349.27032420985284,25.56176676346445,9.69140751465788,71.96632940267024,-0.0499689411679418,119.94746905445156,399.7648480734744,15.288,0,2.683041229517135,0.0751267183362827,8.457920347484925e-09,-0.0035436786291639,-0.0033168561623534,0.0002488571549511,7.25546719940546,14.158157373543434,24.652295949680216,30.821096992807444
0.71,31.22219985483336,131.01042498917718,11.908677187729824,4.370195793925379,-5.735715755809416,25.20451076566743,0.6687802153439808,2.4969092385231213,301.33126406340574,25.869922186141515,9.811604071658186,71.96425580417652,-0.0559733234366903,119.9411548871134,409.4522326216679,15.288,0,2.6920233731410432,0.0760325983756917,8.088452319806616e-09,-0.0037087472204248,-0.0035366570156125,0.0002635830152527,7.206467971718053,14.01960640231093,24.97046213400541,25.33671615775223
0.72,31.222199409527924,131.01042588281163,12.148115408485184,4.369051919882564,-5.667602130053504,30.902747199422404,0.6836218546848442,2.4801347114193786,350.79220534145287,26.201928796771007,9.939152828775391,71.96208593545943,-0.0623661678258074,119.93443211080292,420.01958083685486,15.288,0,2.700966311837485,0.0770085853418113,7.669649972184035e-09,-0.0038791598836706,-0.0037608902811513,0.0002792261072393,7.151783287366432,13.872928477942626,25.313115074790872,31.009646749010205
0.73,31.22219895852212,131.01042678693523,12.390359410678736,4.37702420767226,-5.61282273456516,39.144060721494576,0.697154866621144,2.464255809526712,422.320318528234,26.47737028036632,10.048959075021193,71.95981656258182,-0.0691552730292459,119.9272925124442,428.88672897432014,15.288,0,2.709875027045449,0.0778183322767486,7.201504853925321e-09,-0.0040550562607474,-0.0039896423027192,0.0002949488519016,7.113421956352814,13.75594945028006,25.59711962703448,39.22774619285301
0.74,31.22219850174588,131.01042770168098,12.635457987769591,4.38147168094091,-5.554995030407542,24.43418861740987,0.7113716730603558,2.4476597068464216,294.48281347105944,26.770912806000467,10.164321930777348,71.95744459493059,-0.076348165656786,119.91972815630342,438.43886747425057,15.288,0,2.718737960263668,0.0786812861970399,6.684068624190957e-09,-0.0042365746074219,-0.0042229916473093,0.0003115607878665,7.070717927307508,13.633160358983512,25.89970260322277,24.566779623892792
0.75,31.22219803957545,131.0104286262583,12.883148826355256,4.383514652575935,-5.495572232638708,28.559292323937235,0.7261211323264815,2.4304562096498064,330.24688556441487,27.07640497646113,10.283327869957825,71.95496671397021,-0.0839523910378498,119.91173109559332,448.4916484828419,15.288,0,2.727542495550664,0.0795793680234403,6.1174624273034085e-09,-0.0044235553294718,-0.0044606385111145,0.0003290159027381,7.025491449245678,13.507694366125426,26.214485516425302,28.671720341303846
0.76,31.22219757189041,131.01042956090478,13.133515979631696,4.388518469311198,-5.441230391845587,30.757878116004875,0.7405041968246993,2.413391327189323,349.27032420986166,27.361139979838505,10.395767410925064,71.95237972950791,-0.0919754508202193,119.90329341843288,457.96289508275447,15.288,0,2.7363066094958564,0.0804164504229319,5.501798263071651e-09,-0.0046162132789123,-0.0047027620119068,0.0003469477193171,6.986281347892692,13.39413478080303,26.507717667753404,30.861300529347094
0.77,31.222197098626605,131.0104305057422,13.38660440859225,4.393946474643571,-5.388708106773029,28.74823356156652,0.7549366004862093,2.396123249640669,331.7687666960708,27.640326245068348,10.506385311492629,71.9496802152692,-0.1004248865066244,119.89440718003488,467.34509672471887,15.288,0,2.745031254672519,0.081237231840972,4.837241758414064e-09,-0.0048147132758989,-0.0049494725681882,0.0003655501966076,6.94895377541877,13.285356915266634,26.795117296218503,28.857793900584323
0.78,31.222196619848823,131.01043146062557,13.642369192025065,4.396035637619512,-5.333382655823092,23.57952134005961,0.7700820459312883,2.378084846467448,286.8734378128899,27.93751301994202,10.622533011290942,71.94686485130524,-0.1093082879230813,119.88506437270097,477.4371177249327,15.288,0,2.7537054835443424,0.0821109255816152,4.123975132408116e-09,-0.005019108241956,-0.0052007396626909,0.000385156352628,6.907548724932273,13.171154048144476,27.10095655756003,23.711645672976612
0.79,31.222196135646712,131.01043242535837,13.900748127479243,4.396073505352236,-5.276854066262676,33.58824245324109,0.7857434872748632,2.3594304823198256,373.6203323159534,28.24514174554453,10.741853720460432,71.94393007220937,-0.1186332931786903,119.87525694711704,487.9973176759661,15.288,0,2.7623241951768502,0.0830153167577973,3.3622255275265302e-09,-0.0052294471952818,-0.005456529683486,0.0004057060884013,6.864106525883718,13.055028393587348,27.417426737081986,33.68017719856001
0.8,31.222195645783174,131.0104334004214,14.16190700861375,4.4014574593548685,-5.227907349130532,34.03510570240815,0.8005689691543733,2.34132379464699,377.42502064505743,28.516028122122755,10.849614365493697,71.94087232623133,-0.1284077760387805,119.86497659674608,497.390051291229,15.288,0,2.770906404077275,0.0838117260565528,2.552203486608705e-09,-0.0054460702816798,-0.0057171590690123,0.0004265533611376,6.830082662506213,12.9565570807737,27.69596936258692,34.124934109238204
0.81,31.22219515036332,131.01043438558693,14.425773006329475,4.402825137658577,-5.175365634051792,22.102583617294894,0.8162687650793363,2.322291077338813,273.9374926939919,28.80980880044837,10.964432554971063,71.93768797298824,-0.1386395287218329,119.85421510190756,507.6785012744369,15.288,0,2.7794477010148166,0.0846754316910838,1.694183408583379e-09,-0.0056689866402878,-0.0059825402304822,0.0004485758584903,6.790913696928066,12.850742118822094,27.99796928554285,22.23923409437124
0.82,31.222194649583177,131.0104353804385,14.692209890898496,4.402336139292203,-5.121814505265954,28.430767363213768,0.832476529119595,2.3026367019567053,328.72500443277005,29.11312406491349,11.082142307842524,71.93437336249448,-0.149336339329317,119.84296424243183,518.411384753544,15.288,0,2.7879442349373407,0.0855671683094919,7.884660857226356e-10,-0.0058981516319826,-0.0062525261062892,0.0004716107755968,6.749953775683523,12.743318157672244,28.309662402453444,28.536006830212145
0.83,31.22219414342188,131.0104363850097,14.961232850355117,4.408428113424574,-5.076911169877488,36.16793787350599,0.8475440690723361,2.283808534735827,395.68750322465047,29.37053646159717,11.185433889467904,71.930924644141,-0.1605060127148733,119.83121578709378,527.6056602986203,15.288,0,2.796390531440156,0.0863239980461404,-1.6460537327709496e-10,-0.0061337282969441,-0.0065272158455199,0.0004947709222393,6.719996724307988,12.65621841102578,28.57410028141151,36.249880584550084
0.84,31.22219363176436,131.01043739953127,15.23292303126502,4.412800605778185,-5.030993225583926,22.29222278913828,0.863056479190664,2.264416726074365,275.4593748256452,29.636106934480463,11.291183719480358,71.92733809005723,-0.1721561706384531,119.81896168743664,537.176076221306,15.288,0,2.8047870284977816,0.0871048127666617,-1.1646449689016684e-09,-0.0063759196365513,-0.0068067487354464,0.0005189438992905,6.688318958114529,12.567625202635876,28.846855486008334,22.423551156678425
0.85,31.222193114920493,131.01043842335133,15.507064968691516,4.411182974840847,-4.979298133672875,24.31859356548581,0.8799111925708305,2.243647640243731,292.96093233939376,29.9388349573588,11.408455412296316,71.92360988177376,-0.1842943775245719,119.80619395555333,548.1920268432045,15.288,0,2.8131356298794934,0.0879948464678022,-2.211226276562628e-09,-0.0066245472827254,-0.0070908260858725,0.0005446733037126,6.648527222339421,12.46653784922836,29.1576727910804,24.437720667927902
0.86,31.22219259270291,131.01043945685075,15.783790356554556,4.413465579435738,-4.932974894988321,30.47848735403091,0.896117672872056,2.2232775586459983,346.2265619465587,30.2126842315166,11.516622586886976,71.91973601569201,-0.1969284554775474,119.79290433379684,558.2516353042092,15.288,0,2.821442103408203,0.0888000089117831,-3.3039059161928835e-09,-0.0068799445765208,-0.0073797366294388,0.0005708311952102,6.615492988071912,12.378398478601715,29.4387712966996,30.572605079976984
0.87,31.22219206513469,131.01044049997404,16.063084102013768,4.417429133039707,-4.889419461507958,28.3744167256202,0.9120972470244086,2.2029357262228544,327.964078366998,30.47208365474071,11.62019010319094,71.91571257880383,-0.210066157593188,119.7790846264668,567.8636054029158,15.288,0,2.8297060367098448,0.0895627083775135,-4.442213990833769e-09,-0.0071422128227535,-0.0076734993779488,0.0005976635050872,6.5857947741257625,12.29732770398449,29.704987272632,28.474416090958808
0.88,31.22219153225131,131.01044155264034,16.344922539721146,4.418249760888365,-4.843288568167753,24.509755789614463,0.9288702768329226,2.181690370360721,294.4828134710418,30.749967853155688,11.729447847505138,71.91153547858417,-0.2237151416807773,119.76472674429948,578.2522198398735,15.288,0,2.8379254550920185,0.0903797453589564,-5.625623766179294e-09,-0.0074114140583532,-0.0079720888341506,0.0006258291476935,6.552239206422798,12.211008412178018,29.990091574054585,24.624189361882515
0.89,31.222190994136888,131.01044261466765,16.62924806032428,4.4159916869421565,-4.7947153564591884,26.89082110580172,0.9464587519677868,2.159506166088149,315.028134248087,31.046444342233578,11.844433680059284,71.90720055159998,-0.2378831033172595,119.7498225553704,589.440340811469,15.288,0,2.8460996864025434,0.0912514363941308,-6.853580532424212e-09,-0.0076876053593446,-0.0082754751039943,0.00065539199727,6.514961031813336,12.119655118838306,30.294170953999043,26.993990271813843
0.9,31.222190450709416,131.01044368621987,16.916119174384505,4.420479412600964,-4.754253554113972,29.713217421935084,0.9626995503478128,2.1383795168187265,339.37814235421445,31.293004267036096,11.943736989261112,71.90270361680065,-0.2525779714120173,119.73436367260018,598.8232734152032,15.288,0,2.8542263332170767,0.0919764208671417,-8.125519732161624e-09,-0.0079710203328387,-0.0085838210225254,0.0006849319029752,6.488349508868516,12.047869890764376,30.547064549511035,29.805616030294967
0.91,31.22218990204176,131.01044476713972,17.205486354908977,4.421865231367444,-4.711244299905089,22.587749259282656,0.9797480509320952,2.116317402519148,277.7421810230789,31.558145974145607,12.048764604105637,71.89804037683591,-0.2678072742841358,119.71834213758252,608.9968471724824,15.288,0,2.862304464458864,0.0927560284115559,-9.440797951622817e-09,-0.0082616908314311,-0.008897065149129,0.0007159036376832,6.457910682883225,11.970855618428896,30.81893909940596,22.707820727488027
0.92,31.22218934834528,131.01044585698068,17.497203251605768,4.42023593132414,-4.665843717991386,26.907684230894045,0.9976212764602944,2.0932889571023168,315.02813424806214,31.841804392788607,12.159503957172005,71.89320660925533,-0.2835785924196281,119.70174992439692,619.9765393560242,15.288,0,2.870335113052372,0.093590068216466,-1.0798774147958832e-08,-0.0085594983958934,-0.0092149889912264,0.0007483555212787,6.42381171136187,11.888856534712833,31.109705160789566,27.00741708380638
0.93,31.222188789522548,131.0104469559407,17.791339468680746,4.424777213916233,-4.627664097530528,32.022741617086645,1.0141875924264585,2.071302890313856,359.1625070654728,32.07833465581816,12.255428069379304,71.88819785704861,-0.2998994796168102,119.684579042914,629.2037097858195,15.288,0,2.8783224257701145,0.0942855956133686,-1.219872239601404e-08,-0.0088647176694027,-0.0095377943763023,0.0007807759653125,6.399321791506529,11.824524096484645,31.352212952156737,32.10568256260482
0.94,31.222188225456232,131.0104480642609,18.087978733866816,4.4232358609777584,-4.583883980883719,23.21763490482023,1.0323088127398663,2.04764991906736,283.0687504837787,32.35543899323649,12.36395879708516,71.88300977642493,-0.3167773124709157,119.66682167860188,640.10300672592,15.288,0,2.886266313670524,0.0951003872363095,-1.3639885905572152e-08,-0.0091775604118318,-0.009865609059172,0.0008152895754442,6.366728414093129,11.74760335652463,31.636172046895584,23.330604412433118
0.95,31.222187656450057,131.01044918130196,18.38691021218529,4.4222707953836204,-4.541438311427521,30.09735454280444,1.050433195730179,2.023792204173988,342.4218736174873,32.62554931076818,12.470228743162687,71.8776378113161,-0.334219717401066,119.64846975397728,650.8163732094989,15.288,0,2.8941635868223665,0.0958946296259945,-1.5121524147372525e-08,-0.0094978374169949,-0.0101981442204831,0.0008507607309868,6.335625629929673,11.674444704588916,31.912928585151587,30.18360308610684
0.96,31.22218708219343,131.01045030770968,18.688352969478228,4.424285291813834,-4.502727114325327,29.48647217216806,1.0679569104411315,2.000315459893208,337.09533515678345,32.87068697859499,12.568604917285628,71.87207733139395,-0.3522341936339137,119.62951532506426,660.6140303350132,15.288,0,2.902020454926407,0.0966154790165938,-1.6642777427605562e-08,-0.009826055717426,-0.0105358313667067,0.0008867481716554,6.309399524536961,11.610834797626088,32.16412806426235,29.57353267808376
0.97,31.222186502706105,131.0104514434396,18.992295042270847,4.424486597581401,-4.4628389993467446,18.82140670301014,1.0860501419592683,1.9760910657925752,245.02188719299323,33.12589259725917,12.67005052450666,71.86632372577081,-0.3708283909710641,119.6099502768543,670.8921847786806,15.288,0,2.909836154711572,0.0973659284786984,-1.8202817927148333e-08,-0.0101623213628984,-0.0108786813384727,0.0009241875946039,6.281193531681284,11.545053512102523,32.42558012590179,18.955996177760483
0.98,31.222185918290105,131.0104525878561,19.298526898213456,4.418901716976218,-4.417841786901405,27.469763556735945,1.1057589823202372,1.9500820916355448,319.5937466429581,33.421303520464434,12.784010183590226,71.86037213369816,-0.3900098003089962,119.5897666709042,682.8912524138743,15.288,0,2.917605399481288,0.0982345602614618,-1.9800793737681017e-08,-0.0105063692226856,-0.0112263313245532,0.0009639686074416,6.245421546480068,11.467527598187468,32.72803797941404,27.561085482144527
0.99,31.222185328788267,131.01045374128526,19.60716047345248,4.422540211844489,-4.3826601654247614,30.03412668067873,1.1232152914601568,1.9260737084358728,341.6609485517054,33.64445341880488,12.875271852785568,71.85421775638407,-0.4097860895403295,119.56895636714482,692.0203428505565,15.288,0,2.925334107906879,0.0988908046282242,-2.1435766647330377e-08,-0.0108585970533952,-0.0115790905230764,0.0010029081678296,6.223214257856492,11.414343479633514,32.95669790456628,30.116775026425984
1.0,31.22218473419853,131.01045490373056,19.918199394679927,4.420545811134748,-4.342521144515644,26.862809475598343,1.1422616563846857,1.9002945481036904,314.2672081822764,33.90675697552058,12.978717611885846,71.8478556926173,-0.4301643721585263,119.54751181704611,702.8318592074226,15.288,0,2.933019949413465,0.0996621406283106,-2.3106747471247483e-08,-0.0112190762080639,-0.011936932612368,0.0010442496806552,6.193647468565516,11.349753355815803,33.225288215835484,26.954153928170246
1.01,31.222184134709003,131.01045607479503,20.231513973024114,4.419278912780661,-4.30370387116395,28.10409957011227,1.16123545159935,1.8743743956397487,324.9203161036979,34.16041686687326,13.079386445366763,71.84128103847586,-0.4511520917764941,119.52542510893429,713.3656400318054,15.288,0,2.9406618456442986,0.1004080782050177,-2.481277455632544e-08,-0.01158772606591,-0.0122996848731342,0.0010865990279361,6.1656414690473484,11.288968450708166,33.48502816182176,28.190462213235627
1.02,31.22218353023902,131.01045725464732,20.547162979998298,4.4192467527253765,-4.266659532510602,23.429241135107503,1.1799841866992773,1.8484676495516223,284.59063161540416,34.401296854763174,13.175979023487733,71.83448876448136,-0.4727563959689381,119.50268864712903,723.4396816223604,15.288,0,2.9482616809340447,0.101116459481413,-2.655276965421349e-08,-0.0119647834165162,-0.0126674860247688,0.001129833428764,6.139869531814912,11.233136305705408,33.73171079390529,23.53164965529006
1.03,31.22218292085948,131.01045844313825,20.865099081029367,4.415309102833362,-4.226443163874407,19.105169167531777,1.1999355765385316,1.821135627512448,247.30469339049705,34.669173496897656,13.280964428758807,71.82747379444227,-0.4949842665929294,119.47929500684327,734.7276967330055,15.288,0,2.9558180869764685,0.1019042005547034,-2.8325642199109345e-08,-0.0123502667800756,-0.0130402591888043,0.0011752799548093,6.109205348759155,11.170057365629312,34.00588726543575,19.229245156314505
1.04,31.22218230663383,131.01045964013355,21.18528008130947,4.414748923914053,-4.190005901031768,30.506494140935576,1.2190644410911875,1.7944133718221495,345.46563688072297,34.907535698666365,13.376631050609792,71.82023101981966,-0.5178429347865884,119.45523648786416,744.842519992379,15.288,0,2.9633321535574737,0.1026051968394222,-3.013028383165738e-08,-0.0127442587180785,-0.013417991809881,0.0012210738091367,6.083698527797938,11.116901646754735,34.24995758801211,30.583528609881558
1.05,31.22218168726638,131.0104608462578,21.507915971655898,4.4110012616105045,-4.151110218698292,18.3161065568734,1.2392229681159788,1.7664237938027982,240.45625879819983,35.16754328987344,13.479012954835255,71.8127551794958,-0.5413393686558998,119.43050567167776,755.9562852579065,15.288,0,2.9708080315774223,0.1033698244933701,-3.196543954234033e-08,-0.0131473068538003,-0.0138011091314807,0.0012690347591312,6.054302531480343,11.058205923608174,34.51605871993434,18.44276785048165
1.06,31.2221810630026,131.01046206099377,21.83283702371646,4.404523351780376,-4.110232417896209,26.187020917490056,1.2603304467203993,1.7372296238363196,308.17968365593924,35.4461889279589,13.587180065350484,71.80504078783063,-0.5654808511681265,119.40509480404342,767.9592272301953,15.288,0,2.9782425530622167,0.10418924440174,-3.382996358132205e-08,-0.0135591945159859,-0.0141893080343135,0.0013191208135208,6.021671979779389,10.99505122149936,34.80110874823124,26.274825672759974
1.07,31.222180433722286,131.01046328459591,22.16013014151387,4.403770974670197,-4.075207250192995,30.878721925448904,1.2798685955331914,1.7094170642534057,348.5093681440308,35.67581342969457,13.67989764052745,71.79708236426009,-0.5902747951735302,119.37899598035304,777.9168568304029,15.288,0,2.985640002798988,0.1048645816456268,-3.572258226056544e-08,-0.0139803052287693,-0.014582852601436,0.0013688568024653,5.997314933953096,10.947159425133144,35.03622096014788,30.952473860268288
1.08,31.22217979932161,131.01046451728655,22.489871027919097,4.401592596086465,-4.0393580825856885,20.71308672069048,1.2999418139893777,1.6808257691006645,261.00157857466235,35.91324254376283,13.774992817508007,71.78887432083965,-0.6157282371047952,119.35220169542464,788.2807051930813,15.288,0,2.993000857326928,0.1055628675596376,-3.764197227518457e-08,-0.0144109043861321,-0.0149818870995432,0.001420363754965,5.971457932861242,10.897790581987673,35.27926713541878,20.821791120954874
1.09,31.222179160085016,131.01046575846638,22.82186269581804,4.3929027589759295,-3.9980900780711295,19.03529849204192,1.322150685301524,1.649771515885535,246.54375332474407,36.20033260698576,13.885625212372624,71.78041100720495,-0.6418481885275652,119.32470446256816,800.9085536734672,15.288,0,3.0003207786729167,0.1064071345957626,-3.958689272460524e-08,-0.0148506677977792,-0.0153860121201325,0.0014753614148672,5.937253155588816,10.835146830427352,35.572823622663535,19.152347562907373
1.1,31.222178516091,131.01046700797093,23.156052709932418,4.38731036777961,-3.960162882547688,38.419934603127984,1.3435483913646085,1.6193130102269349,413.1890617385841,36.459139824351446,13.987321262656229,71.77168667498708,-0.6686416203850444,119.29649683293516,812.37529159256,15.288,0,3.0076012046991942,0.1071682758054756,-4.155597259818537e-08,-0.0152996708041096,-0.0157952021162726,0.001530785856265,5.907682181152208,10.781492083995644,35.83757406847884,38.47750864873738
1.11,31.222177866926096,131.01046826668073,23.492734637398545,4.38810590412456,-3.928432360574515,28.070616859930464,1.3630099154380972,1.5906542319534942,324.1593910376397,36.66144961687502,14.07119151161736,71.762695444485,-0.696115545525193,119.26757130876716,821.3893945599666,15.288,0,3.0148490857848445,0.1077633561968839,-4.354763830290989e-08,-0.0157587635507706,-0.0162101277886216,0.0015854175595515,5.8870926137981066,10.74436000270394,36.04485627403153,28.148667958044243
1.12,31.22217721265589,131.010469534463,23.83186563176333,4.376468234173855,-3.886110971123904,10.455067479890484,1.386630190638672,1.5573495410323703,172.73281794065943,36.96360214320583,14.186387684038309,71.75343144926353,-0.7242766245454488,119.23792075713747,834.957272297854,15.288,0,3.022061267806971,0.108651924843747,-4.55604598176145e-08,-0.0162279243858908,-0.0166306593680155,0.0016460196173517,5.850294158938795,10.68038677513195,36.35364117656593,10.66098104714608
1.13,31.22217655388781,131.01047081002773,24.17302116667798,4.371322426840712,-3.850029943299206,33.12976927088851,1.4082633549970685,1.5258912449717648,367.5328077900705,37.20842541745242,14.283513757271455,71.74388843731842,-0.7531322122470119,119.20753730785744,846.026623072381,15.288,0,3.0292329775344404,0.1093719868179228,-4.7593141361789566e-08,-0.0167063455587026,-0.0170559796443702,0.0017057141996262,5.822577659895019,10.633045527657384,36.60411913469004,33.19477612081181
1.14,31.22217588994297,131.01047209482638,24.516682262266308,4.370690132592531,-3.8183291706664977,18.25292555827852,1.4284703128333116,1.4957119961915823,239.69531773195544,37.41109843085055,14.367308206816968,71.73406043709848,-0.7826885953688218,119.17641421087951,855.2400475953443,15.288,0,3.03637371768566,0.109968158747894,-4.964383457620423e-08,-0.0171953549464345,-0.017487162578372,0.0017651466021749,5.801230084343666,10.597760636888632,36.81176054830395,18.369729808743916
1.15,31.2221752213216,131.01047338780012,24.86250016085715,4.357447390449156,-3.776120144378704,17.989292137314724,1.4531079407564047,1.4605071791566009,237.41251153546767,37.7178173291141,14.48380853575569,71.7239414057416,-0.8129519213449546,119.14454485556756,869.2922120643966,15.288,0,3.043474843133134,0.110870177157938,-5.171115434999093e-08,-0.0176941295768583,-0.0179233772086023,0.0018311777643567,5.763585829725052,10.535322527514216,37.12509506938228,18.106883649858432
1.16,31.222174548165185,131.01047468864996,25.210378189880856,4.357601390680336,-3.745900848079492,47.420340794704494,1.4732067559643327,1.4299376760779596,490.0437743845894,37.9060345839912,14.562948171881144,71.71352491844799,-0.8439289829420686,119.11192194587125,877.9603029233384,15.288,0,3.050536594372547,0.1114238724920739,-5.379345451040892e-08,-0.0182026982202992,-0.0183645556627452,0.0018931471022366,5.743987317725772,10.505091141015932,37.31804893707885,47.46476357245658
1.17,31.222173869584417,131.01047599928677,25.560946674606104,4.351021640325032,-3.710301684488357,8.242281301470694,1.4957522273254495,1.3964551022060812,153.70937929486794,38.14818196768336,14.65900446456768,71.70280481001002,-0.8756255700289415,119.07853923666056,889.1831761077342,15.288,0,3.0575634628597608,0.112136102512683,-5.58886438648657e-08,-0.0187228004297954,-0.0188120897528473,0.0019596127944486,5.715876802069635,10.461225079614596,37.56577639090262,8.492500375660862
1.18,31.222173186755874,131.0104773171998,25.913379690628084,4.335521837525025,-3.667596255440467,22.963304809464773,1.5216670093414864,1.3590016756279015,280.02501822196746,38.46533984613903,14.778685490942006,71.69177461308675,-0.9080478928681628,119.04439003118488,903.999084871624,15.288,0,3.064547104548768,0.1130688338308232,-5.7995526182841584e-08,-0.0192523005338635,-0.0192640408292256,0.002031716540806,5.676470904186028,10.398682733969688,37.88962852333029,23.05375726023994
1.19,31.222172499151824,131.01047864352483,26.26805263495556,4.339023119073325,-3.6412907165402015,40.26526653085927,1.5407178752003088,1.328809210205942,428.4078130529292,38.61140459624788,14.84435955946468,71.68042766156513,-0.9412022998852044,119.00946748222466,910.8466136318324,15.288,0,3.0714999115317942,0.1134986453335347,-6.011195843643122e-08,-0.0197925698268091,-0.0197214823934836,0.0020965918828792,5.662221834497059,10.380861436152614,38.03981693570555,40.31663718974123
1.2,31.22217180632116,131.01047997924363,26.62528784814256,4.3268423728178735,-3.602250561399046,3.982956496186441,1.5656680147068,1.291840294954684,117.1843741360236,38.89204679376596,14.952431844724964,71.66875764896245,-0.97509389693035,118.97376604436808,924.1037717737152,15.288,0,3.078422734323228,0.1143240570439565,-6.223591949398662e-08,-0.0203444778734527,-0.0201850285416103,0.0021706437820857,5.627885103849426,10.329139573788288,38.32657929866605,4.470359060574252
1.21,31.222171109439785,131.0104813218354,26.984258747815435,4.315258707283068,-3.564143970007229,32.29405935741635,1.590542214358912,1.2546499835158376,359.92343213200894,39.16450109512801,15.057911440216332,71.65675768549245,-1.0097288610623387,118.9372790348254,937.0642404005408,15.288,0,3.0853039811985123,0.1151254090625967,-6.436608186695671e-08,-0.0209058471428612,-0.0206527544789988,0.002246087153174,5.594689045865177,10.280290105793926,38.60500766771384,32.35753762104164
1.22,31.22217040761644,131.01048267322753,27.34559837928761,4.316747677130286,-3.537141518979418,23.333965924644,1.610428949762962,1.222743687657888,283.0687504825761,39.31480138364923,15.124750772759448,71.64442109292891,-1.0451124824288098,118.9000007000438,944.2375451291432,15.288,0,3.092157668078173,0.1155676932541437,-6.649993763184276e-08,-0.021478794540576,-0.0211263188165204,0.0023164191657017,5.578708878209988,10.262548099188407,38.75954134944096,23.4214121969703
1.23,31.22216970121117,131.01048403265813,27.7090565430513,4.303506773308359,-3.498466137862499,8.952340959371789,1.6361385739924064,1.1840278058141922,159.79687382222795,39.5945137010153,15.232450008273489,71.63174140650185,-1.0812491799488169,118.86192619553698,957.6878033643312,15.288,0,3.0989758625153114,0.1163903980866711,-6.863573812346725e-08,-0.022062540782337,-0.0216049623342587,0.0023962191548345,5.5440423228822615,10.213089815573785,39.04531733450072,9.17732422501749
