Time,Latitude,Longitude,Altitude,Angle of Attack,Angle of Sideslip,X-Acceleration,Y-Acceleration,Z-Acceleration,Thrust,True Velocity,Ground Velocity,Pitch,Roll,Yaw,Dynamic Pressure,cp,parachute_deploy_gain,Wind Speed,Mach,omega_x,omega_y,omega_z,Cmq,Angle of Attack(total),Angle of Attack(gust),True Velocity(gust),Acceleration
0.0,31.222186000000004,131.010384,3.000000003643237,0.0,0.0,0.0,0.0,0.0,2.2828121974499247,0.0,0.0,69.99999999623421,0.0,113.69999999388332,0.0,15.288,0.0,0.0,0.0,0.0,0.0,0.0,-0.0,0.0,90.0,0.0,0.0
0.01,31.22218600000153,131.01038399999584,2.99999882256592,0.0,0.0,0.0,0.0,0.0,34.24218696174923,7.502283530665459e-11,7.190531319924593e-11,69.99999999623329,-4.83564628150269e-13,113.69999999388072,3.446445726795683e-21,15.288,0.0,0.0,2.204725565824978e-13,-3.659182332138578e-19,7.589415207398531e-19,4.811147140404426e-19,-1.5108918610345807e-31,0.0,89.9999999995224,7.502283530665459e-11,0.0
0.02,31.22218600000288,131.01038399999217,2.999997775701936,0.0,0.0,0.0,0.0,0.0,25.871876237766408,1.5320717031631675e-10,1.4674636035870463e-10,69.99999999623222,-9.67129256300373e-13,113.69999999387804,1.4372842949972735e-20,15.288,0.0,0.0,4.5023593667086093e-13,-7.284483346386986e-19,1.5178830414797062e-18,9.757819552369542e-19,-6.170906918166791e-31,0.0,89.99999999902465,1.5320717031631675e-10,0.0
0.03,31.22218599928065,131.01038400193067,3.000201659671132,18.81500467334555,-0.00012974450181,11.96616230539064,-1.8916256735984712e-05,3.349833086198469,180.34219359854663,0.0882870268161719,0.0553390044312322,69.99999999799445,-4.212591857125379e-12,113.69999999488518,0.0047728553458352,15.288,0.0,0.0,0.0002594525584132,3.2187251995663407e-17,-7.20264389268894e-10,1.2365134327422308e-11,1.6874092354518158e-13,18.815004673776716,89.46786891739345,0.0882666465974854,12.426199017587786
0.04,31.22218599548236,131.0103840121632,3.001799604587872,9.46752327608497,-4.6177622759613696e-05,55.21900012092241,3.931876292165237e-06,3.349616504302861,548.6359724538078,0.3767519978512604,0.1853356633749705,70.00000000507204,-2.4624598767003407e-11,113.70000000019972,0.086915163246288,15.288,0.0,0.0,0.0011071759353184,1.6174128009138757e-15,-1.3693172015529268e-08,2.7753303060112748e-11,1.3689612277852356e-11,9.467523276196548,87.63554493451223,0.3767447442872393,55.32050167054111
0.05,31.222185984749512,131.01038404118162,3.00777936418888,5.376730308971262,-2.257790939128127e-06,80.28807156553681,5.266841443842784e-05,3.348887800834877,761.6984298824644,1.018787885905993,0.4366201147110198,70.00000000894464,-1.1355399380652658e-10,113.70000001523856,0.635552918586145,15.288,0.0,0.0,0.0029939522895272,1.6418815498809788e-14,-9.32122351075408e-08,4.303264669380585e-11,2.5199270302492604e-10,5.3767303089717045,83.57022052969386,1.0187875312530217,80.35788377762394
0.06,31.22218596447235,131.01038409608267,3.0201664202003013,4.296730121134882,2.4863835723705905e-05,60.21296515808257,0.0001057204249726,3.347700952379021,590.4875390737208,1.721098934225416,0.7081674028809783,69.99999995523842,-3.0560354507026086e-10,113.70000004366592,1.8138247671743823,15.288,0.0,0.0,0.0050578622752421,8.328976953118383e-14,-3.2824985336199985e-07,5.923438275930214e-11,1.4991363363716091e-09,4.296730121206683,79.20467073327266,1.7211028398275985,60.305955550063224
0.07,31.22218593493329,131.01038417609837,3.038741944736831,3.8204913578752526,4.8016684030909405e-05,91.4060317508128,0.0001597686613101,3.346072557365335,855.2937749779139,2.4375792548422868,0.9844712334613328,69.99999973536046,-5.939103491363046e-10,113.7000000850886,3.6383156301599167,15.288,0.0,0.0,0.007163413150771,2.709313825263564e-13,-7.906546256197275e-07,7.920022733617308e-11,5.114174483651565e-09,3.820491358176508,74.87999294483174,2.437586797285377,91.46725557277466
0.08,31.222185894468456,131.01038428575305,3.0647976109320942,3.588632851766762,7.220043782492885e-05,19.18449428359557,0.0002119618497595,3.3440615022685813,241.2171988638848,3.1292508166901074,1.2522236515868983,69.99999919480445,-9.914748373602156e-10,113.7000001418522,5.996012698481753,15.288,0.0,0.0,0.0091960591623389,6.80386533246681e-13,-1.5973238302190878e-06,1.0839624626357699e-10,1.3263625118823921e-08,3.58863285249208,70.86684630658345,3.1292621579083604,19.473766155861934
0.09,31.22218584634549,131.01038441616095,3.0957981580345013,3.551302481506045,9.685468678862004e-05,57.102946699906326,0.0002554087225869,3.341892818148368,563.0937377043176,3.701810007254615,1.479132491047967,69.99999812344194,-1.4359264356978275e-09,113.7000002093888,8.390904013834115,15.288,0.0,0.0,0.010878666406854,1.440096519545733e-12,-2.748643691533636e-06,1.5214952332699618e-10,2.6999776649034504e-08,3.5513024828250237,67.68737872952666,3.701825221153239,57.20065357568538
0.1,31.222185790329306,131.01038456796124,3.1319266121977414,3.608446747536112,0.0001234669721807,54.26147302645416,0.0002914860332524,3.3396271157106168,538.7437595981919,4.174070299823608,1.6716491241860567,69.9999963052332,-1.902380107712657e-09,113.70000028805804,10.668380938744466,15.288,0.0,0.0,0.0122665227999911,2.687800116751415e-12,-4.315796035622946e-06,2.1749089204950437e-10,4.7802076800548326e-08,3.608446749645647,65.17160335282355,4.174089693970246,54.36414778470795
0.11,31.222185727066616,131.0103847393952,3.172681775073216,3.633547373470009,0.0001485939126744,42.987553988990406,0.0003293995000288,3.337005588796181,442.8656393052949,4.672024955140527,1.8729475711242067,69.99999349387662,-2.3433348587116544e-09,113.70000037699285,13.365573690709628,15.288,0.0,0.0,0.0137298902182575,4.5789425819531184e-12,-6.340230783164189e-06,3.1157625832417107e-10,7.860218435507205e-08,3.6335473765043056,62.62546922225161,4.672048296217748,43.116880735560244
0.12,31.22218565692512,131.0103849294629,3.2177790417108385,3.650108937861461,0.0001727442530266,46.86777100765684,0.000367618259785,3.334068179146888,475.58594813540446,5.17479364099247,2.0758708919414386,69.99998941286465,-2.702771525550512e-09,113.70000047573096,16.396890189902592,15.288,0.0,0.0,0.0152074069417046,7.288473386564583e-12,-8.86736416607888e-06,4.42271554299792e-10,1.217615295152289e-07,3.6501089419435786,60.16906436414164,5.174820775596283,46.986210423745625
0.13,31.222185580265183,131.0103851371844,3.2669395832841857,3.7280113734654137,0.0001995014041665,51.64515456841877,0.0003986198234033,3.3311573548369657,515.9156326236895,5.579364582999854,2.2451120211463422,69.99998375846928,-2.9114380666036422e-09,113.70000058383452,19.060875702782603,15.288,0.0,0.0,0.0163963474924215,1.100846422415094e-11,-1.1941028436408576e-05,6.179653149059831e-10,1.7678562106638216e-07,3.728011378795934,58.279338776943774,5.579395920607139,51.75247433579817
0.14,31.22218549718016,131.01038536230575,3.320091807147376,3.768719651034081,0.0002242721760019,48.1660778383537,0.0004326225136175,3.32784677779744,486.2390860568404,6.025734265159953,2.428648685938864,69.99997621008868,-2.890941335368725e-09,113.70000070125378,22.232643351545065,15.288,0.0,0.0,0.0177081261985351,1.5941871344608664e-11,-1.560901486259027e-05,8.477542742712431e-10,2.495765160917323e-07,3.7687196576976176,56.27980129251342,6.025769493750979,48.280903250602165
0.15,31.22218540777004,131.01038560455507,3.377159065217065,3.821894709649632,0.000249725644238,46.56959330999435,0.0004643042952466,3.324387732286376,472.54218587214,6.441023336496372,2.6014999612196745,69.99996641132823,-2.546763407193136e-09,113.70000082794672,25.402620271850456,15.288,0.0,0.0,0.0189285691155931,2.2314099732464315e-11,-1.992367942778425e-05,1.1417519574710292e-09,3.4051816697623295e-07,3.821894717796148,54.501255563441134,6.441062563308839,46.68809885900716
0.16,31.22218531193176,131.01038586421257,3.4382223512025254,3.8463320955387794,0.0002733212404609,36.974247749122085,0.0004987816203583,3.3205066466509234,391.1218908297564,6.895451966878468,2.7877331692857847,69.99995397923414,-1.77088415515292e-09,113.70000096417354,29.113317717489338,15.288,0.0,0.0,0.0202640360420561,3.0367358387834494e-11,-2.4945905791363795e-05,1.5114297685186711e-09,4.5643121540033697e-07,3.846332105235269,52.641145594326446,6.895494900078523,37.12304892183151
0.17,31.222185210004127,131.010386140357,3.503019838429153,3.8860314262554336,0.000297865039677,46.520531453299206,0.0005306403365217,3.31650761597812,471.78125980632376,7.314788342774694,2.9619016331667103,69.99993849340957,-4.3039914767238207e-10,113.70000110959404,32.761746921137856,15.288,0.0,0.0,0.0214963781445172,4.0366633128431416e-11,-3.0713078585132897e-05,1.96747427715988e-09,5.961228045584824e-07,3.886031437653654,51.00464968745696,7.314835131305714,46.63860064094784
0.18,31.22218510147516,131.01038643438045,3.571950002194137,3.9107265153396016,0.0003214293682635,38.895647526122765,0.0005639254295027,3.312149448254175,407.10156721191447,7.754626295791602,3.1430587898572058,69.9999195084231,1.6149322372810674e-09,113.70000126508234,36.81988229018681,15.288,0.0,0.0,0.0227889722876034,5.2593391349219385e-11,-3.731786027786564e-05,2.525509173087448e-09,7.6786585232224e-07,3.9107265285284982,49.36615848311875,7.754676785798701,39.036415444581515
0.19,31.222184986476247,131.0103867459258,3.644912152926752,3.920599115663931,0.0003437679584038,43.86258669386953,0.0005989384366483,3.307389681300437,448.9531328318269,8.219206165926856,3.332657190859447,69.99989653019398,4.538529095696477e-09,113.70000143063515,41.36350714675367,15.288,0.0,0.0,0.02415428010977,6.735860419174937e-11,-4.481243905342629e-05,3.199401151670645e-09,9.773118416308382e-07,3.92059913071168,47.71893898797248,8.21926016487149,43.987104227715655
0.2,31.222184864792144,131.01038707557822,3.722074668489528,3.943376465171875,0.000367328732016,40.28070981710589,0.0006315894240138,3.30251450988504,418.51563019916136,8.65238089736321,3.511445117640573,69.99986902534273,8.534090245934178e-09,113.7000016067622,45.83799876721736,15.288,0.0,0.0,0.025427299120469,8.499785987217288e-11,-5.328041996372527e-05,4.006766070954748e-09,1.2232205148646746e-06,3.9433764822533854,46.2587826635041,8.652438597225508,40.41586552155969
0.21,31.22218473678744,131.01038742234647,3.803156063113743,3.9664546506877016,0.000390962054969,38.67679184347145,0.0006636984664108,3.297405915846789,404.8187610144644,9.079179692250786,3.688002035198235,69.99983642883521,1.3827831253856693e-08,113.70000179318536,50.47126980736161,15.288,0.0,0.0,0.0266815841422463,1.0586558589671407e-10,-6.275155280099118e-05,4.961340042512481e-09,1.5117124669161171e-06,3.9664546699249135,44.88773728276958,9.079241104426773,38.817098210937615
0.22,31.2221846022986,131.01038778667507,3.8882846911135607,3.956175711337521,0.0004112685792646,46.713636108302936,0.0007011135033803,3.291572407481395,472.5421858721365,9.580256326712124,3.889976788904857,69.99979815126248,2.0662823443484168e-08,113.70000199039316,56.195522894218605,15.288,0.0,0.0,0.0281541581291438,1.3033127211465288e-10,-7.330053770532661e-05,6.0817207473359025e-09,1.8632831045819008e-06,3.956175732680424,43.35679625546934,9.580320928629488,46.8294591882524
0.23,31.222184460898035,131.01038816972698,3.977794004014759,3.9879066397329104,0.0004360962274406,38.89105719050748,0.0007308686121188,3.286096544282012,406.3406421461021,9.977039034039262,4.056142701351626,69.99975353557706,2.9316661139418326e-08,113.70000219928508,60.9462612310605,15.288,0.0,0.0,0.0293202403623685,1.5880617816859538e-10,-8.505067486192354e-05,7.393319440773217e-09,2.2514912291167663e-06,3.987906663538912,42.20670487756048,9.97710753587448,39.0296395118868
0.24,31.222184313516166,131.01038856897196,4.070963590490852,4.003523997322975,0.000459165577055,40.0792299321398,0.0007630441688766,3.280134925833028,416.2328240017114,10.408422364424831,4.234121060914368,69.99970190737699,4.010976417051318e-08,113.70000241888,66.32994780718496,15.288,0.0,0.0,0.030588009649109,1.91711512587616e-10,-9.795845222523724e-05,8.904557280909524e-09,2.7052895870113487e-06,4.003524023611085,41.011349410369874,10.408494489985014,40.21323112692186
0.25,31.22218416001652,131.01038898478134,4.167901030441617,4.0261356185860135,0.0004830526730531,41.17760020658354,0.0007934613160587,3.2740610008587527,425.36408079150686,10.816813039390448,4.4041629376391525,69.99964258149416,5.3372865854010094e-08,113.70000264972064,71.63651430352668,15.288,0.0,0.0,0.0317882126436337,2.2947426169209347e-10,-0.0001121037688082,1.0637152702866709e-08,3.217380562698304e-06,4.026135647516394,39.93186687113378,10.816888917126896,41.30755663120434
0.26,31.222184000702686,131.0103894163294,4.26837241014618,4.053359329950934,0.000507503069958,44.80261175215926,0.0008224724146494,3.2678597736729302,455.8015834241788,11.207047269494833,4.567925492611352,69.99957484039399,6.947299261165984e-08,113.70000289176392,76.89781807056055,15.288,0.0,0.0,0.0329350617559806,2.7254099134167665e-10,-0.0001275114371842,1.260720913253598e-08,3.7915697709142366e-06,4.053359361668992,38.945390435244384,11.207126987890645,44.921630958721536
0.27,31.22218383516388,131.01038986473338,4.372698316214008,4.0614460923241,0.0005296455772492,41.029837477288126,0.0008548809954683,3.2610328932384265,423.84219965987256,11.645685385842508,4.748226940060522,69.99949794024376,8.879821051920497e-08,113.70000314600205,83.0342688744587,15.288,0.0,0.0,0.0342241635563461,3.2137296827284217e-10,-0.0001442952656441,1.4842505534226832e-08,4.458527942364847e-06,4.061446126801262,37.8838346421185,11.645768582375233,41.15922617924542
0.28,31.222183663504484,131.01039032970942,4.48079961904222,4.081133040992532,0.0005533279247169,47.27661484082626,0.0008845140695959,3.254218495915602,476.3468732012221,12.047344998676092,4.915789434712848,69.99941106884992,1.1178948978424788e-07,113.70000341275257,88.85982357848233,15.288,0.0,0.0,0.0354045979054623,3.764736350660473e-10,-0.0001625146963723,1.7365685655384934e-08,5.194620655212288e-06,4.081133078439725,36.956255322213885,12.047431915223257,47.38848224631549
0.29,31.22218348566054,131.0103908114315,4.592727908358551,4.1001100265020245,0.0005770279952742,37.989969791857405,0.0009138463939581,3.247164755122801,397.97031042211177,12.446314684600782,5.082367374004485,69.99931338876085,1.3891902435864665e-07,113.70000369260468,94.8417675268915,15.288,0.0,0.0,0.0365771315767517,4.3836067907166327e-10,-0.0001822432988888,2.0202163500922312e-08,6.018074062137429e-06,4.100110067036654,36.07377590258778,12.446405323946324,38.12849176886316
0.3,31.222183301933686,131.01039130907952,4.708251093558373,4.112858061667493,0.0005998635114143,35.655053282557844,0.000944131403186,3.2397207148238625,378.1859457108711,12.860033399289696,5.253940723820665,69.99920403105713,1.707002607527005e-07,113.7000039856728,101.2505662360602,15.288,0.0,0.0,0.03779301412572,5.075709863465428e-10,-0.0002035013069687,2.3370674033523645e-08,6.94335970778e-06,4.112858105337573,35.19685285507256,12.860127625629724,35.80193592228613
0.31,31.222183112488807,131.0103918222051,4.827243246502713,4.136140889545823,0.0006242383343011,37.56633644061071,0.0009716215464757,3.232339252743767,394.1656220930212,13.2364445751808,5.4126574282679245,69.99908210036875,2.0768081583188525e-07,113.7000042923011,107.26326115439352,15.288,0.0,0.0,0.0388992619788015,5.846561731689753e-10,-0.0002263323252403,2.6893437641668458e-08,7.948283231812338e-06,4.1361409365698805,34.43286455705216,13.236542630309057,37.70514091683033
0.32,31.22218291741533,131.01039235056504,4.949637017503345,4.1622282001352975,0.0006491019906456,40.83513712643371,0.0009979686925508,3.224840963348891,421.55939346242695,13.59846554462374,5.566374262777002,69.99894668612772,2.504388718903276e-07,113.70000461297312,113.2095365840355,15.288,0.0,0.0,0.0399632243410653,6.701756367872645e-10,-0.00025078340164,3.0793566854276295e-08,9.047716714467492e-06,4.16222825066026,33.72644865222576,13.598567505326,40.96227562489027
0.33,31.222182716732533,131.01039289410716,5.075419569102976,4.187801887681037,0.0006739743721461,40.48743503284469,0.0010239291638211,3.217136801802925,418.5156301991682,13.956637761217308,5.718704299733134,69.99879684673242,2.995902922462564e-07,113.70000494831164,119.25032483364384,15.288,0.0,0.0,0.0410158804634189,7.647061680070125e-10,-0.0002769136723495,3.509664608790402e-08,1.0253455741189656e-05,4.187801941818244,33.053267359159875,13.956743628864118,40.61505097607
0.34,31.222182510255863,131.01039345333336,5.204736257784645,4.19642921746386,0.0006961879027693,31.814592723444047,0.0010535137542081,3.208669900766693,345.46563688075645,14.367047160772364,5.88887983533068,69.99863160305904,3.557915789971256e-07,113.70000529927128,126.36523219087664,15.288,0.0,0.0,0.042222056531773,8.688448410811866e-10,-0.0003048202762282,3.9835373705550826e-08,1.1618525957862828e-05,4.196429275109305,32.30947868183619,14.367156517712404,31.97598901989736
0.35,31.222182298183583,131.0103940277045,5.337435501771672,4.210915783240843,0.0007193441544952,34.813487415034444,0.0010813034848195,3.200164272309822,370.5765700527033,14.754132934586384,6.050986755458457,69.99844991734221,4.1975736284587617e-07,113.70000566632532,133.26448209504355,15.288,0.0,0.0,0.0433596939127697,9.832256819293898e-10,-0.0003345386312107,4.503361101379695e-08,1.309465610343774e-05,4.210915844572415,31.63649055965014,14.75424592890194,34.96026256388454
0.36,31.222182080444604,131.0103946174141,5.4735747500461605,4.22903876037745,0.0007431682866607,39.2632255716727,0.0011077666085529,3.1915717453569297,407.8625232777193,15.124417129017054,6.2072589919251575,69.99825073022951,4.922382611919288e-07,113.70000605036684,140.03566173682628,15.288,0.0,0.0,0.0444479595865755,1.1084921261805627e-09,-0.0003661511460057,5.0723697896912267e-08,1.4691545926915382e-05,4.229038825557203,31.017264542603208,15.124533865618538,39.39272792946638
0.37,31.22218185710795,131.01039522227452,5.613102797925907,4.249164960780052,0.0007674149135003,37.28328237034959,0.001133274451316,3.1828514669894137,391.1218908297666,15.483077353331511,6.359470679857624,69.99803294268581,5.740349991123437e-07,113.70000645214331,146.75405277514704,15.288,0.0,0.0,0.0455020695186381,1.245311285088233e-09,-0.0003997125883071,5.6934243389647934e-08,1.641828325195534e-05,4.2491650299519,30.439178816713017,15.483197898584232,37.418894813348615
0.38,31.2221816281124,131.0103958424523,5.756069531572451,4.260095806433531,0.0007900626414612,38.9278000801764,0.0011607546399008,3.1735466295306622,404.8187610144602,15.87126705947922,6.521735074464384,69.99779542676283,6.659911329739736e-07,113.70000687263192,154.20298254405043,15.288,0.0,0.0,0.0466429667223463,1.3943646956867835e-09,-0.0004353006984059,6.369875435270817e-08,1.8328108041903096e-05,4.260095879559656,29.83470194713067,15.87139116222873,39.05694584372078
0.39,31.22218139339905,131.0103964781077,5.9025231349944285,4.274091258047817,0.0008133283308351,33.320076729592266,0.0011870382950339,3.164143363712209,357.64062493382744,16.24457853509073,6.678818328235205,69.9975369905506,7.690136753559805e-07,113.70000731287368,161.54010621938565,15.288,0.0,0.0,0.0477401448128051,1.5563705124515804e-09,-0.0004730068442167,7.105463478762673e-08,2.0383860516746246e-05,4.274091335289374,29.274934656826048,16.244706292406182,33.46997636540994
0.4,31.22218115316572,131.01039712870306,6.0523126585892895,4.286421841403391,0.0008363022448449,31.88018820767003,0.0012133780841982,3.1544430614236454,345.465636880754,16.62063299903514,6.836764518435374,69.99725641601981,8.840594270905819e-07,113.70000777359816,169.10340080049767,15.288,0.0,0.0,0.0488453895716005,1.7320643186450851e-09,-0.0005128553637434,7.9027539265021e-08,2.2612406375611563e-05,4.286421922834417,28.730746964325096,16.620764365084565,32.03586915718869
0.41,31.22218090752676,131.01039779392735,6.205351877049411,4.30025870409831,0.0008595777771371,35.882550741685804,0.0012389121673015,3.1445895889870297,378.94687077668647,16.987310563534386,6.99141560549392,69.9969524610574,1.0121301778427253e-06,113.70000825570062,176.64448930727934,15.288,0.0,0.0,0.0499230826371405,1.922193031274436e-09,-0.0005548883906878,8.764667734700782e-08,2.5005077415911235e-05,4.300258789847355,28.21875643368965,16.987445585695873,36.020076248499606
0.42,31.222180656535848,131.0103984736348,6.36160173428776,4.322008670726048,0.0008844838439129,40.34064925656127,0.001261804338223,3.134918999355981,416.2328240017114,17.318628721060172,7.133856886815013,69.99662385300175,1.154276942054023e-06,113.70000876021427,183.59942989625057,15.288,0.0,0.0,0.0508968652507098,2.1275184665783874e-09,-0.0005991661829955,9.694534598491077e-08,2.752657757470936e-05,4.322008761057615,27.772396468009568,17.318767655457478,40.462275036947325
0.43,31.222180400205527,131.0103991677914,6.521055075967404,4.339436441324956,0.0009085827200945,35.541853595187746,0.0012854696362701,3.124839917627212,375.9031395134336,17.662848429084132,7.280642039343927,69.99626930133451,1.3115939750280808e-06,113.70000928827632,190.96736675963504,15.288,0.0,0.0,0.0519085689713619,2.3488101247838237e-09,-0.0006457514522491,1.0695800287133593e-07,3.0255957891170616e-05,4.339436536261635,27.322335771349252,17.662991148924057,35.67895714766603
0.44,31.22218013836212,131.0103998768696,6.683849332059896,4.342209064313268,0.0009296474314902,32.82948243168077,0.0013129688908547,3.113754688841357,353.0750125389216,18.063580761318697,7.446730341918701,69.99588746395321,1.4852372182848018e-06,113.7000098413532,199.7278270846888,15.288,0.0,0.0,0.0530863610987301,2.586862292117705e-09,-0.0006947575786514,1.1773083546077225e-07,3.329010177793299e-05,4.342209163639375,26.81344244367223,18.06372678999575,32.9768158972058
0.45,31.22217987077456,131.0104006014978,6.850166573233225,4.3420317510315165,0.0009500780330031,38.11022602597878,0.001341042003417,3.1022288449712887,397.2093853562869,18.47486275310604,7.616350301328129,69.99547690348253,1.6764536248320808e-06,113.70001042108892,208.92306716049887,15.288,0.0,0.0,0.0542951637545535,2.842521175226318e-09,-0.0007463379956615,1.2932090054593452e-07,3.657529369088674e-05,4.342031854775571,26.30944884471334,18.47501199101448,38.23628058998621
0.46,31.22217959739673,131.01040134180155,7.020045503401754,4.351169003849846,0.0009725797783515,44.3937050866137,0.0013660055515545,3.09098240974522,449.7140588976434,18.844323061800488,7.771531995684422,69.99503610583268,1.8865779683531e-06,113.70001102895836,217.3591612614144,15.288,0.0,0.0,0.0553810645782081,3.1166808800591503e-09,-0.000800596194505,1.417768495237597e-07,4.001824400409673e-05,4.351169112337076,25.873596578896564,18.844475834274814,44.50118229261506
0.47,31.22217931813738,131.01040209802923,7.193559875579052,4.358630093683735,0.0009947969928181,30.22514089990685,0.0013910994973101,3.079396422776949,331.0078106302534,19.2180591098146,7.9280875671397615,69.99456352718363,2.1170044481277104e-06,113.70001166656292,226.0625808853568,15.288,0.0,0.0,0.0564795377574197,3.4102493884459798e-09,-0.0008576351980594,1.551487523304888e-07,4.3718862242359527e-05,4.35863020698899,25.44665981168229,19.218215372160817,30.381603425148434
0.48,31.22217903348153,131.01040286886197,7.370336324605091,4.365514409145237,0.001016880998596,29.779838936311712,0.001416009414045,3.067527859335786,327.2031223011574,19.5915905767454,8.084483592791102,69.99405758812365,2.369198154608765e-06,113.70001233476164,234.93171707892955,15.288,0.0,0.0,0.057577416115756,3.7241711041759195e-09,-0.0009173883913609,1.6944871263079066e-07,4.767297940601472e-05,4.365514527349481,25.03354780044292,19.59175030803913,29.937410312943754
0.49,31.22217874361868,131.01040365378466,7.5502307795521535,4.3786401372577615,0.0010404145545081,37.2489281064929,0.0014385799934191,3.0558405437943126,389.60000969812296,19.93403005898306,8.23012235628909,69.99351671352461,2.644660619562788e-06,113.700013034871,243.21198709852868,15.288,0.0,0.0,0.0585839249886784,4.059374595909599e-09,-0.0009798792959512,1.8470833984680338e-07,5.180951737438081e-05,4.378640260624215,24.667474291142685,19.934193486919103,37.37406598941686
0.5,31.22217844858332,131.0104044527036,7.733219389747018,18.29534448819972,-14.783720792660576,39.02080805577728,1.332686364414991,1.815778500213573,397.97031042210494,24.305247023205848,8.366023506705158,69.99293932307316,2.9449363413826395e-06,113.70001376847225,361.5656849781088,15.288,0.0,8.768049422645161,0.0714305990069975,4.416605232284705e-09,-0.0010607533276333,3.84562001333629e-05,6.838308158818917e-05,23.361642846806607,18.13841564059037,22.008707589484704,39.0857591180413
0.51,31.222178148197617,131.01040526464598,7.919312816828073,18.119122934587686,-14.596718403883296,30.11515402613481,1.361262695041268,1.775302541447961,323.3984349720841,24.64807842608988,8.502109471175386,69.99223970076962,-0.0001603539301587,113.69984040186009,371.830920421611,15.288,0.0,8.802854716880493,0.0724382969959082,4.789043201953513e-09,-0.0014217868761591,-0.000278939031674,9.29488527255649e-05,23.11246563554771,17.982223903712615,22.37995303251953,30.198133009449545
0.52,31.22217784191292,131.01040608892825,8.108564165103218,17.941126372596077,-14.412417246029628,35.95702554390734,1.3910155871052885,1.7335318713790473,372.0984511843415,24.99975027193181,8.641202790696026,69.99133069158061,-0.0008280862339079,113.69913020611824,382.5100200092328,15.288,0.0,8.837557333543412,0.0734719830870663,5.1108361993636956e-09,-0.001792783447408,-0.0006035387524657,0.0001188726864096,22.863502022831653,17.82275491575466,22.75965212201271,36.02565395767108
0.53,31.22217752959521,131.01040692591084,8.301086746125526,17.76985960523005,-14.23430166049926,37.70309436249023,1.4209308938902712,1.6913941099828025,386.5562464348624,25.34828343644287,8.778750614081348,69.99020642697478,-0.0020118175390955,113.69787086574088,393.2425974806852,15.288,0.0,8.872161479329662,0.0744964520238791,5.381629116238482e-09,-0.0021741824191699,-0.0009356636948037,0.0001461689337906,22.62340417549609,17.668641152656956,23.135293898534268,37.76775321815343
0.54,31.22217721113761,131.0104077758251,8.496958887662393,17.603796849343986,-14.061208250785064,33.25334961169473,1.4511090233953157,1.6487616170490322,349.2703242098436,25.6952113159128,8.915321901801507,69.98886087004935,-0.0037233707819018,113.69604978872135,404.072845474866,15.288,0.0,8.906691538030561,0.0755162104578768,5.601075998873958e-09,-0.0025663332017644,-0.0012755523752846,0.0001748910611813,22.3903020986014,17.518613179037477,23.508586523948114,33.32580670689355
0.55,31.222176886806903,131.01040863788725,8.695969225897404,17.44676823207545,-13.89592732765234,35.18163311896712,1.48120491316241,1.6060742320127184,365.2500005919907,26.034882779066983,9.048857610321008,69.9872879147231,-0.0059745960157782,113.69365435093503,414.8186108611917,15.288,0.0,8.941106441842475,0.076514650022168,5.768877295494729e-09,-0.0029689188526659,-0.0016229025721037,0.0002049972483659,22.168853349435608,17.37614542944079,23.873451402450705,35.24940781560898
0.56,31.22217655659615,131.01040951205985,8.898118985495142,17.30134692515094,-13.740317312408804,32.916155696829364,1.510938574430858,1.563692280160668,346.2265619465787,26.36292951049312,9.177762164367572,69.9854815011554,-0.0087771137911955,113.69067216997252,425.3298729394672,15.288,0.0,8.97540492403599,0.0774789324858768,5.884763555294593e-09,-0.0033821242459798,-0.0019778186034107,0.0002364660918659,21.962187157562497,17.243627272683195,24.22523387574209,32.98789739860135
0.57,31.222176220569263,131.01041039811395,9.103354593976066,17.153249317474263,-13.583750779089662,32.56470638701678,1.5414863205327145,1.5201002077784749,343.1828296833023,26.69867341936241,9.30918444044643,69.98343553348609,-0.0121424919420188,113.68709091631035,436.2238002062758,15.288,0.0,9.009571385073125,0.0784658436342749,5.948502361164037e-09,-0.0038059700102732,-0.0023402720593171,0.0002694834716939,21.75283671647072,17.108429115154692,24.58487534081505,32.636589693022295
0.58,31.22217587869724,131.01041129607407,9.311694668758069,16.993480644941243,-13.419572682172817,42.52434770886261,1.573708992804496,1.474180953010776,426.1250058573153,27.05559693580318,9.448077285582304,69.9811437945167,-0.0160823421866528,113.68289821332084,447.95619098522513,15.288,0.0,9.043604133258148,0.0795150079130736,5.9598849685823716e-09,-0.0042406545495379,-0.0027103770850483,0.0003042694968694,21.529805004171163,16.96248094950888,24.96687515612403,42.57898445877381
0.59,31.222175530576013,131.0104122069825,9.523448574801929,16.855446215726786,-13.272454890904944,34.69059832744747,1.6045981981044883,1.4298190115966627,360.68438819711065,27.385042866063188,9.57650458700782,69.97859980642966,-0.0206089741568956,113.67808093018442,458.92246951742015,15.288,0.0,9.077540896807768,0.0804834248212903,5.9186403255292465e-09,-0.0046871649652353,-0.0030888766223321,0.0003403950481693,21.33388883938578,16.83570311883493,25.31880619709182,34.75711049698442
0.6,31.22217517640627,131.0104131302372,9.738456727071474,16.694558760065984,-13.109462838991812,30.960818640074912,1.6382832629515232,1.38166777077091,329.4859594986058,27.75307704716369,9.718772317766136,69.97579686702335,-0.0257347728191957,113.67262585961475,471.3307647896645,15.288,0.0,9.11136075068219,0.0815652587776759,5.824575850146542e-09,-0.0051452596479785,-0.0034755294876485,0.0003786770980994,21.110618990440056,16.688102177112114,25.711767571410157,31.034904039517574
0.61,31.22217481613257,131.01041406593285,9.956758243045188,16.53311636177796,-12.9470513721209,36.08855645697505,1.672779983046039,1.3322875205100646,372.0984511843297,28.12734286259177,9.86296547924372,69.97272809814912,-0.0314723519328296,113.66651954717908,484.118652437694,15.288,0.0,9.14506904997456,0.0826654156394163,5.6774946720008915e-09,-0.0056152307428763,-0.00387051944396,0.0004188300307883,20.88721874661952,16.539652986131365,26.11088821981922,36.15186150196504
0.62,31.222174449859207,131.01041501372904,10.17826836807548,16.41429646866904,-12.816917534296348,44.59954901935261,1.7036738285097728,1.28741824332395,442.86563930529206,28.438714456405727,9.983778864458754,69.96938652325076,-0.0378345558686881,113.65974828268642,494.88590549234186,15.288,0.0,9.17866951593899,0.0835807362628931,5.477210206996545e-09,-0.0060971310827101,-0.0042738381288176,0.0004597987163853,20.71638899330307,16.42952805029772,26.44218670282084,44.65064079021519
0.63,31.22217407739925,131.01041597408235,10.403128707138912,16.2857644926616,-12.680511973639607,25.787388418142,1.7360923340994645,1.2403943658774297,286.11251274707894,28.768434347499102,10.111003625243372,69.96576533250827,-0.0448336967615083,113.65229891839078,506.4169585432194,15.288,0.0,9.212123220077624,0.0845499900211693,5.2235944763020885e-09,-0.0065914363445969,-0.0046858130060809,0.0005028276762917,20.53420729225141,16.310482745788445,26.792804901770356,25.87550958345639
0.64,31.22217369931628,131.01041694540567,10.6308986681272,16.140450160022606,-12.532683682798655,25.340251470877163,1.7709277004547828,1.1900441253432563,282.30782441796754,29.12956129205219,10.249417538447627,69.9618575033084,-0.0524821044353284,113.6441582904448,519.1993923045626,15.288,0.0,9.245450008038292,0.0856115565932594,4.916600362883123e-09,-0.0070971127461338,-0.0051055777693705,0.0005481873809934,20.332048844869608,16.1759773575376,27.176592837822646,25.429918099510157
0.65,31.22217331558456,131.01041792771892,10.861595148311796,16.026368031586824,-12.408535103048171,43.9161234944284,1.8029696811964488,1.1431637732793816,436.7781447787475,29.441737974483928,10.369674221481372,69.95765622120041,-0.0607917644330306,113.63531358822736,530.3756208390133,15.288,0.0,9.278572095104815,0.0865292666648019,4.556180444946191e-09,-0.00761444703324,-0.0055333101213436,0.0005944366498565,20.16846914070488,16.069830781029538,27.507810635839675,43.967981826116805
0.66,31.222172925704,131.01041892233684,11.0956033932713,15.907432791211516,-12.281648379318904,37.52744447723997,1.836092758109528,1.0946986983354168,383.51251517160017,29.76474623376149,10.493582312658752,69.95315452281223,-0.0697746984166135,113.62575196147492,542.064886805801,15.288,0.0,9.31158690665372,0.0874788188690009,4.1423046684612794e-09,-0.0081446476558689,-0.0059699103396166,0.000642789081071,19.999445624756177,15.959164194967132,27.850289351482065,37.58827863641601
0.67,31.22217252984785,131.01041992873607,11.33278589736532,15.773982981344629,-12.144991182834804,26.192634075715663,1.8714970177986991,1.0430651873348535,289.1562440103425,30.116324338769104,10.627607047909082,69.94834500942144,-0.0794436822203172,113.61545975010898,554.9335056381993,15.288,0.0,9.3444900502472,0.0885123464759293,3.674953664390356e-09,-0.0086875080071872,-0.0064151648121811,0.0006937153391519,19.813196534862985,15.835068751372567,28.22284766678329,26.28011731132494
0.68,31.22217212817297,131.010420946439,11.573018011572534,15.647276395260292,-12.014020118538744,32.427407384274446,1.906744243107929,0.991449015561399,340.8999924858462,30.459337032615927,10.758234169084648,69.94322020939886,-0.0898113568451961,113.6044234346242,567.6333324569684,15.288,0.0,9.377181507422277,0.0895207087503305,3.1541484641142703e-09,-0.009242898825356,-0.0068689206996099,0.0007464534693069,19.63561228160741,15.717065384496008,28.58597772122236,32.49854449701986
0.69,31.222171720749817,131.01042197520545,11.816242411151256,15.538259876742837,-11.896668845993965,39.67311207449894,1.940423486811422,0.9417182227196698,401.0140726853634,30.773073781663363,10.87792910780864,69.93777277069,-0.1008900972400456,113.592629766295,579.3734770601976,15.288,0.0,9.409751851106268,0.0904430366201325,2.579943456075962e-09,-0.0098108214327693,-0.0073311277077848,0.0008004610439406,19.48003006909213,15.615272550237576,28.917748127365527,39.73169890899362
0.7,31.22217130743873,131.0104230153714,12.06256518035579,15.429798164203785,-11.780437324466956,33.457187800154045,1.9745533759581435,0.891215377394533,349.27032420985284,31.087911817731914,10.997756760334168,69.9319953442532,-0.1126920328826099,113.58006575250188,591.2752270744846,15.288,0.0,9.442178814515296,0.0913686094724869,1.952436100032033e-09,-0.0103917569650915,-0.0078021086165132,0.000856513497757,19.325547977170466,15.513962375065423,29.250455417905403,33.52725072800018
0.71,31.222170888284964,131.0104240667681,12.311948913144464,15.31242099817162,-11.658447443876447,27.69555526811393,2.0103791672505262,0.8382857578031468,301.33126406340574,31.421871394119623,11.124277063348346,69.9258802803576,-0.1252294844749403,113.56671819747444,604.0324545226482,15.288,0.0,9.474409429942048,0.0923503897828781,1.271761258095008e-09,-0.0109857543871502,-0.008281848729038,0.0009151772383062,19.16061902499957,15.404379536355256,29.603177661594817,27.781075015502978
0.72,31.222170463283383,131.0104251293642,12.564395335303562,15.184333449179336,-11.52945150452158,33.66304815312632,2.048284773432872,0.7824158767819794,350.79220534145287,31.779701749713965,11.2591860002179,69.91941980330765,-0.138514949790001,113.55257370532632,617.8531796191555,15.288,0.0,9.506518537117373,0.0934023364103561,5.380636978653017e-10,-0.0115930349232958,-0.0087704665005366,0.0009767416586826,18.983077417824937,15.284775449829873,29.980857218659484,33.734380920316575
0.73,31.222170032423715,131.0104262031415,12.819910159100845,15.086306516647376,-11.422840257646964,42.29287684687196,2.082709508361844,0.7309735515683012,422.320318528234,32.08116435589238,11.373371486648798,69.9126059557617,-0.1525613155425147,113.53761845050244,629.615251882503,15.288,0.0,9.538496363773945,0.0942886238272337,-2.4851846347487207e-10,-0.0122138717987,-0.0092681181504898,0.0010387847680046,18.84252010352214,15.193062433530644,30.298731476519254,42.350436045145884
0.74,31.22216959563761,131.01042728824552,13.078544730239567,14.980028273331364,-11.310917304380268,26.89702861622732,2.1187646171776127,0.6771758530330882,294.48281347105944,32.40068736619709,11.493861453296152,69.90543076401893,-0.1673808262821224,113.52183929780752,642.2034823887975,15.288,0.0,9.570274823522103,0.0952280005592763,-1.0877468740220582e-09,-0.0128485275110239,-0.0097749512588694,0.0011036182899205,18.692301060657087,15.09369456630279,30.63549045753013,26.988847308121297
0.75,31.222169153270567,131.0104283836878,13.340028698161952,14.868984182760332,-11.196220849308515,31.21761146449548,2.15608882161702,0.6215002552468835,330.24688556441487,32.73219857274423,11.61845817869552,69.89788630377473,-0.1829857467446072,113.50522306930915,655.3958058252177,15.288,0.0,9.601901495955731,0.0962026201592474,-1.9793805863504007e-09,-0.0134963078923368,-0.0102903792820289,0.0011710907640579,18.536670241204867,14.989858897583476,30.98467173762366,31.298150857872955
0.76,31.222168705207743,131.0104294897431,13.604449818505865,14.768956779294772,-11.090064805334888,33.521474608640176,2.1923573292868936,0.567041174661839,349.27032420986166,33.04299272665655,11.735307484047194,69.889964570335,-0.1993880989943931,113.48775684286332,667.8839775749792,15.288,0.0,9.633389433459085,0.0971163594298031,-2.923120741909823e-09,-0.014157723453899,-0.0108147392100265,0.0012401156065878,18.394802960687255,14.896313595158468,31.311826475712337,33.59787532405506
0.77,31.22216825138653,131.01043060654425,13.871855402676724,14.672242296019077,-10.986869899878371,31.419833664162613,2.2286223029924703,0.5123935226450291,331.7687666960708,33.3482228820653,11.84991391992143,69.88165742092644,-0.2165999220000537,113.4694276695905,680.2624731634256,15.288,0.0,9.664687318423969,0.0980137543072143,-3.9186349478515916e-09,-0.0148331163099547,-0.0113482373191819,0.0013112434094268,18.257310401761867,14.805911106434976,31.632966546648188,31.50294037030655
0.78,31.222167791864088,131.01043173389695,14.142199799085963,14.567876961399875,-10.878798459269012,26.01076449001367,2.266593084831917,0.4552684997411207,286.8734378128899,33.67149025933249,11.970820555714708,69.87295658438381,-0.2346331636576783,113.45022269103212,693.4968997454861,15.288,0.0,9.695812789026183,0.0989641712363063,-4.965552117696427e-09,-0.0155224717298941,-0.0118908068430524,0.0013854477806538,18.1108774726422,14.708356266242673,31.97290163564995,26.11330279711895
0.79,31.222167326720577,131.01043287154343,14.41541948241101,14.459693061345636,-10.768607497802329,36.49041154276024,2.3057729591621103,0.3963240069359689,373.6203323159534,34.0052678574937,12.095300660749336,69.86385377461012,-0.2534998253672356,113.4301289718342,707.2954309736652,15.288,0.0,9.726788943187952,0.0999454879827024,-6.063492824021553e-09,-0.0162257658082,-0.0124423745749373,0.0014625373096857,17.96016333339661,14.607210078390908,32.3236800580847,36.5653359921345
0.8,31.222166855733448,131.01043402005885,14.691686631794497,14.368844706745149,-10.671338777196665,36.96009469898771,2.342667017011331,0.3402511357296868,377.42502064505743,34.302218278914474,12.206227452253374,69.85434033718171,-0.2732121296552902,113.40913333982348,719.6831629096058,15.288,0.0,9.75763873605054,0.1008185745022744,-7.212021505731182e-09,-0.0169438649891542,-0.0130035388249173,0.0015405603514372,17.830823987252593,14.522412401475414,32.63564276484884,37.03582670531465
0.81,31.22216637899749,131.01043517914783,14.970926686650683,14.2683743765739,-10.567778817084164,24.469375066046386,2.381651684446568,0.2811646511348701,273.9374926939919,34.62213960441785,12.325239738817768,69.84440762896992,-0.2937820520758602,113.38722287229288,733.1504239321625,15.288,0.0,9.788307033346364,0.1017591844927963,-8.410680851254967e-09,-0.0176766076480195,-0.0135741201046118,0.0016221283224633,17.69014017095005,14.42859209533714,32.97155263283453,24.58661494451661
0.82,31.22216589669171,131.01043634828295,15.252999538491531,14.164510765052164,-10.462364310214916,31.09578288280052,2.421799397712684,0.2203029474205387,328.72500443277005,34.95165426909539,12.447512423080196,69.83404693365286,-0.3152214162185748,113.36438479716254,747.152046882036,15.288,0.0,9.81878954949896,0.1027279999140577,-9.658980951257758e-09,-0.0184236782626685,-0.0141538236087563,0.0017067294938674,17.54566679933757,14.33159697934452,33.31734769976658,31.1907255254775
0.83,31.22216540879428,131.01043752749086,15.53792159240822,14.080927437554456,-10.371829690114652,39.197482044738656,2.458921524803705,0.1633233280109326,395.68750322465047,35.235039319979485,12.552918720052784,69.82324941108651,-0.3375419887353819,113.34060639174264,759.2960774991105,15.288,0.0,9.84912632387324,0.1035612427504744,-1.0956377391480869e-08,-0.0191853913532667,-0.014742827806315,0.0017916540532907,17.42607716403762,14.253848584147,33.61471949490296,39.27487196952047
0.84,31.2221649151966,131.01043871704232,15.825777377170407,13.994131835040283,-10.279525075828344,24.671432100353098,2.497046903695445,0.1047892573899148,275.4593748256452,35.526612573859765,12.661074825815923,69.81200630701447,-0.3607550482137549,113.31587544146498,771.8932252521064,15.288,0.0,9.879319099270568,0.1044185608769009,-1.2302260528932282e-08,-0.0199621751524987,-0.0153413951096679,0.0018795695003764,17.302897648354623,14.17313376032989,33.920557105226635,24.79769718965962
0.85,31.222164416183404,131.01043991612124,16.11634479341495,13.892342455897856,-10.17716401419692,26.793697239373863,2.5384558668766344,0.0415990880711151,292.96093233939376,35.855589840543544,12.782548089426086,69.80030881729567,-0.3848716502045284,113.29017995649964,786.2329718828945,15.288,0.0,9.909343729530551,0.105385824703749,-1.3696023295640806e-08,-0.0207533223267597,-0.0159489399465908,0.0019721008065423,17.16187298613961,14.078234687918153,34.26535768098925,26.913708410909102
0.86,31.22216391157927,131.01044112518355,16.409760591325966,13.80294600815654,-10.084017967787693,33.24365902004302,2.5780765846828007,-0.0193797469337393,346.2265619465587,36.15548546336325,12.89333491049392,69.7881478147998,-0.4099031669660508,113.26350759742844,799.4175284347934,15.288,0.0,9.939193736256971,0.1062676219915853,-1.5136976840225718e-08,-0.0215596421870302,-0.0165660064412815,0.0020657992536457,17.036134368291215,13.995184575973536,34.579656537635174,33.34348091444516
0.87,31.222163401403726,131.0104423441485,16.706009752842416,13.7196280719345,-9.99560232746161,31.04129061407249,2.6169789741549514,-0.0795924438914677,327.964078366998,36.44079289617633,12.998674595524047,69.77551415491239,-0.4358606628643744,113.23584633930552,812.0608096846441,15.288,0.0,9.968867026357543,0.1071065510276142,-1.662441058932255e-08,-0.022381250585008,-0.0171926205610137,0.002161385240671,16.91802311621917,13.918017092279038,34.87863959199061,31.151510988964866
0.88,31.22216288568802,131.01044357290462,17.00506836331032,13.629193530044448,-9.902669978140716,26.99524935060323,2.657753844748032,-0.1425653599746734,294.4828134710418,36.74472802194868,13.110552933315082,69.76239865182289,-0.462754934996003,113.20718442824015,825.639603398765,15.288,0.0,9.99838606247691,0.1080002396786827,-1.81575744042445e-08,-0.0232181490965918,-0.0178287237130226,0.0022608417946812,16.79159069763923,13.83414350115716,35.19695296706511,27.12613993701245
0.89,31.22216236450832,131.01044481121576,17.306877409918027,13.531916291740208,-9.805434397473345,29.48825838563216,2.700450535369825,-0.2083800415832543,315.028134248087,37.06743381010398,13.229027560439478,69.74879198498877,-0.4905966888379469,113.17751019371816,840.1810758738478,15.288,0.0,10.02774823285828,0.1089491087293202,-1.973568121462136e-08,-0.024070325541451,-0.0184742471195007,0.0023643373152109,16.65717543111464,13.743796505724577,35.53470714764426,29.612383185983443
0.9,31.22216183778732,131.0104460592726,17.611497888673533,13.45421761387757,-9.722305498493844,32.44339716697301,2.739607251371333,-0.2695739975441509,339.37814235421445,37.33973992441609,13.329148440186582,69.73468454413351,-0.519396831205622,113.1468117361053,852.5458124342366,15.288,0.0,10.056964265903463,0.1097498518097032,-2.1357883513953464e-08,-0.0249382696410724,-0.0191294896424436,0.0024675152827632,16.546664643809404,13.672273639327187,35.81988197513991,32.55997754553695
0.91,31.22216130559124,131.01044731687085,17.9188790579843,13.369494569683184,-9.634715486421625,24.98241420341901,2.780662666280504,-0.3335814058467634,277.7421810230789,37.63079074005476,13.435863506686005,69.72006693029243,-0.549165478370635,113.1150779829942,865.862668954275,15.288,0.0,10.086025405213393,0.1106056989026471,-2.3023301868440183e-08,-0.0258218923404183,-0.0197943246452456,0.0025747842004392,16.42793525602376,13.594126368589096,36.12449556453995,25.13890174309858
0.92,31.222160768114097,131.0104485834486,18.228870137074694,13.278069745961524,-9.542907459141112,29.50502583749084,2.82365538117586,-0.4004703377415446,315.02813424806214,37.94055113693675,13.54917990214041,69.7049296138801,-0.5799126184562544,113.08229798281704,880.1499484079974,15.288,0.0,10.114917926927808,0.1115165472453181,-2.4731047972979573e-08,-0.0267206831373873,-0.0204683180817347,0.0026862577878726,16.301382474897444,13.509637071349012,36.44847564692537,29.642536259133703
0.93,31.22216022526497,131.0104498592409,18.54154346210887,13.204211883977274,-9.46368447501162,34.860255791438874,2.863216898876474,-0.4628681299804442,359.1625070654728,38.20263022246253,13.645149503156636,69.68926294539571,-0.6116480819229838,113.04846093641883,892.3246389752351,15.288,0.0,10.14365178144906,0.1122872578485967,-2.648010746743304e-08,-0.0276352378783977,-0.021151843288987,0.002797305668407,16.196249101200372,13.442143578107604,36.722828264222784,34.980704563520604
0.94,31.22215967693504,131.01045114453822,18.856985904300085,13.115520524385037,-9.374603799484436,25.639576810245146,2.9065283301868545,-0.5306529083951805,283.0687504837787,38.50572441996816,13.755762275446331,69.67305733511363,-0.6443811857852069,113.0135565755838,906.5124948087552,15.288,0.0,10.17220318474561,0.1131785317110344,-2.8269425041281583e-08,-0.0285659708381942,-0.0218451398193279,0.0029143692952309,16.073486248212678,13.360499170788676,37.03972656323072,25.809250249703645
0.95,31.222159123403635,131.01045243853977,19.17498000224392,13.029567857856255,-9.287826020750606,32.842094653030344,2.949704372648761,-0.5984842658833139,342.4218736174873,38.80173500800432,13.863691096983557,69.65630284285083,-0.678121509604857,112.97757433451817,920.4754811626008,15.288,0.0,10.200591269499231,0.1140489945231312,-3.0098005136718954e-08,-0.0295121778393972,-0.0225476337252604,0.003033957106354,15.954265155465803,13.28159492004138,37.34918779947392,32.97972286877404
0.96,31.22215856438396,131.0104537420378,19.49575239389663,12.95251266757795,-9.207569172933432,32.20111862110325,2.991224636430249,-0.6642579510623721,337.09533515678345,39.07243036696366,13.962338694208697,69.63898950877348,-0.7128782536302167,112.94050403513307,933.334685113392,15.288,0.0,10.228837410821212,0.1148450584805923,-3.1964635602170553e-08,-0.0304750782555727,-0.0232601440269695,0.0031547061122417,15.845986501259723,13.211402784408884,37.63232602189642,32.34657174881906
0.97,31.22215799989396,131.01045505497024,19.819291006559546,12.871859967133682,-9.125223197524596,21.03182334160596,3.0340176234562475,-0.7320212397563727,245.02188719299323,39.35330120001942,14.064512525803154,69.62110713535985,-0.7486606395579047,112.90233545784945,946.7719825018733,15.288,0.0,10.25693873019112,0.1156710405524639,-3.3868162377346535e-08,-0.0314547769417272,-0.0239826805093304,0.0032794267566235,15.733610606393796,13.137867277618332,37.925966549317856,21.26214267442063
0.98,31.22215743021162,131.01045637654144,20.14537967550292,12.777485862189549,-9.033869673729368,30.08575576219428,3.080699005243075,-0.8054156913562255,319.5937466429581,39.67493859933223,14.181281948404587,69.60264549794023,-0.785477500048973,112.86305877895344,962.281160146431,15.288,0.0,10.284876620059844,0.1166168574961796,-3.5807477950222366e-08,-0.0324503730133192,-0.0247145307502108,0.003410770602313,15.604976574108472,13.051159644740835,38.26177392529267,30.25379481286926
0.99,31.22215685519196,131.01045770714867,20.47413427853904,12.70776393781492,-8.95975157288571,32.769036217887205,3.1216024766604344,-0.8710302835770065,341.6609485517054,39.9232505414605,14.271464033083102,69.5835941096095,-0.8233377137177569,112.8226641070557,974.3332683306464,15.288,0.0,10.312671458451444,0.1173471580488016,-3.778125025393904e-08,-0.0334627600240925,-0.0254562703054975,0.0035390809329478,15.506180001051888,12.988483459414244,38.52158507423266,32.92890569737179
1.0,31.222156274833523,131.01045904679168,20.80555873075445,12.624709345880502,-8.876890826877393,29.445767626322684,3.1663163404836743,-0.9421789698333992,314.2672081822764,40.21127036227297,14.375856908316823,69.56394280898755,-0.8622490942725612,112.78114266703136,988.4108539013224,15.288,0.0,10.3403149297813,0.1181941821266904,-3.9788171902182e-08,-0.0344919487060043,-0.0262078410140384,0.0036741301950621,15.391590104551865,12.913015950675565,38.82246327370908,29.63049934581939
1.01,31.222155689309503,131.01046039497135,21.1395192806064,12.54451037921018,-8.796336067908578,30.742928901872528,3.2107050805320583,-1.0131213336253753,324.9203161036979,40.490496016548526,14.476972868002749,69.54368102732685,-0.9022197516190132,112.73848534731432,1002.1533485310616,15.288,0.0,10.367803083781384,0.1190153668958821,-4.1826938358065663e-08,-0.0355375415445732,-0.0269688926128301,0.0038116723636182,15.280641734439476,12.840464523605831,39.11419224700499,30.926731469982247
1.02,31.222155098546217,131.01046175189273,21.47607674850628,12.468373469036171,-8.718888092486532,25.844505159450456,3.254385073236131,-1.0833199943836505,284.59063161540416,40.75671002037422,14.573283903336048,69.52279829109595,-0.9432571478880608,112.6946837072842,1015.3416178002722,15.288,0.0,10.395142277451551,0.1197983155474378,-4.3896092193590566e-08,-0.0365999937323934,-0.0277396826003234,0.0039513106713333,15.174772413915353,12.772022755553026,39.39242991543068,26.07111526866457
1.03,31.222154502609587,131.01046311736667,21.81518233969001,12.383437995324703,-8.635825804269862,21.31292217655231,3.3008947563916564,-1.157724997216862,247.30469339049705,41.0503463486163,14.679408250224592,69.50128412357415,-0.98536827387169,112.64972978810992,1029.9910592550427,15.288,0.0,10.42232756072773,0.1206618777863759,-4.5994189074988726e-08,-0.0376791740968735,-0.0285200508683965,0.0040969918679504,15.05856567688367,12.695155896877784,39.698964290412114,21.598075957495148
1.04,31.22215390155852,131.01046449122157,22.156792583066952,12.307835048605934,-8.559416218287137,33.249017741612434,3.345209695285403,-1.2293120594003255,345.46563688072297,41.313947975130176,14.774593106094695,69.47912769089521,-1.0285602872000252,112.60361543121051,1043.2273157698537,15.288,0.0,10.449362539265678,0.1214371668332329,-4.811971925026063e-08,-0.0387751170122587,-0.0293099542542695,0.0042430921801983,14.953740773734468,12.62755754589945,39.97443342996085,33.43947991262539
1.05,31.222153295122688,131.01046587423366,22.50112427092765,12.22526675170126,-8.478646176966125,20.479024205005988,3.3919036824663618,-1.3044912920361382,240.45625879819983,41.59954965983768,14.877626732474804,69.45631821585631,-1.0728397463966068,112.55633309586496,1057.6657674431146,15.288,0.0,10.47626146242732,0.1222771322745562,-5.0270971165032526e-08,-0.0398890673065483,-0.0301102017079348,0.0043950194224462,14.84077945315012,12.553319594428771,40.27258245911415,20.79896969831314
1.06,31.222152683528417,131.01046726575498,22.848002207623857,12.136941963056728,-8.39435043812483,28.71745052889236,3.4407820483986247,-1.3830077722480192,308.17968365593924,41.90412218294763,14.987447458625066,69.43284446604575,-1.1182135237801782,112.50787488267213,1073.1741785459603,15.288,0.0,10.503013143698505,0.1231728706172246,-5.244643913198904e-08,-0.0410202716512791,-0.030920191949721,0.0045525958412662,14.72113615877272,12.473599361838287,40.59025284331466,28.955891567728678
1.07,31.222152066666503,131.01046866610005,23.197516098501303,12.06351088688318,-8.32039064803994,33.62652695480101,3.4856135720571846,-1.4560956679939852,348.5093681440308,42.15875376648244,15.079113680566843,69.40869494375438,-1.1646884454112527,112.45823291841924,1086.2196841816549,15.288,0.0,10.529632309950337,0.1239218228145489,-5.4644361210235856e-08,-0.0421695286932512,-0.0317404137703102,0.0047084260019533,14.61949888857044,12.408658107870377,40.856378632742334,33.838041190500654
1.08,31.222151444443472,131.01047007554607,23.54974398746489,11.987420520425628,-8.244959692998085,22.97573601325024,3.531594582771583,-1.5310641537605467,261.00157857466235,42.421302382342496,15.173551315775155,69.38385830249739,-1.212270533655562,112.40740016407864,1099.7537255937127,15.288,0.0,10.556120451119346,0.1246940562290901,-5.6862956840955615e-08,-0.0433373236474066,-0.0325711324228117,0.0048687853646289,14.514870216352437,12.34130583928169,41.13065232568725,23.295938768174942
1.09,31.22215081712148,131.01047149334286,23.904482482719995,11.89645704010063,-8.159914873799098,21.213333963015945,3.582664304610643,-1.6134954203752792,246.54375332474407,42.734467444707846,15.286265666746036,69.35832304790877,-1.2609655347807418,112.35536985041564,1116.0129666184016,15.288,0.0,10.5824623323763,0.1256150829677369,-5.91005982983384e-08,-0.044522636805376,-0.0334115632522513,0.0050387048477124,14.3926721779505,12.259503682628871,41.45703953735869,21.574160211177375
1.1,31.22215018477388,131.0104729192832,24.261677387572657,11.813841931445433,-8.08077227739091,41.5093268126242,3.631568858581921,-1.6931514126777132,413.1890617385841,43.01879438956398,15.388490264076289,69.3320775391347,-1.310778906906488,112.30213549115022,1130.8739952978128,15.288,0.0,10.608662799400824,0.1264513525482401,-6.135544371606408e-08,-0.0457254684870015,-0.0342616342086343,0.0052090826020513,14.280633946787583,12.186095520490472,41.75367352569777,41.70226932096283
1.11,31.222149547024447,131.01047435447035,24.62163142338744,11.747275948176416,-8.0126073812184,30.66504413202264,3.6755364127032566,-1.7660839189148585,324.1593910376397,43.24544198653085,15.469716472117105,69.30510990557646,-1.3617159553307447,112.247690738159,1142.782053922297,15.288,0.0,10.63474585245447,0.1271180869134733,-6.362531896351634e-08,-0.0469477650276807,-0.0351226193785493,0.005376319772887,14.18791950212888,12.128740948082056,41.990923018173,30.934989121521497
1.12,31.222148903935764,131.01047579874074,24.98430012436801,11.651913617428272,-7.925638231509466,12.209663304115749,3.729519224300162,-1.8535147082505168,172.73281794065943,43.573989673270106,15.587843097524445,69.27740841752299,-1.4137811728699494,112.1920300847355,1160.17166459051,15.288,0.0,10.660700385118254,0.1280843626990217,-6.590832846254543e-08,-0.0481892693590323,-0.0359942616322628,0.0055602250210746,14.06105899913564,12.04314805715604,42.3329998596308,12.900415048284152
1.13,31.222148256064383,131.01047725047417,25.349245439189108,11.572773358784191,-7.849733042190097,35.951157409642484,3.778467151727464,-1.9340890310840813,367.5328077900705,43.844002868643024,15.68472246562786,69.24896048618865,-1.466979961010891,112.13514702490664,1174.553416554171,15.288,0.0,10.686509684305957,0.1288785887195157,-6.82027854937735e-08,-0.0494477638010702,-0.0368749552736884,0.0057405873420957,13.95371319215707,11.973791741867991,42.61482340815805,36.20087338020638
1.14,31.222147602793267,131.01047871149677,25.71696319722518,11.504967136191414,-7.781598944664248,20.363529282788026,3.823740921902518,-2.009711990397179,239.69531773195544,44.07091530554462,15.765871000405095,69.21975433179757,-1.5213157417907046,112.07703714329593,1186.700644110911,15.288,0.0,10.71220661940928,0.1295461309793036,-7.050612699664438e-08,-0.0507263456279943,-0.0377667528852561,0.0059192922421295,13.860032997152048,11.915917129112852,42.85233890486243,20.816658275841096
1.15,31.2221469445818,131.01048018048192,26.087093364367625,11.408366241692836,-7.694782759646057,20.080007021517503,3.8796547577075615,-2.10081266987754,237.41251153546767,44.4041659558633,15.885660564314572,69.18977810666743,-1.5767914718145728,112.01769649317656,1204.6725941185357,15.288,0.0,10.73776103367479,0.130526264027614,-7.281658006501905e-08,-0.052022782934456,-0.0386680443685272,0.0061162607506022,13.732261684995349,11.829681993117289,43.19910242482725,20.558983848846058
1.16,31.22214628156108,131.01048165705333,26.459536028494096,11.34373936256131,-7.62928173341703,50.89807921739629,3.9243375934983895,-2.176168294815635,490.0437743845894,44.61623552290103,15.961374326639376,69.15901912672653,-1.6334109358383135,111.95712021414516,1216.16333653151,15.288,0.0,10.76318330950656,0.1311501948113802,-7.513192615112371e-08,-0.0533369442181387,-0.0395786633408364,0.006300488323443,13.642688494417802,11.77546456234978,43.42136900698548,51.095504714362626
1.17,31.222145612924724,131.0104831436253,26.83494057939388,11.264136117817424,-7.554225060966202,9.85610133052427,3.974773467677237,-2.2600471604878147,153.70937929486794,44.88343017060767,16.057067484348217,69.12746545595738,-1.691176053728899,111.89530541348748,1230.7291222517504,15.288,0.0,10.788505637122029,0.1319361770603478,-7.744926532984625e-08,-0.0546728742991091,-0.0405012846678924,0.0064967393283062,13.535476504341329,11.706620334081736,43.700250185024494,10.865052725345711
1.18,31.222144939747047,131.01048463703654,27.21245517322153,11.164716275292946,-7.466497492070566,25.26620345823697,4.033221148314876,-2.3557444437620982,280.02501822196746,45.22740082273907,16.18079494245887,69.09510453443774,-1.7500891843212527,111.8322486968224,1249.6198279156774,15.288,0.0,10.813650932230903,0.1329478554406868,-7.976715047929117e-08,-0.0560251731848096,-0.0414321543478334,0.0067082089747425,13.404897637213756,11.618229655573472,44.05788283298215,25.694307577916092
1.19,31.22214426155056,131.01048613872263,27.592466414662265,11.109580366913343,-7.407947695908595,43.38037737497287,4.074826884672696,-2.4275636519437422,428.4078130529292,45.39617767802568,16.24063834004776,69.06192342921646,-1.8101526889150787,111.76794663943282,1258.9177827883989,15.288,0.0,10.83867503886919,0.1334445544426259,-8.208260690299413e-08,-0.0573969502422245,-0.04237330201366,0.0068978539709443,13.327048900669318,11.574361322152052,44.23577929672663,43.638909480180054
1.2,31.222143577930023,131.01048764993484,27.975305837891423,11.019228184862332,-7.326720565876242,5.368619885907672,4.130519445952383,-2.519952121906317,117.1843741360236,45.70274949792688,16.35071077997379,69.02791019388822,-1.8713666780143177,111.70239819595784,1275.9318497238996,15.288,0.0,10.863589393802,0.1343463195898184,-8.439290336957973e-08,-0.0587900879459682,-0.0433259122783714,0.0071127305713941,13.207574555064474,11.495559961499454,44.55500490945843,7.227269821270978
1.21,31.2221428899566,131.01048916748874,28.3601212673809,10.930975987157328,-7.247150139065206,35.013029664186575,4.185859854871193,-2.612175255102581,359.92343213200894,46.0009567157386,16.457826702410088,68.99305159327625,-1.93373275510642,111.6356006897183,1292.589119033446,15.288,0.0,10.88835367676738,0.1352235071284897,-8.669639392902606e-08,-0.0601991626811281,-0.0442862470867722,0.0073304591887975,13.090759292064003,11.419096452687558,44.86561007100464,35.358975219216994
1.22,31.222142196825185,131.01049069383112,28.747564388258706,10.872862370830855,-7.187357688583999,25.618657965320697,4.228954926605007,-2.6870333138842204,283.0687504825761,46.17391435453772,16.519132983782985,68.957335015092,-1.9972508723816065,111.56755318419196,1302.2788560285524,15.288,0.0,10.913016421016357,0.1357325235175615,-8.898958845255049e-08,-0.0616290032999612,-0.0452574689185295,0.0075325069038912,13.009804328062634,11.373225527164736,45.04788547051805,26.10401968558233
