Time,Latitude,Longitude,Altitude,Angle of Attack,Angle of Sideslip,X-Acceleration,Y-Acceleration,Z-Acceleration,Thrust,True Velocity,Ground Velocity,Pitch,Roll,Yaw,Dynamic Pressure,cp,parachute_deploy_gain,Wind Speed,Mach,omega_x,omega_y,omega_z,Cmq,Angle of Attack(total),Angle of Attack(gust),True Velocity(gust),Acceleration
0.0,31.222216000000007,131.010392,3.000000004412624,0.0,0.0,0.0,0.0,0.0,2.2828121974499247,0.0,0.0,71.99999999612658,-1.0292491154817412e-14,119.99999999354436,0.0,15.288,0.0,0.0,0.0,0.0,0.0,0.0,-0.0,0.0,90.0,0.0,0.0
0.01,31.22221599999862,131.01039200000284,3.0000009727369523,0.0,0.0,0.0,0.0,0.0,34.24218696174923,5.916279387578309e-11,5.734623670548936e-11,71.99999999613168,-5.86671995824671e-13,119.9999999935449,2.1432944861733093e-21,15.288,0.0,0.0,1.7386402909615473e-13,-3.4220131069073734e-19,7.115076756936125e-19,5.488773498207866e-19,-1.1574302492039043e-31,0.0,89.99999999962336,5.916279387578309e-11,0.0
0.02,31.22221599999738,131.01039200000537,3.0000018317022668,0.0,0.0,0.0,0.0,0.0,25.871876237766408,1.2265415415436536e-10,1.1895038237325684e-10,71.9999999961369,-1.1836364828043265e-12,119.99999999354544,9.211895886571454e-21,15.288,0.0,0.0,3.6044858651615574e-13,-6.979551485375437e-19,1.4162390878091906e-18,1.0909784360635388e-18,-4.776231873571785e-31,0.0,89.99999999921916,1.2265415415436536e-10,0.0
0.03,31.22221599921969,131.01039200159065,3.0001883335529382,18.80143492628821,-0.0001350810307892,10.931161642028636,-1.75114298675875e-05,3.026590975169265,180.34219359854663,0.0798232026864394,0.0478175828508887,71.99999999765336,-5.341802909786072e-12,119.99999999436793,0.0039016003969354,15.288,0.0,0.0,0.0002345795854893,3.788270153300133e-17,-7.771883375645477e-10,1.1422790048099072e-11,1.7057759223764537e-13,18.80143492675591,89.51882325913425,0.079801984207741,11.342422482672777
0.04,31.222215995131297,131.01039200995308,3.001692634342189,9.19442604083399,-4.49173898918486e-05,52.29595764159784,6.445392950801871e-06,3.026413589912948,548.6359724538078,0.3504174083926908,0.1601447499964056,72.00000000319055,-3.111420077280171e-11,119.99999999870242,0.0751892535633216,15.288,0.0,0.0,0.0010297854387864,2.0082066977226968e-15,-1.520937588847922e-08,2.5623342884322286e-11,1.4654248781413086e-11,9.19442604094277,87.798916624545,0.3504103527855857,52.383455068075136
0.05,31.222215983575865,131.01039203366796,3.0074067499493786,5.158590039700252,1.707592688632746e-06,76.26884281015512,5.843947534199429e-05,3.0258124765658088,761.6984298824644,0.9592973585397016,0.3772700771701255,72.0000000004862,-1.3608731808076822e-10,120.0000000109612,0.5634958029902841,15.288,0.0,0.0,0.0028191251099456,2.086299069701397e-14,-1.0551247853743037e-07,3.973493515691201e-11,2.783064866637575e-10,5.158590039700515,83.94063169874748,0.959297626767734,76.32884071402438
0.06,31.222215961742712,131.0103920785344,3.019291017943491,4.109521257467909,3.140103977270004e-05,57.06876634333886,0.0001151069734147,3.024834864051463,590.4875390737208,1.6257536642597354,0.6118982818704327,71.99999992547217,-3.5903296759057166e-10,120.00000003412836,1.6184272268450337,15.288,0.0,0.0,0.0047776672697797,1.0694899894620088e-13,-3.741090980393931e-07,5.521401959501359e-11,1.6723176417636091e-09,4.109521257587776,79.78719176344794,1.6257585967235286,57.148873286519276
0.07,31.222215929936205,131.01039214392435,3.0371334573469446,3.649087515174788,5.707077112564807e-05,86.89643797254193,0.0001728541558773,3.0234947746384675,855.2937749779139,2.3057260079826607,0.8506307413593818,71.99999965378231,-6.907496536790437e-10,120.00000006788592,3.255354923652711,15.288,0.0,0.0,0.0067759305364855,3.495199904512709e-13,-9.036515915819006e-07,7.594816279105379e-11,5.728932851326001e-09,3.6490875156204896,75.6601668283889,2.305734972638426,86.94902215090157
0.08,31.222215886364623,131.01039223353447,3.0621840248716574,3.4254446680114707,8.413075603463509e-05,17.831756866644035,0.0002285946601282,3.021841001032126,241.2171988638848,2.961944911520492,1.0819695676346892,71.99999900671328,-1.141745983122182e-09,120.00000011415082,5.371998197385977,15.288,0.0,0.0,0.0087043901031071,8.800530155962314e-13,-1.829098470920821e-06,1.0943386634701918e-10,1.4896287129277132e-08,3.4254446690434226,71.81713637501419,2.9619581267487467,18.085991154451033
0.09,31.22221583454733,131.01039234010327,3.0919888289029,3.389560809024919,0.0001118726864415,54.09031716446879,0.0002748660999733,3.020060228038602,563.0937377043176,3.504225426410036,1.2780161667917422,71.99999774508822,-1.634190085504106e-09,120.00000016921716,7.519080503822694,15.288,0.0,0.0,0.0102980157586766,1.865782139518716e-12,-3.1503298654458527e-06,1.6284478329871028e-10,3.03536411425607e-08,3.389560810868955,68.76526501308032,3.504242999330529,54.17456206384468
0.1,31.22221577423132,131.0103924641528,3.1267248829165366,3.4447939461814814,0.0001419149103147,51.372195336549765,0.0003131602029306,3.0182021883815127,538.7437595981919,3.950569597142709,1.4443465951180965,71.99999562056465,-2.1287748602259068e-09,120.00000023339832,9.55649523509932,15.288,0.0,0.0,0.0116097108366932,3.485956000178229e-12,-4.949356763187612e-06,2.4573266549165286e-10,5.3761299442583966e-08,3.444793949101151,66.34639928474206,3.9505918890846927,51.460781166288626
0.11,31.222215706113143,131.01039260424562,3.165907002780892,3.4691423802630394,0.0001702373452339,40.591037561894986,0.0003534470100582,3.016051659024047,442.8656393052949,4.421478635995476,1.6182620895289603,71.99999235067894,-2.5564479031457968e-09,120.00000030601664,11.970509656144712,15.288,0.0,0.0,0.0129935974697161,5.942887149865172e-12,-7.273722517324353e-06,3.67769289312894e-10,8.842679949465076e-08,3.4691423844348632,63.88798785789768,4.421505376815134,40.70293476011277
0.12,31.222215630588888,131.0103927595646,3.2092596514826863,3.4852659299808075,0.0001974376474727,44.30042894095728,0.000394069215595,3.013641598889868,475.58594813540446,4.896982486381051,1.793579340340896,71.99998761802138,-2.8337988279882726e-09,120.00000038673312,14.683611096353944,15.288,0.0,0.0,0.0143909889875706,9.464337642181618e-12,-1.017558359402848e-05,5.395790443954697e-10,1.3700793350599625e-07,3.4852659355662303,61.5068242157714,4.897013499814194,44.40281567867803
0.13,31.222215548046687,131.0103929293088,3.256512891171917,3.5606043721293616,0.0002276507019012,48.86766833507025,0.0004268800875964,3.0112558910133567,515.9156326236895,5.278566579338586,1.939796541405244,71.99998107389406,-2.8573058577484587e-09,120.00000047523812,17.061052093156064,15.288,0.0,0.0,0.0155123760833565,1.4300406003001044e-11,-1.3705268062305584e-05,7.724776992181392e-10,1.989112774124932e-07,3.560604379397528,59.67313531776262,5.27860233862722,48.960358155653
0.14,31.222215458587108,131.01039311327068,3.30759734332425,3.6000732663755977,0.0002555702913645,45.540290862247225,0.0004629468001456,3.0085404980032777,486.2390860568404,5.70011779273801,2.098362647205908,71.99997235012626,-2.508533681468686e-09,120.00000057154703,19.894788765881632,15.288,0.0,0.0,0.0167512184495524,2.071534240530911e-11,-1.7917736259613292e-05,1.0787346240473087e-09,2.8081526258393346e-07,3.6000732754351943,57.72385750323359,5.700157937625502,45.639559681930805
0.15,31.222215362317904,131.01039331122794,3.3624387479639086,3.651605404442164,0.0002842753491325,44.01308509501,0.0004965057129938,3.005703619811542,472.54218587214,6.091938849578711,2.2476968067377374,71.99996103728932,-1.6446954747148112e-09,120.00000067569304,22.723773683610247,15.288,0.0,0.0,0.0179026934683374,2.9002783512213203e-11,-2.287326399669318e-05,1.47199345427166e-09,3.831202693354572e-07,3.651605415492516,55.98561718911576,6.091983503446133,44.115597174664394
0.16,31.22221525912812,131.01039352340948,3.421115382839859,3.67540086436193,0.0003108411545024,34.83804992586084,0.0005330990866742,3.002517946501868,391.1218908297564,6.521183188362317,2.4085903880902046,71.99994669525161,-1.0153513453738144e-10,120.00000078796704,26.03872642002185,15.288,0.0,0.0,0.019164148528834,3.9478358970291335e-11,-2.864207894220033e-05,1.9677461746207517e-09,5.135466997084602e-07,3.6754008774883777,54.15946979122355,6.521232015176687,34.96719658394182
0.17,31.2222151493826,131.01039374906244,3.4833737923187487,3.7139589864597298,0.0003384978477213,43.96471427482637,0.0005668629535037,2.999235483723449,471.78125980632376,6.916861975403744,2.559060925010733,71.99992884100092,2.3206494032971838e-09,120.0000009081849,29.29426197817256,15.288,0.0,0.0,0.0203269651395979,5.248754693205839e-11,-3.5267097947693114e-05,2.580363454062817e-09,6.706952682968329e-07,3.713959001863866,52.549031795895466,6.916915146521327,44.06689817851128
0.18,31.22221503253009,131.01039398932429,3.549599475912623,3.7380363034619775,0.0003650282082698,36.67395661481795,0.0006021794701355,2.9956556354306425,407.10156721191447,7.332140201215607,2.71556808256092,71.99990696207136,5.837017536380516e-09,120.00000103716444,32.917216366714264,15.288,0.0,0.0,0.0215473823438242,6.839750892601699e-11,-4.285557247677198e-05,3.331016495775474e-09,8.639362741436378e-07,3.738036321259578,50.93050624815799,7.332197539712479,36.796100973258795
0.19,31.22221490871209,131.01039424390297,3.619694897703461,3.747799769666444,0.0003901520189829,41.42208371271829,0.0006393759928961,2.991742733214697,448.9531328318269,7.771071983754382,2.879366399937307,71.99988049019642,1.0709144790974043e-08,120.00000117502664,36.97605053227239,15.288,0.0,0.0,0.0228373144884866,8.761416506509219e-11,-5.146771415177372e-05,4.238406957677133e-09,1.0996552116864756e-06,3.747799789945131,49.29705748437159,7.771133268690212,41.529983675580546
0.2,31.22221477769685,131.01039451327668,3.693822889232993,3.7700519460961166,0.0004166800650969,37.99697972290605,0.0006740224661302,2.987733789228414,418.51563019916136,8.179966026035371,3.0338260708461373,71.99984881140107,1.723179577184912e-08,120.0000013223286,40.969302182777255,15.288,0.0,0.0,0.024038975990988,1.1057590044953188e-10,-6.120032215177249e-05,5.3263847350253015e-09,1.376394225587184e-06,3.7700519690893857,47.8457752505109,8.180031477986942,38.11426270718793
0.21,31.222214639876928,131.01039479663547,3.771710975053407,3.7926098867321474,0.0004432924407074,36.46301043881366,0.0007080907240332,2.983530483977461,404.8187610144644,8.582757448615462,3.1863584283669346,71.99981127559042,2.5745201416596626e-08,120.00000147900325,45.103059028532826,15.288,0.0,0.0,0.0252227064089584,1.3774582723633048e-10,-7.20875523136271e-05,6.61341033873124e-09,1.7010673350603349e-06,3.792609912601061,46.47936953648762,8.582827080829217,36.584868250565684
0.22,31.22221449507626,131.01039509434258,3.8534832466471007,3.782921298925821,0.0004660920499522,44.14577847155813,0.0007479176313898,2.978724032883548,472.5421858721365,9.056569122268344,3.360845972992861,71.99976720416048,3.661811567390422e-08,120.00000164562512,50.21995530074818,15.288,0.0,0.0,0.0266151520780326,1.6960703048385348e-10,-8.421592474264931e-05,8.124635526119773e-09,2.0969540034515424e-06,3.7829213275976334,44.9464484092354,9.056642335836344,44.24615863872642
0.23,31.22221434283448,131.01039540734791,3.9394622486964206,3.813874679301352,0.0004940771488601,36.66675459308932,0.000779455230549,2.974212905336642,406.3406421461021,9.430647902846331,3.5044030163419806,71.99971583979395,5.0272885112871524e-08,120.00000182313076,54.45382429059888,15.288,0.0,0.0,0.0277145095638672,2.0669790509245914e-10,-9.77285871729516e-05,9.894576563683824e-09,2.5339062472561444e-06,3.813874711257219,43.79476959007253,9.430725512303388,36.78718303164376
0.24,31.222214184153326,131.01039573358457,4.028950821673608,3.829256049377765,0.0005200487408944,37.802126339316736,0.0008136255607606,2.9692962675112065,416.2328240017114,9.837806876534357,3.658163422426286,71.9996564062533,6.718950080713476e-08,120.0000020109434,59.25679777340223,15.288,0.0,0.0,0.0289110855155543,2.4956955046738006e-10,-0.0001125744417092,1.1934277804843484e-08,3.0448209172448607e-06,3.829256084638984,42.59361542722471,9.83788856559955,37.91856374864305
0.25,31.22221401888584,131.01039607335582,4.122052964664892,3.851417709838087,0.0005469594058717,38.85163035360012,0.0008459008130282,2.964283881833675,425.36408079150686,10.22297576958679,3.8050691648373967,71.99958811418384,8.786880969336211e-08,120.00000220974424,63.98709205399403,15.288,0.0,0.0,0.0300430411774988,2.987811646313829e-10,-0.0001288461362054,1.4273117985167728e-08,3.621333387698252e-06,3.8514177486178034,41.50703126619192,10.223061685769354,38.96455005232871
0.26,31.222213847358866,131.0103964259872,4.218542267117083,3.8780574625554745,0.0005745172425185,42.3164797140743,0.0008766626387865,2.959162938653076,455.8015834241788,10.590779679138215,3.946551912391076,71.99951013710364,1.1286401474734325e-07,120.00000241975916,68.67355887153568,15.288,0.0,0.0,0.0311239685467471,3.5491769188178554e-10,-0.0001465721578858,1.6932703957058654e-08,4.267712643344226e-06,3.8780575050466,40.51245375834074,10.590869924095635,42.41981967733593
0.27,31.22221366913008,131.0103967923915,4.318728802515264,3.886188503202341,0.0005994342651313,38.70936050721014,0.0009111181036949,2.953518013741325,423.84219965987256,11.004860953238978,4.102320296019413,71.99942161756776,1.4276417094868828e-07,120.0000026420792,74.14786134434608,15.288,0.0,0.0,0.0323408987462391,4.1858405402174807e-10,-0.0001658847815307,1.995072923688136e-08,5.018832267232506e-06,3.886188549362022,39.43841359495857,11.00495511215316,38.8218734782956
0.28,31.22221348431185,131.01039717233687,4.422535913956003,3.90556090261878,0.0006261175699806,44.68030766832924,0.0009425767186621,2.947879457547137,476.3468732012221,11.38358114165448,4.247086834352694,71.999321619057,1.7823531611327881e-07,120.000002877279,79.33831935330025,15.288,0.0,0.0,0.033453914386159,4.904408325040897e-10,-0.0001868529238516,2.3357766479368094e-08,5.847713054408178e-06,3.9055609527288775,38.49894431917428,11.383679491972384,44.77744842575601
0.29,31.222213292835256,131.0103975659655,4.530013412817602,3.9242599519377537,0.0006528240665589,35.802573724660256,0.0009737210635801,2.942037024315898,397.97031042211177,11.759725774384751,4.391004157029451,71.99920917567837,2.1999186079018322e-07,120.00000312617878,84.66717879828003,15.288,0.0,0.0,0.0345593650464213,5.711677680739745e-10,-0.0002095620322847,2.7188189988316943e-08,6.77505090435382e-06,3.9242600061534456,37.60352534239979,11.759828319749328,35.92324968749781
0.3,31.222213095024976,131.0103979726075,4.64093665799555,3.936939025755682,0.0006785438093183,33.570228713727204,0.0010059102294455,2.93586442972183,378.1859457108711,12.149968255527943,4.539237002744259,71.99908328532703,2.6880857935396905e-07,120.00000338923812,90.3787563598417,15.288,0.0,0.0,0.0357062504417728,6.614698865958865e-10,-0.0002340353597042,3.1467140861055e-08,7.817263716758327e-06,3.9369390841381695,36.71173884615234,12.150074840940263,33.698361337808635
0.31,31.22221289105846,131.01039839189684,4.755183729044857,3.9598342215431432,0.0007060286581592,35.396825578217346,0.0010350810412898,2.9297385597941448,394.1656220930212,12.504537499407316,4.6763673222047455,71.99894291513503,3.255120771695107e-07,120.00000366712923,95.72967338626896,15.288,0.0,0.0,0.0367483036680869,7.620720834468404e-10,-0.0002603234137215,3.622454560346964e-08,8.948994505138873e-06,3.9598342843844345,35.934338386209795,12.504648402129598,35.5178635353378
0.32,31.222212681031937,131.01039882363492,4.872689374180126,3.985461429033668,0.0007340760463279,38.52097867048992,0.0010630242168685,2.9235095146848846,421.55939346242695,12.84534566718622,4.809181081594425,71.99878701464397,3.909756427278764e-07,120.0000039606604,101.01782231644016,15.288,0.0,0.0,0.0377499198995686,8.737098716736534e-10,-0.0002884807530145,4.1491545539590986e-08,1.0187112828155184e-05,3.98546149652875,35.21473736963424,12.845460975581933,38.631757748577954
0.33,31.22221246496604,131.01039926777932,4.9934410812554,4.010606629086,0.0007621365968788,38.18822026147908,0.0010905599149574,2.917102431053817,418.5156301991682,13.18247167592885,4.940798912752974,71.99861449732019,4.661299779655886e-07,120.000004270781,106.38859400029033,15.288,0.0,0.0,0.0387407190563976,9.971421990244511e-10,-0.0003185760672934,4.7302669734505256e-08,1.154498667827874e-05,4.010606701382261,34.52805863348922,13.182591392065536,38.299473293007864
0.34,31.222212242662028,131.01039972474007,5.117579377337869,4.019339771238816,0.0007871574969313,29.898022638335373,0.0011220389395318,2.910051232417875,345.46563688075645,13.569536737955724,5.0878303926024735,71.99842423285973,5.519675040347761e-07,120.0000045987411,112.72655675097128,15.288,0.0,0.0,0.0398782837956187,1.1331556132162459e-09,-0.0003507224668667,5.37022358302301e-08,1.308298593306914e-05,4.019339848191799,33.76700548046532,13.5696603843662,30.039310197084795
0.35,31.22221201433324,131.01040019407705,5.2449575244483055,4.033762873683395,0.000813261106463,32.76415525156106,0.0011515840876071,2.902959820469776,370.5765700527033,13.934300103976534,5.227895396154902,71.99821502296155,6.495674834876441e-07,120.000004945438,118.8669740701126,15.288,0.0,0.0,0.040950312688979,1.2825853697215452e-09,-0.0003849609961885,6.072234695821837e-08,1.4746020857580124e-05,4.033762955530055,33.07785186209504,13.934427850732408,32.89250745069162
0.36,31.22221177990305,131.01040067594835,5.375631006350063,4.051723629010647,0.0008401329464575,37.01692984301412,0.0011797030485285,2.8957873473716007,407.8625232777193,14.282998147928636,5.362923567977223,71.9979856440668,7.600645476620651e-07,120.00000531213882,124.88900300695136,15.288,0.0,0.0,0.0419751331662584,1.4462801652534363e-09,-0.0004213876232777,6.84067806399068e-08,1.654507199147348e-05,4.051723715967022,32.44322602189087,14.283130115703262,37.13002398000203
0.37,31.222211539445663,131.01040117020102,5.509550188388412,4.071639898917391,0.0008674922629137,35.12417761390579,0.0012067983861697,2.88849906286036,391.1218908297666,14.620581431527652,5.494447309446232,71.99773482653193,8.846681943540367e-07,120.00000570002652,130.86067091914967,15.288,0.0,0.0,0.0429672939311924,1.6251202388969355e-09,-0.0004600660652957,7.679415042686734e-08,1.849041957573993e-05,4.071639991174516,31.85023865502424,14.620717696893658,35.24274792557624
0.38,31.222211292895075,131.01040167697127,5.646763233102716,4.08264881385344,0.0008930259828975,36.695642158537446,0.0012360471443664,2.880711738179021,404.8187610144602,14.986392916850402,5.634654729559426,71.99746126698146,1.0246533537040716e-06,120.0000061105033,137.4891296153862,15.288,0.0,0.0,0.0440424171304414,1.8200057922063743e-09,-0.0005010869196581,8.592980519823866e-08,2.0642694281337543e-05,4.082648911356968,31.228847973200924,14.986533193043764,36.808540518115166
0.39,31.22221104018777,131.0104021963902,5.787316652586672,4.096641430700089,0.0009192713382325,31.335681548387896,0.0012640110027448,2.872831219844713,357.64062493382744,15.337978856701952,5.770390286512262,71.99716358743511,1.1813915463769678e-06,120.00000654506955,144.01394309468844,15.288,0.0,0.0,0.0450757388736732,2.031886352449547e-09,-0.00054455673306,9.586443829735616e-08,2.295945663566148e-05,4.096641533664766,30.65298398882095,15.338123255506089,31.4670954954126
0.4,31.222210781536543,131.01040272801887,5.931064331106764,4.109028969993624,0.0009451871856381,29.95928076777898,0.0012920492774571,2.8646905607053603,345.465636880754,15.692185018814769,5.906873567965718,71.99684037970908,1.3563276523471372e-06,120.00000700500496,150.74021066990193,15.288,0.0,0.0,0.0461167659598875,2.2617341782092324e-09,-0.0005905037520737,1.0663253249436129e-07,2.5471259834659164e-05,4.1090290785164525,30.09246700352443,15.692333488470696,30.095929256306363
0.41,31.222210517064383,131.01040327160345,6.077922766619747,4.122888296344507,0.0009714525997821,33.78425365340317,0.0013192264430821,2.85640971467756,378.94687077668647,16.03742529732769,6.0405139809190125,71.99649020751959,1.5509747261474075e-06,120.0000074917568,157.44375780268788,15.288,0.0,0.0,0.0471314487675864,2.5105374204052982e-09,-0.0006389770219162,1.1827345344180344e-07,2.816813594418537e-05,4.122888410595805,29.56469007160549,16.037577892745222,33.904791300285986
0.42,31.22221024682894,131.0104038270252,6.227854084363214,4.14444025865494,0.0009995884754813,38.04468161607466,0.0013435485656724,2.8482703202464488,416.2328240017114,16.348862540904037,6.163613566771559,71.99611159893284,1.766920641656551e-06,120.00000800692096,163.6157044470786,15.288,0.0,0.0,0.0480467946810589,2.779304965995011e-09,-0.0006900467934588,1.308321832549104e-07,3.100973487310896e-05,4.144440378988911,29.104646754454564,16.34901955589459,38.15115260238947
0.43,31.222209970843565,131.0104043942566,6.380851271439565,4.1618082623168045,0.0010268052928652,33.45815353250911,0.0013687230309017,2.8397750580998298,375.9031395134336,16.67263197205097,6.290467308135904,71.99570306121484,2.005818691215035e-06,120.00000855220898,170.15779512382937,15.288,0.0,0.0,0.0489983878509763,3.0690566816849196e-09,-0.0007437862329608,1.443552931671376e-07,3.4086145072160934e-05,4.161808388761201,28.640125213458976,16.672793262249197,33.57845085853367
0.44,31.22220968892116,131.01040497368373,6.537047157143216,4.164954087655709,0.0010505545842624,30.86574023822051,0.0013980747538988,2.830419582421933,353.0750125389216,17.050421620730056,6.433992917638883,71.99526304125902,2.269416145406482e-06,120.00000912964636,177.9537948947602,15.288,0.0,0.0,0.050108743779844,3.380847125286677e-09,-0.0008003278134917,1.589055036683518e-07,3.750784460406397e-05,4.164954219916419,28.113519280259386,17.050586641458253,30.99524475496968
0.45,31.22220940081287,131.01040556582012,6.696617751072218,4.165241899529329,0.0010735835484822,35.912216710755274,0.0014280646808282,2.820677244966047,397.2093853562869,17.438293672974723,6.580571293039616,71.99478987454265,2.5595995397253085e-06,120.00000974147088,186.13940823302417,15.288,0.0,0.0,0.0512487363629523,3.7158016249566814e-09,-0.000859850913876,1.745604864109677e-07,4.121350642664912e-05,4.1652420376426775,27.591357195572936,17.43846231108416,36.02281959036367
0.46,31.222209106468902,131.0104061707686,6.859600379555308,4.174585124444534,0.0010989881252456,41.916816790010685,0.0014546917035209,2.811153314474766,449.7140588976434,17.786187321601275,6.714685486378061,71.99428180697711,2.8783880229668832e-06,120.0000103898448,193.6374175079873,15.288,0.0,0.0,0.0522712438446989,4.0751091178509895e-09,-0.0009224765531151,1.9138630415982226e-07,4.50966024037632e-05,4.1745852688465686,27.13985967570823,17.786359950252297,42.01097612387663
0.47,31.22220880579083,131.01040678873238,7.026066274755745,4.1823089530633855,0.0011240727220223,28.37640408484148,0.0014814747534716,2.801325368441072,331.0078106302534,18.138167428286582,6.849989708801916,71.99373704967608,3.2278903746588286e-06,120.00001107707628,201.37401505997488,15.288,0.0,0.0,0.0533057667609836,4.459978104761035e-09,-0.0009883252835099,2.094509673354327e-07,4.927107017839778e-05,4.182309103852639,26.69716826759888,18.13834399721685,28.514342615617974
0.48,31.222208499300592,131.0104074186346,7.195654207463586,4.189479568102716,0.0011490100608361,27.95074823096412,0.0015080719422187,2.7912412472910484,327.2031223011574,18.48995085190441,6.98515976370584,71.99315377257649,3.6103201777021456e-06,120.00001180491516,209.25751230436188,15.288,0.0,0.0,0.0543397174489847,4.8716620260348906e-09,-0.0010573190976925,2.2877013380347535e-07,5.373205427420879e-05,4.189479725385959,26.268461765425428,18.4901313379827,28.089773168283216
0.49,31.222208187201936,131.01040806005494,7.368224738812109,4.202723284133339,0.001175611380853,35.08821363242469,0.0015321405723077,2.781292092003844,389.60000969812296,18.812014261754847,7.111044804193205,71.99253015042137,4.027946338669921e-06,120.0000125755114,216.60722913930897,15.288,0.0,0.0,0.0552863302793499,5.311396446020465e-09,-0.0011294854492155,2.4938633613154685e-07,5.8398320167141767e-05,4.202723448262914,25.88860807032205,18.81219892635871,35.1982716047702
0.5,31.22220786953184,131.01040871291724,7.5437546994244835,4.220815778795054,0.0012036252596423,36.05491615971072,0.0015540388599792,2.7714444106710974,397.97031042210494,19.10875420627192,7.229005658018125,71.99186435180009,4.483102820610566e-06,120.00001339126192,223.4908652241728,15.288,0.0,0.0,0.0561585257949344,5.7804122391526605e-09,-0.0012048912160576,2.713531252030471e-07,6.327866493526626e-05,4.220815950099865,25.54902500917784,19.108943271285572,36.161276053538906
0.51,31.222207546379583,131.0104093770373,7.722184419225251,4.232567510615346,0.0012298790840397,27.54004661432325,0.0015777580800203,2.761017323676155,323.3984349720841,19.430597746636646,7.354673636736509,71.99115452520388,4.978202222778502e-06,120.00001425458936,231.07869697977367,15.288,0.0,0.0,0.0571045034845869,6.2799518101633574e-09,-0.0012835871653678,2.947201005874635e-07,6.854585242460463e-05,4.232567688976395,25.189423168613605,19.430790935591396,27.678103017910345
0.52,31.22220721784796,131.01041005266285,7.90352849407401,-8.565070318728107,13.465353438526456,33.34387352959073,-0.7195897815693885,3.44046293644524,372.0984511843415,19.06521558027168,7.487142501479338,71.99041218662626,0.0001040289240623,120.00011875659165,222.46590793219,15.288,0.0,6.285726963234096,0.0560307979676525,6.8318841948672565e-09,-0.0012458759589132,0.0001777227933099,6.527977041063204e-05,15.915984598620843,39.03030534195784,21.160931572352112,33.52862205084089
0.53,31.22220688392047,131.010410740865,8.087892790755102,-8.364486329961366,13.27580322706516,35.00678976590666,-0.738378344709058,3.4479620283809504,386.5562464348624,19.375182669250965,7.6214648310991935,71.98973742827093,0.0006107457223349,120.00065193467256,229.75445899774152,15.288,0.0,6.309908175682926,0.0569418792564995,7.458588582935327e-09,-0.0010964843185254,0.0004228740808928,5.8385181527521805e-05,15.650981752684398,38.48056404929317,21.441931241500797,35.183930628107476
0.54,31.222206544483544,131.01041144192868,8.275349807792937,-8.171007395957828,13.092697975937748,30.749282392988352,-0.7573929971407088,3.455439307438533,349.2703242098436,19.68364404927502,7.755239890282081,71.98914896776265,0.0015545719586862,120.00164475235184,237.1240073052958,15.288,0.0,6.334032989585816,0.0578485412043123,8.15501475698218e-09,-0.0009443899911952,0.000674513250603,5.108618425778375e-05,15.39533614938128,37.94802931140346,21.72238864993265,30.952093186782257
0.55,31.222206199841057,131.0104121552557,8.465693451815083,-7.986556149550735,12.91933400914019,32.586294130679235,-0.7764027998670595,3.4627591438717564,365.2500005919907,19.98498651102292,7.886670058205226,71.9886482911075,0.0029467197590692,120.00310900170976,244.435512122847,15.288,0.0,6.35807166387281,0.0587342869653205,8.923333756868694e-09,-0.0007898225536057,0.000932372979695,4.337825123397297e-05,15.15282750942966,37.44142531262681,21.997197770000803,32.77895769189815
0.56,31.22220585000172,131.01041288085602,8.658923255920659,-7.812250441187251,12.75784451588513,30.416008436196865,-0.7952228589824167,3.4698184584835725,346.2265619465787,20.27486831659204,8.014377103778225,71.9882368082514,0.0047982329549489,120.00505629757076,251.57333601968983,15.288,0.0,6.38202265799216,0.0595863564405944,9.765684642733605e-09,-0.0006327837229466,0.0011965523525669,3.5256884486926127e-05,14.925837120818649,36.96648356834047,22.262347043309298,30.623611621118116
0.57,31.222205495050112,131.01041361858236,8.854985802203165,-7.639735827444518,12.595425799016065,30.074708824538583,-0.8146411687706497,3.47707055675423,343.1828296833023,20.57253511958595,8.14452606138643,71.98791588992191,0.0071201719629601,120.00749827145825,259.00966669660954,15.288,0.0,6.405874449350439,0.0604613111514654,1.0684228673768677e-08,-0.0004733493959576,0.0014670301259923,2.6760366353848392e-05,14.699182805814951,36.49010135990558,22.535123076227748,30.285999583492075
0.58,31.222205134970668,131.010414368494,9.053897489640471,-7.464080607539008,12.424191887593889,39.58569474561754,-0.8352354512859458,3.484834013763667,426.1250058573153,20.891385354141185,8.281390660504066,71.98768688873861,0.0099237224656227,120.01044668601584,267.09547663304386,15.288,0.0,6.42962616506377,0.0613985285393685,1.1681151775937398e-08,-0.000311517660572,0.0017439138138311,1.788397411976774e-05,14.463612816988498,35.99166153328704,22.82771453250688,39.74756489215133
0.59,31.222204769344657,131.01041513148303,9.255955855395976,-7.30358070188609,12.273521706635364,32.09512577265291,-0.8549983422819369,3.4919751174270703,360.68438819711065,21.18300258913063,8.409514737089465,71.98755126052981,0.01322082646273,120.0139140988557,274.59881925861674,15.288,0.0,6.453313639196349,0.0622557160117581,1.2758732863079905e-08,-0.0001469508046812,0.0020278796027601,8.553919947473536e-06,14.253502356248209,35.54779570406955,23.096212132481416,32.29585129313738
0.6,31.222204398404184,131.0104159070986,9.46100494856106,-7.133903650761425,12.104297453890805,28.52617088804117,-0.876695857697051,3.5000375113101123,329.4859594986058,21.513078659262863,8.549859145390737,71.98751045014889,0.0170236126441955,120.01791326238568,283.21757907467565,15.288,0.0,6.476913587290651,0.0632259382506262,1.3919356669824656e-08,2.015469921529364e-05,0.002318712955685,-1.1914505690249687e-06,14.023067948491583,35.05631875500982,23.400305765309703,28.753456900713847
0.61,31.222204022105668,131.0104166954589,9.66908098327238,-6.967212775726654,11.936102776633968,33.42028939096953,-0.8990001365463673,3.50826739773631,372.0984511843297,21.84941634938642,8.692139102749481,71.9875659160171,0.0213445281859842,120.02245726333798,292.13667321662854,15.288,0.0,6.500429273729638,0.0642145698239774,1.516544394712893e-08,0.0001898327990456,0.0026165867252342,-1.1397236416911024e-05,13.795203879455372,34.568338019155384,23.71080278427937,33.61594687578621
0.62,31.222203640577607,131.0104174963272,9.880100373549949,-6.82564697425288,11.806071167822664,41.546506148901166,-0.9189484040515304,3.5150503954766683,442.86563930529206,22.123378100053657,8.814514862028133,71.98771912645033,0.026196332881303,120.02755951605576,299.50252064905266,15.288,0.0,6.523859932029792,0.0650198873505836,1.6499493379052683e-08,0.0003620178179341,0.0029215038200557,-2.2007010631034303e-05,13.612894817833038,34.18168782398946,23.9647760598486,41.7050622662613
0.63,31.22220325363361,131.01041831011403,10.094198533445052,-6.681617582248262,11.66883338395096,23.567453287582808,-0.9399912977921228,3.522279112491375,286.11251274707894,22.4156883894228,8.942701773508189,71.98797141927132,0.0315913497574651,120.03323297495244,307.4629792878543,15.288,0.0,6.547189256718392,0.0658791368857282,1.7923912668935582e-08,0.0005368091342903,0.0032337616269272,-3.306303481608482e-05,13.423344598621794,33.77727118765585,24.23597985490425,23.847743881730526
0.64,31.22220286189584,131.01041913556298,10.310947838944148,-6.5317576391723255,11.518438395392952,23.135213937736047,-0.9627208336372868,3.530255413970928,282.30782441796754,22.739250370328904,9.080772367388526,71.9883241106853,0.037542053527705,120.039490752023,316.39667993450644,15.288,0.0,6.570424443582505,0.0668302407176088,1.944125655254153e-08,0.0007136991794657,0.0035525869760352,-4.459159823218511e-05,13.21973824414034,33.33912053527347,24.536399839493612,23.42280210897506
0.65,31.22220246535089,131.01041997272685,10.5303631588385,-6.399936873883094,11.395798158362284,40.87730211493703,-0.9836367649916972,3.53710541255522,436.7781447787475,23.014392011785898,9.20341943744275,71.98877837983596,0.0440606624775278,120.0463456917234,324.0928820573408,15.288,0.0,6.593508699964537,0.067639044396094,2.1053957132380504e-08,0.0008927227148686,0.0038781519575634,-5.6450609931103857e-05,13.04919274535166,32.97555972383897,24.792661068167064,41.041838216395796
0.66,31.22220206347336,131.01042082271226,10.752815621581988,-6.268016116781905,11.270088258146552,34.76828653119162,-1.00535231907455,3.544229476152232,383.51251517160017,23.30037949327893,9.32948397208174,71.9893355059338,0.0511595324642699,120.05381077496352,332.1904875562814,15.288,0.0,6.616514656925292,0.0684797303087003,2.276438799453496e-08,0.0010742648647387,0.0042112714339752,-6.877294723045626e-05,12.876121499832644,32.60503061395919,25.0592871084488,34.96292385056112
0.67,31.222201656464566,131.01042168513018,10.978170760221484,-6.131446922722789,11.133221896727733,23.93423935475179,-1.0286779374224335,3.5520391729661287,289.1562440103425,23.61476927661728,9.464518295181447,71.98999675736006,0.0588519322663778,120.06189994818602,341.2080104830952,15.288,0.0,6.639444779172219,0.0694038971850817,2.457521772867866e-08,0.0012581510197547,0.0045517598103523,-8.163010450448345e-05,12.69127906740188,32.20594882743624,25.3525875432068,24.218236394828068
0.68,31.222201244507964,131.01042255962798,11.206306572727042,-6.0003954455672055,11.00310108173982,29.885715553997844,-1.0519715287753506,3.559665188940037,340.8999924858462,23.920801082703047,9.596858584922936,71.99076338938526,0.0671511261115069,120.07062714922893,350.10130535296594,15.288,0.0,6.662218317644396,0.0703035067769987,2.6489116224545463e-08,0.0014442424549488,0.0048994902808346,-9.491616542778704e-05,12.51514893817542,31.825997019428115,25.638560205649757,30.11534251057381
0.69,31.22220082769315,131.01042344604528,11.437166198233,-5.879792292198058,10.88878103569164,36.80272720166735,-1.074278516005986,3.5666268191009145,401.0140726853634,24.197932396925097,9.720009022444208,71.99163653744795,0.0760702368657479,120.08000616855225,358.25245987965286,15.288,0.0,6.684896994447419,0.0711181840922684,2.8508732293003663e-08,0.001632451617797,0.0052544280139056,-0.0001085258778449,12.357993381749637,31.48921346244368,25.898060874061,36.99075060980823
0.7,31.222200405882205,131.01042434468863,11.67085089114336,-5.761441681245799,10.775868535205042,30.85931790063765,-1.0969693298344,3.57363257575036,349.27032420985284,24.476268842119747,9.843511429494296,71.99261738532763,0.0856222609920289,120.0900506548968,366.5332238328373,15.288,0.0,6.707489882408878,0.0719364098565297,3.063663968294551e-08,0.0018228677238771,0.0056168708179796,-0.0001225759743345,12.203318524560958,31.157329773258247,26.15897710356737,31.08491101466557
0.71,31.22219997913679,131.01042525545412,11.90732311582829,-5.640954160643815,10.65644832675014,25.350206513010093,-1.12088443566324,3.581096188225244,301.33126406340574,24.77365984894212,9.97300412289282,71.9937070060591,0.0958205849753481,120.1007746730158,375.4856946175196,15.288,0.0,6.729932738094432,0.0728106442401594,3.287554611432081e-08,0.0020154164825152,0.0059868144603772,-0.0001371671446743,12.042103498764478,30.80933864120847,26.437936771750174,25.6264239034574
0.72,31.2221995474642,131.01042617834952,12.146583206948543,-5.517720635886625,10.529141024327105,31.04628697606692,-1.1462833178483696,3.5891353316689845,350.79220534145287,25.094734779765403,10.109936726283038,71.99490647212237,0.1066789204378295,120.11219262803976,385.27275371520784,15.288,0.0,6.752275279865955,0.0737544936672774,3.5228207915257685e-08,0.00221008677168,0.0063643743803452,-0.0001523621452582,11.872840749605372,30.44131053424297,26.739355108249853,31.274075411978444
0.73,31.22219911086645,131.01042711339431,12.388635336540746,-5.409720286233521,10.427500612800731,39.2853144390377,-1.1694082379606456,3.5958839887126546,422.320318528234,25.360172467231905,10.229260598587496,71.99621696708991,0.1182115020787949,120.12431946850288,393.4571007597543,15.288,0.0,6.774531406741374,0.0745348298704658,3.769746392968249e-08,0.0024068877795332,0.0067497057035308,-0.0001676807058433,11.73344923817345,30.1431078512236,26.98909340560433,39.46687000335033
0.74,31.22219866928128,131.01042806073735,12.633527911364716,-5.299855358156655,10.319940855815368,24.573098762903044,-1.1937312660506147,3.603065506160932,294.48281347105944,25.64360198730325,10.3542329405465,71.99763954875921,0.1304321256647326,120.13716967934197,402.2914697945845,15.288,0.0,6.79667442785524,0.0753680518020455,4.028608410443427e-08,0.0026058159114109,0.0071429486054011,-0.0001835640346387,11.588143294856865,29.830236127848043,27.255903651201823,24.864518056632843
0.75,31.22219822309449,131.01042901960767,12.88099815675696,-5.189642365146261,10.209258315670304,28.69579690395392,-1.2189883008550424,3.61053583284746,330.24688556441487,25.9389718701222,10.482927149677632,71.99917511622046,0.1433547816619627,120.15075795605937,411.6024622554879,15.288,0.0,6.8186686203873785,0.0762363740795897,4.2997025322593295e-08,0.0028065340357787,0.0075435867117465,-0.0001999758659882,11.440085182349558,29.51017230926274,27.534165820795877,28.947722905798106
0.76,31.22219777219299,131.0104299902579,13.131129755123188,-5.085792374005858,10.108341889403588,30.89187990529504,-1.24361314222296,3.617536951238179,349.27032420986166,26.21397730094415,10.605161395413171,72.00082462474799,0.1569933888768932,120.16509890963243,420.36626291440734,15.288,0.0,6.840560925905653,0.0770448508655124,4.583306048576124e-08,0.0030091309580624,0.0079519361225241,-0.0002166796325213,11.303751835416614,29.21747340550693,27.793567853845413,31.1278234273496
0.77,31.222197316519804,131.01043097282448,13.383967293685272,-4.984926453189496,10.010904004927545,28.87964981337533,-1.2683303029587358,3.624422983163005,331.7687666960708,26.483621208403527,10.725671128990143,72.00258896570762,0.1713620875218929,120.18020738427175,429.04832032542026,15.288,0.0,6.862353734257626,0.0778375766265778,4.879703494303005e-08,0.0032136304291221,0.0083681932237919,-0.0002337797211596,11.172026561121047,28.93527194484896,28.048141554946557,29.133816726640426
0.78,31.22219685614736,131.01043196717805,13.63946546155431,-4.882463838300949,9.908029810817869,23.70829254525988,-1.2942973819889056,3.6317378839191554,286.8734378128899,26.771179499059368,10.851780798079972,72.00446898371298,0.18647513880959,120.19609834954524,438.40533145865606,15.288,0.0,6.884022795772128,0.0786829612927676,5.1891877776262884e-08,0.0034199326165169,0.0087923094579237,-0.00025148259724,11.03491262323005,28.63956603407224,28.319783924207044,24.019738990716412
0.79,31.222196391173085,131.010432973138,13.897561659644566,-4.78000457083205,9.802799790776753,33.71430049706222,-1.321170159440383,3.639305430669999,373.6203323159534,27.069195180956605,10.981132207037165,72.00646550121546,0.2023470417737762,120.21278702277816,448.2091701886536,15.288,0.0,6.905549402205687,0.0795590884897145,5.512057318109025e-08,0.0036279367377857,0.0092242312796987,-0.0002697411262537,10.895863756679056,28.33863973302643,28.601514044266683,33.93588208097897
0.8,31.22219592136564,131.01043399119695,14.158421360538552,-4.685976277092081,9.71218322435118,34.158329781907405,-1.3465929168848552,3.646028835907499,377.42502064505743,27.330987447962407,11.099052269693782,72.00857934463146,0.218992765467961,120.23028911400289,456.90910917235055,15.288,0.0,6.926983967316302,0.0803287587229843,5.848603832664632e-08,0.0038378365163759,0.0096645147232433,-0.0002880998494567,10.77376748114192,28.07830405567036,28.849278206365614,34.378748264670946
0.81,31.222195446837528,131.01043502114229,14.421971348446643,-4.589601005660732,9.614603189569904,22.2229162528626,-1.3735469088823276,3.65329483298485,273.9374926939919,27.61554185399136,11.224085541077988,72.01081128020209,0.2364272571337672,120.24862030710368,466.4609767105088,15.288,0.0,6.948315475256488,0.081165336561899,6.199137610925841e-08,0.0040494803907512,0.0101130118639402,-0.0003071447634043,10.644569395013818,27.800213300876635,29.118722266133503,22.563049462104157
0.82,31.22219496779293,131.010436062574,14.688074983091564,-4.49338143002112,9.51505254106193,28.548138755138503,-1.4013933260786864,3.660794850107441,328.72500443277005,27.909653449635087,11.352068916005251,72.01316197300493,0.2546655595661623,120.26779638701106,476.4375344908351,15.288,0.0,6.96953430655728,0.0820300115317921,6.563974958972292e-08,0.0042626718144873,0.0105694722169773,-0.0003267499191421,10.513832468377252,27.517826217882096,29.397413871736376,28.815994665664274
0.83,31.222194484217408,131.01043711553896,14.95674710061556,-4.406226639215031,9.432193168316354,36.28221342973156,-1.4272607077348487,3.667222764763298,395.68750322465047,28.15842533438823,11.46577153751183,72.01563216744238,0.2737228797323936,120.28783330152542,484.95629866055424,15.288,0.0,6.990631247977398,0.0827614345316241,6.94342231084743e-08,0.004477418761375,0.0110340745073262,-0.00034626135263,10.402179080061876,27.28185730445122,29.63334775020532,36.49499427722705
0.84,31.22219399600056,131.01043818027745,15.2280685563374,-4.319052796245916,9.347355009079578,22.403323296886025,-1.4539112228259947,3.67383794165962,275.4593748256452,28.415370416617456,11.581998968198734,72.01822234769418,0.293614207530422,120.30874677767252,493.8342444164064,15.288,0.0,7.01159880094371,0.0835168866727507,7.337782006465023e-08,0.0046937555993935,0.011507066172689,-0.0003662945186617,10.288897401396442,27.041682740769648,29.877145042527854,22.74906235013288
0.85,31.222193503460783,131.01043925615477,15.501823460856093,-4.227604021230148,9.251341655908304,24.42647716301961,-1.4829092825342811,3.681326783688321,292.96093233939376,28.709232136256908,11.70974878443574,72.020933048801,0.3143545471379767,120.33055254719748,504.0879254446538,15.288,0.0,7.032445892395323,0.0843808494297188,7.747380256344988e-08,0.0049113655290286,0.0119879322904211,-0.000387230041257,10.163872783353726,26.77214693718981,30.1561232326376,24.74679723568377
0.86,31.222193006414752,131.01044034356005,15.778143237725004,-4.141981218226442,9.165694836836792,30.583035321062507,-1.5107856588332331,3.688138857738674,346.2265619465587,28.97458053794295,11.82850763507872,72.02376478521724,0.3359595050983473,120.35326697541296,513.435544467399,15.288,0.0,7.053186963837089,0.0851610147026854,8.172522044390032e-08,0.0051304037218519,0.0124771823062351,-0.0004082276174989,10.050836946309197,26.531881390882752,30.408191645207268,30.8416421578076
0.87,31.22219250489099,131.01044144244895,16.05701246806473,-4.059719592231289,9.085387281670457,28.475524670688845,-1.538275157800352,3.694608130708693,327.964078366998,29.22569602167573,11.942759272127155,72.02671798381843,0.3584446565310362,120.376906392287,522.3597562932433,15.288,0.0,7.073820999882501,0.0858993543159215,8.613527596153662e-08,0.0053508057068326,0.0129748553304827,-0.0004294435617365,9.944202798869933,26.307247370872197,30.646852110119355,28.755380800323504
0.88,31.22219199893028,131.01044255275147,16.338407179378436,-3.976077131948867,9.0000950616863,24.60735589687836,-1.567156653052152,3.7015081531739216,294.4828134710418,29.49523020847944,12.062725760384664,72.02979301767833,0.3818255886142564,120.40148713656728,532.0247404789235,15.288,0.0,7.094343078130495,0.0866918369576187,9.070720947390565e-08,0.0055724715689941,0.0134809126052927,-0.0004513463831112,9.832630187189894,26.07005143705273,30.90315514225351,24.93349367455056
0.89,31.2221914886226,131.01044367429728,16.622269417388026,-3.8912377668477167,8.910075111363174,26.98484541724025,-1.5974687134556165,3.708840314085456,315.028134248087,29.783303413468616,12.188432180171988,72.03299016110574,0.4061181046835074,120.42702577471894,542.4530310632385,15.288,0.0,7.114751533991019,0.0875388167831359,9.544431607058093e-08,0.0057952993204475,0.0139953082494029,-0.0004739660264967,9.71642298821803,25.82092221828315,31.17726040876703,27.285330948299073
0.9,31.22219097388976,131.01044480725818,16.908657438199416,-3.81423408949908,8.835738762652621,29.80351835291716,-1.625442238402446,3.714988395773803,339.37814235421445,30.021946146803646,12.298622551916832,72.0363098027186,0.4313385047368679,120.45353938503564,551.1656541028294,15.288,0.0,7.135047096947488,0.08824051848796,1.0034983698188193e-07,0.0060193339405354,0.0145183337375682,-0.0004962194804476,9.617854033381594,25.615790297926143,31.404366152971026,30.078113429265915
0.91,31.222190454809503,131.01044595148673,17.197521398727044,-3.735850205707652,8.756466886674115,22.674254465976503,-1.6548326677520189,3.7215587896935256,277.7421810230789,30.27910918994325,12.41454762968116,72.03975201382667,0.4575026211457406,120.4810445618766,560.6329298189867,15.288,0.0,7.155214414231233,0.0889966622941954,1.0542711169158849e-07,0.0062444455644783,0.0150498877464042,-0.0005191722366737,9.514380101948351,25.39820755943324,31.649223650546958,23.037150139964357
0.92,31.2221899316004,131.01044710655083,17.48871457194337,-3.6562952407108016,8.67256837222324,26.990323987863064,-1.685670674629436,3.728549901722808,315.02813424806214,30.55474021048224,12.536175779556675,72.04331697940094,0.4846264505538349,120.50955805859,570.870314986261,15.288,0.0,7.1752624257857045,0.0898070948324745,1.1067961686821833e-07,0.0064703920648987,0.0155895959195841,-0.0005428396086644,9.40636255539319,25.16890586960852,31.911828066095616,27.298739146025756
0.93,31.22218940416734,131.01044827265324,17.782306340409477,-3.583513047673269,8.602631969614393,32.10136906213006,-1.7142408089103864,3.7344098153977057,359.1625070654728,30.78366331374777,12.643157429206072,72.04700474546792,0.5127261758070158,120.53909682668584,579.440203244736,15.288,0.0,7.19520152542562,0.0904802498636424,1.16110549056451e-07,0.0066972429799929,0.0161378183558155,-0.0005660651869975,9.31397740447503,24.979007181302958,32.12989018370519,32.36328682138687
0.94,31.222188872393897,131.0104494500369,18.078380276822912,-3.506908538795424,8.521866056546466,23.29220115856691,-1.7455323917446084,3.741210235060064,283.0687504837787,31.05295384727733,12.7626772409062,72.05081524814432,0.5418177899510863,120.56967761527,589.6054780859664,15.288,0.0,7.215031511176603,0.0912720614450052,1.2172314685337718e-07,0.0069250054392026,0.0166947838013203,-0.0005904196157302,9.210307464363696,24.76030107372253,32.3866354352698,23.65523561845651
0.95,31.222188336592584,131.0104506380801,18.3767250939168,-3.432177087668517,8.443681279911365,30.16775840319457,-1.7768403226168528,3.7478211993340897,342.4218736174873,31.315382738621604,12.879982914927222,72.05474838533331,0.571917930004169,120.60131784912292,599.5959326895265,15.288,0.0,7.234744419492656,0.0920437126007668,1.27521100029054e-07,0.0071533908433874,0.0172599963906865,-0.0006150281236763,9.109894135741996,24.54966500919728,32.63691744510891,30.45155123056577
0.96,31.22218779644988,131.01045183742264,18.67755983273566,-3.36117616702648,8.372723842903524,29.55258792223013,-1.8071126609824943,3.7538203564440686,337.09533515678345,31.553077039476985,12.989513516252696,72.0588041161758,0.6030431685602293,120.63403487309986,608.7151594991803,15.288,0.0,7.254355809155907,0.0927426701893149,1.3350747479267744e-07,0.0073826212967163,0.017834217258134,-0.000639536090532,9.0177302777693,24.359978710808587,32.86358558197702,29.844803171391153
0.97,31.22218725198823,131.01045304802557,18.98087229523997,-3.289960990719071,8.299494539342906,18.883147708121097,-1.8383897336913595,3.760033921658752,245.02188719299323,31.80084608332252,13.102119564423289,72.06298221703025,0.6352105118831787,120.66784649354553,618.2944954625185,15.288,0.0,7.273863791093648,0.0934712475183593,1.3968580029536368e-07,0.0076126146938889,0.0184174728136296,-0.0006646187984811,8.923543373516262,24.165007804127622,33.09997332633331,19.341427022629052
0.98,31.22218670351833,131.01045426927064,19.28645251767244,-3.2155282810507444,8.216382879610372,27.527080763560125,-1.8724949560438184,3.767171988248684,319.5937466429581,32.08865592497575,13.227114540113808,72.06728235938331,0.668436950746661,120.702770497664,629.5182675967793,15.288,0.0,7.293255153975719,0.0943175233356816,1.4605995744468433e-07,0.0078430335404561,0.0190091368820247,-0.0006909123404622,8.819159909931171,23.94358514013555,33.37486338250849,27.84668737054763
0.99,31.22218615088219,131.0104555014821,19.59441231992257,-3.149358150876365,8.152271245066006,30.086836495156827,-1.9026863940071244,3.7725601302120273,341.6609485517054,32.304705865983,13.329700546203709,72.07170433986877,0.702739890610588,120.73882509530864,638.0049098201497,15.288,0.0,7.312544730379699,0.0949528844192116,1.5263324034708224e-07,0.0080740058322247,0.0196097599744013,-0.0007160269279734,8.735613722860828,23.77582311292217,33.58094525931107,30.38206964208176
1.0,31.222185594078635,131.01045674466516,19.904755171664547,-3.0800863101720006,8.078572936459107,26.91085777961297,-1.9356625196030748,3.7788445515743927,314.2672081822764,32.55975072096826,13.44434689690653,72.0762476390395,0.7381360423023718,120.77602777127284,648.0994248122083,15.288,0.0,7.331726709184896,0.095702870234554,1.594091835636154e-07,0.0083054213222096,0.0202193027835355,-0.0007423424571424,8.642181956891461,23.582408661621223,33.824529542464134,27.24372812170382
1.01,31.222185033302008,131.01045799843527,20.21735102320797,-3.0124912280191105,8.007439970423562,28.147324407487616,-1.9685323676354447,3.784881171399905,324.9203161036979,32.80627130986003,13.556261705446744,72.08091177211212,0.7746428443717303,120.81439676895134,657.9307713960264,15.288,0.0,7.35079841078707,0.0964278082934905,1.6639157966879758e-07,0.0085370779362591,0.0208374738227421,-0.0007688022392143,8.551901893830772,23.397062333950625,34.05998650236372,28.468795486714818
1.02,31.22218446847061,131.0104592629588,20.532258540747144,-2.9468594644274897,7.939748135903087,23.467485603615543,-2.001029048828676,3.7905694123993134,284.59063161540416,33.040145789460205,13.664168846870412,72.08569612885869,0.8122774694506625,120.8539500489028,667.3247442176468,15.288,0.0,7.369764572881275,0.0971155830317463,1.7358386266973585e-07,0.0087689798008911,0.0214645292708595,-0.0007952916271336,8.465690406460764,23.222256420360463,34.283330772890785,23.855720787273988
1.03,31.22218389965761,131.0104605380911,20.84943016707976,-2.879576160504602,7.865923012633629,19.138350405664465,-2.035637860475197,3.796853541517916,247.30469339049705,33.30094424504152,13.780353813971637,72.09059999656438,0.8510570222938695,120.89470549653032,677.880567942982,15.288,0.0,7.388621791134621,0.097882503639872,1.8098969468551026e-07,0.0090009857790514,0.0221003439714885,-0.000822751682244,8.373322823851794,23.03124862192,34.53264294119672,19.61724686506071
1.04,31.2221833269292,131.01046182370294,21.168823466875686,-2.8156580015864514,7.799425730567158,30.53448561347928,-2.0688260056645067,3.8023859402751032,345.46563688072297,33.53244210924458,13.887357141595416,72.09562263684037,0.890999234565033,120.93668165237963,687.3170739536781,15.288,0.0,7.407372813051971,0.098563307759852,1.886127764920736e-07,0.0092329993200554,0.0227449065518426,-0.0008498001813906,8.289145586514419,22.86164519974227,34.75379288966099,30.839795582336286
1.05,31.22218274998051,131.01046312040023,21.490648609964296,-2.750636449234392,7.728178282890557,18.338815920575183,-2.1038258564356984,3.808383959715672,240.45625879819983,33.78554238986494,14.000980781389927,72.10076319118448,0.9321216467259076,120.97989685267376,697.7102961768261,15.288,0.0,7.4260280532239396,0.0993076166274052,1.9645630590890017e-07,0.009465193212062,0.0233989704593438,-0.0008777195806229,8.200292337950392,22.67966458473783,34.99580423647464,18.8478656878589
1.06,31.222182169064578,131.01046442768077,21.814735457472263,-2.6849022483037825,7.653101042982732,26.2043700487102,-2.140494500256177,3.814774833575092,308.17968365593924,34.05726289288999,14.12028179611355,72.10602078929676,0.9744426158716832,121.0243702874261,708.9560379597367,15.288,0.0,7.444579598674266,0.1001066650521938,2.0452446711200257e-07,0.0096972819659452,0.0240620152008325,-0.0009064454104693,8.107757220867095,22.487795715990035,35.255837713158336,26.566957548545993
1.07,31.222181584057427,131.01046574579107,22.14117090155869,-2.623831871760873,7.589374974654368,30.890636267089228,-2.174431928473944,3.819936319616088,348.5093681440308,34.28024544707046,14.224390899169729,72.11139450209542,1.017980930584648,121.07012159655127,718.2473805059744,15.288,0.0,7.463038198546925,0.1007624629362823,2.128208457983464e-07,0.0099293322167924,0.0247345120458293,-0.0009341835948235,8.027626632764008,22.32874152437517,35.46889862489343,31.201786434162663
1.08,31.222180994850348,131.0104670749433,22.470030687909315,-2.562782511229847,7.5240669535417375,20.719466878960223,-2.209318843234416,3.825226621366255,261.00157857466235,34.51105386827017,14.330841065773276,72.11688325274548,1.0627549941584007,121.1171700111298,727.9288466181824,15.288,0.0,7.481405068093683,0.1014412716633135,2.213491210047872e-07,0.0101613267312785,0.0254167205019897,-0.0009624167909403,7.946171108484765,22.166177175656824,35.689537580639794,21.185130544894204
1.09,31.22218040173644,131.01046841455556,22.801117375148447,-2.4987417975169577,7.448268559631561,19.03609445099224,-2.247945583020419,3.8316343941069535,246.54375332474407,34.79138007454427,14.452516450902188,72.12248587779733,1.1087834144617574,121.16553497285187,739.7789819246094,15.288,0.0,7.499669363162875,0.1022656403711652,2.3011371083922645e-07,0.0103929255957226,0.0261079513670116,-0.0009923165095159,7.853992602255373,21.97485459609921,35.95805888982342,19.547572059501967
1.1,31.22217980479637,131.01046976446733,23.134378319293926,-2.4375479899889765,7.378957594228448,38.415009467717006,-2.285175454710574,3.837297836670339,413.1890617385841,35.0436050388606,14.56539081176105,72.12820112346688,1.1560849959239328,121.21523612618928,750.5200996034854,15.288,0.0,7.517834703863642,0.1030074167834418,2.3911855707646785e-07,0.0106240186030394,0.0268081727681842,-0.0010217024619757,7.769026030697857,21.802692609965103,36.19948752617456,38.67376156971176
1.11,31.22217920359897,131.01047112552305,23.47010757965601,-2.380928531662392,7.3216773513344755,28.05979466159281,-2.3190486984983143,3.8415429578239415,324.1593910376397,35.23960366850564,14.660796709362945,72.13402765888594,1.2046788970638305,121.26629348417586,758.9144102127754,15.288,0.0,7.535918521380736,0.1035839289603182,2.483667614257392e-07,0.0108548908855986,0.0275185724423934,-0.0010497099479244,7.697069973293073,21.665568078373525,36.386562534381525,28.41632480834856
1.12,31.22217859820873,131.0104724975874,23.808262222364167,-2.318146466312187,7.243875897895747,10.438349935504148,-2.3601906005436644,3.848102283752587,172.73281794065943,35.53512828135906,14.786854264952131,72.13996400404217,1.2545839201883908,121.31872668105304,771.671458214259,15.288,0.0,7.553912936508662,0.1044529979510462,2.57862509075674e-07,0.0110853525955411,0.028238932279693,-0.0010809512995202,7.603872370341231,21.47103995976846,36.66996471639858,11.372666364276936
1.13,31.222177989257823,131.0104738794202,24.148416685234743,-2.259905000794205,7.1781892047097084,33.10698703393476,-2.3978869066765145,3.8532049931412766,367.5328077900705,35.773596070526864,14.89517325688046,72.14600871118668,1.3058204338742514,121.37255699202926,782.0376646296246,15.288,0.0,7.571806007005469,0.1051543608087453,2.676111504664896e-07,0.0113148465123674,0.0289678352297923,-0.0011106975274124,7.523750372204057,21.311764279735275,36.89819607452935,33.41660726048507
1.14,31.22217737603432,131.0104752724056,24.491053046237404,-2.204895752289775,7.121018634126178,18.223916235320527,-2.433117171864836,3.857221174768671,239.69531773195544,35.97010706541304,14.99045481297192,72.15216005567775,1.3584071487933669,121.4278039477662,790.6269967639539,15.288,0.0,7.589621564020199,0.1057324020357992,2.776150679124453e-07,0.0115438590698996,0.0297071775208722,-0.0011393653092066,7.452879408947632,21.177725841363216,37.08579656361184,18.785881329208017
1.15,31.22217675905665,131.01047667552135,24.835821748474064,-2.1440751093762858,7.043474942596009,17.954065349232184,-2.4760917297300624,3.8636272168919694,237.41251153546767,36.270374754562376,15.117619984338528,72.15841619953036,1.4123628249561548,121.48448712557676,803.8553041371282,15.288,0.0,7.607337965301187,0.1066154392986977,2.878795102754567e-07,0.0117718223021296,0.0304555117035248,-0.0011715251151639,7.361006354322677,20.986262872942863,37.37397665428541,18.531246803430303
1.16,31.222176138471536,131.01047808847866,25.182625804302084,-2.0909437697567967,6.989193452624411,47.37865361852538,-2.511169679156048,3.867101099295524,490.0437743845894,36.452578645731485,15.208279421281269,72.16477531697905,1.4677077221450705,121.54262767474094,811.9248610408533,15.288,0.0,7.624937946813534,0.1071514403318054,2.984087261846313e-07,0.0119986034765736,0.0312127370065145,-0.0012000527931139,7.293775555910673,20.862332671047035,37.54771788120829,47.60249219078654
1.17,31.22217551333996,131.01047951308715,25.532097184375765,-2.035159822485597,6.924512804813207,8.194073668720787,-2.550540164047937,3.8717694322051854,153.70937929486794,36.68858907368231,15.315424326735537,72.17123532210361,1.5244605687492228,121.60224513289384,822.4448214159626,15.288,0.0,7.642468145709347,0.1078456123922836,3.0920461612237186e-07,0.0122248125071319,0.0319813068248202,-0.0012305521788937,7.215993780034597,20.70951162411989,37.77364309891801,9.414812635045026
1.18,31.222174884894,131.01048094694835,25.883407834897337,-1.9758751823982976,6.8460483257536495,22.908558474965467,-2.5958061320534287,3.8781112454741296,280.02501822196746,36.999452306749006,15.445470090284648,72.17779409918603,1.5826411997944074,121.6633601940904,836.4128266839007,15.288,0.0,7.659890191670063,0.1087598218655277,3.202744331221728e-07,0.0124493301232632,0.0327578315711894,-0.0012637275083038,7.12417446492555,20.517703735022003,38.07227004840128,23.37905061606205
1.19,31.222174252575503,131.01048239113587,26.23693410931873,-1.926390466993421,6.799449153598145,40.203674532908245,-2.6291269840906297,3.880267162930597,428.4078130529292,37.13975508167552,15.52293496524321,72.18444944994057,1.6422700389650302,121.7259941685678,842.7396277288262,15.288,0.0,7.677235164607149,0.1091726771792471,3.316206096799261e-07,0.012672603125274,0.0335442165158419,-0.0012912260566369,7.065836856059835,20.41875298992004,38.20530487830604,40.47597099393918
1.2,31.222173615900168,131.01048384656383,26.59299940603537,-1.8703038222658828,6.728137914520201,3.9145513872796927,-2.672758485181048,3.885518732103743,117.1843741360236,37.414310231743485,15.641575479752456,72.1911988842321,1.7033655420336893,121.79016629556062,855.2163136553686,15.288,0.0,7.69450522027672,0.1099801766986998,3.432462444280905e-07,0.012894802970696,0.034341549656297,-0.0013235337220581,6.982104386866998,20.24924664834325,38.46873644711493,6.12899716930019
1.21,31.222172976107053,131.01048531083885,26.950774740891728,-1.8153005777563405,6.658653343070131,32.21872972235915,-2.7162802378049675,3.890439971009196,359.92343213200894,37.68075977550188,15.75757532340458,72.19803996744734,1.76594850748325,121.855898269524,867.410883387526,15.288,0.0,7.711671309265384,0.1107638581458822,3.5515890046249946e-07,0.0131148748796967,0.0351464670868609,-0.0013556620361701,6.900589150533055,20.085711880440705,38.72434577356865,32.56624397164562
1.22,31.222172332247,131.01048678577052,27.31089510183351,-1.7667034392926124,6.610770728118657,23.25145494453688,-2.751130014897881,3.892332429060053,283.0687504825761,37.82540018165123,15.83606895082462,72.20497002417045,1.830038430062349,121.92321041396724,874.0526698320784,15.288,0.0,7.728768594267309,0.1111894853717209,3.67359764899856e-07,0.0133335067006199,0.0359619033227426,-0.0013835043297125,6.841759056962865,19.9859597287563,38.86151516745001,23.73497683030285
1.23,31.222171684693127,131.010488270623,27.67310968299559,-1.7124416311903972,6.540218087643112,8.862684234641316,-2.7961592771345014,3.897161819977312,159.79687382222795,38.09918636142276,15.954070124341388,72.21198614894766,1.895653529495121,121.99212170844731,886.7206687571064,15.288,0.0,7.745777203284445,0.1119947501283102,3.798542457047869e-07,0.0135502056048988,0.0367865342969969,-0.0014161168241631,6.759745606000954,19.820957599281492,39.12429186682363,10.077378071559782
