Time,Latitude,Longitude,Altitude,Angle of Attack,Angle of Sideslip,X-Acceleration,Y-Acceleration,Z-Acceleration,Thrust,True Velocity,Ground Velocity,Pitch,Roll,Yaw,Dynamic Pressure,cp,cg,parachute_deploy_gain,Wind Speed,Wind Direction,Mach,omega_x,omega_y,omega_z,Cmq,Angle of Attack(total),Angle of Attack(gust),True Velocity(gust),Acceleration
0.0,31.222216000000007,131.010392,3.000000004412624,0.0,0.0,0.0,0.0,0.0,2.2828121974499247,0.0,0.0,69.99999999623412,0.0,119.9999999935444,0.0,1.274,1.0271675151847728,0.0,0.0,0.0,0.0,0.0,0.0,0.0,-0.0,0.0,90.0,0.0,0.0
0.01,31.22221599999084,131.01039200000497,3.000002745347096,0.0,0.0,0.0,0.0,0.0,34.242186961749226,3.465174813755316e-14,2.8705476994166025e-14,69.9999999962611,-2.1713911667908447e-11,119.99999999352175,7.352495975525499e-28,1.274,1.0271659134330349,0.0,0.0,0.0,1.0183245502395064e-16,-3.3305335486039093e-18,7.169286865560398e-18,5.624298769768554e-18,-7.715917190115602e-34,0.0,89.99999999999979,3.465174813755316e-14,0.0
0.02,31.222215999994315,131.0103920000094,3.0000030495639742,0.0,0.0,0.0,0.0,0.0,25.871876237766216,3.8197434737535036e-11,2.4171837235633357e-11,69.99999999628672,-1.1921727947863515e-11,119.99999999353136,8.93414285188691e-22,1.274,1.027164492361118,0.0,0.0,0.0,1.1225230367947217e-13,-6.657678965418802e-18,1.4338573731120796e-17,1.1241821275959074e-17,-1.7010872994127372e-30,0.0,89.99999999975682,3.8197434737535036e-11,0.0
0.03,31.222215999994315,131.0103920000094,3.0000030495639742,0.0,0.0,9.81877837424427,-2.5122800045972096e-05,3.3498614629347925,180.34219359854663,1.2659015405517447e-10,1.1364406173918436e-10,69.99999999631459,-1.6431898037347223e-11,119.99999999352724,9.812605835254651e-21,1.274,1.0271551940870716,0.0,0.0,0.0,3.720154642239108e-13,-9.991600645811728e-18,2.150108433310316e-17,1.6859343782149594e-17,-8.453698244545225e-30,0.0,89.99999999919412,1.2659015405517447e-10,10.374487003414373
0.04,31.222215999994315,131.0103920000094,3.0000030495639742,18.83801224594347,-0.0001111777826462,48.68248476615645,-1.016330065874988e-05,3.3497854396877287,548.635972453808,0.1556173050466994,0.0975908358443652,69.99999999633813,-2.0932768807056278e-11,119.99999999352085,0.0148286043323172,1.274,1.027133720825283,0.0,0.0,0.0,0.0004573186944143,-1.3322134194415637e-17,-1.04744143520903e-11,1.336824254131964e-11,5.0626055458604615e-15,18.83801224625964,89.06236267790787,0.1555998412814392,48.79759610369246
0.05,31.22221599164764,131.01039201704114,3.002326315126219,5.772385609593056,-4.395076213712875e-06,71.20344550265034,4.905512691849684e-05,3.349217396035405,761.6984298824663,0.8326471944351852,0.3620326097059287,70.00000001316391,-1.0866255162484559e-10,120.00000000231074,0.4245281043148827,1.274,1.027093426565204,0.0,0.0,0.0,0.0024469331205246,-5.0245994431125096e-18,-7.32924164976824e-07,2.217344936947165e-11,1.895424184525467e-09,5.772385609594774,84.74112356985832,0.8326465040582279,71.28217104309611
0.06,31.22221596664444,131.01039206837547,3.015081730143309,4.056581213689704,3.169093567502233e-05,53.16249142470188,0.0001203825427859,3.3481235983850643,590.4875390737236,1.657216205300742,0.6755452977614796,69.99999964391398,-3.9285905645317736e-10,120.0000000287861,1.6816755551786196,1.274,1.027050317124926,0.0,0.0,0.0,0.0048701272653724,3.095757869075056e-13,-7.483541766772344e-06,3.074135420506017e-11,3.8518749565858254e-08,4.056581213813337,79.59316473687034,1.657221183301277,53.26781792157489
0.07,31.22221592883117,131.0103921460222,3.034593611434361,4.115662018628709,6.450869598349036e-05,81.18203554989698,0.0001593212642178,3.347059402768047,855.2937749779172,2.099899704220947,0.8579771146174259,69.99999543281565,-8.233801910783518e-10,120.00000006883089,2.700101932075157,1.274,1.027003201295312,0.0,0.0,0.0,0.006171060252819,3.4704292086287e-12,-2.6327204536316785e-05,1.9541142932033486e-10,1.7170712165327165e-07,4.115662019133419,76.90111966094352,2.099909837223217,81.2510043180746
0.08,31.22221588914193,131.01039222747755,3.0542761843835606,3.459696193892355,8.037433511260004e-05,16.298214211652088,0.0002413456836072,3.344878926597744,241.2171988638792,3.051964775152957,1.2149999716613011,69.99998042886442,-1.0128995578004475e-09,120.00000011111383,5.703497661025892,1.274,1.0269597189470347,0.0,0.0,0.0,0.0089689344021769,1.458982438104473e-11,-5.702803872814215e-05,7.043261397829576e-10,5.405702492731987e-07,3.459696194824858,71.30331929508368,3.051977400323993,16.63790856991177
0.09,31.2222158241468,131.01039236098703,3.0886872184095737,4.313676956300389,0.0001337561018991,50.35975918308536,0.0002293282821279,3.344215841840564,563.0937377043203,2.893161298572128,1.191209213966114,69.99994788602814,-7.098432023887522e-10,120.00000018106356,5.125380275808925,1.274,1.026918932011013,0.0,0.0,0.0,0.0085022553945842,3.8672912027154325e-11,-0.0001115933708951,2.016054215232918e-09,1.0027525988343615e-06,4.313676958370176,72.2316578138625,2.893182308931483,50.47067588835877
0.1,31.2222157788302,131.01039245392113,3.109877853389092,4.035124630954496,0.0001457499816535,47.804664812504015,0.0002878217657545,3.341734392237128,538.7437595981891,3.5677148583138303,1.4531247507621967,69.99988403958329,1.9248461973355822e-09,120.0000002323013,7.7939962029572305,1.274,1.0268846934974103,0.0,0.0,0.0,0.0104845969583028,8.579678749070606e-11,-0.0001726817043215,3.984565639703107e-09,1.913455350430327e-06,4.0351246335824245,68.43243098813296,3.567737752667411,47.92132267234452
0.11,31.222215703308,131.01039260899836,3.148841432727305,4.043401107254707,0.0001752764476999,37.67622367577205,0.0003286462930162,3.3392563999062723,442.86563930529127,4.034183355956686,1.6436552022667772,69.99978525353545,7.302513231814865e-09,120.00000031883242,9.96528118825134,1.274,1.026848594915519,0.0,0.0,0.0,0.0118554331868328,1.5870341853361987e-10,-0.0002596204409236,7.232030302688121e-09,3.252930323390323e-06,4.04340111104746,65.92012987243639,4.034210888316708,37.82391391539392
0.12,31.222215627491828,131.01039276462643,3.186995101203875,4.17874459224363,0.0002066711490009,41.15991989399172,0.0003576945202315,3.336766085769504,475.58594813540793,4.361857560629481,1.7865750500940407,69.99963665601238,1.781774420198147e-08,120.00000041104812,11.649831899889556,1.274,1.0268114448194128,0.0,0.0,0.0,0.0128183893919737,2.682972478760441e-10,-0.0003710216542429,1.2215991071490164e-08,5.026311388647148e-06,4.178744597345269,64.21681651392016,4.361890024457652,41.29495143136631
0.13,31.22221554594398,131.01039293200228,3.2277173449026786,4.202734874672792,0.0002327160860324,45.44886120763352,0.0003953741266062,3.333578629398489,515.9156326236897,4.792165672014363,1.9646716520715424,69.99942424225341,3.613383418913551e-08,120.00000051758742,14.061726603124043,1.274,1.026779572895131,0.0,0.0,0.0,0.0140829618979635,4.248908088871395e-10,-0.0005056103199642,1.908859219307828e-08,7.5253154423526356e-06,4.202734881104192,62.048594618540655,4.792202226971676,45.570952718869485
0.14,31.222215454191247,131.01039312033683,3.2737880595608355,4.184830647080848,0.000257138757548,42.32232525579263,0.0004369426767266,3.329727443445437,486.2390860568421,5.269261304374574,2.158791628597544,69.99913473613935,6.515851355725497e-08,120.00000064630268,17.000925061330125,1.274,1.0267449573927567,0.0,0.0,0.0,0.0154850332441425,6.382432869666793e-10,-0.0006690086306358,2.8426433029675884e-08,1.0948547100483978e-05,4.184830654966803,59.74181173116622,5.269301695636157,42.45310707234106
0.15,31.222215353826755,131.0103933263496,3.3242182719560263,4.21963947489699,0.0002846467688673,40.886944113003565,0.0004726792395108,3.325585650885676,472.5421858721398,5.6781946837482895,2.329510773545807,69.99875162806286,1.0876776246115984e-07,120.00000079954532,19.742017654108928,1.274,1.0267115958081523,0.0,0.0,0.0,0.0166867950518804,9.204756288136623e-10,-0.000865746478554,4.08948221429571e-08,1.526771148078443e-05,4.219639484480408,57.84996018384879,5.678239395958187,41.02196629910223
0.16,31.222215247130432,131.01039354534575,3.3775922280208457,4.253495568077899,0.0003118339050386,32.26872905470846,0.0005078415214353,3.32090791922544,391.1218908297597,6.081244877834229,2.4981889727471702,69.99825581174558,1.7187028096464329e-07,120.0000009800088,22.644030778355887,1.274,1.026675762255412,0.0,0.0,0.0,0.0178712695992133,1.2856146928958252e-09,-0.0010961187242953,5.6923362293832417e-08,2.0702404729358337e-05,4.253495579487569,56.06022383757386,6.081293860589489,32.43916312841722
0.17,31.22221513260033,131.01039378041813,3.4348437275053194,4.364838523348639,0.0003448792023946,40.840448242802736,0.0005326487904353,3.3162727284953744,471.78125980632416,6.362544479165355,2.6250789114832647,69.99762801982864,2.5997588617291615e-07,120.00000119506798,24.78723182122683,1.274,1.0266409836796937,0.0,0.0,0.0,0.0186979513961862,1.747791994374917e-09,-0.0013624931601664,7.706724512977917e-08,2.6923621797558364e-05,4.364838536947241,54.85936171416122,6.362598652663785,40.97486885600156
0.18,31.222215014088988,131.01039402363364,3.4935801365785646,4.353948305387995,0.0003681615230806,33.992183768165326,0.0005718025428208,3.310131992647221,407.1015672119096,6.81502088160835,2.810667639293692,69.99684761766231,3.794979223522764e-07,120.00000144728236,28.437950785509614,1.274,1.0266048342046536,0.0,0.0,0.0,0.020027681385988,2.3221419748804155e-09,-0.0016616990447559,1.0147209890543081e-07,3.517105786247627e-05,4.353948320923495,52.99157233768714,6.815078712285162,34.152972512863755
0.19,31.22221488419521,131.01039429023237,3.558399965607869,4.432620772533925,0.0003996774584738,38.45149959021069,0.0005986099513107,3.304145139297767,448.95313283182486,7.1223367465208405,2.946425726785696,69.99589577323147,5.440084577183829e-07,120.00000176148238,31.060341085698347,1.274,1.026566130444714,0.0,0.0,0.0,0.0209308229359413,3.022391489754689e-09,-0.0020041563310821,1.3135864879722746e-07,4.433199397898183e-05,4.432620790516937,51.77883352025967,7.122399527709208,38.59320142454953
0.2,31.222214751373183,131.01039456280608,3.624052454705669,4.443889400961181,0.0004246617145652,35.23432408779927,0.0006337972852267,3.2968110145188256,418.5156301991588,7.530482904611057,3.1167566004785483,69.99474776398331,7.478025600151903e-07,120.00000211715036,34.72195181863731,1.274,1.026529240027363,0.0,0.0,0.0,0.0221302820454282,3.866698391504749e-09,-0.0023849544920781,1.668144671071589e-07,5.57780533277244e-05,4.443889421210987,50.22448880200342,7.530549610317194,35.38822625098952
0.21,31.222214608673173,131.01039485566503,3.6948551453492566,4.493351735844891,0.0004538195602194,33.79371564104691,0.0006629296043866,3.2891790438445727,404.8187610144608,7.868284042829251,3.2629204975089228,69.99338155599101,1.0150082652278477e-06,120.00000255293388,37.906665490338085,1.274,1.0264923657015164,0.0,0.0,0.0,0.0231230169900677,4.871073773182836e-09,-0.0028117605859743,2.089322918608601e-07,6.870935089180403e-05,4.493351758715364,48.992529909481824,7.868355328639073,33.95340801819282
0.22,31.22221446109996,131.01039515850383,3.767700382407304,4.5412639153933885,0.000482649303782,41.008966751568416,0.0006914639179131,3.2808061382386606,472.5421858721387,8.20057841132235,3.4071691679735228,69.9917708347139,1.3454961520984431e-06,120.00000305929996,41.175744234065135,1.274,1.0264494137127138,0.0,0.0,0.0,0.0240995709751246,6.054779813287368e-09,-0.0032829112061357,2.580881224843564e-07,8.3609968899004e-05,4.54126394098788,47.82515604752711,8.2006542256977,41.13999323561041
0.23,31.22221430675399,131.0103954752338,3.843768625625224,4.52371495179584,0.0005047555656171,33.98493478127787,0.0007294889663961,3.2705214710765107,406.340642146096,8.647938096586296,3.5908865300848416,69.98989017772566,1.7539876018835507e-06,120.00000365514876,45.79040229326471,1.274,1.0264133390858623,0.0,0.0,0.0,0.0254142776666487,7.436335125872812e-09,-0.0038001790077148,3.1489825108822685e-07,0.0001020628978177,4.523714979897577,46.31461705147579,8.648017383405135,34.14194053232237
0.24,31.222214142622448,131.0103958120587,3.92493179063287,4.57837522350066,0.0005351929930195,35.051650311058864,0.0007555049947555,3.26053011385611,416.2328240017099,8.954297884844461,3.72617527247482,69.98771316795013,2.25257161141768e-06,120.0000043564586,49.09180568115741,1.274,1.0263750048312463,0.0,0.0,0.0,0.0263146218848643,9.034877387788232e-09,-0.0043732521010013,3.809642748985157e-07,0.00012161410144,4.578375254714954,45.32798984252032,8.954381952763216,35.20297212911011
0.25,31.22221397517227,131.0103961556623,4.0071748888306855,4.6034117733065,0.0005618935542827,36.03738579534623,0.000785606492708,3.249069743648399,425.3640807915084,9.311611941121669,3.8789349536029696,69.98520781816889,2.8559738498748624e-06,120.00000517181904,53.08749562138344,1.274,1.0263373768840591,0.0,0.0,0.0,0.0273647110956883,1.0873791100894836e-08,-0.0049950711786164,4.5609738277273444e-07,0.0001444478241125,4.603411807525074,44.2165428352526,9.311700203154778,36.183554686886296
0.26,31.22221379934012,131.01039651647062,4.09364247475714,4.621386912291471,0.0005881033207375,39.29107511182762,0.0008162761165496,3.236407051295005,455.80158342417656,9.67833954512075,4.034902068846398,69.98234620927953,3.5784678110229355e-06,120.00000612171208,57.350948423913096,1.274,1.0263006300381676,0.0,0.0,0.0,0.0284424679130479,1.2973286442992724e-08,-0.0056712051373577,5.414206381221602e-07,0.0001704578711045,4.621386949630312,43.12063533194282,9.678431924174348,39.42414126789902
0.27,31.222213616776543,131.01039689108487,4.183310605341074,4.617158109135719,0.0006115457810536,35.90419462403674,0.0008503454714941,3.221982799915672,423.8421996598744,10.088790784535757,4.205862468567124,69.97909721779352,4.436165972465058e-06,120.000007221354,62.31798301949865,1.274,1.026260090595354,0.0,0.0,0.0,0.0296487219805601,1.5355910600537293e-08,-0.0064045199323113,6.379142666348734e-07,0.0002006609239367,4.617158149547818,41.94410287616451,10.08888684592241,36.048472443180565
0.28,31.22221342607797,131.0103972823952,4.277051150896916,4.642105655370123,0.0006389739579882,41.51133203546672,0.0008785747638736,3.2071101123224945,476.3468732012228,10.432377224420517,4.35383399240675,69.97542808435722,5.446665372087172e-06,120.00000849080963,66.63429581008447,1.274,1.0262212716723291,0.0,0.0,0.0,0.0306584788590473,1.8045308789081613e-08,-0.0072006835403936,7.469524967369969e-07,0.0002332868227611,4.642105699250441,41.0023231023774,10.432477594215127,41.63503624837164
0.29,31.22221323001776,131.01039768469093,4.373143569786686,4.62134615173668,0.0006600657405645,33.17552944492765,0.0009148746278066,3.1894209319791806,397.9703104221098,10.876662296046485,4.536381530986506,69.9713027936179,6.629751536885327e-06,120.00000994797426,72.43000748232016,1.274,1.026183007522519,0.0,0.0,0.0,0.0319641703260467,2.1067646517035105e-08,-0.0080566154554079,8.688043379161898e-07,0.000272130659453,4.621346198772975,39.83162628795024,10.876765978930557,33.32848872465723
0.3,31.22221302403368,131.01039810736614,4.4744193758467325,4.664362353358112,0.0006905183788532,31.08096762732793,0.0009381960428197,3.172549142946348,378.1859457108735,11.168362145070317,4.66647911311536,69.96668711012893,8.005507138509574e-06,120.00001161892672,76.36634300732833,1.274,1.0261430389738484,0.0,0.0,0.0,0.0328214509167604,2.4447409007156216e-08,-0.0089829108229115,1.0056222251461646e-06,0.0003115527202986,4.664362404357781,39.09908960432563,11.168470611443622,31.242464973103964
0.31,31.22221281503337,131.01039853619727,4.576593712520673,4.700143580504286,0.0007196683316923,32.79732593144512,0.0009620705970519,3.154230688182399,394.1656220930229,11.470279728974068,4.800072153432283,69.96154070456518,9.597499105113692e-06,120.00001352112182,80.55022837857167,1.274,1.0261054058068628,0.0,0.0,0.0,0.0337087616009043,2.8214060606649844e-08,-0.0099686353219717,1.1565909895184251e-06,0.0003550834484269,4.700143635477137,38.36463422765983,11.47039277421126,32.94865339301887
0.32,31.222212598991007,131.01039897947376,4.68216432480395,4.718667719113184,0.0007464384342556,35.7316568886908,0.0009885845337584,3.133859770838664,421.5593934624264,11.808280530415894,4.946054328851105,69.95582953472353,1.14278227255889e-05,120.00001568218067,85.36654007972253,1.274,1.026068246703101,0.0,0.0,0.0,0.0347021168382987,3.2392058795580455e-08,-0.0110163301561155,1.3226102501723267e-06,0.0004039614423012,4.718667778018562,37.5686120062341,11.808397780690962,35.8688218659563
0.33,31.222212376029034,131.0103994369436,4.791055524254013,4.72141404831576,0.0007708346814671,35.42013590291081,0.0010176135371143,3.1111955852784385,418.5156301991632,12.181577273013426,5.104163223586657,69.94951809396906,1.351997394754887e-05,120.00001812674968,90.84831229869296,1.274,1.0260310883392356,0.0,0.0,0.0,0.0357992034445943,3.700677535501642e-08,-0.0121310534481307,1.5051409581878843e-06,0.0004588955105349,4.721414111097893,36.7208578211118,12.181698355442045,35.55651229220977
0.34,31.222212145785647,131.0103999093516,4.903491659547144,4.73024573449122,0.0007962944975467,27.63851074646407,0.0010446307681611,3.0871492806781062,345.4656368807584,12.53557620048282,5.2556261014174765,69.94256797855994,1.5899658158227497e-05,120.000020882338,96.20413272674828,1.274,1.0259901535019136,0.0,0.0,0.0,0.0368395817555172,4.208561016221623e-08,-0.0133180771902383,1.7057647550599631e-06,0.0005184333231541,4.730245801363397,35.94841996438923,12.535701282129995,27.810389570354005
0.35,31.222211909310875,131.01040039453565,5.018822212845608,4.780248518778662,0.0008286678570753,30.332092807652543,0.0010618579815451,3.063967690608957,370.5765700527057,12.774786382148209,5.367579971644358,69.93493776125636,1.8594985713558667e-05,120.00002397748868,99.9096898192772,1.274,1.025950003202184,0.0,0.0,0.0,0.0375426220587071,4.7658312175989686e-08,-0.0145774693288123,1.9252724355785177e-06,0.0005782798420984,4.780248590437683,35.44790728185619,12.774916548990808,30.486451961956565
0.36,31.22221166933814,131.0104008868675,5.135354490370708,4.798132156899578,0.0008554457330409,34.32674769697476,0.0010851169437774,3.0374319611165923,407.8625232777224,13.09301701329486,5.506730645516068,69.92658597246795,2.163521613217148e-05,120.0000274401514,104.94818266210537,1.274,1.0259105142325406,0.0,0.0,0.0,0.0384778908056978,5.3755109608570216e-08,-0.0158991451700967,2.162609490834569e-06,0.0006464142451675,4.798132232978766,34.796094028187134,13.09315138639638,34.46087058603792
0.37,31.222211421355144,131.01040139563804,5.255882891363927,4.797392186816851,0.0008791822061288,32.551601855236584,0.00111162791192,3.0078619428913056,391.1218908297639,13.457513730739372,5.661815946371007,69.91747693543164,2.5047738471809164e-05,120.0000313040604,110.87154396328836,1.274,1.025872170958032,0.0,0.0,0.0,0.0395491312153729,6.040098808671168e-08,-0.0172926678053148,2.420031948898497e-06,0.0007226353721561,4.797392267189059,34.07332166419882,13.457651832357364,32.69027405888565
0.38,31.22221116634284,131.01040191882743,5.379799334000849,4.811698494594017,0.0009057112478668,34.02947987649063,0.0011338447913587,2.9774881690446744,404.81876101445977,13.77554886562956,5.800899861213392,69.90756948297444,2.886339581486796e-05,120.00003560072224,116.17243393848278,1.274,1.02583050512925,0.0,0.0,0.0,0.0404838339452728,6.762496638941508e-08,-0.0187646375218858,2.69955777313946e-06,0.0008026686661094,4.8116985796350695,33.46655348088405,13.775691134419684,34.15949264475229
0.39,31.222210906095896,131.01040245274032,5.505993307722699,4.813508003664984,0.000929862892873,29.00025983045028,0.0011579891265804,2.9442136901860865,357.6406249338268,14.124492165837273,5.950648592462506,69.8968186645841,3.311602501056718e-05,120.00004036395212,122.13093644173792,1.274,1.02579027384009,0.0,0.0,0.0,0.0415093739609825,7.545934774906889e-08,-0.020311592409804,3.0013532510753577e-06,0.0008908380763632,4.813508093268025,32.821616487639595,14.124638228358922,29.149330452482886
0.4,31.222210638473225,131.0104030017851,5.635788650457906,4.841647069358873,0.0009592124397379,27.71178845184976,0.0011749448424961,2.91135549588368,345.4656368807565,14.390874239274588,6.07193451174791,69.8851815212744,3.783947407715338e-05,120.00004563180136,126.77947425345651,1.274,1.0257493418632293,0.0,0.0,0.0,0.0422922854866381,8.39343718693383e-08,-0.021938519432511,3.3271332720311508e-06,0.0009803271643914,4.841647164150728,32.348088166612904,14.391024912012275,27.864299944624147
0.41,31.22221036681104,131.01040355909262,5.767123077463226,4.86553909860892,0.0009876699832274,31.306062598221665,0.0011918093836199,2.876450850006428,378.9468707766882,14.663028799871563,6.195223154320929,69.87261222561014,4.307011032901644e-05,120.0000514391194,131.6183642808765,1.274,1.025708445186429,0.0,0.0,0.0,0.0430921644173401,9.308325447883581e-08,-0.0236371933433427,3.6760977501392174e-06,0.0010761942383903,4.865539198612839,31.87689439156756,14.663183942709727,31.437931330109585
0.42,31.22221008906472,131.01040412887247,5.901259531771367,4.867510642114694,0.0010118258958528,35.308283402190774,0.0012128114559048,2.8374461227958245,416.23282400171047,14.9952917972178,6.33928625560071,69.85906967380902,4.884273094936628e-05,120.00005782486392,137.64909586091787,1.274,1.0256701057426505,0.0,0.0,0.0,0.0440686959134695,1.0293499639582845e-07,-0.0254093547296826,4.049238334851429e-06,0.0011830797791891,4.867510747027452,31.315270489291198,14.995450734457847,35.422111438762386
0.43,31.222209804115888,131.01040471342728,6.038886819939341,4.854590670645608,0.0010330089741511,31.00586934514032,0.0012363751872706,2.794478603999558,375.90313951343126,15.369430568701889,6.497852263156962,69.8445117629242,5.519340856908871e-05,120.00006482835984,144.60167924299955,1.274,1.0256308158337524,0.0,0.0,0.0,0.0451682983415116,1.135186446762958e-07,-0.0272634397889413,4.449073329427772e-06,0.0013010625065656,4.854590780289497,30.70250814963406,15.369592833372094,31.13154422839874
0.44,31.22220951192321,131.01040531284193,6.180028459770617,4.866912332640401,0.0010595850174406,28.57707721036899,0.0012525768202179,2.752165534925872,353.07501253892326,15.659290812546615,6.627318538707029,69.82889155423543,6.216182865383864e-05,120.00007249162944,150.1053167542629,1.274,1.025586171750536,0.0,0.0,0.0,0.0460202245100907,1.2486676023179565e-07,-0.0292060158163984,4.8779154055816594e-06,0.001420032405556,4.866912447705031,30.24619499837236,15.659457251771938,28.709297424144207
0.45,31.222209215425703,131.01040592106523,6.322872201489905,4.881836476567178,0.0010866574689855,33.31904824532484,0.0012669045761511,2.7082028218433374,397.2093853562887,15.934249290371609,6.751662050993672,69.81215834018458,6.97909417564726e-05,120.00008085697964,155.42080512416243,1.274,1.0255397023523487,0.0,0.0,0.0,0.0468283602442113,1.3701614206272197e-07,-0.0312276295846745,5.334643585560923e-06,0.0015449645531859,4.8818365972149325,29.82567893138932,15.934419982127675,33.428929688274074
0.46,31.22220891307435,131.0104065412864,6.468371919199588,4.869610441729251,0.0011078049156487,38.95909776354321,0.0012868374716666,2.6582856015412624,449.7140588976424,16.292139278621757,6.904766425053949,69.79426683863348,7.812149592850748e-05,120.00008996920153,162.4785746623087,1.274,1.02549635315424,0.0,0.0,0.0,0.0478802236363867,1.499987870203256e-07,-0.0333272350234362,5.819761874615242e-06,0.0016858511402973,4.869610567434908,29.29014635640275,16.292313292210977,39.04968351401366
0.47,31.22220860266524,131.01040717804253,6.6178810515614845,4.838450928223533,0.0011247917292402,26.253747818137555,0.0013104398935566,2.6026193242279367,331.0078106302504,16.710658191447514,7.078951441335346,69.77517236812905,8.719457259907165e-05,120.0000998741591,170.9309671061642,1.274,1.025453319323251,0.0,0.0,0.0,0.0491102725711187,1.6384464803343264e-07,-0.0355167087264168,6.3368207228363735e-06,0.0018427306558807,4.838451058652396,28.68386015667837,16.710834873319172,26.382435512333956
0.48,31.222208284201663,131.0104078313267,6.771393590864176,4.869339340099417,0.0011561785713505,25.860860976019296,0.0013165328518772,2.5543454292827983,327.20312230115803,16.911139899671,7.177575416403102,69.75482343794755,9.70562828082882e-05,120.00011062072316,175.0543877818846,1.274,1.0254092882449153,0.0,0.0,0.0,0.0496995461609974,1.7858865391586845e-07,-0.0378054080201581,6.88909442277235e-06,0.0019849793891693,4.869339477030596,28.40887970825325,16.911321511776286,25.986704537635287
0.49,31.22220796480208,131.01040848648364,6.924537656029012,4.881367714530694,0.0011829003785372,32.565703383222065,0.0013261973190012,2.5011623511055703,389.6000096981238,17.169005224738054,7.296160258358563,69.73316318155707,0.0001077573203115,120.000122255028,180.4309832312717,1.274,1.025367445590036,0.0,0.0,0.0,0.05045746454003,1.942747077649401e-07,-0.0401641298712614,7.47069711110948e-06,0.002140948887153,4.881367857509675,28.058569663954906,17.169191034294997,32.66161128464712
0.5,31.222207637929923,131.01040915697027,7.081324512896956,4.862566137860805,0.001202418260511,33.47759680712428,0.0013425340759632,2.4399894027711366,397.970310422106,17.52898693231981,7.450304424940405,69.71015149227495,0.0001193385310595,120.0001348274002,188.0736471953394,1.274,1.0253278572281015,0.0,0.0,0.0,0.0515154948878309,2.109295159784217e-07,-0.0426011733481599,8.084173008518589e-06,0.0023184335011768,4.862566286171007,27.57768313050809,17.529175807738486,33.56639745442473
0.51,31.22220730314019,131.01040984370235,7.24202048914867,4.8479762258125,0.001223054804074,25.49162310288008,0.0013562860883156,2.3767006597692686,323.39843497208153,17.86914397471067,7.597652147346554,69.68574349602717,0.0001318441288964,120.00014838524436,195.4407439266201,1.274,1.025286455263166,0.0,0.0,0.0,0.0525152689856776,2.2858192086249162e-07,-0.0451315948093539,8.734206149830708e-06,0.002503767471626,4.847976379721193,27.13799345359824,17.86933609171003,25.602178740977283
0.52,31.222206962738102,131.01041054193402,7.405210501673173,4.865306299521403,0.0012516517170965,30.733671928447727,0.0013599291289974,2.317711624364424,372.098451184342,18.08534843773428,7.701914987606457,69.65988568649581,0.0001453248538387,120.00016298000436,200.19561780583155,1.274,1.0252426840672306,0.0,0.0,0.0,0.0531507657929359,2.4726951523704535e-07,-0.0477531686556663,9.421346966092632e-06,0.0026812161964639,4.865306460134566,26.8699055233151,18.085545046726228,30.820940596104087
0.53,31.222206619320115,131.01041124632013,7.569307468221277,4.848802699234936,0.0012715119568563,32.301199055744725,0.0013711327835325,2.2490252325653923,386.55624643486095,18.41963113311156,7.8474319110539055,69.6325258319474,0.0001598315062727,120.0001786629144,207.6614205945027,1.274,1.0251993415311351,0.0,0.0,0.0,0.0541332845214831,2.67031759303889e-07,-0.0504479325599339,1.0141887756417996e-05,0.0028848299490111,4.848802865552398,26.45837260670532,18.419830861742675,32.37940050117613
0.54,31.22220626697288,131.01041196903336,7.737918664599091,4.831496690588052,0.0012913635058467,28.31291960103712,0.0013809098107221,2.177242866245296,349.2703242098436,18.75116898748492,7.992112829440902,69.60362200959217,0.0001754082864028,120.00019548734956,215.20067397992847,1.274,1.0251561018460285,0.0,0.0,0.0,0.0551077428911958,2.878941684235108e-07,-0.0532336286085667,1.090122304443916e-05,0.003098869611663,4.831496862756785,26.061835558272342,18.751371834390056,28.396510432451375
0.55,31.222205908994248,131.01041270328463,7.909026079894722,8.147849966218669,6.326266384276886,30.11508519815417,-0.3440850018762378,1.915160648435697,365.2500005919912,19.702746418726875,8.113323699629928,69.57312211246325,0.0001921068626005,120.00021350480982,237.59283081976648,1.274,1.025112921033824,0.0,2.506403565945852,0.0,0.0579044421403214,3.0989272306468813e-07,-0.0561100530405476,1.1700476995263424e-05,0.0034320151542407,10.302365719164625,31.75367225909729,20.69445611203908,30.177882485189663
0.56,31.222205546564343,131.01041344664463,8.081909946161325,11.169134828271046,-0.0131963477513168,28.10933756315504,-0.0782445502516159,1.585324784548975,346.22656194657776,20.525890971065987,8.24832211386639,69.54097415464405,0.0002099796112633,120.00023276987916,257.85563238828274,1.274,1.0250709539098009,0.0,2.5155477854450985,300.0001285565649,0.0603237010135585,3.330422384609979e-07,-0.0613846721018575,0.0041922756448518,0.003911438428887,11.169142525020092,26.028364065389077,20.523818093626826,28.154115775878104
0.57,31.22220517792294,131.01041420485907,8.258267219218348,11.08333762069242,-0.0105402629006248,27.806409744566103,-0.0788907827973885,1.4074868488310597,343.1828296833045,20.800730129941154,8.367721506905044,69.50580393392642,0.0066369969333632,120.00709344978245,264.80268929741413,1.274,1.0250279191823897,0.0,2.5246205648112747,300.0001285565649,0.0611315495802082,3.606126824008732e-07,-0.0692684134114564,0.0041808919173861,0.0044728157204231,11.083342569920054,25.745750266830104,20.79907446932572,27.84212035510125
0.58,31.22220480406716,131.01041497158116,8.436543399130265,10.994578136209237,-0.0126573052680599,36.74966254676552,-0.079295506232145,1.2225252137174292,426.12500585731766,21.081015523662696,8.490023208811685,69.46611640467552,0.0130212296747945,120.01391011041788,271.9824328681445,1.274,1.024981594484354,0.0,2.5337048099779813,300.0001285565649,0.0619554087484029,3.914618330594121e-07,-0.0773030927744681,0.0041712018097038,0.0050588074478428,10.994585332305052,25.45827443256542,21.07902731881665,36.77007686933254
0.59,31.22220442471619,131.01041575050485,8.617494127180638,10.83413324070662,-0.0146502936032949,29.7369859331359,-0.0802003768964134,1.0150238088615084,360.68438819710633,21.49435910763829,8.65998067302501,69.42182509243666,0.0193612306833941,120.02068138912304,282.747811997749,1.274,1.0249386802161349,0.0,2.542728238072772,300.0001285565649,0.0631703212402492,4.2564929462434643e-07,-0.0854904464336733,0.0041596682912652,0.0057041940452749,10.83414302768272,25.03327894911633,21.49205784492551,29.75441207317887
0.6,31.22220403588265,131.0104165487286,8.803339225575014,10.747480269783308,-0.0166832280159488,26.407651695112808,-0.080448674563844,0.8165394393143913,329.4859594986072,21.76038420550978,8.777418316369378,69.3728425331752,0.0256501269043047,120.02740012877388,289.78481225608306,1.274,1.024891335813742,0.0,2.551728157478544,300.0001285565649,0.0639522832763226,4.6322769616473764e-07,-0.0938803264069953,0.004146144297459,0.0063414066751608,10.747493066169824,24.77193051508353,21.75776361021816,26.420395089695184
0.61,31.22220364483489,131.01041735144997,8.989711999765444,10.664891866771322,-0.0186889835106388,31.02039279604865,-0.0805869546672835,0.6137731738997207,372.0984511843332,22.011708151665484,8.889735889075352,69.31905267869026,0.0318808094271868,120.03405890284152,296.5119642376176,1.274,1.0248423929069768,0.0,2.5608098881964145,300.0001285565649,0.0646910432049854,5.042834211136628e-07,-0.1024109909675209,0.0041306644532189,0.0069974047880401,10.664908052339223,24.52887508882842,22.008772493052536,31.026568952873415
0.62,31.222203248028183,131.01041816595804,9.178744128513593,10.537760874678836,-0.0205863871099999,38.66390939132136,-0.0810130182421026,0.3928057199731054,442.86563930529206,22.34719990888783,9.032499484481011,69.26037487883359,0.0380463001539167,120.04065042863618,305.6138801855976,1.274,1.0247996097896497,0.0,2.569759045677481,300.0001285565649,0.0656771727002895,5.488713048850114e-07,-0.1110732603672565,0.0041131887896884,0.0077048011436432,10.537780756020132,24.20433187551401,22.34396620683197,38.665989562703245
0.63,31.222202843542647,131.01041899619284,9.37157317880825,10.366618287615571,-0.0223570117155234,21.81169763582387,-0.0817383464842462,0.1497462245944378,286.11251274707456,22.772654799166418,9.20793317043514,69.19673374057585,0.0441396472348266,120.04716744002806,317.355574420046,1.274,1.024756158874558,0.0,2.5786748593023177,300.0001285565649,0.0669277064570222,5.970368174133974e-07,-0.1198965273072545,0.0040935898975166,0.0084750257431841,10.366642131901028,23.79895871328636,22.76914296806745,21.8123648155277
0.64,31.22220243049436,131.01041984396306,9.56870888169096,10.325267073211432,-0.0243483007065092,21.42924023252155,-0.0812566230746417,-0.0567354183140774,282.3078244179702,22.91181338179124,9.280372975448463,69.12803702887076,0.0501537690819326,120.0536025199506,321.23992131893846,1.274,1.024708534665538,0.0,2.58761475731862,300.00012855656485,0.0673368364037189,6.488363808420778e-07,-0.1289126837220213,0.0040717095848933,0.0091678532035271,10.325295469929342,23.673438073183235,22.907988759775,21.42946939356187
0.65,31.22220201899676,131.0104206884912,9.764126293849191,10.24405920890117,-0.0262332017735984,38.097311773168016,-0.0810289829363755,-0.279445530880738,436.7781447787504,23.12809512380728,9.380883336754165,69.0541742145451,0.05608140358545,120.05994803424224,327.32725208214725,1.274,1.0246641738210605,0.0,2.59659813360774,300.0001285565649,0.0679726290131355,7.043651773710442e-07,-0.1380018996289813,0.0040477897388306,0.0099067069827821,10.244092439435397,23.47459949178448,23.123974422252648,38.098422799937154
0.66,31.22220159997733,131.0104215484111,9.963214354235696,10.0493701002272,-0.0278074516648542,32.38270299794838,-0.0817101231805254,-0.5523608828147973,383.5125151715984,23.59209212794264,9.571670576570812,68.97510346545907,0.0619159505865609,120.06619706312276,340.5861969877891,1.274,1.0246195561629028,0.0,2.605352291612025,300.0001285565649,0.0693364550335093,7.63644764297843e-07,-0.147190510255199,0.0040217156168677,0.0107781035572627,10.04940817760541,23.0504045863382,23.587724143820846,32.387516615857244
0.67,31.222201169322624,131.01042243215542,10.16836730462812,9.925588111050867,-0.0295171155494983,22.238327462935743,-0.0816625584336136,-0.8048238187565853,289.15624401033847,23.889619427496463,9.702377598615744,68.8907678512186,0.0676507857846875,120.07234263873364,349.22396534836093,1.274,1.024572383541697,0.0,2.6141225491282065,300.0001285565649,0.0702110413894329,8.266925546496471e-07,-0.1565727596549103,0.0039931323333482,0.0116094853470999,9.925631560627629,22.784199949398054,23.88498289003328,22.25303616366652
0.68,31.222200736954267,131.01042331935477,10.373723840400816,9.849339486380332,-0.0313331788024344,27.844538853054207,-0.0810772616185126,-1.0396374599046017,340.89999248584934,24.06536292674744,9.788943287509833,68.80105641614826,0.0732787766959522,120.0783772160791,354.3739944317665,1.274,1.0245245285832842,0.0,2.623006735345568,300.0001285565649,0.0707277113433572,8.935986679236859e-07,-0.1660755245290332,0.0039621859886303,0.0124044357651867,9.849388833642823,22.627051598757117,24.060441122775792,27.86405863311434
0.69,31.22220030140489,131.01042421302333,10.580156283691792,9.7136761697922,-0.0329464330889142,34.35350795142807,-0.0809333552291796,-1.3059682527302738,401.0140726853658,24.373734433343976,9.924480271968164,68.70590012480912,0.0787933227412975,120.08429381320664,363.50681178414806,1.274,1.024479631064582,0.0,2.631748101019713,300.0001285565649,0.0716341770267504,9.64421369308521e-07,-0.1756439576822899,0.0039290045077765,0.0132869605733988,9.713731506451982,22.355686618724228,24.36855922002147,34.378417820690345
0.7,31.222199857008192,131.01042512477767,10.790950863766518,9.547723577274624,-0.0344239110676212,28.79544170469991,-0.0809671668501076,-1.594541624694949,349.270324209851,24.750605033873647,10.08578448510371,68.60526137588205,0.0841883524874887,120.09008599854177,374.8273326745135,1.274,1.0244351749185203,0.0,2.640398442603502,300.0001285565649,0.0727419691762284,1.0391718195284042e-06,-0.1853248046351174,0.0038933610631371,0.0142357691577345,9.547785058571415,22.03069711973976,24.74519773889307,28.839670276266396
0.71,31.222199405282424,131.0104260514952,11.005189193750164,9.423824066357614,-0.036008487654363,23.646927592367657,-0.0804886700687354,-1.8656317657188408,301.3312640634036,25.013153009424496,10.205450039150948,68.49907577110062,0.0894576211563262,120.09574712353856,382.8137757797098,1.274,1.0243880468141104,0.0,2.6490943555221245,300.0001285565649,0.0735137747298648,1.117885522494202e-06,-0.1951382549194465,0.0038550983452347,0.0151482857299094,9.423892238956547,21.8043004361094,25.007496809782744,23.720544784425744
0.72,31.222198950387924,131.01042698464545,11.220457068085016,9.314317387853045,-0.0376204985276011,29.011405168625,-0.0797540931153162,-2.1304847063535526,350.7922053414578,25.22683735894193,10.307455860081571,68.38726733985918,0.0945948670009125,120.10127049395804,389.3743285924009,1.274,1.024337302174265,0.0,2.6577713613032405,300.0001285565649,0.0741419741013412,1.2006273532239744e-06,-0.2050311394794699,0.0038143533820958,0.0160518941290591,9.3143926916304,21.618498900818896,25.22092794527661,29.089636567985796
0.73,31.222198490885823,131.0104279271765,11.437579317313247,9.161558377339478,-0.0390395268228948,36.75793650112209,-0.0793218606538962,-2.4255265929641574,422.3203185282354,25.545198922084747,10.448993951192271,68.26979058686736,0.0995944270304704,120.10665003873044,399.25579048885686,1.274,1.024292465384646,0.0,2.6663559642927503,300.0001285565649,0.0750778264143158,1.2874340576716852e-06,-0.2149766439453087,0.0037711794967248,0.0170425731507797,9.161640845104758,21.35069232267899,25.539066608025927,36.837960951052615
0.74,31.222198023133828,131.0104288865434,11.658608495783753,8.974380641319591,-0.0402813690274329,22.971454183289023,-0.0791096749470573,-2.7503833651644207,294.4828134710563,25.95175042966237,10.624311562598317,68.14661538514743,0.1044510857613368,120.11188014259652,412.0564720951048,1.274,1.0242470321640116,0.0,2.674882159926539,300.0001285565649,0.0762728792365399,1.378311124711934e-06,-0.2250079731653884,0.0037253607955452,0.0181213248140473,8.974470301518624,21.01891410785401,25.94542304753295,23.135655907948454
0.75,31.2221975469208,131.01042986316992,11.883622078144864,8.869257016968827,-0.0418419681801623,26.858135145594087,-0.0779462472050917,-3.0188104595595013,330.24688556441737,26.115812492355698,10.7091532811108,68.01769257646717,0.1091595509644005,120.11695507474512,417.2738099164832,1.274,1.0241984712898409,0.0,2.683427911692952,300.0001285565649,0.0767552568158716,1.4732778463683605e-06,-0.2351508022281423,0.0036766851096703,0.0190575032959442,8.869354924510393,20.873927849225904,26.109239971947567,27.027369751923615
0.76,31.222197071220005,131.01043083868447,12.107550931399542,8.716384373017354,-0.0431675589054356,28.9337787869814,-0.0771402105804119,-3.32438182357978,349.2703242098581,26.40550818755248,10.841987022048947,67.88295827394502,0.1137144802147949,120.1218690096003,426.57339454943127,1.274,1.0241522053390697,0.0,2.691975800743384,300.0001285565649,0.0776068783304568,1.5724152245573616e-06,-0.2453007854779489,0.0036255942805673,0.0201001883545631,8.716490439313947,20.63544465387743,26.39872744389744,29.12423423911796
0.77,31.22219658595697,131.01043183370518,12.336040087296515,8.555896296286852,-0.0444265365350262,27.06036425204585,-0.076278301883857,-3.638623156322754,331.76876669606884,26.70667891479432,10.97998868413023,67.74240841450117,0.1181117791870938,120.12661745591316,436.349965197469,1.274,1.0241065975906936,0.0,2.700354673604076,300.0001285565649,0.078492233864861,1.6757041606436395e-06,-0.25549809505421,0.0035718172290075,0.0211740863816557,8.556010779414372,20.39068329662984,26.699700411453456,27.30400538943815
0.78,31.222196095207703,131.01043283988304,12.566767744876357,8.40426666203086,-0.0456994812668807,22.22351231385752,-0.0751920206725781,-3.9468702144247714,286.8734378128874,26.969832948633293,11.104247421167727,67.59601589008155,0.1223472117725914,120.131195721486,444.98161284270486,1.274,1.0240588105546735,0.0,2.7087762176749446,300.0001285565649,0.0792658627592659,1.7831598214444932e-06,-0.2657368769514086,0.003515306814864,0.0222391195512645,8.404390017694249,20.175097565794463,26.962654491663372,22.571396454221947
0.79,31.222195599559704,131.0104338560141,12.799393995395194,8.268114063183651,-0.0470287160919605,31.62364372690059,-0.073810189299415,-4.239740860349811,373.6203323159581,27.17046598750896,11.205185657331846,67.44375695400498,0.1264168467032698,120.13559941315631,451.6167330818656,1.274,1.0240083170932772,0.0,2.7171531913007527,300.0001285565649,0.0798557441775739,1.894804203625872e-06,-0.2759925399868088,0.0034561266683269,0.0232687061293412,8.268246881190999,20.004093524411694,27.16307873488934,31.906671607563567
0.8,31.222195100089248,131.01043487989537,13.033315174589342,8.077751295951483,-0.0480360075206242,32.04909218253607,-0.07285932245069,-4.586886598487353,377.42502064505805,27.53453843928773,11.37012165460338,67.28562194827985,0.1303172737435502,120.13982466596896,463.7903379778355,1.274,1.0239625010683884,0.0,2.725466734261136,300.0001285565649,0.0809259900648565,2.010655282552032e-06,-0.2862313194751126,0.0033944120399751,0.0244547373118995,8.077893175144938,19.72185623011113,27.526992961754942,32.37574936388262
0.81,31.222194590208925,131.01043592498692,13.27208226534982,7.896639624943146,-0.0490608107175708,20.86243401521379,-0.0716659912712012,-4.927143018301058,273.9374926939922,27.858451895370465,11.520564581763344,67.12162057588515,0.1340457348192767,120.14386829428604,474.7555986042776,1.274,1.0239149950770308,0.0,2.733693948607822,300.0001285565649,0.081878215588268,2.13066943674052e-06,-0.2965035619568316,0.0033297696328737,0.0256297862656001,7.896791061560657,19.470299106105195,27.850745442185723,21.43648822396633
0.82,31.22219407538073,131.010436980119,13.512691476033377,7.760211945186043,-0.050326217876781,26.806024503067626,-0.0698546440701065,-5.215024759495717,328.725004432774,28.014166519066897,11.606015826393994,66.95173366963272,0.1375991390123163,120.1477267027961,480.06662471550015,1.274,1.0238644186635044,0.0,2.7419684913990974,300.0001285565649,0.08233609681713,2.2548659041652097e-06,-0.3067818887969185,0.0032622774531265,0.0266658528690176,7.760374131211135,19.330871290810297,28.00626129626516,27.308685661754456
0.83,31.22219355910231,131.01043803814704,13.753273381459968,7.578919819181082,-0.0512922273435196,34.065445737911766,-0.0683855785765398,-5.5527984646226205,395.6875032246518,28.313637277506626,11.748835833591937,66.7759577528729,0.1409749493404652,120.15139686238798,490.3739560788943,1.274,1.0238188483711983,0.0,2.7501851302715847,300.0001285565649,0.0832164935647697,2.3832852657169498e-06,-0.3169932994924354,0.0031923566339959,0.0278473432678645,7.579092370184233,19.09847798984375,28.305580314352355,34.515110324301205
0.84,31.22219303288857,131.01043911639786,13.998316884619587,7.373397107860399,-0.0520673738890898,21.0497144537958,-0.0670284041123369,-5.922204779149008,275.45937482564227,28.69165639358941,11.924036209160937,66.59433119837308,0.1441717879050742,120.15487698029038,503.5436119749514,1.274,1.0237739661568126,0.0,2.75828194423905,300.0001285565649,0.0843277611151487,2.515862304788638e-06,-0.3271782957293264,0.0031196491143486,0.0291251324428567,7.373579926960362,18.81933971242672,28.68347767075002,21.867040971276225
0.85,31.22219249858372,131.01044021109615,14.246775557738504,7.2247132981699425,-0.0531980377711052,22.95276427398152,-0.0649063332044935,-6.212107556245632,292.9609323393965,28.840263023146537,12.008718716240953,66.40686915267065,0.1471880144059593,120.15816493141598,508.7611258497752,1.274,1.0237227741398531,0.0,2.766410516185573,300.0001285565649,0.0847647690636121,2.652561093435739e-06,-0.3373512180183934,0.0030439441592632,0.0301855392591869,7.224908114081893,18.6847284897582,28.83190669611481,23.778643378868704
0.86,31.222191964772712,131.01044130471666,14.494156396352446,7.047814152179721,-0.0541112014427663,28.728059748840806,-0.0629548316054898,-6.535457712104475,346.2265619465616,29.081830731337188,12.131497865733929,66.21357853230684,0.1500220073804124,120.1612585667214,517.307354972851,1.274,1.023674789281455,0.0,2.7745316299611247,300.0001285565649,0.0854750022301265,2.7934376299716614e-06,-0.3474188668961885,0.002965873179628,0.0313460097092156,7.048020825950847,18.493317376452055,29.07333096495424,29.462138207375506
0.87,31.22219142222528,131.0104424160965,14.745241156655991,6.8484428491804,-0.0548303553046785,26.748425306837863,-0.0611005079463865,-6.889006420023962,327.9640783669946,29.40000960655321,12.286481081248033,66.01451968752424,0.1526736187430577,120.16415732817563,528.6760555166269,1.274,1.0236288969245204,0.0,2.782493319160124,300.0001285565649,0.086410413046041,2.938419314335083e-06,-0.3574014939381949,0.0028852061716864,0.0325987153466712,6.84866129221306,18.25765842385757,29.391396875796843,27.621375764481517
0.88,31.222190872131247,131.01044354279935,14.99934500965696,6.659844405961786,-0.055600583577111,23.11696797803891,-0.0589798445642782,-7.221647958676493,294.4828134710421,29.660261105004206,12.419095561597798,65.80974134422603,0.1551426458303179,120.16686055323372,538.0641266545435,1.274,1.0235805388426191,0.0,2.790460614125397,300.0001285565649,0.0871755756320565,3.0874431654304046e-06,-0.3673111708165926,0.0028017474766682,0.0337983234739072,6.660075450124975,18.058452438678003,29.65152738712991,24.218792008661325
0.89,31.222190317606195,131.0104446784669,15.254852494780664,6.4776706473410925,-0.0563971656937924,25.34222127663271,-0.0566457572566073,-7.536390096647885,315.02813424808807,29.876442881368376,12.53465944760199,65.59928530778343,0.15742889805768,120.16936755596625,545.9227829315298,1.274,1.0235293752791452,0.0,2.7984107468514567,300.00012855656485,0.0878112166675919,3.2404929235413527e-06,-0.3771146185430204,0.0027156876888284,0.0349524522918496,6.477915103851724,17.886009144337024,29.86758403672756,26.439148315792686
0.9,31.222189758178725,131.01044582405927,15.511988608647016,6.280448362707074,-0.05704299032969,27.976804493828848,-0.0543346169349231,-7.870798206271543,339.3781423542166,30.144011464813907,12.672606682274155,65.38321245734524,0.159532833799403,120.1716783318599,555.731238179288,1.274,1.0234837388140003,0.0,2.806293593947552,300.0001285565649,0.0885978967418617,3.397535392644547e-06,-0.3867841006121601,0.0026271911631319,0.0361688191584964,6.280706369245044,17.685758753784043,30.13505117432621,29.062931826303533
0.91,31.22218919133623,131.01044698469508,15.771968141896547,6.074143525238278,-0.0575793413324505,21.27924945753185,-0.0519762563791987,-8.216471106305379,277.7421810230785,30.440038966332324,12.823769545942232,65.16159956709502,0.1614554833180663,120.17379347505172,566.6857367422518,1.274,1.023436404813438,0.0,2.8141172370401013,300.0001285565649,0.0894682296419943,3.5584920296289123e-06,-0.3963218332400829,0.0025361449974271,0.0374237263900969,6.0744154052868575,17.47196185731745,30.43099442606828,22.81051416447792
0.92,31.22218861759461,131.01044815931755,16.034484069051903,5.88762753561354,-0.0582676467588729,25.315881191690824,-0.0492618236269209,-8.512708973504798,315.0281342480675,30.623366744277494,12.92874289872995,64.93452213491764,0.1631979774422573,120.17571365692784,573.5176600658585,1.274,1.0233859136578225,0.0,2.821918942716985,300.0001285565649,0.0900073264198115,3.7232907781115583e-06,-0.4057217855378287,0.0024425007591572,0.0385411031817541,5.887914839594645,17.321509388824758,30.614214085305143,26.708846498990955
0.93,31.22218804127189,131.01044933912553,16.297405492232805,5.679195459373988,-0.0587232928782001,30.09246343953703,-0.0466505904824908,-8.846260285029514,359.16250706547066,30.90049129252552,13.07461938800638,64.70205910593344,0.1647616430915332,120.17743973129124,583.9299180181259,1.274,1.0233407575091376,0.0,2.829689280049821,300.0001285565649,0.0908221124170515,3.891912585293236e-06,-0.4149356976032243,0.0023466616486209,0.0397720608970781,5.679498057928409,17.122191604563838,30.891267060865413,31.365823011168633
0.94,31.22218745587625,131.01045053734308,16.56384668061215,5.458571960710609,-0.0590246420199902,21.81197528481933,-0.0440249154307996,-9.200700788000264,283.06875048378083,31.229127964237247,13.244087814783194,64.4643170963941,0.1661486773087456,120.17897349726036,596.4012703512307,1.274,1.0232914783978162,0.0,2.8373662515382727,300.0001285565649,0.0917883107574206,4.064235067493767e-06,-0.4239767588282482,0.0022483875026698,0.0410698112125579,5.458890108053873,16.898774507525392,31.21985639678963,23.673130317071646
0.95,31.222186862679447,131.01045175137318,16.83312534495751,5.261705139212789,-0.0595406643454857,28.24095575604518,-0.0410071613632812,-9.486171815370607,342.421873617488,31.410745930182664,13.351573782466742,64.22139514972801,0.1673611245801696,120.18031655245056,603.3427714140986,1.274,1.0232418269359267,0.0,2.8450416858496035,300.00012855656485,0.0923224007954025,4.240154133816296e-06,-0.4328435908054031,0.002147563829517,0.0421714766776028,5.262041057544267,16.75375151140067,31.40139330618109,29.79162162946012
0.96,31.22218626762618,131.0104529691079,17.102408289822076,5.038232860586757,-0.0597417248672709,27.63917778022125,-0.0381404705228102,-9.829853361135264,337.09533515678265,31.72995182346809,13.520152270463187,63.97339308923856,0.1684010710401373,120.18147051103078,615.6518766311838,1.274,1.0231951201821403,0.0,2.8526951609935307,300.0001285565649,0.0932608934701421,4.419654282217018e-06,-0.4414802480014563,0.0020447389814997,0.0434489240470922,5.038586133761884,16.54117596291164,31.72056761697072,29.33516013529822
0.97,31.22218566136077,131.0104542095945,17.376050627079643,4.81927918505728,-0.0599583826201721,17.607862741560783,-0.0350860708063382,-10.151056880373057,245.0218871929888,32.00853553216733,13.672616109893925,63.720442821554926,0.1692715904027574,120.18243807913602,626.4935120434252,1.274,1.0231476260761452,0.0,2.8602470808889366,300.0001285565649,0.0940799991081602,4.602565062051814e-06,-0.4499080635447181,0.0019395259725611,0.0446659426136698,4.8196512725602485,16.352208328372104,31.99911729316829,20.3244192327008
0.98,31.22218505004924,131.01045546027467,17.65112007486368,4.620325827601308,-0.0603845401041098,25.68910433159945,-0.0317069172261695,-10.397069159080864,319.593746642963,32.14064194819807,13.76152401722014,63.46266399912188,0.1699753482851276,120.1832214738174,631.6588552686624,1.274,1.0230935628253934,0.0,2.867820574408628,300.0001285565649,0.0944685815978529,4.788806518099771e-06,-0.458099642867691,0.0018321349042964,0.0456656820825618,4.620719547728299,16.236939183631474,32.131156768574904,27.71335659545974
0.99,31.22218443703529,131.01045671434323,17.92609006167865,4.3931411604756025,-0.0604325074553735,28.05710499102384,-0.028500752435256,-10.71780167167568,341.66094855170127,32.44393632011654,13.928028718631356,63.20019197478702,0.1705154529480086,120.18382339117365,643.6193716437972,1.274,1.0230490803133316,0.0,2.8753337586138046,300.0001285565649,0.0953603278922231,4.978343400804654e-06,-0.4660048177682089,0.0017231478362116,0.0468908307198245,4.393555983951163,16.041537668720363,32.434443605803644,30.034533880911127
1.0,31.22218381219056,131.010457992409,18.205509013033925,4.165002187243708,-0.0604273921191599,25.04525351350484,-0.0251751776774848,-11.030653955573086,314.2672081822764,32.74281502114235,14.09440446837894,62.93319087076865,0.170895914830443,120.18424753826636,655.5146480572984,1.274,1.022999484445133,0.0,2.882746762358217,300.0001285565649,0.0962391058208726,5.170953686168736e-06,-0.4736491433806445,0.0016120718397591,0.0480977871245299,4.165439743341486,15.8520870157051,32.73332311034414,27.366780666218265
1.01,31.22218318132763,131.01045928263912,18.48668530433364,3.942620110939655,-0.0604638226092874,26.1697498165934,-0.0216756862811348,-11.308751855327056,324.92031610370094,32.98536061101283,14.236841781861896,62.661810135454,0.1711201415739445,120.1844969205904,665.2442297902634,1.274,1.0229507481225095,0.0,2.8901833432321475,300.00012855656485,0.096952313962045,5.366513819907983e-06,-0.4810147081843749,0.0014990119479233,0.0492062410186226,3.9430829868211688,15.692253499494676,32.9758629777298,28.50866787178645
1.02,31.2221825450438,131.01046058381772,18.769338996872506,3.71434107649068,-0.0603798271076975,21.743520617428256,-0.0181200316649644,-11.594818230091644,284.59063161543185,33.26024772954469,14.395654987294469,62.38620948928381,0.171191754100858,120.18457477915403,676.3598403901062,1.274,1.0229039803623294,0.0,2.897570968321036,300.0001285565649,0.0977605884901181,5.564922741494689e-06,-0.4880731086107109,0.0013842647719407,0.0503430086543352,3.714831119636575,15.52110935746775,33.250763290236854,24.641851126994105
1.03,31.222181900511767,131.0104619016933,19.054669127384084,3.492640795688995,-0.0603606086622337,17.646537566473448,-0.014403820038206,-11.835870992029868,247.3046933904342,33.46379802256067,14.523055360240487,62.10656493225792,0.1711148030880521,120.1844848368784,684.6449558963977,1.274,1.022853416101322,0.0,2.904903281253316,300.0001285565649,0.0983591928428407,5.766015084071696e-06,-0.4948147586201449,0.0012678230869009,0.0513493299164777,3.4931616934870444,15.385212448485609,33.45431660207751,21.248254932934245
1.04,31.222181251842454,131.01046322790296,19.340855397923328,3.2731429222627058,-0.0603454375630192,28.2924674886874,-0.0105891960975756,-12.046501811437212,345.4656368807608,33.62863578472752,14.63365481201651,61.82305794208861,0.1708933450429616,120.18423081391587,691.3874852759192,1.274,1.0228049544826707,0.0,2.91221213470456,300.0001285565649,0.0988440149951622,5.969683272682818e-06,-0.5012107429070534,0.0011500510122355,0.0522678443388087,3.273698550431539,15.269219411640403,33.61915674731373,30.75031763449717
1.05,31.222180598297847,131.01046456394675,19.62819930362245,3.033935837227644,-0.0599472901578274,16.812545814147775,-0.0068402153501718,-12.339655526890324,240.4562587980608,33.97386522085335,14.830796832394212,61.535886572026,0.1705318807401042,120.18381694008576,705.6363556923435,1.274,1.022755494436122,0.0,2.9194515345625263,300.0001285565649,0.0998590651418209,6.1757895382290565e-06,-0.5072407950674857,0.0010312086894406,0.0534382363991971,3.034527472700385,15.078779281073889,33.96444872425326,20.85494766389211
1.06,31.222179932045304,131.01046592574647,19.91993941682868,2.815051312881314,-0.0598782022029027,24.146618462024858,-0.0028612716673295,-12.504982732292468,308.1796836557233,34.09459223418397,14.923080341067973,61.24526050016417,0.1700351784502302,120.18324776342632,710.6403476921145,1.274,1.0227013895379469,0.0,2.926630765997219,300.0001285565649,0.1002142468262983,6.384039091904352e-06,-0.5129199635992479,0.0009107752268638,0.0542270422598908,2.815687555074843,14.987973889645293,34.08518658988853,27.19253177753789
1.07,31.22217926754024,131.01046728391267,20.210000450443854,2.58016116488176,-0.0594533008049978,28.49296185827053,0.0010764649051478,-12.745882241605123,348.5093681440431,34.38310134314805,15.097076141543203,60.95138073801009,0.1694073275597245,120.18252704377316,722.6980046272319,1.274,1.0226540159946436,0.0,2.933831016793361,300.0001285565649,0.1010625925311274,6.594415021762492e-06,-0.5181989875722656,0.0007896841256052,0.0552472063089874,2.5808455866384503,14.830135030519749,34.37376244217193,31.213881378843304
1.08,31.22217858991687,131.01046866866363,20.50450779481049,2.3428360142662767,-0.0589173323384669,18.90761169921213,0.0050887248398493,-12.9903392133598,261.0015785751465,34.700673199217924,15.287257157688916,60.6544765779656,0.1686534401189167,120.1816597501834,736.0889136579758,1.274,1.0226061614050743,0.0,2.940902999965231,300.0001285565649,0.1019963736096547,6.806608557212068e-06,-0.5230884946631899,0.0006674733866816,0.056281996885549,2.343576307040743,14.665235932721773,34.69141848792674,22.940067980314645
1.09,31.222177904610984,131.01047006894612,20.80114055112513,2.11715790893536,-0.058596239153938,17.284472301975093,0.0092164161876727,-13.13378499055992,246.54375332456465,34.85353636424329,15.398764259779552,60.3547711827221,0.1677779908526825,120.18065011734495,742.5672688419799,1.274,1.0225512795791307,0.0,2.947997795961248,300.00012855656485,0.1024460302373717,7.020406325221866e-06,-0.5275757128133723,0.0005441816438543,0.0570132371413951,2.11796826410462,14.57151681191536,34.844332090125064,21.708278970897915
1.1,31.22217721780872,131.0104714721882,21.09740662588249,1.8889116040032208,-0.0581688462013816,35.40582080763116,0.0133670293520374,-13.275500124732403,413.1890617384087,35.03055780680287,15.523355195116414,60.05249503065864,0.1667854056040342,120.17950233841252,750.1080915093046,1.274,1.0224981043155532,0.0,2.9550588028494382,300.0001285565649,0.102966698827716,7.235735126925669e-06,-0.5316277893984191,0.0004205399887,0.0577412824311559,1.889806719341096,14.471703108335587,35.02142066737778,37.81284476604916
1.11,31.22217652339512,131.01047289081615,21.395729516353303,1.644689689023911,-0.0572213411177539,25.64149056346801,0.0175687368151355,-13.5542460466442,324.1593910379213,35.487934399763866,15.789409602915216,59.74789744613128,0.1656807874026338,120.17822142002404,769.8014837477393,1.274,1.0224548851875197,0.0,2.9620282784035,300.0001285565649,0.1043114350165536,7.452367598031798e-06,-0.535236208062772,0.0002966125488487,0.0588905297240963,1.645684524957753,14.26651729755899,35.47894609401382,29.00351587083715
1.12,31.222175811486355,131.0104743449088,21.69987606707596,1.4140227287820974,-0.056597323776842,9.073309787333775,0.0218453303679016,-13.690302507525638,172.7328179403806,35.70901335004409,15.939485849956665,59.44123263999676,0.1644691443066198,120.17681229061918,779.3998443886022,1.274,1.0223979224661404,0.0,2.968964959151234,300.0001285565649,0.1049616235100119,7.66986025138491e-06,-0.5384099499869801,0.0001715694010713,0.0596070315963222,1.415154720943341,14.158776026607049,35.70012306466039,16.424061935555056
1.13,31.222175100219168,131.0104757976146,22.00275000501348,1.1917910272553525,-0.0562219551121343,30.28067617952565,0.0260870542407529,-13.701395962231652,367.5328077894322,35.731121057219006,15.98981007897334,59.13274962202641,0.1631544737230681,120.17527870345224,780.3425058564666,1.274,1.0223460397860296,0.0,2.975955296124331,300.00012855656485,0.1050269649614692,7.888186749008384e-06,-0.5411145361255004,4.6406311713028445e-05,0.0599417993671338,1.1931162160473967,14.130733981242145,35.7222897345787,33.23624951370941
1.14,31.22217438859344,131.01047725096828,22.30480503703671,0.9543917203688198,-0.0551577976703467,16.272893475329937,0.0304645459419353,-13.914615457091395,239.6953177322812,36.15463361550532,16.246554574706742,58.82271719326042,0.1617416559046573,120.1736254838452,798.9273869656578,1.274,1.0223022138470996,0.0,2.982836887538848,300.00012855656485,0.106272187059962,8.107290841634954e-06,-0.5433292268208852,-7.801385471567817e-05,0.060898748081346,0.9559841301834956,13.95542395121494,36.14596945024612,21.410850367669237
1.15,31.22217365511713,131.01047874862735,22.614080600535527,0.7286617373157785,-0.0545156697273878,15.976021561202268,0.03475253337244,-13.938173622724978,237.4125115347709,36.26265673106264,16.343064226426325,58.511416077029146,0.1602362266472094,120.17185828099568,803.6847278512672,1.274,1.0222426194541194,0.0,2.9896233091284232,300.0001285565649,0.1065900799880448,8.326583152433126e-06,-0.545062069471775,-0.0002029169926259,0.0612736866111755,0.7306981082825672,13.902760391608483,36.25409343097866,21.20158382290818
1.16,31.222172927705792,131.01048023388344,22.92005503201972,0.501747567781732,-0.0537099081736662,43.51210215005582,0.0390578417636023,-13.979923772632404,490.043774385954,36.4369106325648,16.47500998839748,58.19912228841699,0.1586423178887708,120.16998108858016,811.4033736172512,1.274,1.02219674531104,0.0,2.996493940879064,300.0001285565649,0.1071026499165271,8.546103893348342e-06,-0.5462904455035152,-0.0003270407520325,0.0617050658232472,0.504614013151462,13.829686066486737,36.42847390115326,45.70276608390906
