Time,Latitude,Longitude,Altitude,Angle of Attack,Angle of Sideslip,X-Acceleration,Y-Acceleration,Z-Acceleration,Thrust,True Velocity,Ground Velocity,Pitch,Roll,Yaw,Dynamic Pressure,cp,parachute_deploy_gain,Wind Speed,Mach,omega_x,omega_y,omega_z,Cmq,Angle of Attack(total),Angle of Attack(gust),True Velocity(gust),Acceleration
0.0,31.222216000000007,131.010392,3.000000004412624,0.0,0.0,0.0,0.0,0.0,2.2828121974499247,0.0,0.0,71.99999999612658,-1.0292491154817412e-14,119.99999999354436,0.0,15.288,0.0,0.0,0.0,0.0,0.0,0.0,-0.0,0.0,90.0,0.0,0.0
0.01,31.22221599999862,131.01039200000284,3.0000009727369523,0.0,0.0,0.0,0.0,0.0,34.24218696174923,5.916279387578309e-11,5.734623670548936e-11,71.99999999613168,-5.86671995824671e-13,119.9999999935449,2.1432944861733093e-21,15.288,0.0,0.0,1.7386402909615473e-13,-3.4220131069073734e-19,7.115076756936125e-19,5.488773498207866e-19,-1.1574302492039043e-31,0.0,89.99999999962336,5.916279387578309e-11,0.0
0.02,31.22221599999738,131.01039200000537,3.0000018317022668,0.0,0.0,0.0,0.0,0.0,25.871876237766408,1.2265415415436536e-10,1.1895038237325684e-10,71.9999999961369,-1.1836364828043265e-12,119.99999999354544,9.211895886571454e-21,15.288,0.0,0.0,3.6044858651615574e-13,-6.979551485375437e-19,1.4162390878091906e-18,1.0909784360635388e-18,-4.776231873571785e-31,0.0,89.99999999921916,1.2265415415436536e-10,0.0
0.03,31.22221599921969,131.01039200159065,3.0001883335529382,18.80143492628821,-0.0001350810307892,10.931161642028636,-1.75114298675875e-05,3.026590975169265,180.34219359854663,0.0798232026864394,0.0478175828508887,71.99999999765336,-5.341802909786072e-12,119.99999999436793,0.0039016003969354,15.288,0.0,0.0,0.0002345795854893,3.788270153300133e-17,-7.771883375645477e-10,1.1422790048099072e-11,1.7057759223764537e-13,18.80143492675591,89.51882325913425,0.079801984207741,11.342422482672777
0.04,31.222215995131297,131.01039200995308,3.001692634342189,9.19442604083399,-4.49173898918486e-05,52.29595764159784,6.445392950801871e-06,3.026413589912948,548.6359724538078,0.3504174083926908,0.1601447499964056,72.00000000319055,-3.111420077280171e-11,119.99999999870242,0.0751892535633216,15.288,0.0,0.0,0.0010297854387864,2.0082066977226968e-15,-1.520937588847922e-08,2.5623342884322286e-11,1.4654248781413086e-11,9.19442604094277,87.798916624545,0.3504103527855857,52.383455068075136
0.05,31.222215983575865,131.01039203366796,3.0074067499493786,5.158590039700252,1.707592688632746e-06,76.26884281015512,5.843947534199429e-05,3.0258124765658088,761.6984298824644,0.9592973585397016,0.3772700771701255,72.0000000004862,-1.3608731808076822e-10,120.0000000109612,0.5634958029902841,15.288,0.0,0.0,0.0028191251099456,2.086299069701397e-14,-1.0551247853743037e-07,3.973493515691201e-11,2.783064866637575e-10,5.158590039700515,83.94063169874748,0.959297626767734,76.32884071402438
0.06,31.222215961742712,131.0103920785344,3.019291017943491,4.109521257467909,3.140103977270004e-05,57.06876634333886,0.0001151069734147,3.024834864051463,590.4875390737208,1.6257536642597354,0.6118982818704327,71.99999992547217,-3.5903296759057166e-10,120.00000003412836,1.6184272268450337,15.288,0.0,0.0,0.0047776672697797,1.0694899894620088e-13,-3.741090980393931e-07,5.521401959501359e-11,1.6723176417636091e-09,4.109521257587776,79.78719176344794,1.6257585967235286,57.148873286519276
0.07,31.222215929936205,131.01039214392435,3.0371334573469446,3.649087515174788,5.707077112564807e-05,86.89643797254193,0.0001728541558773,3.0234947746384675,855.2937749779139,2.3057260079826607,0.8506307413593818,71.99999965378231,-6.907496536790437e-10,120.00000006788592,3.255354923652711,15.288,0.0,0.0,0.0067759305364855,3.495199904512709e-13,-9.036515915819006e-07,7.594816279105379e-11,5.728932851326001e-09,3.6490875156204896,75.6601668283889,2.305734972638426,86.94902215090157
0.08,31.222215886364623,131.01039223353447,3.0621840248716574,3.4254446680114707,8.413075603463509e-05,17.831756866644035,0.0002285946601282,3.021841001032126,241.2171988638848,2.961944911520492,1.0819695676346892,71.99999900671328,-1.141745983122182e-09,120.00000011415082,5.371998197385977,15.288,0.0,0.0,0.0087043901031071,8.800530155962314e-13,-1.829098470920821e-06,1.0943386634701918e-10,1.4896287129277132e-08,3.4254446690434226,71.81713637501419,2.9619581267487467,18.085991154451033
0.09,31.22221583454733,131.01039234010327,3.0919888289029,3.389560809024919,0.0001118726864415,54.09031716446879,0.0002748660999733,3.020060228038602,563.0937377043176,3.504225426410036,1.2780161667917422,71.99999774508822,-1.634190085504106e-09,120.00000016921716,7.519080503822694,15.288,0.0,0.0,0.0102980157586766,1.865782139518716e-12,-3.1503298654458527e-06,1.6284478329871028e-10,3.03536411425607e-08,3.389560810868955,68.76526501308032,3.504242999330529,54.17456206384468
0.1,31.22221577423132,131.0103924641528,3.1267248829165366,3.4447939461814814,0.0001419149103147,51.372195336549765,0.0003131602029306,3.0182021883815127,538.7437595981919,3.950569597142709,1.4443465951180965,71.99999562056465,-2.1287748602259068e-09,120.00000023339832,9.55649523509932,15.288,0.0,0.0,0.0116097108366932,3.485956000178229e-12,-4.949356763187612e-06,2.4573266549165286e-10,5.3761299442583966e-08,3.444793949101151,66.34639928474206,3.9505918890846927,51.460781166288626
0.11,31.222215706113143,131.01039260424562,3.165907002780892,3.4691423802630394,0.0001702373452339,40.591037561894986,0.0003534470100582,3.016051659024047,442.8656393052949,4.421478635995476,1.6182620895289603,71.99999235067894,-2.5564479031457968e-09,120.00000030601664,11.970509656144712,15.288,0.0,0.0,0.0129935974697161,5.942887149865172e-12,-7.273722517324353e-06,3.67769289312894e-10,8.842679949465076e-08,3.4691423844348632,63.88798785789768,4.421505376815134,40.70293476011277
0.12,31.222215630588888,131.0103927595646,3.2092596514826863,3.4852659299808075,0.0001974376474727,44.30042894095728,0.000394069215595,3.013641598889868,475.58594813540446,4.896982486381051,1.793579340340896,71.99998761802138,-2.8337988279882726e-09,120.00000038673312,14.683611096353944,15.288,0.0,0.0,0.0143909889875706,9.464337642181618e-12,-1.017558359402848e-05,5.395790443954697e-10,1.3700793350599625e-07,3.4852659355662303,61.5068242157714,4.897013499814194,44.40281567867803
0.13,31.222215548046687,131.0103929293088,3.256512891171917,3.5606043721293616,0.0002276507019012,48.86766833507025,0.0004268800875964,3.0112558910133567,515.9156326236895,5.278566579338586,1.939796541405244,71.99998107389406,-2.8573058577484587e-09,120.00000047523812,17.061052093156064,15.288,0.0,0.0,0.0155123760833565,1.4300406003001044e-11,-1.3705268062305584e-05,7.724776992181392e-10,1.989112774124932e-07,3.560604379397528,59.67313531776262,5.27860233862722,48.960358155653
0.14,31.222215458587108,131.01039311327068,3.30759734332425,3.6000732663755977,0.0002555702913645,45.540290862247225,0.0004629468001456,3.0085404980032777,486.2390860568404,5.70011779273801,2.098362647205908,71.99997235012626,-2.508533681468686e-09,120.00000057154703,19.894788765881632,15.288,0.0,0.0,0.0167512184495524,2.071534240530911e-11,-1.7917736259613292e-05,1.0787346240473087e-09,2.8081526258393346e-07,3.6000732754351943,57.72385750323359,5.700157937625502,45.639559681930805
0.15,31.222215362317904,131.01039331122794,3.3624387479639086,3.651605404442164,0.0002842753491325,44.01308509501,0.0004965057129938,3.005703619811542,472.54218587214,6.091938849578711,2.2476968067377374,71.99996103728932,-1.6446954747148112e-09,120.00000067569304,22.723773683610247,15.288,0.0,0.0,0.0179026934683374,2.9002783512213203e-11,-2.287326399669318e-05,1.47199345427166e-09,3.831202693354572e-07,3.651605415492516,55.98561718911576,6.091983503446133,44.115597174664394
0.16,31.22221525912812,131.01039352340948,3.421115382839859,3.67540086436193,0.0003108411545024,34.83804992586084,0.0005330990866742,3.002517946501868,391.1218908297564,6.521183188362317,2.4085903880902046,71.99994669525161,-1.0153513453738144e-10,120.00000078796704,26.03872642002185,15.288,0.0,0.0,0.019164148528834,3.9478358970291335e-11,-2.864207894220033e-05,1.9677461746207517e-09,5.135466997084602e-07,3.6754008774883777,54.15946979122355,6.521232015176687,34.96719658394182
0.17,31.2222151493826,131.01039374906244,3.4833737923187487,3.7139589864597298,0.0003384978477213,43.96471427482637,0.0005668629535037,2.999235483723449,471.78125980632376,6.916861975403744,2.559060925010733,71.99992884100092,2.3206494032971838e-09,120.0000009081849,29.29426197817256,15.288,0.0,0.0,0.0203269651395979,5.248754693205839e-11,-3.5267097947693114e-05,2.580363454062817e-09,6.706952682968329e-07,3.713959001863866,52.549031795895466,6.916915146521327,44.06689817851128
0.18,31.22221503253009,131.01039398932429,3.549599475912623,3.7380363034619775,0.0003650282082698,36.67395661481795,0.0006021794701355,2.9956556354306425,407.10156721191447,7.332140201215607,2.71556808256092,71.99990696207136,5.837017536380516e-09,120.00000103716444,32.917216366714264,15.288,0.0,0.0,0.0215473823438242,6.839750892601699e-11,-4.285557247677198e-05,3.331016495775474e-09,8.639362741436378e-07,3.738036321259578,50.93050624815799,7.332197539712479,36.796100973258795
0.19,31.22221490871209,131.01039424390297,3.619694897703461,3.747799769666444,0.0003901520189829,41.42208371271829,0.0006393759928961,2.991742733214697,448.9531328318269,7.771071983754382,2.879366399937307,71.99988049019642,1.0709144790974043e-08,120.00000117502664,36.97605053227239,15.288,0.0,0.0,0.0228373144884866,8.761416506509219e-11,-5.146771415177372e-05,4.238406957677133e-09,1.0996552116864756e-06,3.747799789945131,49.29705748437159,7.771133268690212,41.529983675580546
0.2,31.22221477769685,131.01039451327668,3.693822889232993,3.7700519460961166,0.0004166800650969,37.99697972290605,0.0006740224661302,2.987733789228414,418.51563019916136,8.179966026035371,3.0338260708461373,71.99984881140107,1.723179577184912e-08,120.0000013223286,40.969302182777255,15.288,0.0,0.0,0.024038975990988,1.1057590044953188e-10,-6.120032215177249e-05,5.3263847350253015e-09,1.376394225587184e-06,3.7700519690893857,47.8457752505109,8.180031477986942,38.11426270718793
0.21,31.222214639876928,131.01039479663547,3.771710975053407,3.7926098867321474,0.0004432924407074,36.46301043881366,0.0007080907240332,2.983530483977461,404.8187610144644,8.582757448615462,3.1863584283669346,71.99981127559042,2.5745201416596626e-08,120.00000147900325,45.103059028532826,15.288,0.0,0.0,0.0252227064089584,1.3774582723633048e-10,-7.20875523136271e-05,6.61341033873124e-09,1.7010673350603349e-06,3.792609912601061,46.47936953648762,8.582827080829217,36.584868250565684
0.22,31.22221449507626,131.01039509434258,3.8534832466471007,3.782921298925821,0.0004660920499522,44.14577847155813,0.0007479176313898,2.978724032883548,472.5421858721365,9.056569122268344,3.360845972992861,71.99976720416048,3.661811567390422e-08,120.00000164562512,50.21995530074818,15.288,0.0,0.0,0.0266151520780326,1.6960703048385348e-10,-8.421592474264931e-05,8.124635526119773e-09,2.0969540034515424e-06,3.7829213275976334,44.9464484092354,9.056642335836344,44.24615863872642
0.23,31.22221434283448,131.01039540734791,3.9394622486964206,3.813874679301352,0.0004940771488601,36.66675459308932,0.000779455230549,2.974212905336642,406.3406421461021,9.430647902846331,3.5044030163419806,71.99971583979395,5.0272885112871524e-08,120.00000182313076,54.45382429059888,15.288,0.0,0.0,0.0277145095638672,2.0669790509245914e-10,-9.77285871729516e-05,9.894576563683824e-09,2.5339062472561444e-06,3.813874711257219,43.79476959007253,9.430725512303388,36.78718303164376
0.24,31.222214184153326,131.01039573358457,4.028950821673608,3.829256049377765,0.0005200487408944,37.802126339316736,0.0008136255607606,2.9692962675112065,416.2328240017114,9.837806876534357,3.658163422426286,71.9996564062533,6.718950080713476e-08,120.0000020109434,59.25679777340223,15.288,0.0,0.0,0.0289110855155543,2.4956955046738006e-10,-0.0001125744417092,1.1934277804843484e-08,3.0448209172448607e-06,3.829256084638984,42.59361542722471,9.83788856559955,37.91856374864305
0.25,31.22221401888584,131.01039607335582,4.122052964664892,3.851417709838087,0.0005469594058717,38.85163035360012,0.0008459008130282,2.964283881833675,425.36408079150686,10.22297576958679,3.8050691648373967,71.99958811418384,8.786880969336211e-08,120.00000220974424,63.98709205399403,15.288,0.0,0.0,0.0300430411774988,2.987811646313829e-10,-0.0001288461362054,1.4273117985167728e-08,3.621333387698252e-06,3.8514177486178034,41.50703126619192,10.223061685769354,38.96455005232871
0.26,31.222213847358866,131.0103964259872,4.218542267117083,3.8780574625554745,0.0005745172425185,42.3164797140743,0.0008766626387865,2.959162938653076,455.8015834241788,10.590779679138215,3.946551912391076,71.99951013710364,1.1286401474734325e-07,120.00000241975916,68.67355887153568,15.288,0.0,0.0,0.0311239685467471,3.5491769188178554e-10,-0.0001465721578858,1.6932703957058654e-08,4.267712643344226e-06,3.8780575050466,40.51245375834074,10.590869924095635,42.41981967733593
0.27,31.22221366913008,131.0103967923915,4.318728802515264,3.886188503202341,0.0005994342651313,38.70936050721014,0.0009111181036949,2.953518013741325,423.84219965987256,11.004860953238978,4.102320296019413,71.99942161756776,1.4276417094868828e-07,120.0000026420792,74.14786134434608,15.288,0.0,0.0,0.0323408987462391,4.1858405402174807e-10,-0.0001658847815307,1.995072923688136e-08,5.018832267232506e-06,3.886188549362022,39.43841359495857,11.00495511215316,38.8218734782956
0.28,31.22221348431185,131.01039717233687,4.422535913956003,3.90556090261878,0.0006261175699806,44.68030766832924,0.0009425767186621,2.947879457547137,476.3468732012221,11.38358114165448,4.247086834352694,71.999321619057,1.7823531611327881e-07,120.000002877279,79.33831935330025,15.288,0.0,0.0,0.033453914386159,4.904408325040897e-10,-0.0001868529238516,2.3357766479368094e-08,5.847713054408178e-06,3.9055609527288775,38.49894431917428,11.383679491972384,44.77744842575601
0.29,31.222213292835256,131.0103975659655,4.530013412817602,3.9242599519377537,0.0006528240665589,35.802573724660256,0.0009737210635801,2.942037024315898,397.97031042211177,11.759725774384751,4.391004157029451,71.99920917567837,2.1999186079018322e-07,120.00000312617878,84.66717879828003,15.288,0.0,0.0,0.0345593650464213,5.711677680739745e-10,-0.0002095620322847,2.7188189988316943e-08,6.77505090435382e-06,3.9242600061534456,37.60352534239979,11.759828319749328,35.92324968749781
0.3,31.222213095024976,131.0103979726075,4.64093665799555,3.936939025755682,0.0006785438093183,33.570228713727204,0.0010059102294455,2.93586442972183,378.1859457108711,12.149968255527943,4.539237002744259,71.99908328532703,2.6880857935396905e-07,120.00000338923812,90.3787563598417,15.288,0.0,0.0,0.0357062504417728,6.614698865958865e-10,-0.0002340353597042,3.1467140861055e-08,7.817263716758327e-06,3.9369390841381695,36.71173884615234,12.150074840940263,33.698361337808635
0.31,31.22221289105846,131.01039839189684,4.755183729044857,3.9598342215431432,0.0007060286581592,35.396825578217346,0.0010350810412898,2.9297385597941448,394.1656220930212,12.504537499407316,4.6763673222047455,71.99894291513503,3.255120771695107e-07,120.00000366712923,95.72967338626896,15.288,0.0,0.0,0.0367483036680869,7.620720834468404e-10,-0.0002603234137215,3.622454560346964e-08,8.948994505138873e-06,3.9598342843844345,35.934338386209795,12.504648402129598,35.5178635353378
0.32,31.222212681031937,131.01039882363492,4.872689374180126,3.985461429033668,0.0007340760463279,38.52097867048992,0.0010630242168685,2.9235095146848846,421.55939346242695,12.84534566718622,4.809181081594425,71.99878701464397,3.909756427278764e-07,120.0000039606604,101.01782231644016,15.288,0.0,0.0,0.0377499198995686,8.737098716736534e-10,-0.0002884807530145,4.1491545539590986e-08,1.0187112828155184e-05,3.98546149652875,35.21473736963424,12.845460975581933,38.631757748577954
0.33,31.22221246496604,131.01039926777932,4.9934410812554,4.010606629086,0.0007621365968788,38.18822026147908,0.0010905599149574,2.917102431053817,418.5156301991682,13.18247167592885,4.940798912752974,71.99861449732019,4.661299779655886e-07,120.000004270781,106.38859400029033,15.288,0.0,0.0,0.0387407190563976,9.971421990244511e-10,-0.0003185760672934,4.7302669734505256e-08,1.154498667827874e-05,4.010606701382261,34.52805863348922,13.182591392065536,38.299473293007864
0.34,31.222212242662028,131.01039972474007,5.117579377337869,4.019339771238816,0.0007871574969313,29.898022638335373,0.0011220389395318,2.910051232417875,345.46563688075645,13.569536737955724,5.0878303926024735,71.99842423285973,5.519675040347761e-07,120.0000045987411,112.72655675097128,15.288,0.0,0.0,0.0398782837956187,1.1331556132162459e-09,-0.0003507224668667,5.37022358302301e-08,1.308298593306914e-05,4.019339848191799,33.76700548046532,13.5696603843662,30.039310197084795
0.35,31.22221201433324,131.01040019407705,5.2449575244483055,4.033762873683395,0.000813261106463,32.76415525156106,0.0011515840876071,2.902959820469776,370.5765700527033,13.934300103976534,5.227895396154902,71.99821502296155,6.495674834876441e-07,120.000004945438,118.8669740701126,15.288,0.0,0.0,0.040950312688979,1.2825853697215452e-09,-0.0003849609961885,6.072234695821837e-08,1.4746020857580124e-05,4.033762955530055,33.07785186209504,13.934427850732408,32.89250745069162
0.36,31.22221177990305,131.01040067594835,5.375631006350063,4.051723629010647,0.0008401329464575,37.01692984301412,0.0011797030485285,2.8957873473716007,407.8625232777193,14.282998147928636,5.362923567977223,71.9979856440668,7.600645476620651e-07,120.00000531213882,124.88900300695136,15.288,0.0,0.0,0.0419751331662584,1.4462801652534363e-09,-0.0004213876232777,6.84067806399068e-08,1.654507199147348e-05,4.051723715967022,32.44322602189087,14.283130115703262,37.13002398000203
0.37,31.222211539445663,131.01040117020102,5.509550188388412,4.071639898917391,0.0008674922629137,35.12417761390579,0.0012067983861697,2.88849906286036,391.1218908297666,14.620581431527652,5.494447309446232,71.99773482653193,8.846681943540367e-07,120.00000570002652,130.86067091914967,15.288,0.0,0.0,0.0429672939311924,1.6251202388969355e-09,-0.0004600660652957,7.679415042686734e-08,1.849041957573993e-05,4.071639991174516,31.85023865502424,14.620717696893658,35.24274792557624
0.38,31.222211292895075,131.01040167697127,5.646763233102716,4.08264881385344,0.0008930259828975,36.695642158537446,0.0012360471443664,2.880711738179021,404.8187610144602,14.986392916850402,5.634654729559426,71.99746126698146,1.0246533537040716e-06,120.0000061105033,137.4891296153862,15.288,0.0,0.0,0.0440424171304414,1.8200057922063743e-09,-0.0005010869196581,8.592980519823866e-08,2.0642694281337543e-05,4.082648911356968,31.228847973200924,14.986533193043764,36.808540518115166
0.39,31.22221104018777,131.0104021963902,5.787316652586672,4.096641430700089,0.0009192713382325,31.335681548387896,0.0012640110027448,2.872831219844713,357.64062493382744,15.337978856701952,5.770390286512262,71.99716358743511,1.1813915463769678e-06,120.00000654506955,144.01394309468844,15.288,0.0,0.0,0.0450757388736732,2.031886352449547e-09,-0.00054455673306,9.586443829735616e-08,2.295945663566148e-05,4.096641533664766,30.65298398882095,15.338123255506089,31.4670954954126
0.4,31.222210781536543,131.01040272801887,5.931064331106764,4.109028969993624,0.0009451871856381,29.95928076777898,0.0012920492774571,2.8646905607053603,345.465636880754,15.692185018814769,5.906873567965718,71.99684037970908,1.3563276523471372e-06,120.00000700500496,150.74021066990193,15.288,0.0,0.0,0.0461167659598875,2.2617341782092324e-09,-0.0005905037520737,1.0663253249436129e-07,2.5471259834659164e-05,4.1090290785164525,30.09246700352443,15.692333488470696,30.095929256306363
0.41,31.222210517064383,131.01040327160345,6.077922766619747,4.122888296344507,0.0009714525997821,33.78425365340317,0.0013192264430821,2.85640971467756,378.94687077668647,16.03742529732769,6.0405139809190125,71.99649020751959,1.5509747261474075e-06,120.0000074917568,157.44375780268788,15.288,0.0,0.0,0.0471314487675864,2.5105374204052982e-09,-0.0006389770219162,1.1827345344180344e-07,2.816813594418537e-05,4.122888410595805,29.56469007160549,16.037577892745222,33.904791300285986
0.42,31.22221024682894,131.0104038270252,6.227854084363214,4.14444025865494,0.0009995884754813,38.04468161607466,0.0013435485656724,2.8482703202464488,416.2328240017114,16.348862540904037,6.163613566771559,71.99611159893284,1.766920641656551e-06,120.00000800692096,163.6157044470786,15.288,0.0,0.0,0.0480467946810589,2.779304965995011e-09,-0.0006900467934588,1.308321832549104e-07,3.100973487310896e-05,4.144440378988911,29.104646754454564,16.34901955589459,38.15115260238947
0.43,31.222209970843565,131.0104043942566,6.380851271439565,4.1618082623168045,0.0010268052928652,33.45815353250911,0.0013687230309017,2.8397750580998298,375.9031395134336,16.67263197205097,6.290467308135904,71.99570306121484,2.005818691215035e-06,120.00000855220898,170.15779512382937,15.288,0.0,0.0,0.0489983878509763,3.0690566816849196e-09,-0.0007437862329608,1.443552931671376e-07,3.4086145072160934e-05,4.161808388761201,28.640125213458976,16.672793262249197,33.57845085853367
0.44,31.22220968892116,131.01040497368373,6.537047157143216,4.164954087655709,0.0010505545842624,30.86574023822051,0.0013980747538988,2.830419582421933,353.0750125389216,17.050421620730056,6.433992917638883,71.99526304125902,2.269416145406482e-06,120.00000912964636,177.9537948947602,15.288,0.0,0.0,0.050108743779844,3.380847125286677e-09,-0.0008003278134917,1.589055036683518e-07,3.750784460406397e-05,4.164954219916419,28.113519280259386,17.050586641458253,30.99524475496968
0.45,31.22220940081287,131.01040556582012,6.696617751072218,4.165241899529329,0.0010735835484822,35.912216710755274,0.0014280646808282,2.820677244966047,397.2093853562869,17.438293672974723,6.580571293039616,71.99478987454265,2.5595995397253085e-06,120.00000974147088,186.13940823302417,15.288,0.0,0.0,0.0512487363629523,3.7158016249566814e-09,-0.000859850913876,1.745604864109677e-07,4.121350642664912e-05,4.1652420376426775,27.591357195572936,17.43846231108416,36.02281959036367
0.46,31.222209106468902,131.0104061707686,6.859600379555308,4.174585124444534,0.0010989881252456,41.916816790010685,0.0014546917035209,2.811153314474766,449.7140588976434,17.786187321601275,6.714685486378061,71.99428180697711,2.8783880229668832e-06,120.0000103898448,193.6374175079873,15.288,0.0,0.0,0.0522712438446989,4.0751091178509895e-09,-0.0009224765531151,1.9138630415982226e-07,4.50966024037632e-05,4.1745852688465686,27.13985967570823,17.786359950252297,42.01097612387663
0.47,31.22220880579083,131.01040678873238,7.026066274755745,4.1823089530633855,0.0011240727220223,28.37640408484148,0.0014814747534716,2.801325368441072,331.0078106302534,18.138167428286582,6.849989708801916,71.99373704967608,3.2278903746588286e-06,120.00001107707628,201.37401505997488,15.288,0.0,0.0,0.0533057667609836,4.459978104761035e-09,-0.0009883252835099,2.094509673354327e-07,4.927107017839778e-05,4.182309103852639,26.69716826759888,18.13834399721685,28.514342615617974
0.48,31.222208499300592,131.0104074186346,7.195654207463586,4.189479568102716,0.0011490100608361,27.95074823096412,0.0015080719422187,2.7912412472910484,327.2031223011574,18.48995085190441,6.98515976370584,71.99315377257649,3.6103201777021456e-06,120.00001180491516,209.25751230436188,15.288,0.0,0.0,0.0543397174489847,4.8716620260348906e-09,-0.0010573190976925,2.2877013380347535e-07,5.373205427420879e-05,4.189479725385959,26.268461765425428,18.4901313379827,28.089773168283216
0.49,31.222208187201936,131.01040806005494,7.368224738812109,4.202723284133339,0.001175611380853,35.08821363242469,0.0015321405723077,2.781292092003844,389.60000969812296,18.812014261754847,7.111044804193205,71.99253015042137,4.027946338669921e-06,120.0000125755114,216.60722913930897,15.288,0.0,0.0,0.0552863302793499,5.311396446020465e-09,-0.0011294854492155,2.4938633613154685e-07,5.8398320167141767e-05,4.202723448262914,25.88860807032205,18.81219892635871,35.1982716047702
0.5,31.22220786953184,131.01040871291724,7.5437546994244835,4.220815778795054,0.0012036252596423,36.05491615971072,0.0015540388599792,2.7714444106710974,397.97031042210494,19.10875420627192,7.229005658018125,71.99186435180009,4.483102820610566e-06,120.00001339126192,223.4908652241728,15.288,0.0,0.0,0.0561585257949344,5.7804122391526605e-09,-0.0012048912160576,2.713531252030471e-07,6.327866493526626e-05,4.220815950099865,25.54902500917784,19.108943271285572,36.161276053538906
0.51,31.222207546379583,131.0104093770373,7.722184419225251,4.232567510615346,0.0012298790840397,27.54004661432325,0.0015777580800203,2.761017323676155,323.3984349720841,19.430597746636646,7.354673636736509,71.99115452520388,4.978202222778502e-06,120.00001425458936,231.07869697977367,15.288,0.0,0.0,0.0571045034845869,6.2799518101633574e-09,-0.0012835871653678,2.947201005874635e-07,6.854585242460463e-05,4.232567688976395,25.189423168613605,19.430790935591396,27.678103017910345
0.52,31.222207218107545,131.01041005243158,7.903552868940226,18.81317126820683,15.2078239876055,33.85281133022407,-1.2460841677074923,1.5926876039622015,372.0984511843415,23.68667483140185,7.476743279491604,71.99035672124758,0.0001665077906152,120.00018445412104,343.3904562729492,15.288,0.0,8.800021052215996,0.0696128132819046,6.8887943735479844e-09,-0.0016232660316776,0.0002984381670721,0.0001056710177399,24.016718465686644,39.88835288458488,26.04756341191737,33.91315695296699
0.53,31.222206885515767,131.0104107392972,8.088042067115488,18.631927984466618,15.02439987398256,35.52130971964207,-1.2750857068871593,1.5531342181546326,386.5562464348624,24.01283263603077,7.595001366065578,71.98930444680943,0.0010269999787744,120.00108963487511,352.90606242981204,15.288,0.0,8.833895574632692,0.0705715059419787,7.891808428467693e-09,-0.0021022571492331,0.0007220801920551,0.0001387342305902,23.76619090270293,39.43763137391038,26.345905956984858,35.57810441350479
0.54,31.22220654856062,131.0104114378246,8.275730734605947,18.45622776460108,14.846117255108991,31.2693980453062,-1.3044445259914643,1.51301105804992,349.2703242098436,24.337513043400907,7.7124093650934995,71.98797426614524,0.0026417535795109,120.00278795513856,362.50741867221024,15.288,0.0,8.867709385491047,0.0715258632307748,9.322544791774737e-09,-0.0025947385715528,0.0011556933812309,0.0001735467064564,23.52295276076984,38.999270186334,26.643527866763225,31.333145901727928
0.55,31.22220620756481,131.01041214739112,8.46641426317892,18.290122238885445,14.675938171634208,33.112039313004274,-1.3338472364592504,1.4727168993042528,365.2500005919907,24.655356313579983,7.827190693205034,71.98635852157308,0.0050278121950922,120.00529735100189,372.0309908359216,15.288,0.0,8.901420032740857,0.0724601332070266,1.1190530383998312e-08,-0.0031003031247979,0.0015988932088382,0.0002100651751314,23.29192802568599,38.58074432998494,26.93552170595624,33.171602176886886
0.56,31.222205862555167,131.01041286798304,8.660093632294316,18.136335659224088,14.515845050158248,30.94742899864949,-1.3630399873994192,1.4325765879439547,346.2265619465787,24.96221710411196,7.937968242786069,71.98444961255981,0.0082018754514822,120.00863540164488,381.34212978414433,15.288,0.0,8.935024607925927,0.0733621329779119,1.3505075743122168e-08,-0.0036191842668529,0.0020518180574138,0.0002482700855113,23.076433591234554,38.18710782019092,27.21804671061843,31.01053877819646
0.57,31.222205513633988,131.01041359943,8.856716852505,17.979725756047877,14.354582471139206,30.61176881883118,-1.393088618179242,1.3912155742864372,343.1828296833023,25.27640570742929,8.05091547505867,71.98223989082219,0.0121805516256568,120.0128195948938,390.99473658218113,15.288,0.0,8.968506289088433,0.0742856751114001,1.6275455438218174e-08,-0.0041514058867503,0.002514435601558,0.0002883585660767,22.85800057314525,37.79056984918617,27.507703953726637,30.675015352723175
0.58,31.222205160803128,131.01041434176832,9.056301733346633,17.81075733910656,14.18508806668896,40.12830557766361,-1.4247827702036209,1.3476118058462505,426.1250058573153,25.61070717101673,8.17030962563332,71.97972155770992,0.0169805141928826,120.01786749489426,401.3978980703824,15.288,0.0,9.001863217974277,0.0752683343467569,1.9510986690654807e-08,-0.004697218720284,0.0029868969622877,0.0003305798462298,22.624991150845247,37.37352204665933,27.816202778192373,40.17619907427623
0.59,31.22220480366192,131.0104150958662,9.259147245397132,17.664855681988225,14.033560664278834,32.64338949372038,-1.4553945893947688,1.3052833566577566,360.68438819711065,25.918998744465007,8.280663040358435,71.97688645928278,0.0226193682136837,120.02379764371052,411.1117931314808,15.288,0.0,9.035144980654144,0.0761745591282148,2.322148169552876e-08,-0.0052578796818506,0.0034701632200778,0.0003744849985449,22.42060096602149,37.00116359753937,28.101410535950567,32.701877861840615
0.6,31.22220444246033,131.010415861249,9.465098860221476,17.494742038599068,13.86502918489746,29.079924905586108,-1.4886904173499742,1.2593626734400445,329.4859594986058,26.26391570567895,8.402964582462747,71.9737261325524,0.0291148714355478,120.03062875935676,422.117985447726,15.288,0.0,9.068318444404593,0.0771884310758199,2.7416957732224768e-08,-0.0058330780652157,0.0039639284651257,0.000420972994343,22.187162970788503,36.58634915769267,28.42063534310041,29.145226470495828
0.61,31.222204077172663,131.01041663801104,9.67419421143928,17.324047489999067,13.696953804711418,33.97950149434163,-1.5228685232763703,1.2121714181547611,372.0984511843297,26.614781782133672,8.52692684495454,71.97023205025079,0.036485058129256,120.03837984687772,433.4629722748882,15.288,0.0,9.10138768416458,0.078219794723806,3.2107569465930706e-08,-0.0064231841476245,0.0044684338418415,0.0004697443171769,21.953481484411725,36.17256155614936,28.74586021208548,34.03520250990351
0.62,31.222203707945457,131.01041742589143,9.886351127576695,17.1985265370303,13.563028441634447,42.111408881028254,-1.553872617534468,1.1689599625548577,442.86563930529206,26.906021885545925,8.630698909527888,71.96639529761288,0.0447482804705302,120.04707026251306,442.9924453154992,15.288,0.0,9.134351169403084,0.0790759271709407,3.730371500525296e-08,-0.0070282635369964,0.0049836733708718,0.0005196093214073,21.77535846162672,35.84442054019797,29.016655820359727,42.15627765174156
0.63,31.222203334608505,131.0104182252788,10.101706350689309,17.062726352781606,13.422317050323125,24.13794787208964,-1.5864124027507815,1.1236282957215236,286.11251274707894,27.21469708353507,8.7400058233854,71.96220729077496,0.053922073565251,120.05671850300864,453.2057028865643,15.288,0.0,9.167183088444304,0.0799833079037168,4.301526492859264e-08,-0.0076489195202493,0.0055100731132179,0.0005719710129911,21.58514345371827,35.49948430988307,29.30383817511436,24.216105639310882
0.64,31.22220295780137,131.01041903489372,10.319833638454554,16.90914338757978,13.2693224177856,23.711163780049453,-1.6213135869275923,1.075100275747933,282.30782441796754,27.55320249743476,8.858977019678742,71.9576592779685,0.0640240079290034,120.06734311135632,464.54033423332544,15.288,0.0,9.199902478684256,0.0809783660431176,4.925240340596505e-08,-0.0082838311439639,0.0060465195497932,0.0006271402122332,21.373681403116223,35.12369475100348,29.618960258502376,23.79083407857737
0.65,31.22220257752637,131.0104198547677,10.54074914988011,16.788633480667723,13.141367946198557,41.45886788703226,-1.6537604720996604,1.029619123145322,436.7781447787475,27.845278501765605,8.962269459429363,71.95274258118036,0.0750710981594707,120.07896205682135,474.43113146267456,15.288,0.0,9.232404295042745,0.081836976119955,5.6024825967075007e-08,-0.0089333619520025,0.0065932456334462,0.0006834686685565,21.202962774506894,34.811327048017056,29.891468692484523,41.504611378884405
0.66,31.22220219327185,131.01042068598832,10.76482520519836,16.6630033329433,13.010400990381818,35.35539961551725,-1.6873485820651624,0.9825227185831046,383.51251517160017,28.147668669216326,9.068715907552706,71.94744849394375,0.0870803702161972,120.09159332254303,484.7809694037689,15.288,0.0,9.264825601448717,0.0827259067175475,6.334205969170754e-08,-0.0095990498994921,0.0071514172825271,0.0007423580950979,21.026427294369025,34.4915471186631,30.173820034921054,35.409275311743485
0.67,31.22220180525548,131.0104215281443,10.991928651518636,16.521972459621725,12.868887038624685,24.52675908824216,-1.7231940476523269,0.932348293343822,289.1562440103425,28.47719470464069,9.183902551295342,71.94176759292202,0.1000699310238256,120.10525604621417,496.18729568207306,15.288,0.0,9.297132881442318,0.083694597097861,7.121461860676416e-08,-0.0102806290003564,0.007720763053147,0.0008043594891035,20.83152990706952,34.145249452219346,30.481681587598736,24.60488940106488
0.68,31.22220141367666,131.01042238086112,11.221938766072066,16.388090327491604,12.733313020921972,30.483641348702207,-1.759037735487356,0.8820283280467754,340.8999924858462,28.79862386509165,9.296158779272655,71.93569053169628,0.1140576417673164,120.11996910849578,507.44048100000873,15.288,0.0,9.329244749635595,0.0846394984068442,7.965292337613246e-08,-0.0109779317289639,0.0083010891873677,0.0008685922836317,20.645738867851808,33.81427375257493,30.782344143865256,30.54708787434004
0.69,31.22220101864012,131.01042324395775,11.454799934439167,16.272944376588793,12.612130915601483,37.40613479251704,-1.793556172433412,0.8332958506970465,401.0140726853634,29.09228861797685,9.398976470580264,71.92920795691684,0.1290609228273897,120.13575093946665,517.8305904051192,15.288,0.0,9.36123964932339,0.0855028072343173,8.866717037526421e-08,-0.0116909572201282,0.0088923344559496,0.0009344196294423,20.483180706190723,33.52005073522537,31.057437375208004,37.4583788468537
0.7,31.22220062002108,131.01042411772224,11.690614550088307,16.158382968393003,12.49203530595777,31.468159378655447,-1.8286361268062503,0.783686880860819,349.27032420985284,29.38702521064937,9.501913127291552,71.92231049168942,0.1450968080055034,120.15261957558508,528.3641517043142,15.288,0.0,9.393104795526606,0.0863692736426466,9.82672403472845e-08,-0.0124203154981841,0.0094949192399247,0.001002749405489,20.321715508582187,33.228894499804014,31.333760281917936,31.530986820776082
0.71,31.222200217895267,131.01042500203098,11.929346248264585,16.034349490154796,12.365671309995491,25.964363587164243,-1.8654467516683444,0.7316624166676339,301.33126406340574,29.69993468056665,9.610637551181377,71.91498857885325,0.1621825746705191,120.17059331479248,539.6635986515854,15.288,0.0,9.424773957819216,0.0872891582617068,1.0846336211549865e-07,-0.013166066037307,0.0101088282797653,0.0010742509013835,20.149072099365743,32.92214323752691,31.62728573144467,26.041570574021343
0.72,31.222199812283662,131.01042589687256,12.17099651461198,15.898946251398758,12.2317026904299,31.665632281235474,-1.9043610495221672,0.6767313065909609,350.79220534145287,30.03553530697557,9.726617460164665,71.90723240149944,0.1803356929461785,120.18969067042704,551.9157806164318,15.288,0.0,9.45632581312862,0.0882757410341428,1.192659062745857e-07,-0.0139284873923489,0.0107342178448317,0.0011492736710355,19.962953932848848,32.596148141470415,31.942325565257622,31.730061834775544
0.73,31.22219940320227,131.01042680224643,12.415570684072716,15.795401835603604,12.121532381955182,39.91000795825856,-1.9401471937087933,0.6257510481367708,422.320318528234,30.31764487436168,9.824698613889538,71.89903172995321,0.1995741191869697,120.2099306820448,562.3190307765129,15.288,0.0,9.487766173445344,0.0891051191547938,1.306855817986686e-07,-0.0147079244580487,0.0113712928173848,0.0012249568133333,19.81600347135569,32.331251348613726,32.20751896211459,39.96203787015575
0.74,31.222198990600702,131.01042771828435,12.663118204020856,15.683087890493947,12.005574986840305,25.203005473891707,-1.97761853337454,0.5724002586341554,294.48281347105944,30.616923520370623,9.92823503466224,71.89037651720696,0.2199148904374325,120.23133143665252,573.4619845043834,15.288,0.0,9.519009954433216,0.089984965816946,1.427326326163335e-07,-0.015504708364833,0.01202024778751,0.0013040335125922,19.65870984822162,32.05197954169012,32.488985309241194,25.28695517528052
0.75,31.222198574880142,131.01042864419426,12.913377516385909,15.565687152250456,11.886526070768376,29.33082502565516,-2.016432289476953,0.5171271951918693,330.24688556441487,30.927605278369,10.03533139185151,71.88125670918053,0.2413749380700439,120.25391091353414,585.1452516800288,15.288,0.0,9.55009768776262,0.0908983346957852,1.55417790634751e-07,-0.0163179512577652,0.0126803270028018,0.0013863251102969,19.495564174021336,31.76507077516243,32.78137190108733,29.404603659965407
0.76,31.222198155938333,131.01042958021247,13.166433286513028,15.459936181011525,11.776491081100271,31.532044544648468,-2.0543918735467326,0.4628193273443844,349.27032420986166,31.21863302433804,10.135742289919424,71.8716621124597,0.2639708259846943,120.27768672704332,596.1949713694374,15.288,0.0,9.581051087187175,0.0917539469871858,1.6875111120079613e-07,-0.0171482995179691,0.0133519686352188,0.0014705424077403,19.34693245084918,31.501630006246064,33.05548260166892,31.60228727268888
0.77,31.22219773372901,131.01043052645963,13.422331064674763,15.35771531361969,11.669561344068365,29.524905025264367,-2.0925038705506926,0.4081511884658972,331.7687666960708,31.504418178001,10.234224927861629,71.86158239050064,0.2877190729685206,120.30267645595058,607.1455243151776,15.288,0.0,9.611862204448263,0.0925941587106736,1.8274279653422089e-07,-0.0179961848215806,0.014035442127466,0.0015573414609897,19.20291871984564,31.24654546354136,33.32482162781631,29.601776578303486
0.78,31.22219730833608,131.0104314827895,13.681026544787096,15.24731366965878,11.557261202160769,24.3584965529,-2.132381896048379,0.350983651266164,286.8734378128899,31.80733769653011,10.338166525346756,71.85100708621188,0.3126360106932089,120.32889749669968,618.8618641623437,15.288,0.0,9.642467114276917,0.0934847377351732,1.9740324706600973e-07,-0.0188615846889155,0.0147306640937881,0.0016478840347414,19.049261468177036,30.978043948848445,33.610462208725245,24.45417339416101
0.79,31.222196879868736,131.01043244900418,13.942458132564976,15.132833698076718,11.442578472532675,34.36935256251364,-2.173566414946289,0.2919212866556761,373.6203323159534,32.1202651390121,10.445212693427644,71.83992554913583,0.3387379372696723,120.35636722571918,631.0829126367769,15.288,0.0,9.672927216083256,0.094404739182909,2.127429942968389e-07,-0.0197444638563981,0.0154375413266589,0.0017419460965068,18.89096207458013,30.70366929048479,33.90573697090057,34.4392509291963
0.8,31.22219644810324,131.01043342558367,14.206792088637412,15.036692990032089,11.341617862550471,34.81828394435033,-2.212737186078987,0.2353546075229384,377.42502064505743,32.39822644114568,10.540551925417535,71.8283267927325,0.3660414309235128,120.385103330606,642.0363641267353,15.288,0.0,9.7032652954543,0.0952219798166614,2.287722711056345e-07,-0.0206459246918701,0.0161568531054191,0.0018371930584764,18.755265264403725,30.46513946013405,34.16815186394896,34.88931777027666
0.81,31.222196013163067,131.01043441229888,14.473956152293612,14.930362353992136,11.233855937271,22.88760692329241,-2.254080217271945,0.175739624460575,273.9374926939919,32.69805216457369,10.642897952297671,71.81619979318873,0.3945626348863979,120.41512305750472,653.9578776122621,15.288,0.0,9.73346561541068,0.0961034905446436,2.455018668747981e-07,-0.0215657636146614,0.0168883746354558,0.0019367555122235,18.607484762429248,30.20932549624593,34.45137781628258,22.999006776742444
0.82,31.222195575264696,131.0104354087319,14.74381468903938,14.820384401696945,11.123982048423535,29.217447540789205,-2.29669436698317,0.1142577876778727,328.72500443277005,33.00700776941384,10.748081676456716,71.80353342343926,0.4243173962627065,120.4464433581212,666.3571571498446,15.288,0.0,9.76347191357501,0.0970118434325265,2.629426749537304e-07,-0.0225035747921759,0.0176317265671757,0.0020400203105653,18.45556126769357,29.948401965567225,34.74340193537061,29.307799314451202
0.83,31.222195134402654,131.01043641491526,15.016383370778213,14.731833543680226,11.029920403910156,36.956213340692045,-2.3365349738817702,0.0562807295390893,395.68750322465047,33.27213691339043,10.838690438500931,71.79031638994813,0.4553213960206158,120.47908102752471,677.0874695201272,15.288,0.0,9.793315337412835,0.0977913928422652,2.81105174649588e-07,-0.0234597532590538,0.0183871408795151,0.0021437275487014,18.32993840919742,29.72902181982574,34.99403117332748,37.03004547239221
0.84,31.22219469047228,131.01043743107883,15.29174371758031,14.639838583534626,10.933858792014684,23.08188769090174,-2.377496861342065,-0.0033628312534922,275.4593748256452,33.54506492258897,10.931693651484771,71.77653750028352,0.4875895224205525,120.51305204505024,688.2229906312322,15.288,0.0,9.823019259812112,0.0985938721625828,2.9999943718572305e-07,-0.0244348381121812,0.0191549585413794,0.0022510859253268,18.200407002141567,29.504844178717946,35.25214618557941,23.204009179659597
0.85,31.222194243805088,131.0104384565693,15.569680857752578,14.531914238921775,10.82690783341262,25.109383520922886,-2.421792285911664,-0.0676288026604759,292.96093233939376,33.85356075248779,11.036242122167668,71.76218549022236,0.521136251108569,120.5483719743688,700.9209173517689,15.288,0.0,9.852559744529303,0.099500898736226,3.196364157109206e-07,-0.0254279229296274,0.0199344214275461,0.0023640552326649,18.05181811491382,29.2525813586354,35.54414420423007,25.22599437746398
0.86,31.222193794221937,131.01043949176668,15.850326796072164,14.437102535862495,10.729759620502456,31.27032352919136,-2.464506910115904,-0.1299756622935725,346.2265619465587,34.134450262608645,11.13156154649414,71.7472486747609,0.5559764205639244,120.58505678161389,712.5813166136872,15.288,0.0,9.88195667927488,0.1003267945289157,3.40026142147678e-07,-0.0264400313331942,0.0207262348074843,0.0024784807528956,17.919405963905792,29.026304299760668,35.81004292698115,31.367560019917015
0.87,31.222193341758512,131.01044053661457,16.133666824135513,14.348710395006048,10.637610160115807,29.167194818223088,-2.506670024791549,-0.1917727244664837,327.964078366998,34.401506063176,11.222185197829477,71.73171534020643,0.5921243218864592,120.62312187705976,723.7552043263737,15.288,0.0,9.911208342713248,0.1011120389375566,3.611791023957887e-07,-0.0274712962772032,0.0215304268541485,0.0025952276719845,17.795034955957078,28.813531131751112,36.062874837352,29.275338169784096
0.88,31.222192886462288,131.01044159103117,16.419677658045945,14.25268742584703,10.540464763060823,25.30323437749718,-2.5508022346422123,-0.2563958268799078,294.4828134710418,34.686266395052826,11.318492338629348,71.71557371538465,0.6295937508221429,120.6625821706982,735.7664300918876,15.288,0.0,9.940267169947466,0.1019493283183809,3.8310581271618e-07,-0.0285217099971734,0.0223469196975994,0.00271668972568,17.661659636882547,28.588100200992788,36.33263547006043,25.432774147207226
0.89,31.222192428430983,131.0104426548334,16.708302075868342,14.149361412902408,10.43858740015758,27.684761852174766,-2.5969705022096186,-0.3239428856809117,315.028134248087,34.988889629925566,11.42053795226036,71.69881184920389,0.6683982650469841,120.70345234378576,748.6401950571532,15.288,0.0,9.969167907431336,0.1028391286696891,4.058168713993061e-07,-0.0295912488312942,0.0231756229732644,0.0028430751630152,17.519689832928677,28.350566921638286,36.61952328476426,27.80818644921242
0.9,31.222191967590128,131.01044372818455,16.999598858248454,14.066721449668128,10.351750577036768,30.507512105028965,-2.6398260862492413,-0.3872478381167409,339.37814235421445,35.24361989778051,11.50670901114149,71.68141741260884,0.7085516028860056,120.74574729088462,759.5593039511796,15.288,0.0,9.99792703667832,0.103588170769159,4.2932261633310523e-07,-0.0306805275624062,0.0240169229948242,0.0029691085056268,17.403017899529694,28.15305759355759,36.86083714006082,30.623960186302767
0.91,31.22219150402344,131.0104448109263,17.29351878706272,13.976588154124396,10.26002094169574,23.382142590594817,-2.6846979482192834,-0.4534557880989596,277.7421810230789,35.51619034715176,11.598617287835992,71.66337833710288,0.7500662519986138,120.78948061262084,771.3316655354714,15.288,0.0,10.026535880720868,0.1043896569794538,4.536335327293058e-07,-0.0317894240686855,0.0248706543542417,0.0031001271932739,17.27750796528566,27.943054810321023,37.11923119644286,23.54013205892952
0.92,31.22219103795973,131.01044590261077,17.589915965055813,13.879302189939564,10.163655496860995,27.701923366052007,-2.731629456770005,-0.5226377879150571,315.02813424806214,35.806570679056065,11.69627554205338,71.64468237920076,0.7929544005903182,120.83466561811392,783.9737232463738,15.288,0.0,10.054980836300318,0.1052434986648339,4.787606562896353e-07,-0.0329172807191299,0.0257362526505646,0.0032362703578506,17.143576791665765,27.72115947707229,37.394714267437145,27.84118366602017
0.93,31.22219056930484,131.01044700343553,17.888860133287725,13.800565101197837,10.080712912412697,32.816691177114244,-2.7753290412578284,-0.5876771629069272,359.1625070654728,36.051635797955264,11.778924559366148,71.62531713387342,0.8372278914445209,120.88131527775649,794.7188778263234,15.288,0.0,10.083276152862656,0.1059641571427151,5.047136815199524e-07,-0.0340648455682595,0.0266141996921828,0.003371918317466,17.032307291242923,27.5352524246081,37.626953584082855,32.93908067249508
0.94,31.22219009794049,131.01044811364156,18.190435069844884,13.706089452999768,9.987102322035984,24.010977570608706,-2.822898575311828,-0.6581389149367584,283.0687504837787,36.335734920759855,11.87429723952342,71.60527026375438,0.8828977074778501,120.92944168147476,807.2701564605989,15.288,0.0,10.111421277675566,0.1067995540726123,5.31502327367672e-07,-0.0352326342240547,0.027504803435837,0.0035148931789603,16.902231080974136,27.3214355970265,37.89657329658818,24.185304362238778
0.95,31.22218962419259,131.01044923258766,18.49443044746753,13.614449900099473,9.895858740591365,30.88986947927334,-2.870486451212157,-0.7288430513897041,342.4218736174873,36.613118123250274,11.967375662766104,71.58452897696617,0.9299750838724764,120.97905721081052,819.6185028240862,15.288,0.0,10.139404830208194,0.1076152198393618,5.591380826707478e-07,-0.0364197423470567,0.0284073170482979,0.0036609514804613,16.775803731513566,27.114283011589677,38.15983920071204,31.03151528860127
0.96,31.222189147738064,131.01045036092026,18.801065113893145,13.532164891640642,9.811520101183076,30.27795726033217,-2.916585589131053,-0.7977521470506705,337.09533515678345,36.86644567774727,12.052432688156347,71.56308044796893,0.9784705820607252,121.03017356504992,830.9752107857123,15.288,0.0,10.167248278607518,0.108360188550365,5.87629731736212e-07,-0.0376277072428687,0.0293227989483294,0.0038084356565009,16.66089137603431,26.92595535766329,38.40011430705061,30.42856512958428
0.97,31.22218866860096,131.01045149859436,19.110327225595444,13.44600522990558,9.724829664381888,19.611584402012983,-2.9641054880897366,-0.8688009280721937,245.02188719299323,37.12946918674028,12.14057936472753,71.5409115406,1.0283946619485476,121.0828023639988,842.8496515365155,15.288,0.0,10.194948730050283,0.1091336647145022,6.169877988459633e-07,-0.0388566496644633,0.030251257855601,0.003960762392048,16.54150887191696,26.731779544867504,38.64971793505103,19.853336725961753
0.98,31.222188187104944,131.01045264497256,19.422007719164903,13.345246754108905,9.628333319398696,28.258304721988296,-3.0156553493548857,-0.9455391569298112,319.5937466429581,37.43128235389213,12.241432243486775,71.51800907648712,1.0797570895340447,121.13695452437496,856.5821923915174,15.288,0.0,10.222477727991947,0.1100211630925559,6.47224180129676e-07,-0.0401054132760722,0.0311917653333576,0.0041211592658426,16.4047171219327,26.511722989165836,38.9365891521837,28.434486231407917
0.99,31.22218770308651,131.010453800381,19.736218396160663,13.270502177377558,9.550267069118767,30.820890660575383,-3.0615852136919304,-1.0148853697166464,341.6609485517054,37.66336914856065,12.319237209907527,71.49435953541473,1.1325675574159504,121.1926409154982,867.2111585618446,15.288,0.0,10.249860912316285,0.1107037245549228,6.783481958071338e-07,-0.0413751198820857,0.032145062953113,0.0042778644813056,16.299509941677503,26.341517737700304,39.15658467342516,30.989201303768784
1.0,31.22218721654256,131.01045496482294,20.0529628680068,13.181580770516932,9.462691916283235,27.647449360212725,-3.111481518959531,-1.089846068916137,314.2672081822764,37.93324632796634,12.409417085095347,71.46994980474221,1.186834091022238,121.24987067870272,879.6569409798258,15.288,0.0,10.27709728752433,0.111497371501122,7.10369990128848e-07,-0.0426657681338302,0.0331110695071398,0.0044427815363918,16.177403132173833,26.14619441418852,39.412894497166725,27.84332124266582
1.01,31.222186727675663,131.01045613790004,20.372111723870155,13.095609940206703,9.37749422957832,28.886297807686955,-3.161203535773959,-1.1648071841828669,324.9203161036979,38.19477957763189,12.496789406595203,71.44476624626269,1.2425649962568657,121.30865328153038,891.8011232135934,15.288,0.0,10.304182936868258,0.1122665017277628,7.433006946932622e-07,-0.0439768393845828,0.0340893246040795,0.0046107342050243,16.059048238155803,25.95767004511655,39.66122539641537,29.082093882753593
1.02,31.22218623639825,131.01045731978104,20.693723555942057,13.013863149137014,9.295536983290065,24.208688025472824,-3.2103637214426786,-1.239241355593503,284.59063161540416,38.44395553911672,12.580024100507032,71.41879533657017,1.299767505019262,121.368997090542,903.44707500749,15.288,0.0,10.331124159470033,0.1129993185384943,7.771497510428373e-07,-0.0453088957252604,0.0350801555923984,0.0047812361480923,15.945971277995152,25.77831940390643,39.89769809039703,24.452049612988272
1.03,31.22218574278424,131.01045851031614,21.017751050177168,12.922737284822889,9.207432236491762,19.88150822491144,-3.2625278119764505,-1.318016337694024,247.30469339049705,38.71924182795417,12.67183044591466,71.39202354240476,1.3584480269921686,121.43090963674824,916.4035368506648,15.288,0.0,10.357916045517907,0.1138088908148095,8.119274549799279e-07,-0.0466617541950789,0.0360833473712192,0.0049591019922794,15.821790450217197,25.582735636028243,40.15932494024384,20.190483503065728
1.04,31.222185246900995,131.01045970937042,21.34415203229229,12.841404540234752,9.126385445326576,31.279488894807965,-3.312622148087088,-1.3942140317649652,345.46563688072297,38.96597464826559,12.754167138230876,71.36443687025698,1.41861305860359,121.49439857543152,928.0909531116996,15.288,0.0,10.384562166285564,0.1145345435138896,8.476441003555104e-07,-0.0480354418889727,0.0370988361294452,0.0051374647219334,15.709580727838413,25.40669231427087,40.39348955359848,31.48529376999335
1.05,31.22218474842224,131.01046091757004,21.67313578185449,12.752631115567528,9.040539400114785,19.0853842612286,-3.3652841238281126,-1.4741742794617054,240.45625879819983,39.23366158964704,12.8433719554786,71.33602139374328,1.4802680865397977,121.55947053036084,940.8565491940564,15.288,0.0,10.41107664235386,0.1153217965930096,8.843076344659296e-07,-0.0494315179274683,0.0381276622868322,0.0053229279076376,15.588604770034106,25.21802453562525,40.64786093655922,19.435797370807002
1.06,31.222184247611423,131.0104621343961,22.00453286147577,12.657696514685808,8.950791219236924,26.952226823021405,-3.4203159853449985,-1.5576427793193155,308.17968365593924,39.51942368709496,12.938531611078352,71.30676260271974,1.5434188876265664,121.62613246530545,954.5817127059124,15.288,0.0,10.437448379997424,0.1161621882431028,9.219301320112276e-07,-0.0508490084395045,0.0391690366410262,0.0055152736158217,15.460407972356489,25.01907825555205,40.91969882232805,27.212999525726058
1.07,31.222183744333275,131.01046336010364,22.33842975424916,12.578422606279144,8.872069001769386,31.63962532720269,-3.471390561555193,-1.635949119707868,348.5093681440308,39.75768653703233,13.017934068071796,71.27664564529512,1.608071010404789,121.6943911390578,966.095784544839,15.288,0.0,10.463691971686936,0.1168629711158638,9.60520856989176e-07,-0.0522889057619735,0.0402235832656942,0.0057054604894746,15.351211214273528,24.850642565698195,41.145745282285375,31.871504087490024
1.08,31.222183238465565,131.01046459491573,22.67490167550644,12.496255401105588,8.791657604299516,21.46932416812369,-3.523787048912964,-1.7163311395392522,261.00157857466235,40.003504445402754,13.099791377699088,71.24565585915278,1.6742286953309315,121.76425196565764,978.0476595056382,15.288,0.0,10.489808886970074,0.1175859699635912,1.0000893563568276e-06,-0.0537518022100112,0.0412916350438305,0.0059011557376816,15.238709505825971,24.67804672935945,41.37908196268622,21.824178059725845
1.09,31.22218273031421,131.01046583823108,23.013751953957943,12.398294623767608,8.70078508733127,19.78641747186364,-3.5815310053283413,-1.804341094340216,246.54375332474407,40.297516417738414,13.19762267259958,71.21377839169705,1.7418956253952065,121.83571980677264,992.444815634544,15.288,0.0,10.515784019043537,0.1184506392531887,1.0406482743917318e-06,-0.0552363835869585,0.0423721624596239,0.006108511420977,15.107423711957304,24.47711134324992,41.65898570211717,20.188742593280143
1.1,31.22218221995981,131.0104670898846,23.3549280654838,12.309069443039997,8.616164147669766,39.16564742216927,-3.637213393543136,-1.889798416954508,413.1890617385841,40.56410822546776,13.286370223260992,71.18099820250242,1.811074906790838,121.908798952574,1005.5865104158864,15.288,0.0,10.541622163938786,0.1192347190653085,1.0822079863667504e-06,-0.0567426280390311,0.0434650599758763,0.0063163911910025,14.986798022748168,24.29370512240633,41.912436773044426,39.3795454179523
1.11,31.222181706933004,131.0104683507601,23.69872224854422,12.23668811763472,8.543248484501557,28.81065934347592,-3.687987162989833,-1.9687657067048951,324.1593910376397,40.77581679752065,13.356855378003166,71.14729995795733,1.8817692590350104,121.98349332358364,1016.0768821522984,15.288,0.0,10.567331305512315,0.1198574832699406,1.124774948225936e-06,-0.0582729741321419,0.0445719665153128,0.0065203836840056,14.886534297182967,24.143080044106394,42.11281995388349,29.112392198651268
1.12,31.2221811912922,131.0104696207247,24.04509135011198,12.133817616315898,8.449965004075107,11.188846514436475,-3.749199985857784,-2.0624333693489927,172.73281794065943,41.08453747408839,13.459576266540452,71.11266850457187,1.953980079492172,122.05980548173,1031.4865912518944,15.288,0.0,10.59291183383586,0.1207654167959673,1.168360279320652e-06,-0.0598270676426072,0.0456925333042329,0.0067447362025975,14.74989046271633,23.93654802324283,42.40704851880656,11.97916600855742
1.13,31.22218067371259,131.0104708984833,24.39361207734953,12.047979031874176,8.36849188971135,33.85703831021812,-3.80537648842188,-2.149441133475048,367.5328077900705,41.33756617618829,13.543823716993629,71.0770875970657,2.027709878124229,122.13773920393032,1044.196059384634,15.288,0.0,10.618348845178684,0.1215096566719721,1.212979954737099e-06,-0.061402078819741,0.0468246644351079,0.0069646979820084,14.633822446303064,23.76307700947049,42.6474170465619,34.13795586359098
1.14,31.222180153414808,131.01047218549363,24.74476315829008,11.974002171042352,8.295281400703923,18.97336357245469,-3.857916370952709,-2.231703401385098,239.69531773195544,41.54958718067935,13.614386168499443,71.04054202221259,2.102958189564468,122.21729516423372,1054.8993411474864,15.288,0.0,10.643675321751097,0.1221333655304759,1.258636784674148e-06,-0.0630018946138619,0.0479710042512477,0.0071825719414159,14.532113297808342,23.61307596622291,42.84805955288052,19.489806157311296
1.15,31.222179630948133,131.01047348069287,25.098196655182644,11.869560704232867,8.201836004225152,18.70228265234644,-3.921588593788664,-2.329705564923369,237.41251153546767,41.86286241803851,13.718756411268505,71.00301648481145,2.17972372154624,122.29847320110784,1070.830398386068,15.288,0.0,10.66886098100848,0.1230547164894805,1.3053461351566987e-06,-0.0646236616404382,0.0491294478156261,0.0074227596742533,14.394102341382736,23.40704803006961,43.146808271074846,19.250500292886592
1.16,31.22217910646479,131.01047478378072,25.45381591200784,11.798737992193852,8.131243490289389,48.12573832526553,-3.9737705498866966,-2.412065064576596,490.0437743845894,42.06079461401037,13.784680904300922,70.96449463053598,2.2580061753711864,122.38127424514644,1080.9434179085783,15.288,0.0,10.693916232284266,0.1236370288444279,1.3531185941774188e-06,-0.0662671859826221,0.0502997628120897,0.007647264010671,14.2964630136482,23.26529546729433,43.33376426759271,48.34972181523726
1.17,31.222178578926563,131.01047609667768,25.812247873267843,11.712025674252018,8.05024626691628,8.939511682009483,-4.032078572585648,-2.503244147642376,153.70937929486794,42.3112300317041,13.86811498305036,70.92496106315328,2.337802449795289,122.4656963056608,1093.8162321399825,15.288,0.0,10.71887337024933,0.124373682817861,1.4019543106135669e-06,-0.0679375398358568,0.0514853944507602,0.0078864325985791,14.179973999936797,23.094917893421584,43.5716033119705,10.121203386504696
1.18,31.222178049667367,131.0104774168616,26.17266969538433,11.604358838710864,7.955514148508909,23.65180736862112,-4.098848430898032,-2.6065389046653262,280.02501822196746,42.63480322412585,13.976146043661688,70.88439960131116,2.419109890833764,122.55173790443038,1110.5715707381908,15.288,0.0,10.743679532326762,0.1253253346182624,1.45187693046678e-06,-0.0696278696219819,0.0526814583691935,0.0081441818659539,14.038606671091909,22.8861984662218,43.88044093970278,24.145446678895166
1.19,31.222177518066385,131.010478745474,26.535454557858223,11.543246629335805,7.892107630836999,40.94496519633488,-4.148226722295526,-2.6859056190752497,428.4078130529292,42.7915906508828,14.02834276765114,70.84279359843752,2.5019256698005847,122.63939742328785,1118.715749291925,15.288,0.0,10.76837722398202,0.1257867274715376,1.502888402883428e-06,-0.0713420675287645,0.0538905634676683,0.0083750822298199,13.952987215435853,22.766267027698948,44.0273635887436,41.24211499017989
1.2,31.222176983571856,131.01048008350296,26.90092237796165,11.444943731650316,7.804167253979761,4.653082819888522,-4.2124455800768414,-2.786314356744944,117.1843741360236,43.07961012974632,14.124560368809776,70.80012767385344,2.586243628918251,122.72866976304952,1133.7862168369757,15.288,0.0,10.792969238260888,0.12663388873268,1.5549937174242065e-06,-0.0730824640979005,0.0551142182768361,0.0086368356898145,13.8231165314138,22.57748717886449,44.3016988127704,6.867272033963241
1.21,31.22217644753876,131.0104814284146,27.26825010253153,11.348757857967822,7.717905634278214,32.95420785583233,-4.276416554986572,-2.886727892804863,359.92343213200894,43.359693341500176,14.218276597246843,70.7563848212734,2.6720595330757138,122.81955190100985,1148.5362952526912,15.288,0.0,10.817415618600924,0.1274577306529866,1.6082172250700465e-06,-0.0748421820284313,0.056347559861562,0.0089019885165522,13.695926600875351,22.39373346063271,44.568356201042725,33.3556704607217
1.22,31.22217590890309,131.01048278214768,27.638066796619327,11.284159033651743,7.652811269823242,23.98390599218993,-4.327701519980344,-2.969709060212507,283.0687504825761,43.52051310939592,14.27190786460774,70.7115488408915,2.759366662451411,122.91203822952444,1157.030761817599,15.288,0.0,10.841743767328488,0.1279310013937718,1.6625549070520053e-06,-0.0766272693670737,0.0575946577863,0.0091477927125719,13.606531486242757,22.2707817802479,44.71904281763241,24.55149524958821
1.23,31.222175368058803,131.01048414393725,28.01012267400982,11.185186738790769,7.565193565604399,9.591312278649688,-4.393632133003057,-3.0735716096128267,159.79687382222795,43.80769602708013,14.368187677885906,70.66560434844341,2.8481558488393968,123.00612058847344,1172.3092598088856,15.288,0.0,10.865920549057584,0.1287757324934465,1.718021527414965e-06,-0.0784350910730875,0.0588535897571958,0.0094250628381778,13.47630583813656,22.0840544670498,44.99258396615858,10.988362798258494
