Time,Latitude,Longitude,Altitude,Angle of Attack,Angle of Sideslip,X-Acceleration,Y-Acceleration,Z-Acceleration,Thrust,True Velocity,Ground Velocity,Pitch,Roll,Yaw,Dynamic Pressure,cp,cg,parachute_deploy_gain,Wind Speed,Wind Direction,Mach,omega_x,omega_y,omega_z,Cmq,Angle of Attack(total),Angle of Attack(gust),True Velocity(gust),Acceleration
0.0,31.222216000000007,131.010392,3.000000004412624,0.0,0.0,0.0,0.0,0.0,2.2828121974499247,0.0,0.0,69.99999999623412,0.0,119.9999999935444,0.0,1.274,1.0271675151847728,0.0,0.0,0.0,0.0,0.0,0.0,0.0,-0.0,0.0,90.0,0.0,0.0
0.01,31.22221599999084,131.01039200000497,3.000002745347096,0.0,0.0,0.0,0.0,0.0,34.242186961749226,3.465174813755316e-14,2.8705476994166025e-14,69.9999999962611,-2.1713911667908447e-11,119.99999999352175,7.352495975525499e-28,1.274,1.0271659134330349,0.0,0.0,0.0,1.0183245502395064e-16,-3.3305335486039093e-18,7.169286865560398e-18,5.624298769768554e-18,-7.715917190115602e-34,0.0,89.99999999999979,3.465174813755316e-14,0.0
0.02,31.222215999994315,131.0103920000094,3.0000030495639742,0.0,0.0,0.0,0.0,0.0,25.871876237766216,3.8197434737535036e-11,2.4171837235633357e-11,69.99999999628672,-1.1921727947863515e-11,119.99999999353136,8.93414285188691e-22,1.274,1.027164492361118,0.0,0.0,0.0,1.1225230367947217e-13,-6.657678965418802e-18,1.4338573731120796e-17,1.1241821275959074e-17,-1.7010872994127372e-30,0.0,89.99999999975682,3.8197434737535036e-11,0.0
0.03,31.222215999994315,131.0103920000094,3.0000030495639742,0.0,0.0,9.81877837424427,-2.5122800045972096e-05,3.3498614629347925,180.34219359854663,1.2659015405517447e-10,1.1364406173918436e-10,69.99999999631459,-1.6431898037347223e-11,119.99999999352724,9.812605835254651e-21,1.274,1.0271551940870716,0.0,0.0,0.0,3.720154642239108e-13,-9.991600645811728e-18,2.150108433310316e-17,1.6859343782149594e-17,-8.453698244545225e-30,0.0,89.99999999919412,1.2659015405517447e-10,10.374487003414373
0.04,31.222215999994315,131.0103920000094,3.0000030495639742,18.83801224594347,-0.0001111777826462,48.68248476615645,-1.016330065874988e-05,3.3497854396877287,548.635972453808,0.1556173050466994,0.0975908358443652,69.99999999633813,-2.0932768807056278e-11,119.99999999352085,0.0148286043323172,1.274,1.027133720825283,0.0,0.0,0.0,0.0004573186944143,-1.3322134194415637e-17,-1.04744143520903e-11,1.336824254131964e-11,5.0626055458604615e-15,18.83801224625964,89.06236267790787,0.1555998412814392,48.79759610369246
0.05,31.22221599164764,131.01039201704114,3.002326315126219,5.772385609593056,-4.395076213712875e-06,71.20344550265034,4.905512691849684e-05,3.349217396035405,761.6984298824663,0.8326471944351852,0.3620326097059287,70.00000001316391,-1.0866255162484559e-10,120.00000000231074,0.4245281043148827,1.274,1.027093426565204,0.0,0.0,0.0,0.0024469331205246,-5.0245994431125096e-18,-7.32924164976824e-07,2.217344936947165e-11,1.895424184525467e-09,5.772385609594774,84.74112356985832,0.8326465040582279,71.28217104309611
0.06,31.22221596664444,131.01039206837547,3.015081730143309,4.056581213689704,3.169093567502233e-05,53.16249142470188,0.0001203825427859,3.3481235983850643,590.4875390737236,1.657216205300742,0.6755452977614796,69.99999964391398,-3.9285905645317736e-10,120.0000000287861,1.6816755551786196,1.274,1.027050317124926,0.0,0.0,0.0,0.0048701272653724,3.095757869075056e-13,-7.483541766772344e-06,3.074135420506017e-11,3.8518749565858254e-08,4.056581213813337,79.59316473687034,1.657221183301277,53.26781792157489
0.07,31.22221592883117,131.0103921460222,3.034593611434361,4.115662018628709,6.450869598349036e-05,81.18203554989698,0.0001593212642178,3.347059402768047,855.2937749779172,2.099899704220947,0.8579771146174259,69.99999543281565,-8.233801910783518e-10,120.00000006883089,2.700101932075157,1.274,1.027003201295312,0.0,0.0,0.0,0.006171060252819,3.4704292086287e-12,-2.6327204536316785e-05,1.9541142932033486e-10,1.7170712165327165e-07,4.115662019133419,76.90111966094352,2.099909837223217,81.2510043180746
0.08,31.22221588914193,131.01039222747755,3.0542761843835606,3.459696193892355,8.037433511260004e-05,16.298214211652088,0.0002413456836072,3.344878926597744,241.2171988638792,3.051964775152957,1.2149999716613011,69.99998042886442,-1.0128995578004475e-09,120.00000011111383,5.703497661025892,1.274,1.0269597189470347,0.0,0.0,0.0,0.0089689344021769,1.458982438104473e-11,-5.702803872814215e-05,7.043261397829576e-10,5.405702492731987e-07,3.459696194824858,71.30331929508368,3.051977400323993,16.63790856991177
0.09,31.2222158241468,131.01039236098703,3.0886872184095737,4.313676956300389,0.0001337561018991,50.35975918308536,0.0002293282821279,3.344215841840564,563.0937377043203,2.893161298572128,1.191209213966114,69.99994788602814,-7.098432023887522e-10,120.00000018106356,5.125380275808925,1.274,1.026918932011013,0.0,0.0,0.0,0.0085022553945842,3.8672912027154325e-11,-0.0001115933708951,2.016054215232918e-09,1.0027525988343615e-06,4.313676958370176,72.2316578138625,2.893182308931483,50.47067588835877
0.1,31.2222157788302,131.01039245392113,3.109877853389092,4.035124630954496,0.0001457499816535,47.804664812504015,0.0002878217657545,3.341734392237128,538.7437595981891,3.5677148583138303,1.4531247507621967,69.99988403958329,1.9248461973355822e-09,120.0000002323013,7.7939962029572305,1.274,1.0268846934974103,0.0,0.0,0.0,0.0104845969583028,8.579678749070606e-11,-0.0001726817043215,3.984565639703107e-09,1.913455350430327e-06,4.0351246335824245,68.43243098813296,3.567737752667411,47.92132267234452
0.11,31.222215703308,131.01039260899836,3.148841432727305,4.043401107254707,0.0001752764476999,37.67622367577205,0.0003286462930162,3.3392563999062723,442.86563930529127,4.034183355956686,1.6436552022667772,69.99978525353545,7.302513231814865e-09,120.00000031883242,9.96528118825134,1.274,1.026848594915519,0.0,0.0,0.0,0.0118554331868328,1.5870341853361987e-10,-0.0002596204409236,7.232030302688121e-09,3.252930323390323e-06,4.04340111104746,65.92012987243639,4.034210888316708,37.82391391539392
0.12,31.222215627491828,131.01039276462643,3.186995101203875,4.17874459224363,0.0002066711490009,41.15991989399172,0.0003576945202315,3.336766085769504,475.58594813540793,4.361857560629481,1.7865750500940407,69.99963665601238,1.781774420198147e-08,120.00000041104812,11.649831899889556,1.274,1.0268114448194128,0.0,0.0,0.0,0.0128183893919737,2.682972478760441e-10,-0.0003710216542429,1.2215991071490164e-08,5.026311388647148e-06,4.178744597345269,64.21681651392016,4.361890024457652,41.29495143136631
0.13,31.22221554594398,131.01039293200228,3.2277173449026786,4.202734874672792,0.0002327160860324,45.44886120763352,0.0003953741266062,3.333578629398489,515.9156326236897,4.792165672014363,1.9646716520715424,69.99942424225341,3.613383418913551e-08,120.00000051758742,14.061726603124043,1.274,1.026779572895131,0.0,0.0,0.0,0.0140829618979635,4.248908088871395e-10,-0.0005056103199642,1.908859219307828e-08,7.5253154423526356e-06,4.202734881104192,62.048594618540655,4.792202226971676,45.570952718869485
0.14,31.222215454191247,131.01039312033683,3.2737880595608355,4.184830647080848,0.000257138757548,42.32232525579263,0.0004369426767266,3.329727443445437,486.2390860568421,5.269261304374574,2.158791628597544,69.99913473613935,6.515851355725497e-08,120.00000064630268,17.000925061330125,1.274,1.0267449573927567,0.0,0.0,0.0,0.0154850332441425,6.382432869666793e-10,-0.0006690086306358,2.8426433029675884e-08,1.0948547100483978e-05,4.184830654966803,59.74181173116622,5.269301695636157,42.45310707234106
0.15,31.222215353826755,131.0103933263496,3.3242182719560263,4.21963947489699,0.0002846467688673,40.886944113003565,0.0004726792395108,3.325585650885676,472.5421858721398,5.6781946837482895,2.329510773545807,69.99875162806286,1.0876776246115984e-07,120.00000079954532,19.742017654108928,1.274,1.0267115958081523,0.0,0.0,0.0,0.0166867950518804,9.204756288136623e-10,-0.000865746478554,4.08948221429571e-08,1.526771148078443e-05,4.219639484480408,57.84996018384879,5.678239395958187,41.02196629910223
0.16,31.222215247130432,131.01039354534575,3.3775922280208457,4.253495568077899,0.0003118339050386,32.26872905470846,0.0005078415214353,3.32090791922544,391.1218908297597,6.081244877834229,2.4981889727471702,69.99825581174558,1.7187028096464329e-07,120.0000009800088,22.644030778355887,1.274,1.026675762255412,0.0,0.0,0.0,0.0178712695992133,1.2856146928958252e-09,-0.0010961187242953,5.6923362293832417e-08,2.0702404729358337e-05,4.253495579487569,56.06022383757386,6.081293860589489,32.43916312841722
0.17,31.22221513260033,131.01039378041813,3.4348437275053194,4.364838523348639,0.0003448792023946,40.840448242802736,0.0005326487904353,3.3162727284953744,471.78125980632416,6.362544479165355,2.6250789114832647,69.99762801982864,2.5997588617291615e-07,120.00000119506798,24.78723182122683,1.274,1.0266409836796937,0.0,0.0,0.0,0.0186979513961862,1.747791994374917e-09,-0.0013624931601664,7.706724512977917e-08,2.6923621797558364e-05,4.364838536947241,54.85936171416122,6.362598652663785,40.97486885600156
0.18,31.222215014088988,131.01039402363364,3.4935801365785646,4.353948305387995,0.0003681615230806,33.992183768165326,0.0005718025428208,3.310131992647221,407.1015672119096,6.81502088160835,2.810667639293692,69.99684761766231,3.794979223522764e-07,120.00000144728236,28.437950785509614,1.274,1.0266048342046536,0.0,0.0,0.0,0.020027681385988,2.3221419748804155e-09,-0.0016616990447559,1.0147209890543081e-07,3.517105786247627e-05,4.353948320923495,52.99157233768714,6.815078712285162,34.152972512863755
0.19,31.22221488419521,131.01039429023237,3.558399965607869,4.432620772533925,0.0003996774584738,38.45149959021069,0.0005986099513107,3.304145139297767,448.95313283182486,7.1223367465208405,2.946425726785696,69.99589577323147,5.440084577183829e-07,120.00000176148238,31.060341085698347,1.274,1.026566130444714,0.0,0.0,0.0,0.0209308229359413,3.022391489754689e-09,-0.0020041563310821,1.3135864879722746e-07,4.433199397898183e-05,4.432620790516937,51.77883352025967,7.122399527709208,38.59320142454953
0.2,31.222214751373183,131.01039456280608,3.624052454705669,4.443889400961181,0.0004246617145652,35.23432408779927,0.0006337972852267,3.2968110145188256,418.5156301991588,7.530482904611057,3.1167566004785483,69.99474776398331,7.478025600151903e-07,120.00000211715036,34.72195181863731,1.274,1.026529240027363,0.0,0.0,0.0,0.0221302820454282,3.866698391504749e-09,-0.0023849544920781,1.668144671071589e-07,5.57780533277244e-05,4.443889421210987,50.22448880200342,7.530549610317194,35.38822625098952
0.21,31.222214608673173,131.01039485566503,3.6948551453492566,4.493351735844891,0.0004538195602194,33.79371564104691,0.0006629296043866,3.2891790438445727,404.8187610144608,7.868284042829251,3.2629204975089228,69.99338155599101,1.0150082652278477e-06,120.00000255293388,37.906665490338085,1.274,1.0264923657015164,0.0,0.0,0.0,0.0231230169900677,4.871073773182836e-09,-0.0028117605859743,2.089322918608601e-07,6.870935089180403e-05,4.493351758715364,48.992529909481824,7.868355328639073,33.95340801819282
0.22,31.22221446109996,131.01039515850383,3.767700382407304,4.5412639153933885,0.000482649303782,41.008966751568416,0.0006914639179131,3.2808061382386606,472.5421858721387,8.20057841132235,3.4071691679735228,69.9917708347139,1.3454961520984431e-06,120.00000305929996,41.175744234065135,1.274,1.0264494137127138,0.0,0.0,0.0,0.0240995709751246,6.054779813287368e-09,-0.0032829112061357,2.580881224843564e-07,8.3609968899004e-05,4.54126394098788,47.82515604752711,8.2006542256977,41.13999323561041
0.23,31.22221430675399,131.0103954752338,3.843768625625224,4.52371495179584,0.0005047555656171,33.98493478127787,0.0007294889663961,3.2705214710765107,406.340642146096,8.647938096586296,3.5908865300848416,69.98989017772566,1.7539876018835507e-06,120.00000365514876,45.79040229326471,1.274,1.0264133390858623,0.0,0.0,0.0,0.0254142776666487,7.436335125872812e-09,-0.0038001790077148,3.1489825108822685e-07,0.0001020628978177,4.523714979897577,46.31461705147579,8.648017383405135,34.14194053232237
0.24,31.222214142622448,131.0103958120587,3.92493179063287,4.57837522350066,0.0005351929930195,35.051650311058864,0.0007555049947555,3.26053011385611,416.2328240017099,8.954297884844461,3.72617527247482,69.98771316795013,2.25257161141768e-06,120.0000043564586,49.09180568115741,1.274,1.0263750048312463,0.0,0.0,0.0,0.0263146218848643,9.034877387788232e-09,-0.0043732521010013,3.809642748985157e-07,0.00012161410144,4.578375254714954,45.32798984252032,8.954381952763216,35.20297212911011
0.25,31.22221397517227,131.0103961556623,4.0071748888306855,4.6034117733065,0.0005618935542827,36.03738579534623,0.000785606492708,3.249069743648399,425.3640807915084,9.311611941121669,3.8789349536029696,69.98520781816889,2.8559738498748624e-06,120.00000517181904,53.08749562138344,1.274,1.0263373768840591,0.0,0.0,0.0,0.0273647110956883,1.0873791100894836e-08,-0.0049950711786164,4.5609738277273444e-07,0.0001444478241125,4.603411807525074,44.2165428352526,9.311700203154778,36.183554686886296
0.26,31.22221379934012,131.01039651647062,4.09364247475714,4.621386912291471,0.0005881033207375,39.29107511182762,0.0008162761165496,3.236407051295005,455.80158342417656,9.67833954512075,4.034902068846398,69.98234620927953,3.5784678110229355e-06,120.00000612171208,57.350948423913096,1.274,1.0263006300381676,0.0,0.0,0.0,0.0284424679130479,1.2973286442992724e-08,-0.0056712051373577,5.414206381221602e-07,0.0001704578711045,4.621386949630312,43.12063533194282,9.678431924174348,39.42414126789902
0.27,31.222213616776543,131.01039689108487,4.183310605341074,4.617158109135719,0.0006115457810536,35.90419462403674,0.0008503454714941,3.221982799915672,423.8421996598744,10.088790784535757,4.205862468567124,69.97909721779352,4.436165972465058e-06,120.000007221354,62.31798301949865,1.274,1.026260090595354,0.0,0.0,0.0,0.0296487219805601,1.5355910600537293e-08,-0.0064045199323113,6.379142666348734e-07,0.0002006609239367,4.617158149547818,41.94410287616451,10.08888684592241,36.048472443180565
0.28,31.22221342607797,131.0103972823952,4.277051150896916,4.642105655370123,0.0006389739579882,41.51133203546672,0.0008785747638736,3.2071101123224945,476.3468732012228,10.432377224420517,4.35383399240675,69.97542808435722,5.446665372087172e-06,120.00000849080963,66.63429581008447,1.274,1.0262212716723291,0.0,0.0,0.0,0.0306584788590473,1.8045308789081613e-08,-0.0072006835403936,7.469524967369969e-07,0.0002332868227611,4.642105699250441,41.0023231023774,10.432477594215127,41.63503624837164
0.29,31.22221323001776,131.01039768469093,4.373143569786686,4.62134615173668,0.0006600657405645,33.17552944492765,0.0009148746278066,3.1894209319791806,397.9703104221098,10.876662296046485,4.536381530986506,69.9713027936179,6.629751536885327e-06,120.00000994797426,72.43000748232016,1.274,1.026183007522519,0.0,0.0,0.0,0.0319641703260467,2.1067646517035105e-08,-0.0080566154554079,8.688043379161898e-07,0.000272130659453,4.621346198772975,39.83162628795024,10.876765978930557,33.32848872465723
0.3,31.22221302403368,131.01039810736614,4.4744193758467325,4.664362353358112,0.0006905183788532,31.08096762732793,0.0009381960428197,3.172549142946348,378.1859457108735,11.168362145070317,4.66647911311536,69.96668711012893,8.005507138509574e-06,120.00001161892672,76.36634300732833,1.274,1.0261430389738484,0.0,0.0,0.0,0.0328214509167604,2.4447409007156216e-08,-0.0089829108229115,1.0056222251461646e-06,0.0003115527202986,4.664362404357781,39.09908960432563,11.168470611443622,31.242464973103964
0.31,31.22221281503337,131.01039853619727,4.576593712520673,4.700143580504286,0.0007196683316923,32.79732593144512,0.0009620705970519,3.154230688182399,394.1656220930229,11.470279728974068,4.800072153432283,69.96154070456518,9.597499105113692e-06,120.00001352112182,80.55022837857167,1.274,1.0261054058068628,0.0,0.0,0.0,0.0337087616009043,2.8214060606649844e-08,-0.0099686353219717,1.1565909895184251e-06,0.0003550834484269,4.700143635477137,38.36463422765983,11.47039277421126,32.94865339301887
0.32,31.222212598991007,131.01039897947376,4.68216432480395,4.718667719113184,0.0007464384342556,35.7316568886908,0.0009885845337584,3.133859770838664,421.5593934624264,11.808280530415894,4.946054328851105,69.95582953472353,1.14278227255889e-05,120.00001568218067,85.36654007972253,1.274,1.026068246703101,0.0,0.0,0.0,0.0347021168382987,3.2392058795580455e-08,-0.0110163301561155,1.3226102501723267e-06,0.0004039614423012,4.718667778018562,37.5686120062341,11.808397780690962,35.8688218659563
0.33,31.222212376029034,131.0103994369436,4.791055524254013,4.72141404831576,0.0007708346814671,35.42013590291081,0.0010176135371143,3.1111955852784385,418.5156301991632,12.181577273013426,5.104163223586657,69.94951809396906,1.351997394754887e-05,120.00001812674968,90.84831229869296,1.274,1.0260310883392356,0.0,0.0,0.0,0.0357992034445943,3.700677535501642e-08,-0.0121310534481307,1.5051409581878843e-06,0.0004588955105349,4.721414111097893,36.7208578211118,12.181698355442045,35.55651229220977
0.34,31.222212145785647,131.0103999093516,4.903491659547144,4.73024573449122,0.0007962944975467,27.63851074646407,0.0010446307681611,3.0871492806781062,345.4656368807584,12.53557620048282,5.2556261014174765,69.94256797855994,1.5899658158227497e-05,120.000020882338,96.20413272674828,1.274,1.0259901535019136,0.0,0.0,0.0,0.0368395817555172,4.208561016221623e-08,-0.0133180771902383,1.7057647550599631e-06,0.0005184333231541,4.730245801363397,35.94841996438923,12.535701282129995,27.810389570354005
0.35,31.222211909310875,131.01040039453565,5.018822212845608,4.780248518778662,0.0008286678570753,30.332092807652543,0.0010618579815451,3.063967690608957,370.5765700527057,12.774786382148209,5.367579971644358,69.93493776125636,1.8594985713558667e-05,120.00002397748868,99.9096898192772,1.274,1.025950003202184,0.0,0.0,0.0,0.0375426220587071,4.7658312175989686e-08,-0.0145774693288123,1.9252724355785177e-06,0.0005782798420984,4.780248590437683,35.44790728185619,12.774916548990808,30.486451961956565
0.36,31.22221166933814,131.0104008868675,5.135354490370708,4.798132156899578,0.0008554457330409,34.32674769697476,0.0010851169437774,3.0374319611165923,407.8625232777224,13.09301701329486,5.506730645516068,69.92658597246795,2.163521613217148e-05,120.0000274401514,104.94818266210537,1.274,1.0259105142325406,0.0,0.0,0.0,0.0384778908056978,5.3755109608570216e-08,-0.0158991451700967,2.162609490834569e-06,0.0006464142451675,4.798132232978766,34.796094028187134,13.09315138639638,34.46087058603792
0.37,31.222211421355144,131.01040139563804,5.255882891363927,4.797392186816851,0.0008791822061288,32.551601855236584,0.00111162791192,3.0078619428913056,391.1218908297639,13.457513730739372,5.661815946371007,69.91747693543164,2.5047738471809164e-05,120.0000313040604,110.87154396328836,1.274,1.025872170958032,0.0,0.0,0.0,0.0395491312153729,6.040098808671168e-08,-0.0172926678053148,2.420031948898497e-06,0.0007226353721561,4.797392267189059,34.07332166419882,13.457651832357364,32.69027405888565
0.38,31.22221116634284,131.01040191882743,5.379799334000849,4.811698494594017,0.0009057112478668,34.02947987649063,0.0011338447913587,2.9774881690446744,404.81876101445977,13.77554886562956,5.800899861213392,69.90756948297444,2.886339581486796e-05,120.00003560072224,116.17243393848278,1.274,1.02583050512925,0.0,0.0,0.0,0.0404838339452728,6.762496638941508e-08,-0.0187646375218858,2.69955777313946e-06,0.0008026686661094,4.8116985796350695,33.46655348088405,13.775691134419684,34.15949264475229
0.39,31.222210906095896,131.01040245274032,5.505993307722699,4.813508003664984,0.000929862892873,29.00025983045028,0.0011579891265804,2.9442136901860865,357.6406249338268,14.124492165837273,5.950648592462506,69.8968186645841,3.311602501056718e-05,120.00004036395212,122.13093644173792,1.274,1.02579027384009,0.0,0.0,0.0,0.0415093739609825,7.545934774906889e-08,-0.020311592409804,3.0013532510753577e-06,0.0008908380763632,4.813508093268025,32.821616487639595,14.124638228358922,29.149330452482886
0.4,31.222210638473225,131.0104030017851,5.635788650457906,4.841647069358873,0.0009592124397379,27.71178845184976,0.0011749448424961,2.91135549588368,345.4656368807565,14.390874239274588,6.07193451174791,69.8851815212744,3.783947407715338e-05,120.00004563180136,126.77947425345651,1.274,1.0257493418632293,0.0,0.0,0.0,0.0422922854866381,8.39343718693383e-08,-0.021938519432511,3.3271332720311508e-06,0.0009803271643914,4.841647164150728,32.348088166612904,14.391024912012275,27.864299944624147
0.41,31.22221036681104,131.01040355909262,5.767123077463226,4.86553909860892,0.0009876699832274,31.306062598221665,0.0011918093836199,2.876450850006428,378.9468707766882,14.663028799871563,6.195223154320929,69.87261222561014,4.307011032901644e-05,120.0000514391194,131.6183642808765,1.274,1.025708445186429,0.0,0.0,0.0,0.0430921644173401,9.308325447883581e-08,-0.0236371933433427,3.6760977501392174e-06,0.0010761942383903,4.865539198612839,31.87689439156756,14.663183942709727,31.437931330109585
0.42,31.22221008906472,131.01040412887247,5.901259531771367,4.867510642114694,0.0010118258958528,35.308283402190774,0.0012128114559048,2.8374461227958245,416.23282400171047,14.9952917972178,6.33928625560071,69.85906967380902,4.884273094936628e-05,120.00005782486392,137.64909586091787,1.274,1.0256701057426505,0.0,0.0,0.0,0.0440686959134695,1.0293499639582845e-07,-0.0254093547296826,4.049238334851429e-06,0.0011830797791891,4.867510747027452,31.315270489291198,14.995450734457847,35.422111438762386
0.43,31.222209804115888,131.01040471342728,6.038886819939341,4.854590670645608,0.0010330089741511,31.00586934514032,0.0012363751872706,2.794478603999558,375.90313951343126,15.369430568701889,6.497852263156962,69.8445117629242,5.519340856908871e-05,120.00006482835984,144.60167924299955,1.274,1.0256308158337524,0.0,0.0,0.0,0.0451682983415116,1.135186446762958e-07,-0.0272634397889413,4.449073329427772e-06,0.0013010625065656,4.854590780289497,30.70250814963406,15.369592833372094,31.13154422839874
0.44,31.22220951192321,131.01040531284193,6.180028459770617,4.866912332640401,0.0010595850174406,28.57707721036899,0.0012525768202179,2.752165534925872,353.07501253892326,15.659290812546615,6.627318538707029,69.82889155423543,6.216182865383864e-05,120.00007249162944,150.1053167542629,1.274,1.025586171750536,0.0,0.0,0.0,0.0460202245100907,1.2486676023179565e-07,-0.0292060158163984,4.8779154055816594e-06,0.001420032405556,4.866912447705031,30.24619499837236,15.659457251771938,28.709297424144207
0.45,31.222209215425703,131.01040592106523,6.322872201489905,4.881836476567178,0.0010866574689855,33.31904824532484,0.0012669045761511,2.7082028218433374,397.2093853562887,15.934249290371609,6.751662050993672,69.81215834018458,6.97909417564726e-05,120.00008085697964,155.42080512416243,1.274,1.0255397023523487,0.0,0.0,0.0,0.0468283602442113,1.3701614206272197e-07,-0.0312276295846745,5.334643585560923e-06,0.0015449645531859,4.8818365972149325,29.82567893138932,15.934419982127675,33.428929688274074
0.46,31.22220891307435,131.0104065412864,6.468371919199588,4.869610441729251,0.0011078049156487,38.95909776354321,0.0012868374716666,2.6582856015412624,449.7140588976424,16.292139278621757,6.904766425053949,69.79426683863348,7.812149592850748e-05,120.00008996920153,162.4785746623087,1.274,1.02549635315424,0.0,0.0,0.0,0.0478802236363867,1.499987870203256e-07,-0.0333272350234362,5.819761874615242e-06,0.0016858511402973,4.869610567434908,29.29014635640275,16.292313292210977,39.04968351401366
0.47,31.22220860266524,131.01040717804253,6.6178810515614845,4.838450928223533,0.0011247917292402,26.253747818137555,0.0013104398935566,2.6026193242279367,331.0078106302504,16.710658191447514,7.078951441335346,69.77517236812905,8.719457259907165e-05,120.0000998741591,170.9309671061642,1.274,1.025453319323251,0.0,0.0,0.0,0.0491102725711187,1.6384464803343264e-07,-0.0355167087264168,6.3368207228363735e-06,0.0018427306558807,4.838451058652396,28.68386015667837,16.710834873319172,26.382435512333956
0.48,31.222208284201663,131.0104078313267,6.771393590864176,4.869339340099417,0.0011561785713505,25.860860976019296,0.0013165328518772,2.5543454292827983,327.20312230115803,16.911139899671,7.177575416403102,69.75482343794755,9.70562828082882e-05,120.00011062072316,175.0543877818846,1.274,1.0254092882449153,0.0,0.0,0.0,0.0496995461609974,1.7858865391586845e-07,-0.0378054080201581,6.88909442277235e-06,0.0019849793891693,4.869339477030596,28.40887970825325,16.911321511776286,25.986704537635287
0.49,31.22220796480208,131.01040848648364,6.924537656029012,4.881367714530694,0.0011829003785372,32.565703383222065,0.0013261973190012,2.5011623511055703,389.6000096981238,17.169005224738054,7.296160258358563,69.73316318155707,0.0001077573203115,120.000122255028,180.4309832312717,1.274,1.025367445590036,0.0,0.0,0.0,0.05045746454003,1.942747077649401e-07,-0.0401641298712614,7.47069711110948e-06,0.002140948887153,4.881367857509675,28.058569663954906,17.169191034294997,32.66161128464712
0.5,31.222207637929923,131.01040915697027,7.081324512896956,4.862566137860805,0.001202418260511,33.47759680712428,0.0013425340759632,2.4399894027711366,397.970310422106,17.52898693231981,7.450304424940405,69.71015149227495,0.0001193385310595,120.0001348274002,188.0736471953394,1.274,1.0253278572281015,0.0,0.0,0.0,0.0515154948878309,2.109295159784217e-07,-0.0426011733481599,8.084173008518589e-06,0.0023184335011768,4.862566286171007,27.57768313050809,17.529175807738486,33.56639745442473
0.51,31.22220730314019,131.01040984370235,7.24202048914867,4.8479762258125,0.001223054804074,25.49162310288008,0.0013562860883156,2.3767006597692686,323.39843497208153,17.86914397471067,7.597652147346554,69.68574349602717,0.0001318441288964,120.00014838524436,195.4407439266201,1.274,1.025286455263166,0.0,0.0,0.0,0.0525152689856776,2.2858192086249162e-07,-0.0451315948093539,8.734206149830708e-06,0.002503767471626,4.847976379721193,27.13799345359824,17.86933609171003,25.602178740977283
0.52,31.222206962738102,131.01041054193402,7.405210501673173,4.865306299521403,0.0012516517170965,30.733671928447727,0.0013599291289974,2.317711624364424,372.098451184342,18.08534843773428,7.701914987606457,69.65988568649581,0.0001453248538387,120.00016298000436,200.19561780583155,1.274,1.0252426840672306,0.0,0.0,0.0,0.0531507657929359,2.4726951523704535e-07,-0.0477531686556663,9.421346966092632e-06,0.0026812161964639,4.865306460134566,26.8699055233151,18.085545046726228,30.820940596104087
0.53,31.222206619320115,131.01041124632013,7.569307468221277,4.848802699234936,0.0012715119568563,32.301199055744725,0.0013711327835325,2.2490252325653923,386.55624643486095,18.41963113311156,7.8474319110539055,69.6325258319474,0.0001598315062727,120.0001786629144,207.6614205945027,1.274,1.0251993415311351,0.0,0.0,0.0,0.0541332845214831,2.67031759303889e-07,-0.0504479325599339,1.0141887756417996e-05,0.0028848299490111,4.848802865552398,26.45837260670532,18.419830861742675,32.37940050117613
0.54,31.22220626697288,131.01041196903336,7.737918664599091,4.831496690588052,0.0012913635058467,28.31291960103712,0.0013809098107221,2.177242866245296,349.2703242098436,18.75116898748492,7.992112829440902,69.60362200959217,0.0001754082864028,120.00019548734956,215.20067397992847,1.274,1.0251561018460285,0.0,0.0,0.0,0.0551077428911958,2.878941684235108e-07,-0.0532336286085667,1.090122304443916e-05,0.003098869611663,4.831496862756785,26.061835558272342,18.751371834390056,28.396510432451375
0.55,31.222205908994248,131.01041270328463,7.909026079894722,12.755903477510111,14.794421726616704,30.4011232242592,-0.9138835564803836,1.6094188870041668,365.2500005919912,21.25288039252061,8.113323699629928,69.57312211246325,0.0001921068626005,120.00021350480982,276.4492350024227,1.274,1.025112921033824,0.0,6.26600891486463,0.0,0.0624601340772573,3.0989272306468813e-07,-0.0561100530405476,1.1700476995263424e-05,0.0037020324998483,19.440775871503323,39.111542026911415,23.551045040360247,30.457408057896902
0.56,31.222205546564343,131.01041344664463,8.081909946161325,4.791276147202281,-18.05777597669903,28.33381404196328,0.7943200487760986,1.9151458083998305,346.22656194657776,20.331092656561616,8.245531141149062,69.54097415464405,0.0002099796112633,120.00023276987916,252.98456562370217,1.274,1.0250709539098009,0.0,6.288869463612746,210.00008998959544,0.0597512067282351,3.329899590246196e-07,-0.0650818414309746,0.0110861030447479,0.0041076657067699,18.66210283683712,6.546867749057366,17.54130987655624,28.409571379587454
0.57,31.22220517944269,131.01041420523154,8.25837496244494,4.787552551375112,-17.83590045625581,28.02352498769128,1.0450993650491056,1.8371133362188787,343.1828296833045,20.59248290148013,8.372644183758661,69.50368479041882,0.0172040712215395,120.01837335924364,259.5270654559904,1.274,1.0250279191823897,0.0,6.311551412028188,210.00008998959544,0.0605195290327563,3.6585352740030506e-07,-0.0681092674027463,-0.0010913338544198,0.0043539366366791,18.44707200146929,6.5394559449894025,17.83585642014677,28.103116745811256
0.58,31.22220480270782,131.0104149716079,8.436666661170749,4.772976503128316,-17.63280364176219,36.95919863585853,1.3064853142096324,1.755978536299859,426.12500585731766,20.86219728170296,8.499584491436929,69.46466199412926,0.01550352201847,120.01655781777188,266.36544791858654,1.274,1.024981594484354,0.0,6.3342758069878045,210.00008998959544,0.0613123196235101,3.933652452290992e-07,-0.071220292261813,-0.0134425760498317,0.0046123637036141,18.24754644392607,6.5073873426993405,18.135957125612165,37.023948037736844
0.59,31.22220442119477,131.0104157503537,8.617679890060353,4.72430566913124,-17.317977270200483,29.938138969622123,1.5874526873069412,1.659909640162809,360.68438819710633,21.26095944610936,8.674248113223182,69.42385724520287,-0.0050452487623945,119.99461192527367,276.64062846659,1.274,1.0249386802161349,0.0,6.356836050350793,210.00008998959544,0.0624843771417182,4.154784164393773e-07,-0.0744107325641562,-0.0259861873500804,0.0049110079483866,17.93173843053156,6.460736053814621,18.58188959749868,30.026113151927444
0.6,31.222204028858844,131.01041654822555,8.803586967309473,4.709166576587358,-17.123317438017253,26.599469695459863,1.8694679353592687,1.573140442809182,329.4859594986072,21.517304114321195,8.796463584673363,69.38121737454429,-0.0446126823956972,119.95234257926452,283.3467317638112,1.274,1.024891335813742,0.0,6.379343236466824,210.00008998959544,0.0632378876637361,4.321309156649718e-07,-0.0777018993492489,-0.0387996937122383,0.0051899591311576,17.74034270465829,6.4388368162569,18.86744062856138,26.711448281473356
0.61,31.22220363326073,131.01041735046653,8.99002724683931,4.695200910783564,-16.937594734073485,31.201938144501742,2.1587811635305307,1.4848379945272991,372.0984511843332,21.75958670495607,8.913568720861205,69.33666956168167,-0.103474737946747,119.8894429675356,289.7583775511912,1.274,1.0248423929069768,0.0,6.402054609774704,210.00008998959544,0.0639500741587173,4.432418909721867e-07,-0.0810689915130631,-0.0517868504990205,0.0054757307227562,17.557927227502542,6.422505133283198,19.13761719080366,31.311755363686
0.62,31.222203230872697,131.01041816436987,9.179132633076916,4.659814748770264,-16.68333131893086,38.83412959754811,2.4660802490890483,1.3852844328531015,442.86563930529206,22.083721509008,9.06109442502408,69.29014753529792,-0.181747507824647,119.80577607102532,298.4498425473947,1.274,1.0247996097896497,0.0,6.424435218886722,210.00008998959544,0.0649028246797115,4.487684983276576e-07,-0.0845087273941886,-0.0649337914151347,0.0057929877158508,17.30404525304592,6.398457421512058,19.49998481627388,38.93700279109853
0.63,31.22220281978665,131.01041899387863,9.372040835166242,4.602948206119506,-16.362221907160365,21.969445770596263,2.7966477193048647,1.272641467590536,286.11251274707456,22.495584458636515,9.241223769161184,69.24157903956831,-0.2795128676201363,119.70124044273634,309.68013526452927,1.274,1.024756158874558,0.0,6.446732735397104,210.00008998959544,0.0661134107747912,4.4867139490910673e-07,-0.0880342067535017,-0.0782858957975368,0.0061470886408642,16.98028506182299,6.364953550621098,19.96020463019553,22.183268520172902
0.64,31.22220239914384,131.01041984080675,9.569261912211118,4.606752302867164,-16.247841626252374,21.573177149618623,3.100950806067408,1.186003099525694,282.3078244179702,22.62933963296868,9.318524486075768,69.19087607496513,-0.3969072849235275,119.57567519864308,313.367766657153,1.274,1.024708534665538,0.0,6.4690907880654365,210.00008998959544,0.0665066585915536,4.428941161485551e-07,-0.0916596695007556,-0.0918923255264441,0.0064381735902436,16.871346641015027,6.3781678981649135,20.11120400047233,21.827149873095244
0.65,31.22220197895536,131.01042068435268,9.764769485333046,4.591279642122292,-16.072550209936868,38.22621570603863,3.420923563709775,1.0891611417817042,436.7781447787504,22.838219706781807,9.42376097974015,69.13793371326858,-0.5341256251256998,119.4288557754342,319.17355527058146,1.274,1.0246641738210605,0.0,6.491557953587054,210.00008998959544,0.0671206962096817,4.3138000091533693e-07,-0.0953351468658019,-0.1055690229741452,0.0067580227278009,16.69882129555109,6.383655650677673,20.3465308037135,38.39443393548219
0.66,31.222201550283543,131.01042154318054,9.963954312779236,4.521462992494322,-15.721063895987102,32.495197771427215,3.789995816859869,0.9612903439974364,383.5125151715984,23.28848833383512,9.618844440183924,69.08266791588174,-0.6910704386998135,119.2608691822176,331.8766516731074,1.274,1.0246195561629028,0.0,6.513452310328265,210.00008998959544,0.0684441731102069,4.141351811984933e-07,-0.0990723167776196,-0.1193570923464311,0.0071612638141226,16.342571069301577,6.356497041406183,20.8498992178142,32.729589450853894
0.67,31.222201109161503,131.0104224257538,10.169212694217034,4.484795190317069,-15.482964784968615,22.33276831423064,4.144658818590429,0.8479118919530566,289.15624401033847,23.57690506835796,9.75399428147916,69.02497949792235,-0.8676912496812079,119.0717510653403,340.14111509100417,1.274,1.024572383541697,0.0,6.535387341698265,210.00008998959544,0.069291981749675,3.911434168838209e-07,-0.1029124103203135,-0.133400493770542,0.0075308160533701,16.1041424906904,6.359005623931238,21.174338354505924,22.729929429633938
0.68,31.22220066530605,131.01042331165715,10.374680386290455,4.470347465014933,-15.321134590347976,27.91930295328084,4.484534068272516,0.7461113531980464,340.89999248584934,23.746728869840624,9.8451440104857,68.96473572473965,-1.064135131465432,118.86132423449271,345.0520088469557,1.274,1.0245245285832842,0.0,6.557607200379908,210.00008998959544,0.0697912517709355,3.623498969117688e-07,-0.1068248964510481,-0.1475878392930612,0.0078732710036,15.944979638909976,6.384227038988234,21.36866943086955,28.287014783429235
0.69,31.222200217278687,131.01042420391087,10.581230025280924,4.427139891400341,-15.068205855809117,34.40693762761612,4.857155556742256,0.6254850844516555,401.0140726853658,24.04612332849744,9.984770463256089,68.90181317062694,-1.2803645226961975,118.62960780163928,353.8005464397828,1.274,1.024479631064582,0.0,6.5794711917796445,210.00008998959544,0.0706713319166208,3.277463957525525e-07,-0.1107866526148307,-0.1618364667558931,0.0082680448362143,15.690642477780855,6.393790765316378,21.706404886913568,34.75371273121664
0.7,31.22219975968381,131.0104251141881,10.792151644076032,4.368929724169408,-14.770115933008366,28.825686493210668,5.255154826785388,0.4923405314295281,349.270324209851,24.41269968156952,10.14972461699581,68.83609405008252,-1.5162019126009387,118.37676951055434,364.6625628595546,1.274,1.0244351749185203,0.0,6.601107967784515,210.00008998959544,0.0717488671235121,2.87351468056911e-07,-0.1148187311483859,-0.1762176456664042,0.0086994153779317,15.38892486877046,6.397446230493138,22.118226613992064,29.304935646700233
0.71,31.22219929406792,131.01042603937054,11.006527193799084,4.330523024895993,-14.53929460119332,23.6519804039183,5.637794661662449,0.370320534566802,301.3312640634036,24.66778965979988,10.2732414742935,68.7674391751071,-1.7715567560626837,118.10288251252814,372.31548173453535,1.274,1.0243880468141104,0.0,6.62285781451635,210.00008998959544,0.0724987513099321,2.411602418951313e-07,-0.1189308283074281,-0.1907621664877992,0.0091049435177929,15.15717963844015,6.42384885250936,22.40839437711983,24.317443183293896
0.72,31.22219882439872,131.01042697088593,11.22193960372886,4.298785729491724,-14.332317504871016,28.989237099329955,6.015189386903603,0.2521964764555093,350.7922053414578,24.875236248398576,10.379113939570503,68.69569446369785,-2.046363231985388,117.80799187431592,378.5960399154093,1.274,1.024337302174265,0.0,6.644562529231824,210.00008998959544,0.073108615491456,1.891638509216216e-07,-0.1231004136948725,-0.2053902672040583,0.0095032098346497,14.950173320260385,6.46317166113405,22.64732635519788,29.607802586889534
0.73,31.22219834934268,131.01042791170352,11.439215090244332,4.24578075641376,-14.06008730879552,36.70644459767131,6.426015785432809,0.116764339616134,422.3203185282354,25.185341257787023,10.52372236861922,68.62071157168812,-2.3404182762319845,117.4922883169748,388.08625121579126,1.274,1.024292465384646,0.0,6.666036630192806,210.00008998959544,0.0740201992475949,1.3138617548841662e-07,-0.1273163773954295,-0.2200621479483111,0.0099509981083237,14.6747834944296,6.4908935300447,22.998887267549584,37.26486800979645
0.74,31.222197865618657,131.01042886935204,11.66041127089726,4.175604755422268,-13.736764907277651,22.888346199231744,6.871321095331256,-0.0352564547158787,294.4828134710563,25.582167552597426,10.701219386824928,68.54234151783389,-2.653441250919116,117.15604432352276,400.40365270989565,1.274,1.0242470321640116,0.0,6.687365220083925,210.00008998959544,0.0751866669387808,6.78670954196705e-08,-0.1315942038034411,-0.2348282057797499,0.0104471878998091,14.34569301483454,6.509471241503659,23.44501396342848,23.897545655331005
0.75,31.22219737317012,131.01042984428523,11.885607700079952,4.145188652490491,-13.541175412395829,26.74092491837678,7.2562358157025715,-0.1549340458796856,330.24688556441737,25.74143275555013,10.789577856962364,68.46041758399711,-2.9852036745601453,116.79947477710616,405.3959377445017,1.274,1.0241984712898409,0.0,6.708741452311148,210.00008998959544,0.0756549437931455,-1.3692133469875984e-09,-0.1359462044553615,-0.2497273926894004,0.0108596472125142,14.150081174230117,6.573807347974722,23.634135911613832,27.70837469542235
0.76,31.22219688012173,131.0104308179546,12.109722931214865,4.09111005435749,-13.273931375286033,28.780113547732444,7.682690335479166,-0.295717204525089,349.2703242098581,26.024134282847204,10.92467952154238,68.37475689810124,-3.3355100485104576,116.42275732157556,414.3403194372208,1.274,1.0241522053390697,0.0,6.730126175426115,210.00008998959544,0.076486006559296,-7.630937890428425e-08,-0.1403265423141213,-0.2646040631531809,0.0113324205499356,13.879258422362838,6.622575540378523,23.957671883820147,29.78936245165864
0.77,31.22219637752208,131.0104318112088,12.338417866664876,4.033138031689317,-12.996252074266543,26.867635387852967,8.119790818056444,-0.4413256109798276,331.76876669606884,26.318315372352004,11.064459490062491,68.28520043912481,-3.7039211898626494,116.0263299242758,423.75150131659007,1.274,1.0241065975906936,0.0,6.751088275400974,210.00008998959544,0.0773508165183487,-1.5687648430856644e-07,-0.1447538713902315,-0.2795191056874513,0.0118218461781815,13.59738020793566,6.675911721812613,24.29432952145866,28.0712593689437
0.78,31.222195869125056,131.01043281563005,12.569365915625076,3.979218147058567,-12.733763596906751,21.9890458685813,8.550788824496678,-0.5836690947181178,286.8734378128874,26.575360234835976,11.190462234848404,68.19157036944324,-4.090063937332559,115.61055794026456,432.05970517040896,1.274,1.0240588105546735,0.0,6.772158420218535,210.00008998959544,0.0781064874562785,-2.430145382902537e-07,-0.1492265146172401,-0.2944639852756787,0.0123058765431466,13.331213969851412,6.741512071703566,24.59157092044677,23.600313500965164
0.79,31.222195355498783,131.01043383000857,12.802226667281785,3.9328017313592194,-12.496088190549376,31.344705362313768,8.964227190299143,-0.7178260126059012,373.6203323159581,26.77108005693245,11.293453824211042,68.09368404922277,-4.493531437690384,115.17584128762904,438.4373241757589,1.274,1.0240083170932772,0.0,6.793118012834873,210.00008998959544,0.0786819257972341,-3.3466207050859945e-07,-0.1537340196245164,-0.3094028922868277,0.0127706664473694,13.090953177446858,6.824483055025193,24.823723436332703,32.60925018386552
0.8,31.222194837609404,131.01043485211727,13.036394672850232,3.859250936644957,-12.17744932083774,31.722893287255687,9.440476752202484,-0.8819840098985511,377.42502064505805,27.127847985438983,11.458049797223,67.99136092189583,-4.913845812800751,114.72265471961812,450.19083885777087,1.274,1.0239625010683884,0.0,6.813916589217084,210.00008998959544,0.0797307003226192,-4.317424575153289e-07,-0.1582617225321544,-0.3242862705628472,0.0133216847371689,12.76554284124681,6.884724623153955,25.229387218359527,33.10955233187553
0.81,31.222194310099816,131.0104358956652,13.27543801257004,3.7900701626716775,-11.874295031103124,20.485927439008982,9.909373505620929,-1.042509097469564,273.9374926939922,27.44534748799548,11.608100126937636,67.88442683039932,-5.350441283791011,114.25156621665572,460.7798349237468,1.274,1.0239149950770308,0.0,6.83450292491106,210.00008998959544,0.0806640717881839,-5.341481788913596e-07,-0.1628334869259731,-0.3391893131400819,0.0138666133946519,12.456211560329018,6.958842074804441,25.593460958279422,22.780599893956918
0.82,31.22219377763553,131.01043694931727,13.516341361636,3.743009304036156,-11.640144724046428,26.376188159829344,10.316603533091191,-1.1750734727613157,328.725004432774,27.59725389866353,11.695119339005863,67.77268634995876,-5.8028357793435,113.76305187822923,465.883885008484,1.274,1.0238644186635044,0.0,6.855209602714689,210.00008998959544,0.081110757334505,-6.418053514877513e-07,-0.1674376493914571,-0.3540719021652871,0.0143372841011975,12.2192369647667,7.07028272703135,25.781375931369837,28.346364986856756
0.83,31.222193243012768,131.0104380057847,13.757225233068606,3.673312010211237,-11.339458900641551,33.57931322756419,10.781924660312065,-1.335127581067154,395.6875032246518,27.89108067311946,11.836838505686163,67.65594913249137,-6.270472276577378,113.25766705620876,475.8461801212396,1.274,1.0238188483711983,0.0,6.875772476517184,210.00008998959544,0.0819745628611775,-7.546314112799132e-07,-0.1720410204608952,-0.3688271005970922,0.014887960533004,11.91217313784774,7.161753438033839,26.121487758030224,35.29309765199478
0.84,31.222192699651696,131.010439082779,14.002604738543855,3.59122627769129,-11.003568599294844,20.50406719096496,11.284744948867305,-1.5125504591750445,275.45937482564227,28.26269000871492,12.00894985605859,67.53404807475341,-6.75263313642357,112.7361393078917,488.5990968625841,1.274,1.0237739661568126,0.0,6.896035854015901,210.00008998959544,0.0830669883303798,-8.724800250796943e-07,-0.1766631576014834,-0.3835152129512145,0.0154912729740569,11.567905529845849,7.245240590836339,26.54485879835156,23.453145819359555
0.85,31.222192149255005,131.01044017649247,14.25143099269954,3.537671100178944,-10.754402494188064,22.344361460623208,11.692069565054048,-1.6479819792505928,292.9609323393965,28.40793572195416,12.0941672759041,67.4068002696185,-7.248667083198224,112.19912326300108,493.62215664819263,1.274,1.0237227741398531,0.0,6.9163808462670575,210.00008998959544,0.0834941150013848,-9.95227060821649e-07,-0.1813117516139651,-0.3981576023737157,0.015980224472171,11.314810302743169,7.379817988191548,26.72853999695196,25.272333180792423
0.86,31.22219159830866,131.010441268973,14.499181775053104,3.4696863798151014,-10.4640559367225,28.053821691203016,12.138126367257774,-1.802016518146952,346.2265619465616,28.64516550440919,12.215217339626962,67.27401595987413,-7.757935555415391,111.64725848569924,501.88894603413513,1.274,1.023674789281455,0.0,6.93670426947209,210.00008998959544,0.0841915953233945,-1.122783996342649e-06,-0.185943560854348,-0.4126181871764616,0.0165249209905134,11.018212670706458,7.503090285953027,27.010597633477914,30.620226758157845
0.87,31.22219104004672,131.01044237955364,14.750672257009768,3.3901814313601446,-10.14103535123392,26.005096053162458,12.619583647575656,-1.9727786398573537,327.9640783669946,28.9583445444596,12.366202179461272,67.13554051437787,-8.279610397615926,111.08138897234852,512.9109040712019,1.274,1.0236288969245204,0.0,6.956633142131008,210.00008998959544,0.0851123077861852,-1.254977684900729e-06,-0.1905687482155482,-0.426927352046013,0.0171207125454513,10.687077783385226,7.618239043634208,27.373698486746324,28.97258648678509
0.88,31.222190475613104,131.01044350578476,15.005216346950796,3.3159796684219893,-9.83538178226179,22.30124888643433,13.074690607003092,-2.1331505242522075,294.4828134710421,29.214422506104626,12.49544253915222,66.99121350185172,-8.812895874619226,110.50232299611189,522.0095701822723,1.274,1.0235805388426191,0.0,6.976578149878101,210.00008998959544,0.0858652005261054,-1.3916433924596952e-06,-0.1951940007571484,-0.4411028483858102,0.0176908857726326,10.374112745518207,7.751880377821973,27.6770606480426,25.939228352490765
0.89,31.22218990730904,131.01044464114108,15.261187096901589,3.2449511588786417,-9.540390073064092,24.450892989455934,13.506510317394865,-2.2848780220845075,315.02813424808807,29.42702703423419,12.608106976886813,66.84087174146131,-9.357012160379412,109.91085100035596,529.6219230888976,1.274,1.0235293752791452,0.0,6.996482180932089,210.00008998959544,0.0864903242240386,-1.5326380061214465e-06,-0.1998040747400688,-0.4550967009523388,0.0182400430902595,10.07230034293133,7.901679496351468,27.93534150367285,28.026641905721135
0.9,31.222189334872706,131.01044578662223,15.51881190827286,3.16604661969028,-9.224046588331042,27.006665754614712,13.960632358266349,-2.447848123699032,339.3781423542166,29.690694969252544,12.741203471931792,66.684368331889,-9.91111457076664,109.30783355928033,539.1419919470273,1.274,1.0234837388140003,0.0,7.016218959389351,210.00008998959544,0.08726553639566,-1.6777986532363223e-06,-0.2043862210371145,-0.468869069803517,0.018825059736768,9.74782644885944,8.047448703495112,28.248035766876946,30.50001986000746
0.91,31.222188756811235,131.01044694754808,15.77931852931928,3.0822699444862374,-8.895331207212378,20.227060116514856,14.42691988195213,-2.6176144494740026,277.7421810230785,29.98276476021241,12.885995339311345,66.52157222372931,-10.474309088501215,108.69418498877934,549.7875764214982,1.274,1.023436404813438,0.0,7.035808819585583,210.00008998959544,0.0881242336221968,-1.8269309069223127e-06,-0.2089422501798199,-0.4824235282476858,0.0194335197209171,9.41014543071681,8.193645957862056,28.59109583049483,24.982431499825367
0.92,31.22218817367065,131.0104481228639,16.04239960145434,3.008706715550587,-8.596828886955278,24.17851956862532,14.830480736157288,-2.762340420547493,315.0281342480675,30.163210108608595,12.987213631974267,66.35235687728516,-11.045709725465947,108.07081123838984,556.4110073322406,1.274,1.0233859136578225,0.0,7.055345837630249,210.00008998959544,0.0886548550737591,-1.9798423748650924e-06,-0.213470011160807,-0.4957516278488469,0.0199736290490494,9.104380106658988,8.371691761181062,28.817884536307677,28.498675267368487
0.93,31.222187588208865,131.01044930345347,16.305903358694334,2.923504434151792,-8.267049581819474,28.866893472396143,15.277808569100545,-2.9276521899169494,359.16250706547066,30.436877793212727,13.12579298418683,66.17660432751448,-11.624426138208255,107.43862360044244,566.5389914201212,1.274,1.0233407575091376,0.0,7.074806319028475,210.00008998959544,0.0894594773733176,-2.136365307828273e-06,-0.2179463356203779,-0.5087839663113776,0.0205769607635873,8.765362644619936,8.534809756184707,29.142793825515184,32.79146414489409
0.94,31.22218699666273,131.0104505030822,16.57297874483114,2.831692614038744,-7.920360903333114,20.49509604079498,15.748902313514998,-3.10491199067722,283.06875048378083,30.76188869400204,13.285437531810244,65.99422509294695,-12.209495578583711,106.79861349390876,578.6879741499126,1.274,1.0232914783978162,0.0,7.094033663396539,210.00008998959544,0.0904150155296959,-2.2962634564410195e-06,-0.2223784523205651,-0.5215399613821557,0.0212190588680643,8.408296531980422,8.692173103674357,29.52171992804905,26.033005286979435
0.95,31.22218640007248,131.01045171910167,16.84293943332821,2.752349188214053,-7.609461200105666,26.829874137550927,16.132170277134918,-3.247098191032676,342.421873617488,30.94099555134134,13.387398078058023,65.80513218361705,-12.799993006070173,106.15173258824731,585.4310749922493,1.274,1.0232418269359267,0.0,7.113259903091698,210.00008998959544,0.0909417215039963,-2.4593126973721e-06,-0.2267666007304494,-0.5340176683817391,0.0217631888835411,8.08917342545153,8.890602521689706,29.74921494855389,31.474318272990555
0.96,31.222185801823887,131.01045293889183,17.112919260976224,2.658569972426029,-7.2607781843733985,26.131083792308697,16.58513238359576,-3.420864544603832,337.09533515678265,31.257003732661463,13.54475858092689,65.60924772568701,-13.395007489989943,105.4989187662144,597.4349606847398,1.274,1.0231951201821403,0.0,7.132433574318736,210.00008998959544,0.0918708120719362,-2.6253383502987465e-06,-0.2310831391097888,-0.5461371333833976,0.0224033776815467,7.729748570251854,9.061424346380608,30.11953353318876,31.13844040048542
0.97,31.222185197038,131.01045418238473,17.38732872610233,2.567060892711208,-6.919545095993218,16.000016102805496,17.00755600291567,-3.5840105701272007,245.0218871929888,31.53278604187955,13.686658243795517,65.40652970246036,-13.993558252069995,104.84118871639248,608.0078496984574,1.274,1.0231476260761452,0.0,7.151353270633723,210.00008998959544,0.0926816803982813,-2.7940633545442067e-06,-0.2353397066305801,-0.5579292235948031,0.02301675015119,7.378199836155344,9.248126105233377,30.448506654786343,23.62419539897881
0.98,31.222184589199287,131.01045543648493,17.663201033189832,2.48629109390332,-6.608182883714505,23.979169255201533,17.333239850341823,-3.708999313582072,319.593746642963,31.6629343443846,13.77016398945201,65.19693651519403,-14.59472477474026,104.1794956044442,613.0209437327585,1.274,1.0230935628253934,0.0,7.170330623419249,210.00008998959544,0.0930645041034123,-2.965268806953699e-06,-0.2395231581036072,-0.5693547109561224,0.0235219658221692,7.058490428631463,9.477584034815644,30.62722315454567,29.819430540961584
0.99,31.222183979939743,131.01045669404672,17.938988354013276,2.389886052204983,-6.2568710677697785,26.24281033571,17.74909347146393,-3.8743033317447577,341.66094855170127,31.963592169914616,13.923442699463113,64.98045063719373,-15.197571011484785,103.51481263642998,624.7016455640268,1.274,1.0230490803133316,0.0,7.189158408154257,210.00008998959544,0.0939484976010922,-3.138758592255526e-06,-0.2436078703173233,-0.5803425630684552,0.0241496220171362,6.696063485942959,9.668018810110173,30.9827174135163,31.917481725242354
1.0,31.22218336466907,131.01045797676645,18.21930515658324,2.2927317861408043,-5.905017935225206,23.1244300989511,18.152059456185448,-4.036764389383244,314.2672081822764,32.26001131284423,14.075833050613952,64.75709164295752,-15.801117861267368,102.84816412661128,636.3247666434793,1.274,1.022999484445133,0.0,7.207735446045774,210.00008998959544,0.0948200429258857,-3.314212954871109e-06,-0.247608111245087,-0.5909290779026155,0.0247731443005554,6.333026854350988,9.86446972784505,31.334094445207228,29.67375939508777
1.01,31.22218274637381,131.0104592722479,18.50142433938061,2.1985109861194294,-5.562441359412046,24.14051986108731,18.50827609975116,-4.182339236036585,324.92031610370094,32.50043843766588,14.20599313027877,64.52687875756887,-16.40446189011155,102.18049494068012,645.8274025558816,1.274,1.0229507481225095,0.0,7.226375509818051,210.00008998959544,0.0955270209869305,-3.4913793597050104e-06,-0.2515154303996989,-0.6010886153874316,0.0253509264935296,5.979883623880684,10.080469584431142,31.628064068679407,30.70525923735968
1.02,31.222182125383743,131.01046057921909,18.78506214314193,2.1007159264753543,-5.212324382422852,19.60422513725952,18.87107147086035,-4.3334411639709245,284.59063161543185,32.773211839737286,14.350195731149665,64.28985275064225,-17.006710911075157,101.5127417994326,656.6957540230784,1.274,1.0229039803623294,0.0,7.244894759180861,210.00008998959544,0.096329079405488,-3.6700183440245246e-06,-0.255315319509509,-0.610781388570688,0.0259492034344171,5.618643174653592,10.292005523253012,31.95559069481025,27.553977825574933
1.03,31.22218150072081,131.01046190378585,19.071438070777138,2.006485821249679,-4.872272106000173,15.395912303350087,19.173800001629616,-4.462332035698019,247.3046933904342,32.974955921144534,14.465694458112166,64.04608224970637,-17.60697397931884,100.845844857428,664.7872785393293,1.274,1.022853416101322,0.0,7.263276969563705,210.00008998959544,0.0969223714518306,-3.849846765074625e-06,-0.2590035346392414,-0.6199938559291497,0.0264853746632766,5.268330945434247,10.527782198156183,32.21054327214813,24.9916211829436
1.04,31.222180874151835,131.01046323712174,19.358703802542173,1.91336368944086,-4.535993981688846,25.92966911753629,19.4345508168108,-4.576636286633213,345.4656368807608,33.138155986013345,14.565704623797078,63.79565425252896,-18.204391512206605,100.18071472188048,671.3653859031393,1.274,1.0228049544826707,0.0,7.2816030081266865,210.00008998959544,0.0974023765887916,-4.0306209321728906e-06,-0.2625649192688453,-0.6286854667511633,0.0269816970831449,4.922250480570738,10.778688922942964,32.426387771902206,32.72606156714009
1.05,31.222180245476967,131.0104645808283,19.647166292288244,1.8082953285030987,-4.172916137174933,14.33675724309027,19.79526509022359,-4.735768807342029,240.4562587980608,33.48143673777172,14.74187124577306,63.538685125514654,-18.79811194540344,99.5182588111657,685.3278960398923,1.274,1.022755494436122,0.0,7.299755998076437,210.00008998959544,0.0984116957568733,-4.2120769567952205e-06,-0.265988724800965,-0.636828039835419,0.027615919296246,4.547238393530575,10.980036811787532,32.826535935249304,24.89623735499242
1.06,31.2221796123264,131.01046595188257,19.94012310214969,1.7151759856703512,-3.8387155003578712,21.557695735690444,19.99133699684773,-4.82917344870015,308.1796836557233,33.6007350504874,14.824633245430368,63.275316516027736,-19.38730765200852,98.85936410178,690.2009846062264,1.274,1.0227013895379469,0.0,7.317759441826448,210.00008998959544,0.0987626747275593,-4.393846074178119e-06,-0.269285007552042,-0.6444418714767947,0.028056980126858,4.203946009521252,11.25145222662076,32.99820203713052,29.794441034390445
1.07,31.22217897951486,131.01046731901872,20.231391984128184,1.611902478106177,-3.483324135356203,25.7907846061336,20.27853019802153,-4.963888210502264,348.5093681440431,33.88759902565978,14.97891578645894,63.005694848937786,-19.971220993240507,98.20484579743616,702.0167396547916,1.274,1.0226540159946436,0.0,7.335819877592042,210.00008998959544,0.0996061816729349,-4.575754006840721e-06,-0.2724256969375376,-0.6514590330649578,0.0286257380253142,3.837782507699537,11.474381109059305,33.34077674599206,33.18167481846587
1.08,31.22217834262922,131.010468714475,20.52721060481884,1.50666795535321,-3.125351890909749,16.092495539582405,20.56617410161481,-5.102178328487192,261.0015785751465,34.203574165432705,15.146711069566251,62.73000866910533,-20.54908522967508,97.55553611795862,715.1489592333811,1.274,1.0226061614050743,0.0,7.353557388716659,210.00008998959544,0.1005352663636619,-4.757426444548865e-06,-0.2754184560908228,-0.6578939090340067,0.0292092235794978,3.469239217444441,11.690553251293885,33.71288845799999,26.60767095341296
1.09,31.222177703640263,131.01047012651807,20.825218315861964,1.4084648009840892,-2.783977100815592,14.357434805304164,20.72259742127879,-5.188722516150458,246.54375332456465,34.35509281620762,15.244969777557664,62.44845345686921,-21.12020058570459,96.9121992669651,721.4784288951194,1.274,1.0225512795791307,0.0,7.371356466648353,210.00008998959544,0.1009809678112103,-4.938560034287529e-06,-0.2782573776216774,-0.6637280875041924,0.0296401819997867,3.1197339776193056,11.960316298197377,33.91795877152567,25.73878045717311
1.1,31.222177064155165,131.01047154169163,21.122874830171323,1.3082525912554006,-2.439789340338712,32.36819900679191,20.87269739099681,-5.27592916399878,413.1890617384087,34.53077894828651,15.354220886797004,62.16124490432396,-21.68390440101666,96.27556494240883,728.8554958360163,1.274,1.0224981043155532,0.0,7.389073048335417,210.00008998959544,0.1014977083059538,-5.118953426003682e-06,-0.2809225886276146,-0.6689174907360383,0.0300762490688875,2.768223659412224,12.224319416545963,34.1476535435346,38.87422323163439
1.11,31.222176422773448,131.01047297332397,21.422651493426496,1.196392466147862,-2.075662901545233,22.49449238249624,21.190990727655088,-5.4377737583843455,324.1593910379213,34.98667759941474,15.586089736758764,61.86863167880583,-22.23955188150525,95.64635030655845,748.2066839009324,1.274,1.0224548851875197,0.0,7.406559851599404,210.00008998959544,0.1028380974347113,-5.298302250737786e-06,-0.2834097355868375,-0.6734504235563284,0.0307422463798244,2.395642954976932,12.397736307670082,34.66070454571957,31.37880907576192
1.12,31.22217577786843,131.01047444306184,21.72839462463748,1.0933534265929468,-1.730068622599858,5.819129923450617,21.325479291036007,-5.525748444129347,172.7328179403806,35.206478365363765,15.716454325723598,61.570880241125664,-22.78654395048923,95.02522871191196,757.6150529266935,1.274,1.0223979224661404,0.0,7.423966481903043,210.00008998959544,0.1034845258893373,-5.476154481051896e-06,-0.2857287108132549,-0.6773365479190296,0.031187592030291,2.0465081993864715,12.649575055554209,34.93476111624288,22.785351345243765
1.13,31.222175133236888,131.01047591130708,22.032864050440644,0.9962489558128907,-1.3957008447128303,26.92228179066268,21.29871565189358,-5.548710101550093,367.5328077894322,35.22740516949292,15.759999535084672,61.26826193765615,-23.32434113226173,94.41281376163948,758.4937945165129,1.274,1.0223460397860296,0.0,7.4415134931242,210.00008998959544,0.1035463930664141,-5.652358573736078e-06,-0.2878568751083389,-0.6805308928981838,0.0314376400775965,1.7147292797900973,12.969184287613322,35.0081906748839,34.77402376813917
1.14,31.22217448841192,131.01047738020077,22.33652061057584,0.886300132534366,-1.0438742861518506,12.812833841581671,21.521681792347763,-5.681672538327386,239.6953177322812,35.64963247357566,15.981606382702097,60.96108188977948,-23.85242265322279,93.80970579822171,776.7623554332613,1.274,1.0223022138470996,0.0,7.458786510941413,210.00008998959544,0.104787834584292,-5.826750500992036e-06,-0.289778408397541,-0.6830082566887368,0.0320258812733396,1.3693482145004088,13.1517696395235,35.48567015526004,25.68331951006017
1.15,31.22217384049352,131.0104788969175,22.64757712001676,0.7853579337223798,-0.7064698519348658,12.418286246946268,21.5021671122968,-5.71503594914624,237.4125115347709,35.75646155961712,16.06434763976199,60.64967082051688,-24.370303736378784,93.21647237854094,781.4013370175891,1.274,1.0222426194541194,0.0,7.475819914478315,210.00008998959544,0.1051022148387631,-5.998794204531014e-06,-0.2915060136284455,-0.6847745673522142,0.0323123903881023,1.0563406067256258,13.442996633099916,35.64549234668311,25.47976961701708
1.16,31.222173193608644,131.01048040023474,22.95528706954026,0.6823431063247837,-0.3689478733109209,39.86072594113016,21.50144702677083,-5.760002848691945,490.043774385954,35.929522841925426,16.17727025758732,60.33436219305848,-24.87755169509372,92.63362962787248,788.9602880635667,1.274,1.02219674531104,0.0,7.493071688657618,210.00008998959544,0.1056112763061699,-6.168408487667617e-06,-0.2930201794406103,-0.6858033853199209,0.0326364699036405,0.7756985320257522,13.710095409284996,35.87156904602168,45.65487191544686
