Time,Latitude,Longitude,Altitude,Angle of Attack,Angle of Sideslip,X-Acceleration,Y-Acceleration,Z-Acceleration,Thrust,True Velocity,Ground Velocity,Pitch,Roll,Yaw,Dynamic Pressure,cp,parachute_deploy_gain,Wind Speed,Mach,omega_x,omega_y,omega_z,Cmq,Angle of Attack(total),Angle of Attack(gust),True Velocity(gust),Acceleration
0.0,31.222186000000004,131.010384,3.000000003643237,0.0,0.0,0.0,0.0,0.0,2.2828121974499247,0.0,0.0,69.99999999623421,0.0,113.69999999388332,0.0,15.288,0.0,0.0,0.0,0.0,0.0,0.0,-0.0,0.0,90.0,0.0,0.0
0.01,31.22218600000153,131.01038399999584,2.99999882256592,0.0,0.0,0.0,0.0,0.0,34.24218696174923,7.502283530665459e-11,7.190531319924593e-11,69.99999999623329,-4.83564628150269e-13,113.69999999388072,3.446445726795683e-21,15.288,0.0,0.0,2.204725565824978e-13,-3.659182332138578e-19,7.589415207398531e-19,4.811147140404426e-19,-1.5108918610345807e-31,0.0,89.9999999995224,7.502283530665459e-11,0.0
0.02,31.22218600000288,131.01038399999217,2.999997775701936,0.0,0.0,0.0,0.0,0.0,25.871876237766408,1.5320717031631675e-10,1.4674636035870463e-10,69.99999999623222,-9.67129256300373e-13,113.69999999387804,1.4372842949972735e-20,15.288,0.0,0.0,4.5023593667086093e-13,-7.284483346386986e-19,1.5178830414797062e-18,9.757819552369542e-19,-6.170906918166791e-31,0.0,89.99999999902465,1.5320717031631675e-10,0.0
0.03,31.22218599928065,131.01038400193067,3.000201659671132,18.81500467334555,-0.00012974450181,11.96616230539064,-1.8916256735984712e-05,3.349833086198469,180.34219359854663,0.0882870268161719,0.0553390044312322,69.99999999799445,-4.212591857125379e-12,113.69999999488518,0.0047728553458352,15.288,0.0,0.0,0.0002594525584132,3.2187251995663407e-17,-7.20264389268894e-10,1.2365134327422308e-11,1.6874092354518158e-13,18.815004673776716,89.46786891739345,0.0882666465974854,12.426199017587786
0.04,31.22218599548236,131.0103840121632,3.001799604587872,9.46752327608497,-4.6177622759613696e-05,55.21900012092241,3.931876292165237e-06,3.349616504302861,548.6359724538078,0.3767519978512604,0.1853356633749705,70.00000000507204,-2.4624598767003407e-11,113.70000000019972,0.086915163246288,15.288,0.0,0.0,0.0011071759353184,1.6174128009138757e-15,-1.3693172015529268e-08,2.7753303060112748e-11,1.3689612277852356e-11,9.467523276196548,87.63554493451223,0.3767447442872393,55.32050167054111
0.05,31.222185984749512,131.01038404118162,3.00777936418888,5.376730308971262,-2.257790939128127e-06,80.28807156553681,5.266841443842784e-05,3.348887800834877,761.6984298824644,1.018787885905993,0.4366201147110198,70.00000000894464,-1.1355399380652658e-10,113.70000001523856,0.635552918586145,15.288,0.0,0.0,0.0029939522895272,1.6418815498809788e-14,-9.32122351075408e-08,4.303264669380585e-11,2.5199270302492604e-10,5.3767303089717045,83.57022052969386,1.0187875312530217,80.35788377762394
0.06,31.22218596447235,131.01038409608267,3.0201664202003013,4.296730121134882,2.4863835723705905e-05,60.21296515808257,0.0001057204249726,3.347700952379021,590.4875390737208,1.721098934225416,0.7081674028809783,69.99999995523842,-3.0560354507026086e-10,113.70000004366592,1.8138247671743823,15.288,0.0,0.0,0.0050578622752421,8.328976953118383e-14,-3.2824985336199985e-07,5.923438275930214e-11,1.4991363363716091e-09,4.296730121206683,79.20467073327266,1.7211028398275985,60.305955550063224
0.07,31.22218593493329,131.01038417609837,3.038741944736831,3.8204913578752526,4.8016684030909405e-05,91.4060317508128,0.0001597686613101,3.346072557365335,855.2937749779139,2.4375792548422868,0.9844712334613328,69.99999973536046,-5.939103491363046e-10,113.7000000850886,3.6383156301599167,15.288,0.0,0.0,0.007163413150771,2.709313825263564e-13,-7.906546256197275e-07,7.920022733617308e-11,5.114174483651565e-09,3.820491358176508,74.87999294483174,2.437586797285377,91.46725557277466
0.08,31.222185894468456,131.01038428575305,3.0647976109320942,3.588632851766762,7.220043782492885e-05,19.18449428359557,0.0002119618497595,3.3440615022685813,241.2171988638848,3.1292508166901074,1.2522236515868983,69.99999919480445,-9.914748373602156e-10,113.7000001418522,5.996012698481753,15.288,0.0,0.0,0.0091960591623389,6.80386533246681e-13,-1.5973238302190878e-06,1.0839624626357699e-10,1.3263625118823921e-08,3.58863285249208,70.86684630658345,3.1292621579083604,19.473766155861934
0.09,31.22218584634549,131.01038441616095,3.0957981580345013,3.551302481506045,9.685468678862004e-05,57.102946699906326,0.0002554087225869,3.341892818148368,563.0937377043176,3.701810007254615,1.479132491047967,69.99999812344194,-1.4359264356978275e-09,113.7000002093888,8.390904013834115,15.288,0.0,0.0,0.010878666406854,1.440096519545733e-12,-2.748643691533636e-06,1.5214952332699618e-10,2.6999776649034504e-08,3.5513024828250237,67.68737872952666,3.701825221153239,57.20065357568538
0.1,31.222185790329306,131.01038456796124,3.1319266121977414,3.608446747536112,0.0001234669721807,54.26147302645416,0.0002914860332524,3.3396271157106168,538.7437595981919,4.174070299823608,1.6716491241860567,69.9999963052332,-1.902380107712657e-09,113.70000028805804,10.668380938744466,15.288,0.0,0.0,0.0122665227999911,2.687800116751415e-12,-4.315796035622946e-06,2.1749089204950437e-10,4.7802076800548326e-08,3.608446749645647,65.17160335282355,4.174089693970246,54.36414778470795
0.11,31.222185727066616,131.0103847393952,3.172681775073216,3.633547373470009,0.0001485939126744,42.987553988990406,0.0003293995000288,3.337005588796181,442.8656393052949,4.672024955140527,1.8729475711242067,69.99999349387662,-2.3433348587116544e-09,113.70000037699285,13.365573690709628,15.288,0.0,0.0,0.0137298902182575,4.5789425819531184e-12,-6.340230783164189e-06,3.1157625832417107e-10,7.860218435507205e-08,3.6335473765043056,62.62546922225161,4.672048296217748,43.116880735560244
0.12,31.22218565692512,131.0103849294629,3.2177790417108385,3.650108937861461,0.0001727442530266,46.86777100765684,0.000367618259785,3.334068179146888,475.58594813540446,5.17479364099247,2.0758708919414386,69.99998941286465,-2.702771525550512e-09,113.70000047573096,16.396890189902592,15.288,0.0,0.0,0.0152074069417046,7.288473386564583e-12,-8.86736416607888e-06,4.42271554299792e-10,1.217615295152289e-07,3.6501089419435786,60.16906436414164,5.174820775596283,46.986210423745625
0.13,31.222185580265183,131.0103851371844,3.2669395832841857,3.7280113734654137,0.0001995014041665,51.64515456841877,0.0003986198234033,3.3311573548369657,515.9156326236895,5.579364582999854,2.2451120211463422,69.99998375846928,-2.9114380666036422e-09,113.70000058383452,19.060875702782603,15.288,0.0,0.0,0.0163963474924215,1.100846422415094e-11,-1.1941028436408576e-05,6.179653149059831e-10,1.7678562106638216e-07,3.728011378795934,58.279338776943774,5.579395920607139,51.75247433579817
0.14,31.22218549718016,131.01038536230575,3.320091807147376,3.768719651034081,0.0002242721760019,48.1660778383537,0.0004326225136175,3.32784677779744,486.2390860568404,6.025734265159953,2.428648685938864,69.99997621008868,-2.890941335368725e-09,113.70000070125378,22.232643351545065,15.288,0.0,0.0,0.0177081261985351,1.5941871344608664e-11,-1.560901486259027e-05,8.477542742712431e-10,2.495765160917323e-07,3.7687196576976176,56.27980129251342,6.025769493750979,48.280903250602165
0.15,31.22218540777004,131.01038560455507,3.377159065217065,3.821894709649632,0.000249725644238,46.56959330999435,0.0004643042952466,3.324387732286376,472.54218587214,6.441023336496372,2.6014999612196745,69.99996641132823,-2.546763407193136e-09,113.70000082794672,25.402620271850456,15.288,0.0,0.0,0.0189285691155931,2.2314099732464315e-11,-1.992367942778425e-05,1.1417519574710292e-09,3.4051816697623295e-07,3.821894717796148,54.501255563441134,6.441062563308839,46.68809885900716
0.16,31.22218531193176,131.01038586421257,3.4382223512025254,3.8463320955387794,0.0002733212404609,36.974247749122085,0.0004987816203583,3.3205066466509234,391.1218908297564,6.895451966878468,2.7877331692857847,69.99995397923414,-1.77088415515292e-09,113.70000096417354,29.113317717489338,15.288,0.0,0.0,0.0202640360420561,3.0367358387834494e-11,-2.4945905791363795e-05,1.5114297685186711e-09,4.5643121540033697e-07,3.846332105235269,52.641145594326446,6.895494900078523,37.12304892183151
0.17,31.222185210004127,131.010386140357,3.503019838429153,3.8860314262554336,0.000297865039677,46.520531453299206,0.0005306403365217,3.31650761597812,471.78125980632376,7.314788342774694,2.9619016331667103,69.99993849340957,-4.3039914767238207e-10,113.70000110959404,32.761746921137856,15.288,0.0,0.0,0.0214963781445172,4.0366633128431416e-11,-3.0713078585132897e-05,1.96747427715988e-09,5.961228045584824e-07,3.886031437653654,51.00464968745696,7.314835131305714,46.63860064094784
0.18,31.22218510147516,131.01038643438045,3.571950002194137,3.9107265153396016,0.0003214293682635,38.895647526122765,0.0005639254295027,3.312149448254175,407.10156721191447,7.754626295791602,3.1430587898572058,69.9999195084231,1.6149322372810674e-09,113.70000126508234,36.81988229018681,15.288,0.0,0.0,0.0227889722876034,5.2593391349219385e-11,-3.731786027786564e-05,2.525509173087448e-09,7.6786585232224e-07,3.9107265285284982,49.36615848311875,7.754676785798701,39.036415444581515
0.19,31.222184986476247,131.0103867459258,3.644912152926752,3.920599115663931,0.0003437679584038,43.86258669386953,0.0005989384366483,3.307389681300437,448.9531328318269,8.219206165926856,3.332657190859447,69.99989653019398,4.538529095696477e-09,113.70000143063515,41.36350714675367,15.288,0.0,0.0,0.02415428010977,6.735860419174937e-11,-4.481243905342629e-05,3.199401151670645e-09,9.773118416308382e-07,3.92059913071168,47.71893898797248,8.21926016487149,43.987104227715655
0.2,31.222184864792144,131.01038707557822,3.722074668489528,3.943376465171875,0.000367328732016,40.28070981710589,0.0006315894240138,3.30251450988504,418.51563019916136,8.65238089736321,3.511445117640573,69.99986902534273,8.534090245934178e-09,113.7000016067622,45.83799876721736,15.288,0.0,0.0,0.025427299120469,8.499785987217288e-11,-5.328041996372527e-05,4.006766070954748e-09,1.2232205148646746e-06,3.9433764822533854,46.2587826635041,8.652438597225508,40.41586552155969
0.21,31.22218473678744,131.01038742234647,3.803156063113743,3.9664546506877016,0.000390962054969,38.67679184347145,0.0006636984664108,3.297405915846789,404.8187610144644,9.079179692250786,3.688002035198235,69.99983642883521,1.3827831253856693e-08,113.70000179318536,50.47126980736161,15.288,0.0,0.0,0.0266815841422463,1.0586558589671407e-10,-6.275155280099118e-05,4.961340042512481e-09,1.5117124669161171e-06,3.9664546699249135,44.88773728276958,9.079241104426773,38.817098210937615
0.22,31.2221846022986,131.01038778667507,3.8882846911135607,3.956175711337521,0.0004112685792646,46.713636108302936,0.0007011135033803,3.291572407481395,472.5421858721365,9.580256326712124,3.889976788904857,69.99979815126248,2.0662823443484168e-08,113.70000199039316,56.195522894218605,15.288,0.0,0.0,0.0281541581291438,1.3033127211465288e-10,-7.330053770532661e-05,6.0817207473359025e-09,1.8632831045819008e-06,3.956175732680424,43.35679625546934,9.580320928629488,46.8294591882524
0.23,31.222184460898035,131.01038816972698,3.977794004014759,3.9879066397329104,0.0004360962274406,38.89105719050748,0.0007308686121188,3.286096544282012,406.3406421461021,9.977039034039262,4.056142701351626,69.99975353557706,2.9316661139418326e-08,113.70000219928508,60.9462612310605,15.288,0.0,0.0,0.0293202403623685,1.5880617816859538e-10,-8.505067486192354e-05,7.393319440773217e-09,2.2514912291167663e-06,3.987906663538912,42.20670487756048,9.97710753587448,39.0296395118868
0.24,31.222184313516166,131.01038856897196,4.070963590490852,4.003523997322975,0.000459165577055,40.0792299321398,0.0007630441688766,3.280134925833028,416.2328240017114,10.408422364424831,4.234121060914368,69.99970190737699,4.010976417051318e-08,113.70000241888,66.32994780718496,15.288,0.0,0.0,0.030588009649109,1.91711512587616e-10,-9.795845222523724e-05,8.904557280909524e-09,2.7052895870113487e-06,4.003524023611085,41.011349410369874,10.408494489985014,40.21323112692186
0.25,31.22218416001652,131.01038898478134,4.167901030441617,4.0261356185860135,0.0004830526730531,41.17760020658354,0.0007934613160587,3.2740610008587527,425.36408079150686,10.816813039390448,4.4041629376391525,69.99964258149416,5.3372865854010094e-08,113.70000264972064,71.63651430352668,15.288,0.0,0.0,0.0317882126436337,2.2947426169209347e-10,-0.0001121037688082,1.0637152702866709e-08,3.217380562698304e-06,4.026135647516394,39.93186687113378,10.816888917126896,41.30755663120434
0.26,31.222184000702686,131.0103894163294,4.26837241014618,4.053359329950934,0.000507503069958,44.80261175215926,0.0008224724146494,3.2678597736729302,455.8015834241788,11.207047269494833,4.567925492611352,69.99957484039399,6.947299261165984e-08,113.70000289176392,76.89781807056055,15.288,0.0,0.0,0.0329350617559806,2.7254099134167665e-10,-0.0001275114371842,1.260720913253598e-08,3.7915697709142366e-06,4.053359361668992,38.945390435244384,11.207126987890645,44.921630958721536
0.27,31.22218383516388,131.01038986473338,4.372698316214008,4.0614460923241,0.0005296455772492,41.029837477288126,0.0008548809954683,3.2610328932384265,423.84219965987256,11.645685385842508,4.748226940060522,69.99949794024376,8.879821051920497e-08,113.70000314600205,83.0342688744587,15.288,0.0,0.0,0.0342241635563461,3.2137296827284217e-10,-0.0001442952656441,1.4842505534226832e-08,4.458527942364847e-06,4.061446126801262,37.8838346421185,11.645768582375233,41.15922617924542
0.28,31.222183663504484,131.01039032970942,4.48079961904222,4.081133040992532,0.0005533279247169,47.27661484082626,0.0008845140695959,3.254218495915602,476.3468732012221,12.047344998676092,4.915789434712848,69.99941106884992,1.1178948978424788e-07,113.70000341275257,88.85982357848233,15.288,0.0,0.0,0.0354045979054623,3.764736350660473e-10,-0.0001625146963723,1.7365685655384934e-08,5.194620655212288e-06,4.081133078439725,36.956255322213885,12.047431915223257,47.38848224631549
0.29,31.22218348566054,131.0103908114315,4.592727908358551,4.1001100265020245,0.0005770279952742,37.989969791857405,0.0009138463939581,3.247164755122801,397.97031042211177,12.446314684600782,5.082367374004485,69.99931338876085,1.3891902435864665e-07,113.70000369260468,94.8417675268915,15.288,0.0,0.0,0.0365771315767517,4.3836067907166327e-10,-0.0001822432988888,2.0202163500922312e-08,6.018074062137429e-06,4.100110067036654,36.07377590258778,12.446405323946324,38.12849176886316
0.3,31.222183301933686,131.01039130907952,4.708251093558373,4.112858061667493,0.0005998635114143,35.655053282557844,0.000944131403186,3.2397207148238625,378.1859457108711,12.860033399289696,5.253940723820665,69.99920403105713,1.707002607527005e-07,113.7000039856728,101.2505662360602,15.288,0.0,0.0,0.03779301412572,5.075709863465428e-10,-0.0002035013069687,2.3370674033523645e-08,6.94335970778e-06,4.112858105337573,35.19685285507256,12.860127625629724,35.80193592228613
0.31,31.222183112488807,131.0103918222051,4.827243246502713,4.136140889545823,0.0006242383343011,37.56633644061071,0.0009716215464757,3.232339252743767,394.1656220930212,13.2364445751808,5.4126574282679245,69.99908210036875,2.0768081583188525e-07,113.7000042923011,107.26326115439352,15.288,0.0,0.0,0.0388992619788015,5.846561731689753e-10,-0.0002263323252403,2.6893437641668458e-08,7.948283231812338e-06,4.1361409365698805,34.43286455705216,13.236542630309057,37.70514091683033
0.32,31.22218291741533,131.01039235056504,4.949637017503345,4.1622282001352975,0.0006491019906456,40.83513712643371,0.0009979686925508,3.224840963348891,421.55939346242695,13.59846554462374,5.566374262777002,69.99894668612772,2.504388718903276e-07,113.70000461297312,113.2095365840355,15.288,0.0,0.0,0.0399632243410653,6.701756367872645e-10,-0.00025078340164,3.0793566854276295e-08,9.047716714467492e-06,4.16222825066026,33.72644865222576,13.598567505326,40.96227562489027
0.33,31.222182716732533,131.01039289410716,5.075419569102976,4.187801887681037,0.0006739743721461,40.48743503284469,0.0010239291638211,3.217136801802925,418.5156301991682,13.956637761217308,5.718704299733134,69.99879684673242,2.995902922462564e-07,113.70000494831164,119.25032483364384,15.288,0.0,0.0,0.0410158804634189,7.647061680070125e-10,-0.0002769136723495,3.509664608790402e-08,1.0253455741189656e-05,4.187801941818244,33.053267359159875,13.956743628864118,40.61505097607
0.34,31.222182510255863,131.01039345333336,5.204736257784645,4.19642921746386,0.0006961879027693,31.814592723444047,0.0010535137542081,3.208669900766693,345.46563688075645,14.367047160772364,5.88887983533068,69.99863160305904,3.557915789971256e-07,113.70000529927128,126.36523219087664,15.288,0.0,0.0,0.042222056531773,8.688448410811866e-10,-0.0003048202762282,3.9835373705550826e-08,1.1618525957862828e-05,4.196429275109305,32.30947868183619,14.367156517712404,31.97598901989736
0.35,31.222182298183583,131.0103940277045,5.337435501771672,4.210915783240843,0.0007193441544952,34.813487415034444,0.0010813034848195,3.200164272309822,370.5765700527033,14.754132934586384,6.050986755458457,69.99844991734221,4.1975736284587617e-07,113.70000566632532,133.26448209504355,15.288,0.0,0.0,0.0433596939127697,9.832256819293898e-10,-0.0003345386312107,4.503361101379695e-08,1.309465610343774e-05,4.210915844572415,31.63649055965014,14.75424592890194,34.96026256388454
0.36,31.222182080444604,131.0103946174141,5.4735747500461605,4.22903876037745,0.0007431682866607,39.2632255716727,0.0011077666085529,3.1915717453569297,407.8625232777193,15.124417129017054,6.2072589919251575,69.99825073022951,4.922382611919288e-07,113.70000605036684,140.03566173682628,15.288,0.0,0.0,0.0444479595865755,1.1084921261805627e-09,-0.0003661511460057,5.0723697896912267e-08,1.4691545926915382e-05,4.229038825557203,31.017264542603208,15.124533865618538,39.39272792946638
0.37,31.22218185710795,131.01039522227452,5.613102797925907,4.249164960780052,0.0007674149135003,37.28328237034959,0.001133274451316,3.1828514669894137,391.1218908297666,15.483077353331511,6.359470679857624,69.99803294268581,5.740349991123437e-07,113.70000645214331,146.75405277514704,15.288,0.0,0.0,0.0455020695186381,1.245311285088233e-09,-0.0003997125883071,5.6934243389647934e-08,1.641828325195534e-05,4.2491650299519,30.439178816713017,15.483197898584232,37.418894813348615
0.38,31.2221816281124,131.0103958424523,5.756069531572451,4.260095806433531,0.0007900626414612,38.9278000801764,0.0011607546399008,3.1735466295306622,404.8187610144602,15.87126705947922,6.521735074464384,69.99779542676283,6.659911329739736e-07,113.70000687263192,154.20298254405043,15.288,0.0,0.0,0.0466429667223463,1.3943646956867835e-09,-0.0004353006984059,6.369875435270817e-08,1.8328108041903096e-05,4.260095879559656,29.83470194713067,15.87139116222873,39.05694584372078
0.39,31.22218139339905,131.0103964781077,5.9025231349944285,4.274091258047817,0.0008133283308351,33.320076729592266,0.0011870382950339,3.164143363712209,357.64062493382744,16.24457853509073,6.678818328235205,69.9975369905506,7.690136753559805e-07,113.70000731287368,161.54010621938565,15.288,0.0,0.0,0.0477401448128051,1.5563705124515804e-09,-0.0004730068442167,7.105463478762673e-08,2.0383860516746246e-05,4.274091335289374,29.274934656826048,16.244706292406182,33.46997636540994
0.4,31.22218115316572,131.01039712870306,6.0523126585892895,4.286421841403391,0.0008363022448449,31.88018820767003,0.0012133780841982,3.1544430614236454,345.465636880754,16.62063299903514,6.836764518435374,69.99725641601981,8.840594270905819e-07,113.70000777359816,169.10340080049767,15.288,0.0,0.0,0.0488453895716005,1.7320643186450851e-09,-0.0005128553637434,7.9027539265021e-08,2.2612406375611563e-05,4.286421922834417,28.730746964325096,16.620764365084565,32.03586915718869
0.41,31.22218090752676,131.01039779392735,6.205351877049411,4.30025870409831,0.0008595777771371,35.882550741685804,0.0012389121673015,3.1445895889870297,378.94687077668647,16.987310563534386,6.99141560549392,69.9969524610574,1.0121301778427253e-06,113.70000825570062,176.64448930727934,15.288,0.0,0.0,0.0499230826371405,1.922193031274436e-09,-0.0005548883906878,8.764667734700782e-08,2.5005077415911235e-05,4.300258789847355,28.21875643368965,16.987445585695873,36.020076248499606
0.42,31.222180656535848,131.0103984736348,6.36160173428776,4.322008670726048,0.0008844838439129,40.34064925656127,0.001261804338223,3.134918999355981,416.2328240017114,17.318628721060172,7.133856886815013,69.99662385300175,1.154276942054023e-06,113.70000876021427,183.59942989625057,15.288,0.0,0.0,0.0508968652507098,2.1275184665783874e-09,-0.0005991661829955,9.694534598491077e-08,2.752657757470936e-05,4.322008761057615,27.772396468009568,17.318767655457478,40.462275036947325
0.43,31.222180400205527,131.0103991677914,6.521055075967404,4.339436441324956,0.0009085827200945,35.541853595187746,0.0012854696362701,3.124839917627212,375.9031395134336,17.662848429084132,7.280642039343927,69.99626930133451,1.3115939750280808e-06,113.70000928827632,190.96736675963504,15.288,0.0,0.0,0.0519085689713619,2.3488101247838237e-09,-0.0006457514522491,1.0695800287133593e-07,3.0255957891170616e-05,4.339436536261635,27.322335771349252,17.662991148924057,35.67895714766603
0.44,31.22218013836212,131.0103998768696,6.683849332059896,4.342209064313268,0.0009296474314902,32.82948243168077,0.0013129688908547,3.113754688841357,353.0750125389216,18.063580761318697,7.446730341918701,69.99588746395321,1.4852372182848018e-06,113.7000098413532,199.7278270846888,15.288,0.0,0.0,0.0530863610987301,2.586862292117705e-09,-0.0006947575786514,1.1773083546077225e-07,3.329010177793299e-05,4.342209163639375,26.81344244367223,18.06372678999575,32.9768158972058
0.45,31.22217987077456,131.0104006014978,6.850166573233225,4.3420317510315165,0.0009500780330031,38.11022602597878,0.001341042003417,3.1022288449712887,397.2093853562869,18.47486275310604,7.616350301328129,69.99547690348253,1.6764536248320808e-06,113.70001042108892,208.92306716049887,15.288,0.0,0.0,0.0542951637545535,2.842521175226318e-09,-0.0007463379956615,1.2932090054593452e-07,3.657529369088674e-05,4.342031854775571,26.30944884471334,18.47501199101448,38.23628058998621
0.46,31.22217959739673,131.01040134180155,7.020045503401754,4.351169003849846,0.0009725797783515,44.3937050866137,0.0013660055515545,3.09098240974522,449.7140588976434,18.844323061800488,7.771531995684422,69.99503610583268,1.8865779683531e-06,113.70001102895836,217.3591612614144,15.288,0.0,0.0,0.0553810645782081,3.1166808800591503e-09,-0.000800596194505,1.417768495237597e-07,4.001824400409673e-05,4.351169112337076,25.873596578896564,18.844475834274814,44.50118229261506
0.47,31.22217931813738,131.01040209802923,7.193559875579052,4.358630093683735,0.0009947969928181,30.22514089990685,0.0013910994973101,3.079396422776949,331.0078106302534,19.2180591098146,7.9280875671397615,69.99456352718363,2.1170044481277104e-06,113.70001166656292,226.0625808853568,15.288,0.0,0.0,0.0564795377574197,3.4102493884459798e-09,-0.0008576351980594,1.551487523304888e-07,4.3718862242359527e-05,4.35863020698899,25.44665981168229,19.218215372160817,30.381603425148434
0.48,31.22217903348153,131.01040286886197,7.370336324605091,4.365514409145237,0.001016880998596,29.779838936311712,0.001416009414045,3.067527859335786,327.2031223011574,19.5915905767454,8.084483592791102,69.99405758812365,2.369198154608765e-06,113.70001233476164,234.93171707892955,15.288,0.0,0.0,0.057577416115756,3.7241711041759195e-09,-0.0009173883913609,1.6944871263079066e-07,4.767297940601472e-05,4.365514527349481,25.03354780044292,19.59175030803913,29.937410312943754
0.49,31.22217874361868,131.01040365378466,7.5502307795521535,4.3786401372577615,0.0010404145545081,37.2489281064929,0.0014385799934191,3.0558405437943126,389.60000969812296,19.93403005898306,8.23012235628909,69.99351671352461,2.644660619562788e-06,113.700013034871,243.21198709852868,15.288,0.0,0.0,0.0585839249886784,4.059374595909599e-09,-0.0009798792959512,1.8470833984680338e-07,5.180951737438081e-05,4.378640260624215,24.667474291142685,19.934193486919103,37.37406598941686
0.5,31.22217844858332,131.0104044527036,7.733219389747018,4.395955630311624,7.051548888598163,38.314133780915576,-0.4579050753995544,3.04418458506984,397.97031042210494,20.404399789334928,8.366361539570502,69.99293932307316,2.9449363413826395e-06,113.70001376847225,254.820742030188,15.288,0.0,2.5051569778986185,0.059966413751684,4.416751211901175e-09,-0.0010494275467989,1.0298120881856823e-05,5.6795053080240846e-05,8.303677641819585,30.99161492300677,21.50926035956668,38.437606380053765
0.51,31.222178148707595,131.01040526551367,7.919244724678434,4.407676389178215,6.949844932620715,29.403962378319022,-0.4689930051157205,3.031950832473508,323.3984349720841,20.745231732801727,8.512005435431483,69.99232137463741,9.638586784569176e-05,113.70011363189744,263.4001094260802,15.288,0.0,2.5150983707608847,0.060968211410941,4.832461614631093e-09,-0.0011175614579397,0.0001198850115265,6.149165390361745e-05,8.22390079854922,30.554116085993883,21.834235788600036,29.563587127325818
0.52,31.222177844107808,131.01040609233908,8.108318838809037,4.41657488632864,6.848235923217179,35.241184391171544,-0.4804245421815032,3.019317090998861,372.0984511843415,21.094819613453303,8.660485948204064,69.9916636550724,0.0003641835153781,113.70039905857908,272.3473272076798,15.288,0.0,2.525004754110512,0.0619957483061407,5.335237548625358e-09,-0.0011886181809772,0.0002322282668405,6.65023157165435e-05,8.143184582811532,30.11725905755172,22.167978531278195,35.373551712109446
0.53,31.2221775346542,131.01040693356398,8.30055345913864,4.4256099154069535,6.750714836730764,36.98264895748472,-0.4919074215809284,3.0064633589763488,386.5562464348624,21.44076523380296,8.807598111361852,69.99096444642774,0.0008107812877345,113.70087477912112,281.3481294806998,15.288,0.0,2.534877723668671,0.063012587538365,5.927496640607652e-09,-0.0012627312404837,0.0003474540598232,7.180617179732231e-05,8.066438027270767,29.697199105780747,22.498713318815,37.10791180803387
0.54,31.22217722025864,131.010407789452,8.496025756378037,4.434424473492864,6.656537067411279,32.52835057415535,-0.5034838450140297,2.993361490334659,349.2703242098436,21.784728292611167,8.953914148299633,69.99022197112683,0.0014407372727555,113.70154564632618,290.4421298260248,15.288,0.0,2.5447244696258844,0.0640236069269551,6.611718689038871e-09,-0.0013400186179298,0.0004656580695218,7.742217997143094e-05,7.99281048195219,29.29103082433869,22.827984108499624,32.66966942087356
0.55,31.22217690120636,131.01040865925094,8.694523231531837,4.444258295279207,6.567291509886954,34.452115280922904,-0.5150091086372037,2.980114589439315,365.2500005919907,22.12070122975781,9.09736209928573,69.98943441194737,0.0022586334101839,113.702416538084,299.46413702475456,15.288,0.0,2.5545334916308047,0.0650111506010339,7.3904232775005e-09,-0.0014204549737203,0.0005867177720297,8.333366830874257e-05,7.924275447626477,28.9053052350876,23.150031627954807,34.58460010869245
0.56,31.22217657750832,131.01040954295405,8.896045989004758,4.455998262966902,6.483995728748581,32.18214749152886,-0.5263671230364347,2.966811774628784,346.2265619465787,22.4440624608224,9.23634595922502,69.98859993823098,0.0032689718355888,113.70349224799196,308.27731890609846,15.288,0.0,2.564304642893791,0.0659616359688813,8.266074439611747e-09,-0.0015041227865868,0.0007106751998763,8.953039348230196e-05,7.862140360221537,28.54427505593018,23.460393559971767,32.32289670838316
0.57,31.22217624924585,131.0104104403623,9.100539377818375,4.465459224970735,6.400404751882769,31.826305457279503,-0.5380530903587856,2.95309028870928,343.1828296833023,22.77548778702788,9.378009475554055,69.987716687836,0.0044762483794708,113.70477756310436,317.4428008611691,15.288,0.0,2.5740336650757465,0.0669358278055443,9.241143069724904e-09,-0.0015910687311742,0.0008375184947918,9.61023115707465e-05,7.79887564334657,28.182829136541365,23.77877135891189,31.96754545537353
0.58,31.222175916407245,131.0104113515298,9.308020937892625,4.4699102517927765,6.312682745463997,41.78169418827858,-0.550426206639158,2.9386715482719863,426.1250058573153,23.12931731454061,9.52730365843304,69.9867827565695,0.0058849954589116,113.7062773098313,327.37618563092,15.288,0.0,2.583720567265475,0.0679758712192628,1.0318113873379576e-08,-0.0016813792064416,0.0009672935213637,0.0001031328549478,7.729755285071616,27.805359744150543,24.118906260156532,41.88852741169604
0.59,31.22217557860636,131.01041227752964,9.518798934828448,4.479567315112805,6.235084823091973,33.9436823883917,-0.5622264239208158,2.9245036293008058,360.68438819711065,23.453695383765645,9.6663121737143,69.98579613355719,0.0075000336416105,113.70799662209144,336.6163652069326,15.288,0.0,2.59337718313846,0.0689293655452417,1.1499577205528592e-08,-0.0017753219576541,0.0011003004242799,0.0001104201082256,7.672255168078644,27.469711683635992,24.431168278980863,34.074072168051195
0.6,31.22217523606168,131.01041321779067,9.73271272002355,4.480797890122914,6.148612191261992,30.20984471384656,-0.5751806785386475,2.9092665698983424,329.4859594986058,23.818947413235406,9.81932418592546,69.98475475609895,0.0093262425881891,113.70994069617076,347.17534525555567,15.288,0.0,2.602995336940614,0.0700029939158528,1.2788223707372736e-08,-0.0018728873297506,0.0012364408111653,0.0001183000859248,7.60301378971114,27.09867081748219,24.78291645989692,30.355055302575472
0.61,31.22217488873561,131.01041417243823,9.949800329503756,4.480438945047838,6.062773184617537,35.333621968826805,-0.5884567284903394,2.8935828729002737,372.0984511843297,24.190585725732504,9.974426728381824,69.98365649654767,0.0113686130270567,113.71211484728455,358.0860972333612,15.288,0.0,2.61257787753909,0.0710953991061038,1.4186773704870316e-08,-0.0019741879557084,0.0013757893599007,0.0001266416824943,7.533693780919137,26.730821011409564,25.14114770110796,35.45678982366576
0.62,31.22217453675045,131.01041514116312,10.16997594308074,4.492134338567908,5.995564324967797,43.84053961394312,-0.6002169369338303,2.878903825546145,442.86563930529206,24.49532717050732,10.106320111148795,69.98249916103904,0.0136322431848082,113.71452450521583,367.157157205538,15.288,0.0,2.622128399859711,0.0719912038049482,1.5698022032988902e-08,-0.0020792817292757,0.0015183444080461,0.0001350607600958,7.486810005789136,26.439910592662304,25.43539039978541,43.93906304474235
0.63,31.222174179935745,131.01041612445016,10.393380165815651,4.499612494511855,5.924951323577262,25.024468054646768,-0.6126010647123344,2.8635536646878768,286.11251274707894,24.819448582123808,10.244791002199264,69.98128057069279,0.0161220391820827,113.71717489611603,376.9297790384492,15.288,0.0,2.6316300997442568,0.0729439730300897,1.7324630665803908e-08,-0.0021883276500397,0.0016642366968524,0.0001440216450407,7.435005731249658,26.13603328079426,25.7484799086188,25.195222187412252
0.64,31.222173818872346,131.0104171207423,10.619571372872036,4.500551476609428,5.848074394238826,24.57360443608661,-0.6259758936165004,2.847221030509766,282.30782441796754,25.176675649217504,10.394583639193296,69.97999849704303,0.018842949261477,113.72007129033612,387.84976247370247,15.288,0.0,2.64109192895088,0.0739940466361079,1.9069416615197883e-08,-0.0023011231984679,0.0018131186391339,0.0001536215396984,7.374586212607826,25.807150262721056,26.093694852648127,24.745919833322457
0.65,31.22217345355043,131.0104181300869,10.848565490444692,4.510390402739139,5.7847455671191375,43.145698380796645,-0.638180546439388,2.831651269876732,436.7781447787475,25.482051269497173,10.526370455374131,69.97865070991482,0.0217997972054753,113.72321882706068,397.30678371722456,15.288,0.0,2.65049853397258,0.0748917365971478,2.093502605054657e-08,-0.0024177799103118,0.0019650643399055,0.0001633636611432,7.3306004595651855,25.53491945149177,26.389174017867944,43.24322851141814
0.66,31.22217308348433,131.01041915382356,11.080746863639508,4.5176075085279805,5.720004092744538,36.753382267404525,-0.6508217125002895,2.815547722763782,383.51251517160017,25.798797833190086,10.661967677969155,69.97723489425111,0.0249974586314154,113.72662270461127,407.2362838133822,15.288,0.0,2.659865243391216,0.0758228532069563,2.2924038346860395e-08,-0.0025386380057554,0.0021204351064264,0.0001736580307701,7.284184866099105,25.25777477318565,26.69580222531548,36.866814155478465
0.67,31.22217270886388,131.0104201914577,11.315977017740469,4.519022072094636,5.649959740328345,25.41512791549339,-0.6643965119922874,2.7984853566955894,289.1562440103425,26.1455889330596,10.807821954164696,69.97574871147248,0.0284411184496006,113.73028844163872,418.2486758518273,15.288,0.0,2.6692007417562285,0.0768422786784099,2.50393356839315e-08,-0.002663693645856,0.0022791456724856,0.0001846577410942,7.230307187696899,24.95945999391772,27.0316448999577,25.577366361251475
0.68,31.222172329862207,131.01042124253996,11.55413034559176,4.521612255492664,5.583266356828946,31.64654497795632,-0.6778952555577625,2.7812908054296384,340.8999924858462,26.483269469349423,10.950421152104251,69.97418967920565,0.0321359634851672,113.73422156783664,429.112320556346,15.288,0.0,2.6784742166577966,0.0778349359737163,2.7283804850085494e-08,-0.0027929607672048,0.0024411368911497,0.0001961152282381,7.180045889410513,24.67591894937412,27.358899560088663,31.775760094192673
0.69,31.2221719465652,131.01042230685704,11.795148606079502,4.529059697898749,5.524281052786124,38.88891692171814,-0.6907344753383118,2.7644709088843564,401.0140726853634,26.79002135501172,11.082235873854753,69.97255533618055,0.0360870903572041,113.73842751479344,439.1004204971572,15.288,0.0,2.687705670573975,0.078736700891314,2.966027434641404e-08,-0.002926485209265,0.0026063906417813,0.0002078663665054,7.139077986964678,24.425170002497307,27.656429549802866,38.99316956680727
0.7,31.22217155884717,131.01042338476915,12.039137039673175,4.535778587693022,5.466050262762983,32.66978705823033,-0.7037530062473131,2.747320669801944,349.27032420985284,27.0978921330638,11.214324180720956,69.97084320111712,0.040299530733771,113.74291164588548,449.2401641274985,15.288,0.0,2.696901894512465,0.0796417618505301,3.217147767006496e-08,-0.0030644349135587,0.0027750372126011,0.0002201610902559,7.098486780804111,24.17838063550129,27.95519549358109,32.792652006000324
0.71,31.22217116676796,131.01042447613298,12.286057371693271,4.538613313789175,5.404745083990102,26.905132695383315,-0.717460313216103,2.729386151676771,301.33126406340574,27.42584070477794,11.35323048028802,69.96905071659555,0.0447784365090509,113.74767945284631,460.16878815411656,15.288,0.0,2.7060343879513846,0.0806058400403248,3.4820272644174404e-08,-0.0032068695060085,0.0029470722792581,0.0002331769381121,7.053305605691602,23.91975599944147,28.273557569872807,27.052734860309215
0.72,31.22217077033688,131.01042558094233,12.535910489121612,4.536882786139839,5.339711049449536,32.86978967810888,-0.7320110527231976,2.710519925433041,350.79220534145287,27.77876033911699,11.500641955765978,69.96717521587047,0.0495290698503371,113.75273654839664,472.0766955632256,15.288,0.0,2.715127036418263,0.0816433176393788,3.760955952125298e-08,-0.0033538928860711,0.0031225447600097,0.0002469994504962,7.002582996187593,23.64629913669244,28.61630655455953,32.989480625353764
0.73,31.222170369558384,131.01042669920474,12.788701253498717,4.544494399992812,5.287124572801276,41.496749642141125,-0.7451227665486837,2.6927351043369967,422.320318528234,28.07244474069344,11.62749740751352,69.96521404433544,0.0545568550314336,113.7580887100078,482.0995968284236,15.288,0.0,2.7241841956044786,0.0825067076967197,4.0542311388761583e-08,-0.0035056239409431,0.0033015207321622,0.0002608969228258,6.967599157477762,23.425620593728222,28.901766186022343,41.59069921439044
0.74,31.222169964377056,131.01042783108835,13.044480241331742,4.548495569391412,5.23173256667371,26.09823693528825,-0.7588998668426968,2.674174205003416,294.48281347105944,28.385078160401445,11.760778268680191,69.96316445556963,0.0598670376049771,113.76374153432673,492.88524625875823,15.288,0.0,2.733188334383476,0.0834257980252546,4.3621413483451215e-08,-0.0036621803911973,0.0034840602325629,0.0002755767378759,6.928367953488811,23.194111810509032,29.20573528236405,26.245858869868275
0.75,31.22216955515388,131.01042897563198,13.30297623939869,4.550036579056704,5.174909354303786,30.41631570459404,-0.7731855525162274,2.6549637185945647,330.24688556441487,28.7102211239636,11.898268288831312,69.96102364775768,0.0654649002482487,113.76970065775711,504.22912037509127,15.288,0.0,2.742137270950852,0.0843816628060288,4.684994858806241e-08,-0.0038234263609472,0.0036699311237819,0.0002909988108235,6.88666614195279,22.957425530665077,29.52198925877629,30.5417568140277
0.76,31.22216914178611,131.01043013313145,13.56427628485641,4.554612707187373,5.1228514318326654,32.717757103906884,-0.7870309251839958,2.6359637584640105,349.27032420986166,29.01362414615413,12.028144561237683,69.95878890399914,0.0713556526887807,113.7759716319924,514.9296651874934,15.288,0.0,2.751044471453389,0.0852736402276367,5.023074328772544e-08,-0.0039895448376377,0.0038592712932631,0.000306843112883,6.850749739244504,22.741524894022,29.8172480381709,32.8332050297162
0.77,31.22216872422312,131.01043130374077,13.82842698753502,4.559625686173261,5.072525043577494,30.61383372671643,-0.8008733769614658,2.6167828905680275,331.7687666960708,29.311212230963484,12.155901475227736,69.95645733458105,0.0775445805321391,113.78256009890012,525.5336075584843,15.288,0.0,2.7599108936062504,0.0861485350077078,5.376670141554212e-08,-0.0041606762085082,0.00405216553326,0.0003232791768249,6.816621438665544,22.53370217853669,30.106962140674817,30.73590353819675
0.78,31.22216830253452,131.0104324872875,14.095381987310104,4.561223798736393,5.01961334953363,25.20268474855163,-0.8154039355302034,2.596773111619275,286.8734378128899,29.627644184912207,12.290051421804405,69.95402600089729,0.0840369832760485,113.7894717158837,536.9279857826449,15.288,0.0,2.768714723570304,0.0870788219078889,5.746081149981478e-08,-0.0043368656178265,0.0042485897992172,0.0003405979140293,6.778495659762881,22.315865443216875,30.41511495776911,25.349229430224973
0.79,31.2221678768132,131.01043368353635,14.36507704336768,4.560726977213504,4.965643466099,35.680425958119535,-0.8304194619422355,2.576113499441341,373.6203323159534,29.955007235551097,12.427864853786426,69.95149200987537,0.0908381965498524,113.79671217129965,548.8446178082178,15.288,0.0,2.7774712186408825,0.0880412448960825,6.131609140873554e-08,-0.0045181549160484,0.0044485177157522,0.0003587469327125,6.738376637511439,22.094287017261102,30.73403260397392,35.782939423664274
0.8,31.22216744684638,131.01043489307975,14.637683750619088,4.565706342850856,4.918755839076736,36.14815718551864,-0.8445048482827706,2.556137107522468,377.42502064505743,30.243890153639537,12.55228192673416,69.9488522252061,0.0979537356431705,113.804287357526,559.467014840957,15.288,0.0,2.786189931042386,0.0888905787398702,6.533545325566143e-08,-0.0047048337476778,0.0046521932476035,0.0003771622465654,6.707352380899606,21.903417382771632,31.0155778136036,36.24825917558234
0.81,31.222167012740925,131.01043611564367,14.91312687873158,4.5665804070749445,4.868568788478776,23.65570234064253,-0.8594428455485839,2.53516225664809,273.9374926939919,30.55674234375548,12.684859925992749,69.94610362453841,0.1053890393964454,113.81220307496515,571.0863747851141,15.288,0.0,2.794866413936142,0.0898103695905978,6.952201479567349e-08,-0.0048969100687834,0.0048595484936379,0.0003966102855013,6.671310449824982,21.699305706609024,31.320575377419917,23.8066785356836
0.82,31.222166574688835,131.0104373507237,15.191265613676284,4.565561149454534,4.817472318543352,30.280553457421767,-0.8748493223405732,2.5135372208979585,328.72500443277005,30.879573939614783,12.820774510488004,69.94324299141438,0.1131495724682807,113.82046516382016,583.2015812229353,15.288,0.0,2.8034901502972693,0.0907594998243299,7.387896392370665e-08,-0.0050943461052943,0.0050704697512839,0.0004169490018073,6.63349259367503,21.492067086985085,31.635409414418152,30.397288503835608
0.83,31.22216613267887,131.01043859836514,15.472115765378309,4.5712808735826,4.774436470370331,38.380754796755234,-0.8890158627845332,2.4929109588328706,395.68750322465047,31.154332079044647,12.939983921587393,69.94026715881446,0.1212408099342661,113.82907946845864,593.610083570928,15.288,0.0,2.812059064858303,0.0915673435856157,7.840933111362274e-08,-0.0052972808467929,0.0052850331855336,0.0004374041723527,6.606318341639396,21.319929785088163,31.903431167324,38.47190264363853
0.84,31.222165686610506,131.01043985885323,15.755761376814776,4.575247328984164,4.730511873598861,23.85340608272821,-0.9035884044350552,2.471704675052756,275.4593748256452,31.437628761299035,13.062028200475138,69.93717296062535,0.1296680879130917,113.83805168652948,604.4384900372146,15.288,0.0,2.8205855349951907,0.0924002915438421,8.311604790043792e-08,-0.0055058873652674,0.0055033462088051,0.0004587507122201,6.577463402726996,21.144767504512316,32.17985191176236,23.998141131196856
0.85,31.22216523678177,131.0104411313955,16.041979658989764,4.573095060983965,4.681264994939383,25.974620914754382,-0.9194911346221863,2.448995527387827,292.96093233939376,31.759832029781045,13.197400073232808,69.9339570762894,0.1384367377401364,113.84738752009164,616.8747665183092,15.288,0.0,2.8290627427046844,0.09334760067936,8.80023854200169e-08,-0.00572001426923,0.005725178439978,0.0004814631123295,6.540708283093672,20.947567132626396,32.494345576159326,26.106014148180684
0.86,31.22216478302426,131.0104424164605,16.330906945904612,4.574939547141246,4.6370406507442565,32.423651553863635,-0.9346665842099128,2.426801982952011,346.2265619465587,32.0517886393527,13.322219003729948,69.9306161788189,0.1475522568934644,113.85709284158412,628.2508739825744,15.288,0.0,2.837496503182085,0.0942060184016538,9.307125654204937e-08,-0.0059399455738798,0.0059507526164123,0.000504557184877,6.510490124146454,20.772533762039966,32.77937839733579,32.52777504801799
0.87,31.222164325366588,131.01044371398356,16.622527718796817,4.578510712546448,4.595420978174833,30.22051201847681,-0.9495515009468168,2.4047035828282914,327.964078366998,32.32860804824031,13.44170075324876,69.92714687382752,0.1570200911715494,113.86717347233876,639.1317752105133,15.288,0.0,2.8458864006906537,0.0950199534869872,9.832576316295724e-08,-0.0061657679341381,0.0061800835136823,0.0005282477750132,6.483491775479807,20.6093853609548,33.04968141068895,30.330901635677083
0.88,31.222163863848568,131.01044502386887,16.916817604069077,4.578877403303948,4.551440132966087,26.17392780937776,-0.9651920392629176,2.381648512372071,294.4828134710418,32.62477926051888,13.567757289016663,69.9235457286645,0.1668456451119996,113.87763519125996,650.877542236669,15.288,0.0,2.8542249069259142,0.0958907756508073,1.037690391898114e-07,-0.0063975346775553,0.0064131516376546,0.0005531099252109,6.452719361087593,20.43683006107869,33.33896612504056,26.299778369401878
0.89,31.22216339855581,131.0104463458971,17.21371709318121,4.576107124589443,4.505221034328927,28.66662364587481,-0.9816065306125474,2.357600751711866,315.028134248087,32.940415232696054,13.700431443977008,69.91980924478909,0.1770343550288299,113.8884838126038,663.5136754132809,15.288,0.0,2.8625101418463825,0.0968188174764873,1.094042527476522e-07,-0.0066352949608768,0.0066499341292138,0.0005791994494838,6.4183003330633,20.25532208919242,33.647364681317825,28.780151909599823
0.9,31.222162929417568,131.01044768027083,17.513286825622114,4.580241734307531,4.466570747059221,31.62153949909569,-0.996586561548474,2.334811039105444,339.37814235421445,33.20377253306339,13.814938830459385,69.91593381163526,0.187591809689853,113.89972531482748,674.1462212499606,15.288,0.0,2.870752824411958,0.0975932099206272,1.1523447307695569e-07,-0.0068792481188039,0.0068905568011303,0.0006052778011598,6.3942424271741904,20.1071260897077,33.90466940719896,31.72327674840442
0.91,31.222162456507988,131.0104490268002,17.815475651568146,4.581216451394512,4.425603635659733,24.1605794947451,-1.0123352109171726,2.3110358882438646,277.7421810230789,33.48658414432504,13.93605918327878,69.91191584958653,0.198523351491121,113.91136541594425,685.659247739046,15.288,0.0,2.878950526757853,0.0984247912129074,1.2126287338452957e-07,-0.0071294220323625,0.0071349727982417,0.0006326141633125,6.366454154907683,19.949612226616185,34.18106528480764,24.291959801092855
0.92,31.22216198003208,131.01045038494317,18.12013226866052,4.579121993385105,4.382457409923807,28.683455143520607,-1.0288665583792556,2.286242538369816,315.02813424806214,33.78878224831002,14.06377679258258,69.90775172171719,0.2098343442462599,113.92340985772884,698.0700619123165,15.288,0.0,2.887099397595259,0.0993133625086255,1.2749281447983784e-07,-0.0073857167576508,0.0073830142018379,0.0006612508133368,6.335090077714872,19.78329613725757,34.47650600691287,28.792812823855222
0.93,31.22216149990319,131.01045175494275,18.427328773870936,4.5833438033843,4.346039502068536,34.03907067074831,-1.0440125151431388,2.2626868776965834,359.1625070654728,34.04162016680671,14.174333115005451,69.90343771959179,0.2215301655569006,113.9358643996087,708.5354148520846,15.288,0.0,2.895203619439344,0.1000568608193747,1.339272251174908e-07,-0.0076483667634901,0.0076348372042907,0.0006898698174393,6.313064090131781,19.64683555647496,34.7236400009438,34.13016328947862
0.94,31.222161016014688,131.01045313709375,18.737151899641,4.581363759730591,4.304468635583603,24.819198720678088,-1.0606689584230222,2.237344240145081,283.0687504837787,34.33694423789268,14.299466243912288,69.89897009245122,0.2336160691729456,113.94873467370972,720.8609215327655,15.288,0.0,2.9032631041875145,0.1009252451695536,1.405690817887782e-07,-0.0079175516363816,0.0078905395864506,0.000720323928534,6.283138126600079,19.48863030406319,35.01245273306877,24.942400706924374
0.95,31.22216052865897,131.01045453061923,19.04938361824108,4.579986055769611,4.26417113834811,32.022724846623206,-1.0772714782573336,2.2118426271750926,342.4218736174873,34.624939819644354,14.42196846251795,69.8943450745973,0.2460974705495027,113.96202647671808,732.981860718963,15.288,0.0,2.9112746370222844,0.1017720979394285,1.4742190605878256e-07,-0.0081931103128865,0.0081498983814897,0.0007516230674379,6.254651743831576,19.33657276334875,35.29413608710572,32.117093085268394
0.96,31.22216003754603,131.0104559363062,19.364250681415605,4.581664965731817,4.2273692667339295,31.382927741196912,-1.0932093592186622,2.186838778842106,337.09533515678345,34.88677754192948,14.535321403842907,69.88955870872518,0.258979744530233,113.97574557722774,744.0870581394174,15.288,0.0,2.919244481755616,0.10254207440588,1.5448838323500578e-07,-0.0084754748694584,0.0084132468876187,0.0007833828028109,6.230905542326124,19.200419276834445,35.550208849601105,31.47801652196208
0.97,31.222159542698407,131.01045735410125,19.68174081704541,4.581506055669088,4.1895134712412085,20.21507611516576,-1.1096628650769176,2.1610758122963607,245.02188719299323,35.15915419006178,14.652212112469703,69.8846070544418,0.2722683365485595,113.98989781166996,755.7282095168632,15.288,0.0,2.9271718710997487,0.1033430363879065,1.6177175156555077e-07,-0.0087647367306104,0.0086805945101069,0.0008164191600605,6.205222194972706,19.06029985984403,35.81665515674119,20.360523143636765
0.98,31.22215904440663,131.01045878323188,20.001637351744648,4.575454232810566,4.14696329839276,29.27078333008604,-1.1276825084531947,2.133401533036808,319.5937466429581,35.47363303222215,14.7835676733934,69.87948613242172,0.2859686219093888,114.00448894383996,769.2841603808495,15.288,0.0,2.935051476235983,0.1042677580456808,1.692757140176107e-07,-0.0090606719621206,0.0089516629069199,0.0008515077921928,6.172155330253684,18.900151105435164,36.12446791260641,29.37008387284377
0.99,31.22215854252533,131.01046022409534,20.324056193594533,4.5788356903102025,4.113538568346952,31.955911891530416,-1.1433836567573818,2.108024496609988,341.6609485517054,35.712429016044084,14.888644813442268,69.87419174693466,0.3000861055583566,114.01952488679116,779.6519756752427,15.288,0.0,2.942889268208114,0.1049700337083991,1.770031552217048e-07,-0.0093636199245534,0.0092266913644204,0.0008858746387104,6.152307334786624,18.78072496068893,36.35802718788111,32.04577036496553
1.0,31.222158037054847,131.01046167669531,20.649001211375094,4.57648207536577,4.0755589661497424,28.6348389317026,-1.1606205169614603,2.080758659073185,314.2672081822764,35.99222542831538,15.007804066586589,69.86871987157585,0.3146259278804278,114.03501116018312,791.891806692345,15.288,0.0,2.950682257833634,0.1057928310597878,1.849572704870475e-07,-0.0096736430460011,0.0095056611507757,0.0009223469273355,6.125276974200364,18.641861251640563,36.63187300557728,28.733788424540382
1.01,31.222157528177448,131.01046314054952,20.976338314917346,4.574888323362736,4.038837234885343,29.934429842118195,-1.177731452470612,2.0534078351450984,324.9203161036979,36.262964553277165,15.123734536938745,69.8630662955313,0.3295934503874868,114.05095352356406,803.8248084315685,15.288,0.0,2.958428543002502,0.1065890149192465,1.9314156166359885e-07,-0.0099906748386373,0.0097884409906862,0.0009597100056489,6.099763674737824,18.50913839439932,36.89685835026536,30.0278807957583
1.02,31.22215701581847,131.0104646158622,21.306128420513616,4.57457246176395,4.003794219481969,25.03866896151208,-1.1945645868394528,2.0261450142605564,284.59063161540416,36.52031342551104,15.23493312844397,69.85722677222692,0.3449938706732831,114.06735756776008,815.2485410468581,15.288,0.0,2.966132287317284,0.1073458490442195,2.0155902835442392e-07,-0.010314920712559,0.0100751413969045,0.0009978575007538,6.076429311591243,18.384442017670096,37.148716230620806,25.148900404095848
1.03,31.222156500047365,131.01046610245126,21.63832264234893,4.5702886837642085,3.9658530330744086,20.510080482147245,-1.2125392975592568,1.99738534893802,247.30469339049705,36.80593073632743,15.355823374843515,69.8511971538623,0.3608322627588566,114.08422874457251,828.023742950883,15.288,0.0,2.9737921319540166,0.1081857827788996,2.1021294952339138e-07,-0.0106463989080549,0.0103657053345021,0.0010379461399971,6.048317666188516,18.247442823103945,37.428388161754576,20.64275178275501
1.04,31.222155980926978,131.01046760015302,21.97287741530376,4.569471165383179,3.931447166151396,32.449363858900576,-1.2296411956415376,1.9693751360571128,345.46563688072297,37.06063118662896,15.465917186538688,69.84497296230603,0.3771139073196569,114.10157274310129,839.4964202465395,15.288,0.0,2.981409165575734,0.1089348496723251,2.191066257125275e-07,-0.0109851817547877,0.0106601250366113,0.0010783515871321,6.02524272018125,18.12673006917437,37.67769698048599,32.53231732821782
1.05,31.222155458174985,131.01046910972323,22.3100101217132,4.565420150582607,3.894803887640725,19.682901087121348,-1.2477051764969256,1.940052809384674,240.45625879819983,37.337995100463615,15.583760646418094,69.83854988454425,0.3938439012656105,114.11939504654498,852.0815287368138,15.288,0.0,2.9889875247459243,0.1097505419367802,2.282426180992715e-07,-0.0113317375524622,0.0109587306118322,0.0011206597191404,5.998368984593992,17.996602921454862,37.94931840061347,19.817597440559272
1.06,31.22215493202808,131.01047063053335,22.649545229290247,4.558603697357412,3.856364488960897,27.925178937966496,-1.2666513730938125,1.9094872375255705,308.17968365593924,37.63487371782548,15.7082759006807,69.83192325988388,0.4110276118708947,114.1377014414227,865.6571584446589,15.288,0.0,2.996524059231143,0.1106236047483252,2.376248143471773e-07,-0.0116858845258851,0.0112612906796286,0.0011648342989199,5.968334105443241,17.858936561046082,38.240172779437145,28.019032208994677
1.07,31.22215440237225,131.01047216289027,22.99157275999936,4.5576510416097245,3.823376427714396,32.83828261046942,-1.2839871673135643,1.8805229069578488,348.5093681440308,37.88040373241488,15.814906082396854,69.82508846339562,0.4286704615506317,114.1564977648368,876.9602913452615,15.288,0.0,3.004021667424631,0.111345743190276,2.4725619490305345e-07,-0.0120479515257255,0.0115680112563755,0.0012087198085059,5.94638844965586,17.746263843299264,38.48053267402607,32.917135268040525
1.08,31.22215386910751,131.0104737070606,23.336171147933666,4.555264851723887,3.7896606820693095,22.191841300662887,-1.301793343640283,1.8507889015417984,261.00157857466235,38.13410087589678,15.92426794939379,69.81804081152224,0.4467776633511265,114.17578963997808,888.7167752569968,15.288,0.0,3.011480222808033,0.1120918970297758,2.571398826481328e-07,-0.0124181673827853,0.0118790063958761,0.0012541644149763,5.9229793940032565,17.63091473832383,38.728945444158335,22.306902648763757
1.09,31.2221533325078,131.01047526231633,23.68313664278085,4.54625761210206,3.750968275820232,20.43421026075612,-1.321644651184785,1.8184434615855272,246.54375332474407,38.43980505724977,16.051574900818714,69.81077553622221,0.4653544272993012,114.19558268992172,902.9926907424864,15.288,0.0,3.0188965962840166,0.1129909304843706,2.672799936690168e-07,-0.0127962594887329,0.0121939710558687,0.0013026663499004,5.891406694266884,17.49360979831351,39.02858499099708,20.55749085340376
1.1,31.222152792649343,131.01047682845626,24.03241508008831,4.540434425215719,3.715403799211269,40.73520514772412,-1.340640990770947,1.78683423257014,413.1890617385841,38.71588085291789,16.168528768216127,69.80328775573658,0.4844059614586146,114.2158825419494,915.9791764961104,15.288,0.0,3.0262722417604686,0.1138028831877322,2.77679948296368e-07,-0.0131822950691292,0.0125128884552961,0.0013515576734442,5.864371559540669,17.370903598819293,39.29908618587977,40.796409563440626
1.11,31.222152249132044,131.01047840654223,24.38431033601709,4.541152662833564,3.6856094239567736,29.89611936911552,-1.357679073211276,1.7572787078994845,324.1593910376397,38.93277499459633,16.264856298018973,69.79557260940271,0.5039374963450745,114.23669484149433,926.2396141369434,15.288,0.0,3.033614173199098,0.1144408842584801,2.883419310539374e-07,-0.0135770010419365,0.012836279150414,0.0013997772820387,5.8461372709712105,17.274954251717464,39.51130999585365,29.97848018588462
1.12,31.222151702016912,131.01047999640912,24.738778181825097,4.529210656714819,3.646054036983657,11.446504089654312,-1.3787298701390536,1.7227510790800595,172.73281794065943,39.2542359224348,16.39737479532791,69.78762512063362,0.5239540659657216,114.25802503764872,941.566288995106,15.288,0.0,3.0409192133945675,0.1153862636439005,2.992696522341473e-07,-0.0139803632357423,0.0131640469876179,0.0014532151808557,5.812034935301381,17.135102853733205,39.8265702911328,11.65723909035746
1.13,31.22215115189352,131.0104815964965,25.095379372477485,4.523918049312323,3.612309129654349,35.19393695325462,-1.3977837055488724,1.6903169869704229,367.5328077900705,39.51564510308239,16.50898394767212,69.77943997708842,0.5444612091989687,114.27987912146531,954.115872377822,15.288,0.0,3.0481825519156414,0.1161551329649235,3.10468315924884e-07,-0.0143916977744722,0.0134955648757201,0.0015058827991746,5.786836516032521,17.02217988220028,40.08268946400757,35.26222013818188
1.14,31.22215059810016,131.0104832085524,25.454611800903,4.523256599683894,3.582654204255288,19.612497548494503,-1.4153882973824532,1.6593646419214156,239.69531773195544,39.73289811938711,16.60516584858931,69.77101224166856,0.5654637201738867,114.30226228568156,964.6026911510678,15.288,0.0,3.055413777755624,0.1167942156125148,3.219390626018346e-07,-0.0148121392253992,0.0138316654503879,0.001558343195723,5.767892000520007,16.928562111314285,40.2952934745876,19.733394921729232
1.15,31.222150041120248,131.01048483129395,25.816114632998914,4.509756752363616,3.543314421421404,19.33575061232981,-1.4372524835289544,1.623048041013601,237.41251153546767,40.05912341332482,16.739120819245112,69.76233680105665,0.5869663433396007,114.32517968160272,980.473328579281,15.288,0.0,3.0626041751858386,0.1177536300186493,3.336870066454557e-07,-0.0152409920377644,0.0141717120868469,0.0016165706020041,5.732978137641775,16.79092483908494,40.61535123441192,19.45690703547357
1.16,31.22214948109137,131.0104864643579,26.17978790933897,4.509953132698336,3.5151089781579508,50.16064355882963,-1.4546550115798265,1.5918363613368292,490.0437743845894,40.26122205517829,16.829882600631052,69.75340825241726,0.6089742885631715,114.34863695876112,990.356679541827,15.288,0.0,3.0697567981316647,0.1183481838773295,3.457157405667505e-07,-0.015678284807207,0.0145156562356941,0.0016712842849204,5.71577929453091,16.70504793859014,40.8130277778936,50.20697288664141
1.17,31.222148917140263,131.01048811004054,26.54628405962717,4.503308184220597,3.4819746166044627,9.12601112969671,-1.4743715933126635,1.557575652401907,153.70937929486794,40.51980007144204,16.9401700189164,69.7442214145964,0.6314920955058492,114.37263905818016,1003.0833627768934,15.288,0.0,3.0768810397246,0.1191087686665521,3.580256776807211e-07,-0.0161255044604107,0.0148645773768183,0.0017299364168091,5.69025038616466,16.59699248171711,41.06641076067972,9.374640934322272
1.18,31.222148350414567,131.01048976531268,26.914748397779604,4.487591672589726,3.4423025225481143,24.54397696225784,-1.4973005935068116,1.5191111019214565,280.02501822196746,40.856941335004265,17.077723215089172,69.73477085013214,0.6545246211203942,114.39719126081228,1019.8088341169548,15.288,0.0,3.0839616374891965,0.1201003016206725,3.706245556820789e-07,-0.0165808378517175,0.0152169838521083,0.0017935210942779,5.653643043875933,16.45895333054325,41.39733171970398,24.636485397295218
1.19,31.22214778039567,131.01049143153776,27.285569521428293,4.491292920332256,3.4178451571893693,42.665967006578335,-1.5135425905853803,1.4885657986839067,428.4078130529292,41.014865483617314,17.152868928713268,69.72505095461574,0.6780768463672623,114.42229898680417,1027.6711874446996,15.288,0.0,3.091010937180316,0.1205650293284799,3.835133593371052e-07,-0.0170454577377581,0.0155737090793411,0.0018508390554353,5.6417581953873865,16.39222223436497,41.55142099664625,42.71874740575803
1.2,31.22214720663328,131.01049310988824,27.65908114060428,4.47902467740778,3.3816408673907734,4.662761111177119,-1.5354180974949474,1.4508253047024509,117.1843741360236,41.31374356934623,17.276963245479692,69.71505642918251,0.7021529166632767,114.44796677031488,1042.6657644881243,15.288,0.0,3.098028831624332,0.1214441067446609,3.966941115548248e-07,-0.0175201121396406,0.015935233875994,0.001916172238881,5.610155747420903,16.27122351151086,41.84462213443602,5.1189592671543735
1.21,31.22214663028168,131.01049479732916,28.03442784482148,4.467397204775421,3.346321941780151,34.31604776371804,-1.5571694615840808,1.412929098154595,359.92343213200894,41.604039462536335,17.398034553622704,69.70478148000878,0.7267577505797737,114.47419997247628,1057.3319475281332,15.288,0.0,3.104992966762557,0.1222979661561083,4.101748230725101e-07,-0.0180029518285248,0.0163000769968302,0.0019827441284691,5.579677561360309,16.15474253709852,42.129379703337634,34.380405458491616
1.22,31.22214605045789,131.0104964961699,28.412264911905783,4.469142932454923,3.3213200173148003,24.93066139167413,-1.5740720888043704,1.3808007724923168,283.0687504825761,41.76637525233871,17.47446543060453,69.69422049390766,0.7518956807042512,114.50100333760136,1065.5606258636867,15.288,0.0,3.1119284547837887,0.1227756870419949,4.239547476094961e-07,-0.0184957868604346,0.0166695257187521,0.0020448962957865,5.566149404469341,16.087347207531625,42.28779484636184,25.01843702433026
1.23,31.22214546750974,131.01049820548715,28.792333478657905,4.455890879802728,3.2855508029207567,9.865956985954654,-1.5965153624407282,1.3414630097681528,159.79687382222795,42.06425861873754,17.5980480414522,69.68336803819773,0.7775704629807589,114.52838099863366,1080.7748083855815,15.288,0.0,3.11882729858894,0.1236518700409094,4.380390415636373e-07,-0.0189979613463831,0.0170430006691397,0.0021153199826143,5.534259756729294,15.96964159951629,42.580068933890345,10.083922429183643
