Time,Latitude,Longitude,Altitude,Angle of Attack,Angle of Sideslip,X-Acceleration,Y-Acceleration,Z-Acceleration,Thrust,True Velocity,Ground Velocity,Pitch,Roll,Yaw,Dynamic Pressure,cp,cg,parachute_deploy_gain,Wind Speed,Wind Direction,Mach,omega_x,omega_y,omega_z,Cmq,Angle of Attack(total),Angle of Attack(gust),True Velocity(gust),Acceleration
0.0,31.222216000000007,131.010392,3.000000004412624,0.0,0.0,0.0,0.0,0.0,2.2828121974499247,0.0,0.0,69.99999999623412,0.0,119.9999999935444,0.0,1.274,1.0271675151847728,0.0,0.0,0.0,0.0,0.0,0.0,0.0,-0.0,0.0,90.0,0.0,0.0
0.01,31.22221599999084,131.01039200000497,3.000002745347096,0.0,0.0,0.0,0.0,0.0,34.242186961749226,3.465174813755316e-14,2.8705476994166025e-14,69.9999999962611,-2.1713911667908447e-11,119.99999999352175,7.352495975525499e-28,1.274,1.0271659134330349,0.0,0.0,0.0,1.0183245502395064e-16,-3.3305335486039093e-18,7.169286865560398e-18,5.624298769768554e-18,-7.715917190115602e-34,0.0,89.99999999999979,3.465174813755316e-14,0.0
0.02,31.222215999994315,131.0103920000094,3.0000030495639742,0.0,0.0,0.0,0.0,0.0,25.871876237766216,3.8197434737535036e-11,2.4171837235633357e-11,69.99999999628672,-1.1921727947863515e-11,119.99999999353136,8.93414285188691e-22,1.274,1.027164492361118,0.0,0.0,0.0,1.1225230367947217e-13,-6.657678965418802e-18,1.4338573731120796e-17,1.1241821275959074e-17,-1.7010872994127372e-30,0.0,89.99999999975682,3.8197434737535036e-11,0.0
0.03,31.222215999994315,131.0103920000094,3.0000030495639742,0.0,0.0,9.81877837424427,-2.5122800045972096e-05,3.3498614629347925,180.34219359854663,1.2659015405517447e-10,1.1364406173918436e-10,69.99999999631459,-1.6431898037347223e-11,119.99999999352724,9.812605835254651e-21,1.274,1.0271551940870716,0.0,0.0,0.0,3.720154642239108e-13,-9.991600645811728e-18,2.150108433310316e-17,1.6859343782149594e-17,-8.453698244545225e-30,0.0,89.99999999919412,1.2659015405517447e-10,10.374487003414373
0.04,31.222215999994315,131.0103920000094,3.0000030495639742,18.83801224594347,-0.0001111777826462,48.68248476615645,-1.016330065874988e-05,3.3497854396877287,548.635972453808,0.1556173050466994,0.0975908358443652,69.99999999633813,-2.0932768807056278e-11,119.99999999352085,0.0148286043323172,1.274,1.027133720825283,0.0,0.0,0.0,0.0004573186944143,-1.3322134194415637e-17,-1.04744143520903e-11,1.336824254131964e-11,5.0626055458604615e-15,18.83801224625964,89.06236267790787,0.1555998412814392,48.79759610369246
0.05,31.22221599164764,131.01039201704114,3.002326315126219,5.772385609593056,-4.395076213712875e-06,71.20344550265034,4.905512691849684e-05,3.349217396035405,761.6984298824663,0.8326471944351852,0.3620326097059287,70.00000001316391,-1.0866255162484559e-10,120.00000000231074,0.4245281043148827,1.274,1.027093426565204,0.0,0.0,0.0,0.0024469331205246,-5.0245994431125096e-18,-7.32924164976824e-07,2.217344936947165e-11,1.895424184525467e-09,5.772385609594774,84.74112356985832,0.8326465040582279,71.28217104309611
0.06,31.22221596664444,131.01039206837547,3.015081730143309,4.056581213689704,3.169093567502233e-05,53.16249142470188,0.0001203825427859,3.3481235983850643,590.4875390737236,1.657216205300742,0.6755452977614796,69.99999964391398,-3.9285905645317736e-10,120.0000000287861,1.6816755551786196,1.274,1.027050317124926,0.0,0.0,0.0,0.0048701272653724,3.095757869075056e-13,-7.483541766772344e-06,3.074135420506017e-11,3.8518749565858254e-08,4.056581213813337,79.59316473687034,1.657221183301277,53.26781792157489
0.07,31.22221592883117,131.0103921460222,3.034593611434361,4.115662018628709,6.450869598349036e-05,81.18203554989698,0.0001593212642178,3.347059402768047,855.2937749779172,2.099899704220947,0.8579771146174259,69.99999543281565,-8.233801910783518e-10,120.00000006883089,2.700101932075157,1.274,1.027003201295312,0.0,0.0,0.0,0.006171060252819,3.4704292086287e-12,-2.6327204536316785e-05,1.9541142932033486e-10,1.7170712165327165e-07,4.115662019133419,76.90111966094352,2.099909837223217,81.2510043180746
0.08,31.22221588914193,131.01039222747755,3.0542761843835606,3.459696193892355,8.037433511260004e-05,16.298214211652088,0.0002413456836072,3.344878926597744,241.2171988638792,3.051964775152957,1.2149999716613011,69.99998042886442,-1.0128995578004475e-09,120.00000011111383,5.703497661025892,1.274,1.0269597189470347,0.0,0.0,0.0,0.0089689344021769,1.458982438104473e-11,-5.702803872814215e-05,7.043261397829576e-10,5.405702492731987e-07,3.459696194824858,71.30331929508368,3.051977400323993,16.63790856991177
0.09,31.2222158241468,131.01039236098703,3.0886872184095737,4.313676956300389,0.0001337561018991,50.35975918308536,0.0002293282821279,3.344215841840564,563.0937377043203,2.893161298572128,1.191209213966114,69.99994788602814,-7.098432023887522e-10,120.00000018106356,5.125380275808925,1.274,1.026918932011013,0.0,0.0,0.0,0.0085022553945842,3.8672912027154325e-11,-0.0001115933708951,2.016054215232918e-09,1.0027525988343615e-06,4.313676958370176,72.2316578138625,2.893182308931483,50.47067588835877
0.1,31.2222157788302,131.01039245392113,3.109877853389092,4.035124630954496,0.0001457499816535,47.804664812504015,0.0002878217657545,3.341734392237128,538.7437595981891,3.5677148583138303,1.4531247507621967,69.99988403958329,1.9248461973355822e-09,120.0000002323013,7.7939962029572305,1.274,1.0268846934974103,0.0,0.0,0.0,0.0104845969583028,8.579678749070606e-11,-0.0001726817043215,3.984565639703107e-09,1.913455350430327e-06,4.0351246335824245,68.43243098813296,3.567737752667411,47.92132267234452
0.11,31.222215703308,131.01039260899836,3.148841432727305,4.043401107254707,0.0001752764476999,37.67622367577205,0.0003286462930162,3.3392563999062723,442.86563930529127,4.034183355956686,1.6436552022667772,69.99978525353545,7.302513231814865e-09,120.00000031883242,9.96528118825134,1.274,1.026848594915519,0.0,0.0,0.0,0.0118554331868328,1.5870341853361987e-10,-0.0002596204409236,7.232030302688121e-09,3.252930323390323e-06,4.04340111104746,65.92012987243639,4.034210888316708,37.82391391539392
0.12,31.222215627491828,131.01039276462643,3.186995101203875,4.17874459224363,0.0002066711490009,41.15991989399172,0.0003576945202315,3.336766085769504,475.58594813540793,4.361857560629481,1.7865750500940407,69.99963665601238,1.781774420198147e-08,120.00000041104812,11.649831899889556,1.274,1.0268114448194128,0.0,0.0,0.0,0.0128183893919737,2.682972478760441e-10,-0.0003710216542429,1.2215991071490164e-08,5.026311388647148e-06,4.178744597345269,64.21681651392016,4.361890024457652,41.29495143136631
0.13,31.22221554594398,131.01039293200228,3.2277173449026786,4.202734874672792,0.0002327160860324,45.44886120763352,0.0003953741266062,3.333578629398489,515.9156326236897,4.792165672014363,1.9646716520715424,69.99942424225341,3.613383418913551e-08,120.00000051758742,14.061726603124043,1.274,1.026779572895131,0.0,0.0,0.0,0.0140829618979635,4.248908088871395e-10,-0.0005056103199642,1.908859219307828e-08,7.5253154423526356e-06,4.202734881104192,62.048594618540655,4.792202226971676,45.570952718869485
0.14,31.222215454191247,131.01039312033683,3.2737880595608355,4.184830647080848,0.000257138757548,42.32232525579263,0.0004369426767266,3.329727443445437,486.2390860568421,5.269261304374574,2.158791628597544,69.99913473613935,6.515851355725497e-08,120.00000064630268,17.000925061330125,1.274,1.0267449573927567,0.0,0.0,0.0,0.0154850332441425,6.382432869666793e-10,-0.0006690086306358,2.8426433029675884e-08,1.0948547100483978e-05,4.184830654966803,59.74181173116622,5.269301695636157,42.45310707234106
0.15,31.222215353826755,131.0103933263496,3.3242182719560263,4.21963947489699,0.0002846467688673,40.886944113003565,0.0004726792395108,3.325585650885676,472.5421858721398,5.6781946837482895,2.329510773545807,69.99875162806286,1.0876776246115984e-07,120.00000079954532,19.742017654108928,1.274,1.0267115958081523,0.0,0.0,0.0,0.0166867950518804,9.204756288136623e-10,-0.000865746478554,4.08948221429571e-08,1.526771148078443e-05,4.219639484480408,57.84996018384879,5.678239395958187,41.02196629910223
0.16,31.222215247130432,131.01039354534575,3.3775922280208457,4.253495568077899,0.0003118339050386,32.26872905470846,0.0005078415214353,3.32090791922544,391.1218908297597,6.081244877834229,2.4981889727471702,69.99825581174558,1.7187028096464329e-07,120.0000009800088,22.644030778355887,1.274,1.026675762255412,0.0,0.0,0.0,0.0178712695992133,1.2856146928958252e-09,-0.0010961187242953,5.6923362293832417e-08,2.0702404729358337e-05,4.253495579487569,56.06022383757386,6.081293860589489,32.43916312841722
0.17,31.22221513260033,131.01039378041813,3.4348437275053194,4.364838523348639,0.0003448792023946,40.840448242802736,0.0005326487904353,3.3162727284953744,471.78125980632416,6.362544479165355,2.6250789114832647,69.99762801982864,2.5997588617291615e-07,120.00000119506798,24.78723182122683,1.274,1.0266409836796937,0.0,0.0,0.0,0.0186979513961862,1.747791994374917e-09,-0.0013624931601664,7.706724512977917e-08,2.6923621797558364e-05,4.364838536947241,54.85936171416122,6.362598652663785,40.97486885600156
0.18,31.222215014088988,131.01039402363364,3.4935801365785646,4.353948305387995,0.0003681615230806,33.992183768165326,0.0005718025428208,3.310131992647221,407.1015672119096,6.81502088160835,2.810667639293692,69.99684761766231,3.794979223522764e-07,120.00000144728236,28.437950785509614,1.274,1.0266048342046536,0.0,0.0,0.0,0.020027681385988,2.3221419748804155e-09,-0.0016616990447559,1.0147209890543081e-07,3.517105786247627e-05,4.353948320923495,52.99157233768714,6.815078712285162,34.152972512863755
0.19,31.22221488419521,131.01039429023237,3.558399965607869,4.432620772533925,0.0003996774584738,38.45149959021069,0.0005986099513107,3.304145139297767,448.95313283182486,7.1223367465208405,2.946425726785696,69.99589577323147,5.440084577183829e-07,120.00000176148238,31.060341085698347,1.274,1.026566130444714,0.0,0.0,0.0,0.0209308229359413,3.022391489754689e-09,-0.0020041563310821,1.3135864879722746e-07,4.433199397898183e-05,4.432620790516937,51.77883352025967,7.122399527709208,38.59320142454953
0.2,31.222214751373183,131.01039456280608,3.624052454705669,4.443889400961181,0.0004246617145652,35.23432408779927,0.0006337972852267,3.2968110145188256,418.5156301991588,7.530482904611057,3.1167566004785483,69.99474776398331,7.478025600151903e-07,120.00000211715036,34.72195181863731,1.274,1.026529240027363,0.0,0.0,0.0,0.0221302820454282,3.866698391504749e-09,-0.0023849544920781,1.668144671071589e-07,5.57780533277244e-05,4.443889421210987,50.22448880200342,7.530549610317194,35.38822625098952
0.21,31.222214608673173,131.01039485566503,3.6948551453492566,4.493351735844891,0.0004538195602194,33.79371564104691,0.0006629296043866,3.2891790438445727,404.8187610144608,7.868284042829251,3.2629204975089228,69.99338155599101,1.0150082652278477e-06,120.00000255293388,37.906665490338085,1.274,1.0264923657015164,0.0,0.0,0.0,0.0231230169900677,4.871073773182836e-09,-0.0028117605859743,2.089322918608601e-07,6.870935089180403e-05,4.493351758715364,48.992529909481824,7.868355328639073,33.95340801819282
0.22,31.22221446109996,131.01039515850383,3.767700382407304,4.5412639153933885,0.000482649303782,41.008966751568416,0.0006914639179131,3.2808061382386606,472.5421858721387,8.20057841132235,3.4071691679735228,69.9917708347139,1.3454961520984431e-06,120.00000305929996,41.175744234065135,1.274,1.0264494137127138,0.0,0.0,0.0,0.0240995709751246,6.054779813287368e-09,-0.0032829112061357,2.580881224843564e-07,8.3609968899004e-05,4.54126394098788,47.82515604752711,8.2006542256977,41.13999323561041
0.23,31.22221430675399,131.0103954752338,3.843768625625224,4.52371495179584,0.0005047555656171,33.98493478127787,0.0007294889663961,3.2705214710765107,406.340642146096,8.647938096586296,3.5908865300848416,69.98989017772566,1.7539876018835507e-06,120.00000365514876,45.79040229326471,1.274,1.0264133390858623,0.0,0.0,0.0,0.0254142776666487,7.436335125872812e-09,-0.0038001790077148,3.1489825108822685e-07,0.0001020628978177,4.523714979897577,46.31461705147579,8.648017383405135,34.14194053232237
0.24,31.222214142622448,131.0103958120587,3.92493179063287,4.57837522350066,0.0005351929930195,35.051650311058864,0.0007555049947555,3.26053011385611,416.2328240017099,8.954297884844461,3.72617527247482,69.98771316795013,2.25257161141768e-06,120.0000043564586,49.09180568115741,1.274,1.0263750048312463,0.0,0.0,0.0,0.0263146218848643,9.034877387788232e-09,-0.0043732521010013,3.809642748985157e-07,0.00012161410144,4.578375254714954,45.32798984252032,8.954381952763216,35.20297212911011
0.25,31.22221397517227,131.0103961556623,4.0071748888306855,4.6034117733065,0.0005618935542827,36.03738579534623,0.000785606492708,3.249069743648399,425.3640807915084,9.311611941121669,3.8789349536029696,69.98520781816889,2.8559738498748624e-06,120.00000517181904,53.08749562138344,1.274,1.0263373768840591,0.0,0.0,0.0,0.0273647110956883,1.0873791100894836e-08,-0.0049950711786164,4.5609738277273444e-07,0.0001444478241125,4.603411807525074,44.2165428352526,9.311700203154778,36.183554686886296
0.26,31.22221379934012,131.01039651647062,4.09364247475714,4.621386912291471,0.0005881033207375,39.29107511182762,0.0008162761165496,3.236407051295005,455.80158342417656,9.67833954512075,4.034902068846398,69.98234620927953,3.5784678110229355e-06,120.00000612171208,57.350948423913096,1.274,1.0263006300381676,0.0,0.0,0.0,0.0284424679130479,1.2973286442992724e-08,-0.0056712051373577,5.414206381221602e-07,0.0001704578711045,4.621386949630312,43.12063533194282,9.678431924174348,39.42414126789902
0.27,31.222213616776543,131.01039689108487,4.183310605341074,4.617158109135719,0.0006115457810536,35.90419462403674,0.0008503454714941,3.221982799915672,423.8421996598744,10.088790784535757,4.205862468567124,69.97909721779352,4.436165972465058e-06,120.000007221354,62.31798301949865,1.274,1.026260090595354,0.0,0.0,0.0,0.0296487219805601,1.5355910600537293e-08,-0.0064045199323113,6.379142666348734e-07,0.0002006609239367,4.617158149547818,41.94410287616451,10.08888684592241,36.048472443180565
0.28,31.22221342607797,131.0103972823952,4.277051150896916,4.642105655370123,0.0006389739579882,41.51133203546672,0.0008785747638736,3.2071101123224945,476.3468732012228,10.432377224420517,4.35383399240675,69.97542808435722,5.446665372087172e-06,120.00000849080963,66.63429581008447,1.274,1.0262212716723291,0.0,0.0,0.0,0.0306584788590473,1.8045308789081613e-08,-0.0072006835403936,7.469524967369969e-07,0.0002332868227611,4.642105699250441,41.0023231023774,10.432477594215127,41.63503624837164
0.29,31.22221323001776,131.01039768469093,4.373143569786686,4.62134615173668,0.0006600657405645,33.17552944492765,0.0009148746278066,3.1894209319791806,397.9703104221098,10.876662296046485,4.536381530986506,69.9713027936179,6.629751536885327e-06,120.00000994797426,72.43000748232016,1.274,1.026183007522519,0.0,0.0,0.0,0.0319641703260467,2.1067646517035105e-08,-0.0080566154554079,8.688043379161898e-07,0.000272130659453,4.621346198772975,39.83162628795024,10.876765978930557,33.32848872465723
0.3,31.22221302403368,131.01039810736614,4.4744193758467325,4.664362353358112,0.0006905183788532,31.08096762732793,0.0009381960428197,3.172549142946348,378.1859457108735,11.168362145070317,4.66647911311536,69.96668711012893,8.005507138509574e-06,120.00001161892672,76.36634300732833,1.274,1.0261430389738484,0.0,0.0,0.0,0.0328214509167604,2.4447409007156216e-08,-0.0089829108229115,1.0056222251461646e-06,0.0003115527202986,4.664362404357781,39.09908960432563,11.168470611443622,31.242464973103964
0.31,31.22221281503337,131.01039853619727,4.576593712520673,4.700143580504286,0.0007196683316923,32.79732593144512,0.0009620705970519,3.154230688182399,394.1656220930229,11.470279728974068,4.800072153432283,69.96154070456518,9.597499105113692e-06,120.00001352112182,80.55022837857167,1.274,1.0261054058068628,0.0,0.0,0.0,0.0337087616009043,2.8214060606649844e-08,-0.0099686353219717,1.1565909895184251e-06,0.0003550834484269,4.700143635477137,38.36463422765983,11.47039277421126,32.94865339301887
0.32,31.222212598991007,131.01039897947376,4.68216432480395,4.718667719113184,0.0007464384342556,35.7316568886908,0.0009885845337584,3.133859770838664,421.5593934624264,11.808280530415894,4.946054328851105,69.95582953472353,1.14278227255889e-05,120.00001568218067,85.36654007972253,1.274,1.026068246703101,0.0,0.0,0.0,0.0347021168382987,3.2392058795580455e-08,-0.0110163301561155,1.3226102501723267e-06,0.0004039614423012,4.718667778018562,37.5686120062341,11.808397780690962,35.8688218659563
0.33,31.222212376029034,131.0103994369436,4.791055524254013,4.72141404831576,0.0007708346814671,35.42013590291081,0.0010176135371143,3.1111955852784385,418.5156301991632,12.181577273013426,5.104163223586657,69.94951809396906,1.351997394754887e-05,120.00001812674968,90.84831229869296,1.274,1.0260310883392356,0.0,0.0,0.0,0.0357992034445943,3.700677535501642e-08,-0.0121310534481307,1.5051409581878843e-06,0.0004588955105349,4.721414111097893,36.7208578211118,12.181698355442045,35.55651229220977
0.34,31.222212145785647,131.0103999093516,4.903491659547144,4.73024573449122,0.0007962944975467,27.63851074646407,0.0010446307681611,3.0871492806781062,345.4656368807584,12.53557620048282,5.2556261014174765,69.94256797855994,1.5899658158227497e-05,120.000020882338,96.20413272674828,1.274,1.0259901535019136,0.0,0.0,0.0,0.0368395817555172,4.208561016221623e-08,-0.0133180771902383,1.7057647550599631e-06,0.0005184333231541,4.730245801363397,35.94841996438923,12.535701282129995,27.810389570354005
0.35,31.222211909310875,131.01040039453565,5.018822212845608,4.780248518778662,0.0008286678570753,30.332092807652543,0.0010618579815451,3.063967690608957,370.5765700527057,12.774786382148209,5.367579971644358,69.93493776125636,1.8594985713558667e-05,120.00002397748868,99.9096898192772,1.274,1.025950003202184,0.0,0.0,0.0,0.0375426220587071,4.7658312175989686e-08,-0.0145774693288123,1.9252724355785177e-06,0.0005782798420984,4.780248590437683,35.44790728185619,12.774916548990808,30.486451961956565
0.36,31.22221166933814,131.0104008868675,5.135354490370708,4.798132156899578,0.0008554457330409,34.32674769697476,0.0010851169437774,3.0374319611165923,407.8625232777224,13.09301701329486,5.506730645516068,69.92658597246795,2.163521613217148e-05,120.0000274401514,104.94818266210537,1.274,1.0259105142325406,0.0,0.0,0.0,0.0384778908056978,5.3755109608570216e-08,-0.0158991451700967,2.162609490834569e-06,0.0006464142451675,4.798132232978766,34.796094028187134,13.09315138639638,34.46087058603792
0.37,31.222211421355144,131.01040139563804,5.255882891363927,4.797392186816851,0.0008791822061288,32.551601855236584,0.00111162791192,3.0078619428913056,391.1218908297639,13.457513730739372,5.661815946371007,69.91747693543164,2.5047738471809164e-05,120.0000313040604,110.87154396328836,1.274,1.025872170958032,0.0,0.0,0.0,0.0395491312153729,6.040098808671168e-08,-0.0172926678053148,2.420031948898497e-06,0.0007226353721561,4.797392267189059,34.07332166419882,13.457651832357364,32.69027405888565
0.38,31.22221116634284,131.01040191882743,5.379799334000849,4.811698494594017,0.0009057112478668,34.02947987649063,0.0011338447913587,2.9774881690446744,404.81876101445977,13.77554886562956,5.800899861213392,69.90756948297444,2.886339581486796e-05,120.00003560072224,116.17243393848278,1.274,1.02583050512925,0.0,0.0,0.0,0.0404838339452728,6.762496638941508e-08,-0.0187646375218858,2.69955777313946e-06,0.0008026686661094,4.8116985796350695,33.46655348088405,13.775691134419684,34.15949264475229
0.39,31.222210906095896,131.01040245274032,5.505993307722699,4.813508003664984,0.000929862892873,29.00025983045028,0.0011579891265804,2.9442136901860865,357.6406249338268,14.124492165837273,5.950648592462506,69.8968186645841,3.311602501056718e-05,120.00004036395212,122.13093644173792,1.274,1.02579027384009,0.0,0.0,0.0,0.0415093739609825,7.545934774906889e-08,-0.020311592409804,3.0013532510753577e-06,0.0008908380763632,4.813508093268025,32.821616487639595,14.124638228358922,29.149330452482886
0.4,31.222210638473225,131.0104030017851,5.635788650457906,4.841647069358873,0.0009592124397379,27.71178845184976,0.0011749448424961,2.91135549588368,345.4656368807565,14.390874239274588,6.07193451174791,69.8851815212744,3.783947407715338e-05,120.00004563180136,126.77947425345651,1.274,1.0257493418632293,0.0,0.0,0.0,0.0422922854866381,8.39343718693383e-08,-0.021938519432511,3.3271332720311508e-06,0.0009803271643914,4.841647164150728,32.348088166612904,14.391024912012275,27.864299944624147
0.41,31.22221036681104,131.01040355909262,5.767123077463226,4.86553909860892,0.0009876699832274,31.306062598221665,0.0011918093836199,2.876450850006428,378.9468707766882,14.663028799871563,6.195223154320929,69.87261222561014,4.307011032901644e-05,120.0000514391194,131.6183642808765,1.274,1.025708445186429,0.0,0.0,0.0,0.0430921644173401,9.308325447883581e-08,-0.0236371933433427,3.6760977501392174e-06,0.0010761942383903,4.865539198612839,31.87689439156756,14.663183942709727,31.437931330109585
0.42,31.22221008906472,131.01040412887247,5.901259531771367,4.867510642114694,0.0010118258958528,35.308283402190774,0.0012128114559048,2.8374461227958245,416.23282400171047,14.9952917972178,6.33928625560071,69.85906967380902,4.884273094936628e-05,120.00005782486392,137.64909586091787,1.274,1.0256701057426505,0.0,0.0,0.0,0.0440686959134695,1.0293499639582845e-07,-0.0254093547296826,4.049238334851429e-06,0.0011830797791891,4.867510747027452,31.315270489291198,14.995450734457847,35.422111438762386
0.43,31.222209804115888,131.01040471342728,6.038886819939341,4.854590670645608,0.0010330089741511,31.00586934514032,0.0012363751872706,2.794478603999558,375.90313951343126,15.369430568701889,6.497852263156962,69.8445117629242,5.519340856908871e-05,120.00006482835984,144.60167924299955,1.274,1.0256308158337524,0.0,0.0,0.0,0.0451682983415116,1.135186446762958e-07,-0.0272634397889413,4.449073329427772e-06,0.0013010625065656,4.854590780289497,30.70250814963406,15.369592833372094,31.13154422839874
0.44,31.22220951192321,131.01040531284193,6.180028459770617,4.866912332640401,0.0010595850174406,28.57707721036899,0.0012525768202179,2.752165534925872,353.07501253892326,15.659290812546615,6.627318538707029,69.82889155423543,6.216182865383864e-05,120.00007249162944,150.1053167542629,1.274,1.025586171750536,0.0,0.0,0.0,0.0460202245100907,1.2486676023179565e-07,-0.0292060158163984,4.8779154055816594e-06,0.001420032405556,4.866912447705031,30.24619499837236,15.659457251771938,28.709297424144207
0.45,31.222209215425703,131.01040592106523,6.322872201489905,4.881836476567178,0.0010866574689855,33.31904824532484,0.0012669045761511,2.7082028218433374,397.2093853562887,15.934249290371609,6.751662050993672,69.81215834018458,6.97909417564726e-05,120.00008085697964,155.42080512416243,1.274,1.0255397023523487,0.0,0.0,0.0,0.0468283602442113,1.3701614206272197e-07,-0.0312276295846745,5.334643585560923e-06,0.0015449645531859,4.8818365972149325,29.82567893138932,15.934419982127675,33.428929688274074
0.46,31.22220891307435,131.0104065412864,6.468371919199588,4.869610441729251,0.0011078049156487,38.95909776354321,0.0012868374716666,2.6582856015412624,449.7140588976424,16.292139278621757,6.904766425053949,69.79426683863348,7.812149592850748e-05,120.00008996920153,162.4785746623087,1.274,1.02549635315424,0.0,0.0,0.0,0.0478802236363867,1.499987870203256e-07,-0.0333272350234362,5.819761874615242e-06,0.0016858511402973,4.869610567434908,29.29014635640275,16.292313292210977,39.04968351401366
0.47,31.22220860266524,131.01040717804253,6.6178810515614845,4.838450928223533,0.0011247917292402,26.253747818137555,0.0013104398935566,2.6026193242279367,331.0078106302504,16.710658191447514,7.078951441335346,69.77517236812905,8.719457259907165e-05,120.0000998741591,170.9309671061642,1.274,1.025453319323251,0.0,0.0,0.0,0.0491102725711187,1.6384464803343264e-07,-0.0355167087264168,6.3368207228363735e-06,0.0018427306558807,4.838451058652396,28.68386015667837,16.710834873319172,26.382435512333956
0.48,31.222208284201663,131.0104078313267,6.771393590864176,4.869339340099417,0.0011561785713505,25.860860976019296,0.0013165328518772,2.5543454292827983,327.20312230115803,16.911139899671,7.177575416403102,69.75482343794755,9.70562828082882e-05,120.00011062072316,175.0543877818846,1.274,1.0254092882449153,0.0,0.0,0.0,0.0496995461609974,1.7858865391586845e-07,-0.0378054080201581,6.88909442277235e-06,0.0019849793891693,4.869339477030596,28.40887970825325,16.911321511776286,25.986704537635287
0.49,31.22220796480208,131.01040848648364,6.924537656029012,4.881367714530694,0.0011829003785372,32.565703383222065,0.0013261973190012,2.5011623511055703,389.6000096981238,17.169005224738054,7.296160258358563,69.73316318155707,0.0001077573203115,120.000122255028,180.4309832312717,1.274,1.025367445590036,0.0,0.0,0.0,0.05045746454003,1.942747077649401e-07,-0.0401641298712614,7.47069711110948e-06,0.002140948887153,4.881367857509675,28.058569663954906,17.169191034294997,32.66161128464712
0.5,31.222207637929923,131.01040915697027,7.081324512896956,4.862566137860805,0.001202418260511,33.47759680712428,0.0013425340759632,2.4399894027711366,397.970310422106,17.52898693231981,7.450304424940405,69.71015149227495,0.0001193385310595,120.0001348274002,188.0736471953394,1.274,1.0253278572281015,0.0,0.0,0.0,0.0515154948878309,2.109295159784217e-07,-0.0426011733481599,8.084173008518589e-06,0.0023184335011768,4.862566286171007,27.57768313050809,17.529175807738486,33.56639745442473
0.51,31.22220730314019,131.01040984370235,7.24202048914867,4.8479762258125,0.001223054804074,25.49162310288008,0.0013562860883156,2.3767006597692686,323.39843497208153,17.86914397471067,7.597652147346554,69.68574349602717,0.0001318441288964,120.00014838524436,195.4407439266201,1.274,1.025286455263166,0.0,0.0,0.0,0.0525152689856776,2.2858192086249162e-07,-0.0451315948093539,8.734206149830708e-06,0.002503767471626,4.847976379721193,27.13799345359824,17.86933609171003,25.602178740977283
0.52,31.222206962738102,131.01041054193402,7.405210501673173,4.865306299521403,0.0012516517170965,30.733671928447727,0.0013599291289974,2.317711624364424,372.098451184342,18.08534843773428,7.701914987606457,69.65988568649581,0.0001453248538387,120.00016298000436,200.19561780583155,1.274,1.0252426840672306,0.0,0.0,0.0,0.0531507657929359,2.4726951523704535e-07,-0.0477531686556663,9.421346966092632e-06,0.0026812161964639,4.865306460134566,26.8699055233151,18.085545046726228,30.820940596104087
0.53,31.222206619320115,131.01041124632013,7.569307468221277,4.848802699234936,0.0012715119568563,32.301199055744725,0.0013711327835325,2.2490252325653923,386.55624643486095,18.41963113311156,7.8474319110539055,69.6325258319474,0.0001598315062727,120.0001786629144,207.6614205945027,1.274,1.0251993415311351,0.0,0.0,0.0,0.0541332845214831,2.67031759303889e-07,-0.0504479325599339,1.0141887756417996e-05,0.0028848299490111,4.848802865552398,26.45837260670532,18.419830861742675,32.37940050117613
0.54,31.22220626697288,131.01041196903336,7.737918664599091,4.831496690588052,0.0012913635058467,28.31291960103712,0.0013809098107221,2.177242866245296,349.2703242098436,18.75116898748492,7.992112829440902,69.60362200959217,0.0001754082864028,120.00019548734956,215.20067397992847,1.274,1.0251561018460285,0.0,0.0,0.0,0.0551077428911958,2.878941684235108e-07,-0.0532336286085667,1.090122304443916e-05,0.003098869611663,4.831496862756785,26.061835558272342,18.751371834390056,28.396510432451375
0.55,31.222205908994248,131.01041270328463,7.909026079894722,11.26915367789886,12.12314324897902,30.280788740501023,-0.715987249178397,1.7136977663832424,365.2500005919912,20.6732111531256,8.113323699629928,69.57312211246325,0.0001921068626005,120.00021350480982,261.57466467513893,1.274,1.025112921033824,0.0,5.012807131891703,0.0,0.0607565429524601,3.0989272306468813e-07,-0.0561100530405476,1.1700476995263424e-05,0.003601060098754,16.494202625284505,36.86929337798087,22.56333263297584,30.33769214232267
0.56,31.222205546564343,131.01041344664463,8.081909946161325,4.796341286288128,-14.618978066628872,28.21981246452426,0.634090244631184,1.939249731264988,346.22656194657776,19.97467455784647,8.246362755413777,69.54097415464405,0.0002099796112633,120.00023276987916,244.19232574810823,1.274,1.0250709539098009,0.0,5.031095570890197,210.00008998959544,0.0587037267989584,3.330095088065315e-07,-0.0638209163462282,0.0086918130477972,0.0039574668713852,15.369378120732383,10.018210605227248,17.70316565157513,28.293472312380935
0.57,31.222205178926508,131.01041420507835,8.258332077308209,4.791941664883589,-14.43609244488418,27.90926633497661,0.8335446347837252,1.8614920381500768,343.1828296833045,20.23926191822887,8.372608562075257,69.5044076151286,0.0135342732551156,120.01445598648584,250.7001369120781,1.274,1.0250279191823897,0.0,5.049241129622549,210.00008998959544,0.0594814430357598,3.640599012372181e-07,-0.0668530287910554,-0.0009878884599793,0.0042003254499491,15.194580187845656,9.95236761476311,17.995562104448933,27.983693405677023
0.58,31.22220480271878,131.01041497166767,8.436594847955023,4.778285846492685,-14.26880282525956,36.844598825294376,1.0414014219759975,1.780581276659546,426.12500585731766,20.511140488470872,8.499141963011155,69.46610453736963,0.0119989843697855,120.01281690945324,257.47639183375094,1.274,1.024981594484354,0.0,5.067416257180974,210.00008998959544,0.0602805918989181,3.911116840221448e-07,-0.0699680554197708,-0.0108070861049441,0.0044550169694992,15.031851462136288,9.865756044359628,18.29289830743653,36.902295988208756
0.59,31.22220442149536,131.01041575055615,8.617560783661409,4.730536586011398,-14.009446876784292,29.823474933201272,1.264895073632061,1.6849104816980225,360.68438819710633,20.91412816343897,8.673383526652449,69.42601696862636,-0.0045216137617966,119.9951733073734,267.68854028949977,1.274,1.0249386802161349,0.0,5.085461636837921,210.00008998959544,0.061465065737557,4.141332163223896e-07,-0.0731627742461485,-0.0207801274620546,0.0047498744775726,14.771412583614245,9.74571641975204,18.735391299234585,29.897801590918338
0.6,31.22220402971032,131.0104165486723,8.803410968155987,4.716410050431064,-13.849805892847533,26.484968671476395,1.4891349327126011,1.5983537903799852,329.4859594986072,21.17225294841196,8.795169483901066,69.38409434980103,-0.0361660087338678,119.96136862461364,274.3321119317704,1.274,1.024891335813742,0.0,5.103462872219924,210.00008998959544,0.0622238057225035,4.330794206529705e-07,-0.076458443869072,-0.0309693206013398,0.0050250105875087,14.615967326126464,9.6752159015975,19.01785498162606,26.574909655841413
0.61,31.22220363485302,131.01041735123573,8.989783838756086,4.703510832945626,-13.69783211438184,31.087904102477683,1.7191520296837497,1.5102497774488777,372.0984511843332,21.415998012199488,8.911835891223605,69.34026922539631,-0.0831576206996502,119.91115478951484,280.6799319868236,1.274,1.0248423929069768,0.0,5.121626700896059,210.00008998959544,0.0629402881531057,4.478941973707384e-07,-0.079830254843068,-0.0412972470348805,0.0053069196704383,14.468252563753246,9.613877154100155,19.2847855414138,31.172008590661893
0.62,31.22220323339384,131.01041816553737,9.17881129592673,4.6691923881604565,-13.4895572636555,38.72097314926541,1.9635005958726128,1.41100592391158,442.86563930529206,21.742812606539417,9.058908710356864,69.29448351483633,-0.1455914230056247,119.844420165262,289.30656556488844,1.274,1.0247996097896497,0.0,5.1395249605506,210.00008998959544,0.0639009122151281,4.58548609907819e-07,-0.0832748903905858,-0.0517527214259801,0.0056202882506182,14.26061073097626,9.534077538281004,19.64339938515541,38.79639202211255
0.63,31.222202823424087,131.01041899551782,9.371631085611275,4.613374003307705,-13.226484923661284,21.857624404500456,2.2263920414540546,1.2987892255076892,286.11251274707456,22.15852834414306,9.238569426118511,69.24667605831263,-0.2235350354676338,119.7610815634138,300.46966290484613,1.274,1.024756158874558,0.0,5.157356023727768,210.00008998959544,0.0651228192138358,4.650149688771677e-07,-0.0868054107764341,-0.0623722097156914,0.0059704692561895,13.994411464986731,9.43422947236228,20.099320408938365,22.009075845722343
0.64,31.222202404081944,131.01041984298763,9.568753318625864,4.618440728216091,-13.134176347518173,21.46308737748887,2.4682301759067764,1.2122259017606456,282.3078244179702,22.291966955925705,9.315412103678677,69.19677299420214,-0.317100261031709,119.66100772178564,304.09365857834854,1.274,1.024708534665538,0.0,5.1752348533550645,210.00008998959544,0.065515134387998,4.672524043504018e-07,-0.0904360299134837,-0.0731952019108132,0.0062575224345961,13.909043371263753,9.421981717288691,20.24687685170949,21.638525171829023
0.65,31.222201985391028,131.01042068715904,9.76415144908157,4.604230768070686,-12.991884278888827,38.11839982095415,2.722538431576735,1.115562113317469,436.7781447787504,22.501554876415515,9.420178217764938,69.14468674980144,-0.4264462468677722,119.54401579288248,309.83287170017724,1.274,1.0246641738210605,0.0,5.193200292534124,210.00008998959544,0.0661312500696601,4.652253135545398e-07,-0.0941167361649119,-0.0840737550581803,0.0065733048579769,13.770376517278017,9.392221028911653,20.47823754870481,38.23178127226352
0.66,31.22220155839588,131.0104215466785,9.963216403259487,4.535514171210818,-12.704706207359216,32.390345204181266,3.016007786967509,0.9881788475952252,383.5125151715984,22.95583216524379,9.6147635618039,69.09035352178718,-0.5514976547024347,119.41017289608342,322.4632404568377,1.274,1.0246195561629028,0.0,5.210706823048423,210.00008998959544,0.0674665059837496,4.589399320671745e-07,-0.0978591700535162,-0.0950408922200294,0.0069725342245772,13.477464688562062,9.298307585859222,20.97649516949225,32.545464551176885
0.67,31.222201119108725,131.01042242999074,10.168344656813904,4.500104941448604,-12.511224361854026,22.23150542767693,3.297924742503726,0.8750883455244075,289.15624401033847,23.24590395861772,9.749422631570628,69.03369747363293,-0.6922175808077833,119.25950419261876,330.6575595111488,1.274,1.024572383541697,0.0,5.228245277668178,210.00008998959544,0.0683191764318266,4.483826305423016e-07,-0.1017045631147124,-0.1062123140165418,0.0073379442666655,13.2837740130854,9.257210568879518,21.296226144879306,22.491818974918854
0.68,31.222200677274543,131.0104233167068,10.373671768557667,4.487065146881492,-12.380756109824675,27.82230309441408,3.5679964716413144,0.7734342155440062,340.89999248584934,23.415732281218634,9.840087824917928,68.97461282963032,-0.8487288558628235,119.09186282763872,335.49998333625814,1.274,1.0245245285832842,0.0,5.246011534252991,210.00008998959544,0.0688184573716001,4.335174798024653e-07,-0.105622339702757,-0.1174985233473933,0.0076761330884256,13.156838606465918,9.254864782375336,21.48606675328889,28.060815183897677
0.69,31.222200231450767,131.0104242098433,10.580070412566691,4.445168936445884,-12.175564612935052,34.31503134870331,3.864157034477421,0.6531190902089014,401.0140726853658,23.716741375894983,9.979213733085317,68.91300614950522,-1.02100698149235,118.90725865316884,344.17430397367394,1.274,1.024479631064582,0.0,5.263491806104718,210.00008998959544,0.0697032805218601,4.143428148636306e-07,-0.1095893227643925,-0.1288331165017864,0.008066657571561,12.950113917116422,9.220834888639535,21.81856999766182,34.53808985157673
0.7,31.22219977620145,131.0104251210402,10.79083088719306,4.38821423193744,-11.933501622356344,28.73976948120273,4.180527179893369,0.5203692950827291,349.270324209851,24.085643865936326,10.14365795692229,68.84879244779042,-1.208916241142656,118.70581971666408,354.95732173358897,1.274,1.0244351749185203,0.0,5.280789728579883,210.00008998959544,0.0707876497934594,3.908723227491552e-07,-0.1136265689734016,-0.1402733942341248,0.0084937549040982,12.703760070930391,9.173399470411896,22.224657187173424,29.046892114953778
0.71,31.222199313067712,131.01042604717617,11.00503519427766,4.351211722000271,-11.74699720823872,23.572953270487623,4.484618107530904,0.3986094864743933,301.3312640634036,24.34159802080228,10.26667354093036,68.78186872479671,-1.4123923999561503,118.48759645799268,362.5340952846458,1.274,1.0243880468141104,0.0,5.2981789650579065,210.00008998959544,0.0715400713249938,3.631030491304367e-07,-0.1177437810704994,-0.1518441432701118,0.0088948719892334,12.516343608502392,9.162883148776364,22.509284056706733,23.999058627073158
0.72,31.22219884604593,131.0104269797028,11.22026615673396,4.320966388538258,-11.5803081595736,28.91807161608752,4.784501348042486,0.2806891441425779,350.7922053414578,24.5492866742142,10.372048391959886,68.71212046827401,-1.6313929485356036,118.2526148931829,368.7393309864488,1.274,1.024337302174265,0.0,5.315530372434082,210.00008998959544,0.0721506444501094,3.310324556387293e-07,-0.1219183810195367,-0.1634813471929645,0.0092886313408674,12.349868895980665,9.171005730762468,22.74261550021009,29.312541778873875
0.73,31.222198373786256,131.0104279215767,11.43735011920594,4.269338137742821,-11.360233516405668,36.6442423317504,5.111021329651905,0.1455808891107921,422.3203185282354,24.86070567974584,10.516151278245673,68.63944153235008,-1.8657671151875743,118.0010160561661,378.1460423119879,1.274,1.024292465384646,0.0,5.33269681362589,210.00008998959544,0.073066087542635,2.946810970645891e-07,-0.1261392273379609,-0.1751531049624094,0.0097319132095914,12.126111719263008,9.15548590611968,23.08791331274308,36.999246328749436
0.74,31.222197892951087,131.01042888028385,11.658345032313116,4.200422748599773,-11.098449079160789,22.83630213607099,5.465019045151677,-0.0060213646565744,294.4828134710563,25.25963278247553,10.693138654721688,68.56372767708845,-2.115304059761131,117.73300441247136,390.3709611656578,1.274,1.0242470321640116,0.0,5.349746405156407,210.00008998959544,0.0742387269896222,2.540780912081296e-07,-0.1304218431506873,-0.1868999975332328,0.0102235743164529,11.857395174669575,9.121226772600671,23.52717414500766,23.48112358194606
0.75,31.22219740345864,131.0104298562602,11.883330652280808,4.171628799327324,-10.941760555096923,26.700182832790624,5.770880140387355,-0.1255678120191099,330.24688556441737,25.41843739416172,10.781007340192083,68.48486007783637,-2.3798375011171924,117.44873549559748,395.28629132384407,1.274,1.0241984712898409,0.0,5.36683575235176,210.00008998959544,0.0747056475537006,2.092408393616552e-07,-0.1347785939338118,-0.1987534261340784,0.0106312854523543,11.700960108346848,9.158975536119708,23.71013747323348,27.317001815253803
0.76,31.22219691356582,131.01043083105847,12.10722496585582,4.119000967131501,-10.726457556403444,28.751973457481952,6.109853696904762,-0.2660876051834059,349.2703242098581,25.701828582643486,10.915616168239676,68.40270696065085,-2.659230615352272,117.14833196067728,404.1408623212232,1.274,1.0241522053390697,0.0,5.383929683227732,210.00008998959544,0.07553873465266,1.60185891735895e-07,-0.1391635301161953,-0.2105885111446544,0.0110993138345062,11.481477088917002,9.167031434086008,24.026745539463693,29.39518825438884
0.77,31.222196414144424,131.0104318253948,12.335689820887664,4.062465736498227,-10.502805091101,26.85347181147331,6.457331297947771,-0.4114370966838871,331.76876669606884,25.99673099729325,11.054908948389444,68.31716129576127,-2.9531536081029515,116.83212279027148,413.4592102442917,1.274,1.0241065975906936,0.0,5.400685144037489,210.00008998959544,0.0764056619547481,1.0696861355756489e-07,-0.1435953892441897,-0.2224542965279965,0.0115839421256038,11.252875806162123,9.17781593534966,24.35617802541741,27.62200854944432
0.78,31.22219590899784,131.01043283089027,12.56639850429612,4.010050351263924,-10.291823207916746,21.990261600127944,6.799977509379535,-0.5535867588921329,286.8734378128874,26.254036226409244,11.180433223620192,68.2281000246022,-3.2613330816309127,116.50037527390596,421.67487868178495,1.274,1.0240588105546735,0.0,5.417526759300143,210.00008998959544,0.0771620954306123,4.9631118103066057e-08,-0.1480725304539912,-0.2343441132330301,0.0120630770049341,11.037606196865015,9.204061821974788,24.6460800160639,23.024286257553126
0.79,31.22219539869665,131.0104338463381,12.799010708674595,3.965255323006624,-10.101394393171228,31.362741746960705,7.128675388248696,-0.6876460572064814,373.6203323159581,26.44940161091058,11.282955173200808,68.13539723362035,-3.583472045103731,116.15338098725488,427.96432630851257,1.274,1.0240083170932772,0.0,5.43427966089451,210.00008998959544,0.0777364893383982,-1.1779429584137912e-08,-0.1525845133569163,-0.2462293873859086,0.0125228773902336,10.844266763900938,9.252874665098298,24.870885440063347,32.17005501670095
0.8,31.22219488422404,131.01043486952446,13.032921020046135,3.893028765857289,-9.844755642473617,31.759360601398075,7.507476723710675,-0.8515603632241393,377.42502064505805,26.80708074507685,11.4470918945735,68.03893035172003,-3.919219938028436,115.79148812796348,439.60756422306895,1.274,1.0239625010683884,0.0,5.4509064333194175,210.00008998959544,0.0787879391978973,-7.720420135194323e-08,-0.157116670535206,-0.258070529498064,0.0130689246790441,10.579480052755049,9.26178389390931,25.268268106152,32.64574011443006
0.81,31.22219436002488,131.01043591401617,13.271698734542223,3.825234938248952,-9.6010127475356,20.54246615425716,7.88050057860614,-1.0119304098158928,273.9374926939922,27.12504500848747,11.59669442561255,67.93858376295852,-4.268159047701135,115.41511631483444,450.0876414018713,1.274,1.0239149950770308,0.0,5.467360449947553,210.00008998959544,0.0797226738146663,-1.465674968515081e-07,-0.1616930469896626,-0.2699281940190781,0.0136088027458755,10.328340316196185,9.287550487244236,25.62396943404472,22.025421862532458
0.82,31.22219383089119,131.01043696857175,13.512328043200986,3.779883380844935,-9.414042824153045,26.454381398644426,8.204492236690337,-1.1445718469271873,328.725004432774,27.276046475085483,11.68327125893812,67.834222988011,-4.629942980315663,115.0246072745752,455.1022272848045,1.274,1.0238644186635044,0.0,5.483910616053737,210.00008998959544,0.0801666968254818,-2.198136529349541e-07,-0.1663020235141919,-0.2817704337451232,0.01407430720388,10.138189220254,9.365010925061224,25.803936637108325,27.721075606109416
0.83,31.222193299732044,131.01043802598383,13.752928925183408,3.711605447546221,-9.172691898031175,33.68091283911001,8.574869457239389,-1.3046049394886308,395.6875032246518,27.56993970372461,11.824568716964066,67.72571892466254,-5.004168777723793,114.62036273926104,464.95156666103406,1.274,1.0238188483711983,0.0,5.500345594101141,210.00008998959544,0.0810306948038292,-2.968772777730854e-07,-0.1709103392745784,-0.2935116298562655,0.0146198254958109,9.889204430549547,9.407767700941132,26.135243544809427,34.77979686445222
0.84,31.22219275965885,131.0104391037455,13.998018546137237,3.6307582937481375,-8.90265518107838,20.63092556517678,8.975257137126793,-1.4819945187037256,275.45937482564227,27.942039140729136,11.996279807361878,67.61296395659022,-5.390307462486699,114.20291975292577,477.57551675937873,1.274,1.0237739661568126,0.0,5.516540808241972,210.00008998959544,0.0821245577973947,-3.776545561192433e-07,-0.1755377688832068,-0.3052005534370272,0.015217961643894,9.609026349724571,9.434346975324225,26.5492336122981,22.54743085379969
0.85,31.222192212395303,131.01044019806707,14.24654821158515,3.578909048713088,-8.703904530220749,22.498184776114964,9.299739162370962,-1.6177153958634232,292.9609323393965,28.08617441260672,12.081089867123213,67.49583584398349,-5.787887189556835,113.77275294201786,482.5037271342103,1.274,1.0237227741398531,0.0,5.53280129706515,210.00008998959544,0.0825484178125432,-4.620567654399269e-07,-0.180192192367059,-0.3168547460454754,0.0157016758249701,9.405734306336171,9.530320674119263,26.72422076832475,24.398165295988157
0.86,31.22219166476803,131.01044129123707,14.49399362522958,3.5124214366025788,-8.471561996542698,28.23644449251791,9.655248846390505,-1.7720286867259876,346.2265619465616,28.322805426138963,12.201758056853436,67.37420587230817,-6.196449934511688,113.33032120551827,490.65667665394585,1.274,1.023674789281455,0.0,5.5490486019682495,210.00008998959544,0.083244135311884,-5.50012919105208e-07,-0.1848302433369005,-0.3283652280289146,0.0162411371129554,9.165937506297922,9.605312650490996,26.996938854305863,29.89415851853586
0.87,31.22219110960924,131.01044240230834,14.745172905199317,3.434221201426091,-8.212576845387588,26.21843998398488,10.03916371494244,-1.9430933115781608,327.9640783669946,28.635756980695632,12.352389438045316,67.24797640586561,-6.615387264510424,112.87624574849131,501.547460102403,1.274,1.0236288969245204,0.0,5.564976277551136,210.00008998959544,0.0841641761277159,-6.413991107647885e-07,-0.1894623032080126,-0.3397568265859374,0.016831705868302,8.897156500770107,9.664279354838996,27.3501412397668,28.141908515712533
0.88,31.222190548068383,131.01044352883866,14.999400338653947,3.361429874776088,-7.967992972762706,22.54719462396328,10.402329745361,-2.103944490239736,294.4828134710421,28.891173728043928,12.48128451581835,67.11704339742005,-7.044119604353585,112.41111624416448,510.5220066275973,1.274,1.0235805388426191,0.0,5.5809169392339,210.00008998959544,0.0849151223950385,-7.360976183253269e-07,-0.1940952892209278,-0.351044259567417,0.0173966742015226,8.64379375445518,9.74484546080281,27.643594737901434,24.92009293642604
0.89,31.2221899825789,131.01044466439615,15.255048263815276,3.291890152581028,-7.73230990784593,24.73130501557938,10.747210532468578,-2.2563239978171485,315.02813424808807,29.102806454738143,12.593612756638668,66.98129901143548,-7.4820826335647395,111.935505545355,518.0160019317755,1.274,1.0235293752791452,0.0,5.596824926241555,210.00008998959544,0.0855373867305497,-8.340029030233646e-07,-0.1987140416852478,-0.3621894258582184,0.0179406764768192,8.399956871917198,9.843216181360988,27.89190151183893,27.059766813222005
0.9,31.222189412843928,131.0104458099578,15.512344608013867,3.214327511581081,-7.479255282200061,27.323468386246887,11.110146634491477,-2.420037038335757,339.3781423542166,29.3656796367846,12.726401578154714,66.84064839477702,-7.928661198906362,111.450041547561,527.4032664943364,1.274,1.0234837388140003,0.0,5.612599178406723,210.00008998959544,0.0863102598571419,-9.349955418106352e-07,-0.203305914507399,-0.3731607747934285,0.0185205860632917,8.137100000927063,9.932019219220557,28.19417467884293,29.594997248877252
0.91,31.222188837201767,131.01044697073053,15.772518899055612,3.13179271825616,-7.216185344710831,20.582194894885404,11.48310053821678,-2.5906787034291336,277.7421810230785,29.656991307804503,12.870910377353562,66.6950088498165,-8.383201170781115,110.95539463701316,537.9055564696747,1.274,1.023436404813438,0.0,5.6282560001537245,210.00008998959544,0.0871667256484234,-1.038936156550015e-06,-0.2078729605068869,-0.383961713112707,0.0191240070584057,7.863175634111695,10.017706736046229,28.526469910252835,23.710756225946113
0.92,31.222188256191856,131.01044814565847,16.03526429432308,3.059711489869402,-6.978056633010976,24.57378860886587,11.806448977608312,-2.736562586936472,315.0281342480675,29.836119567057303,12.9718364692879,66.54429944454475,-8.845055524434374,110.45222779270712,544.4093429152784,1.274,1.0233859136578225,0.0,5.643870763223142,210.00008998959544,0.0876934727340285,-1.145686524384355e-06,-0.2124132606458823,-0.394586012928729,0.0196592438635027,7.616348645772865,10.14137013835042,28.74271672045089,27.399855817984054
0.93,31.22218767282865,131.01044932580052,16.29842696396576,2.975729007338236,-6.714372136621065,29.30419387521856,12.165044359865524,-2.90313115028905,359.16250706547066,30.108768785152023,13.110165932563676,66.38844441622463,-9.31357367353059,109.94120831349215,554.3906651042205,1.274,1.0233407575091376,0.0,5.659424542035641,210.00008998959544,0.0884950983132713,-1.2551221798499444e-06,-0.2169036717836128,-0.4049783735625807,0.0202577762364392,7.341469662173936,10.24227718057954,29.056490032111416,31.861454038221037
0.94,31.22218708289697,131.0104505246206,16.565160603845452,2.884969529054264,-6.436910499437065,20.976339403870146,12.543001652684351,-3.0818114924215725,283.06875048378083,30.43285973155619,13.269590671075226,66.22739041127227,-9.788044937286063,109.42306976599428,566.3753181352827,1.274,1.0232914783978162,0.0,5.674791934993294,210.00008998959544,0.0894479292181349,-1.3670753823464683e-06,-0.2213517747040637,-0.4151550454385802,0.0208951992402917,7.051369668770948,10.332886056937676,29.42387779548033,24.633945427406047
0.95,31.22218648747323,131.0104517394992,16.834779204554,2.807004116661515,-6.188981907347713,27.356743660089883,12.851458481777176,-3.2257772670396325,342.421873617488,30.61046668423568,13.371307768475862,66.06108331753282,-10.267787896046528,108.89851477263672,572.9905330949027,1.274,1.0232418269359267,0.0,5.690158844233022,210.00008998959544,0.0899702233360998,-1.4813862912183137e-06,-0.225758122651838,-0.4251151363086216,0.0214349677371042,6.793533360267225,10.472135677193426,29.640193095758093,30.396661786605122
0.96,31.22218589036673,131.01045295809942,17.10441242246746,2.7142177457564567,-5.910087570208153,26.705410154571755,13.215926675772872,-3.401442795479852,337.09533515678265,30.925325899203514,13.528478196638885,65.8894739746824,-10.752130533817567,108.36823676474428,584.8235715367364,1.274,1.0231951201821403,0.0,5.705484108995572,210.00008998959544,0.0908959334536583,-1.5979247176549928e-06,-0.2300950462147945,-0.4347948377513269,0.0220708879446148,6.501535382726717,10.574476612873909,29.998616924302745,29.990156093528938
0.97,31.222185285953785,131.0104541998642,17.378479504453264,2.6237575112414726,-5.6374167898437495,16.623478476157935,13.556603082478444,-3.5667885141255287,245.0218871929888,31.19976734175512,13.67018862711558,65.7125413556617,-11.240340165121887,107.83299700824936,595.2337916395537,1.274,1.0231476260761452,0.0,5.720606362713701,210.00008998959544,0.0917028572325787,-1.7164954606952053e-06,-0.2343746714196923,-0.4442197623138522,0.0226803030109638,6.216296272949317,10.693873242622743,30.315672066560158,21.744965028430098
0.98,31.22218467816272,131.01045545199474,17.65400929264635,2.544362989116999,-5.389446485607008,24.65316458223982,13.8207561571169,-3.6943707833659007,319.593746642963,31.328134397864822,13.753480767499894,65.53026136864248,-11.731729901518763,107.29350828952543,600.1259983798506,1.274,1.0230935628253934,0.0,5.735775394933964,210.00008998959544,0.0920804420124421,-1.8369399657775527e-06,-0.2385840287801694,-0.4533589921727601,0.0231820175118217,5.958255567648107,10.86245251924814,30.48280997740256,28.503336649565718
0.99,31.222184068910327,131.01045670753174,17.929450656257693,2.4488529344199583,-5.10863832376416,26.968906936547675,14.157342055391988,-3.862420827270512,341.66094855170127,31.62735789626169,13.90660608300381,65.34262741239617,-12.225595431934629,106.75050439292636,611.6284977741101,1.274,1.0230490803133316,0.0,5.7508251702411,210.00008998959544,0.0929602161697445,-1.959112686045217e-06,-0.2426974428163347,-0.4621558101847076,0.0238063027964768,5.663847119938588,10.982257916369312,30.825957700734893,30.70294073981307
1.0,31.222183452680948,131.01045798757502,18.209430431497573,2.352554579658744,-4.827444106791469,23.904025853341867,14.484297426900037,-4.027950452424736,314.2672081822764,31.922262348382336,14.058847823221644,65.1496615602924,-12.721191022894644,106.20476696468616,623.0709927355524,1.274,1.022999484445133,0.0,5.765674560141145,210.00008998959544,0.0938273058727174,-2.0827890926850417e-06,-0.2467297823554882,-0.4706403445894927,0.024426846294939,5.36895015051208,11.107550061995129,31.1648660537031,28.23865628522944
1.01,31.22218283293063,131.0104592800379,18.491216370120608,2.259282355402157,-4.553968282665407,24.97482594523616,14.774659284199142,-4.176967168587007,324.92031610370094,32.16099144020037,14.188852111675825,64.95138183130967,-13.21782764656962,105.65701782453894,632.407936403672,1.274,1.0229507481225095,0.0,5.780575239530349,210.00008998959544,0.0945292893907746,-2.2077876933384536e-06,-0.2506728542019592,-0.478792660856024,0.0250021376838394,5.082541645074349,11.254208002338684,31.446408707871875,29.316881530723332
1.02,31.222182210032983,131.01046058367862,18.77452451104353,2.162302057372113,-4.274310402613776,20.494390333024526,15.070956148514528,-4.331835639140928,284.59063161543185,32.432064161736164,14.3329084086436,64.74782126112,-13.714818955016485,105.107978542793,643.0960151069771,1.274,1.0229039803623294,0.0,5.795379839526086,210.00008998959544,0.0953263454228237,-2.3339346143711243e-06,-0.2545122847482266,-0.4865813091763397,0.025598347540432,4.789217262146103,11.39432939520621,31.76127964164927,25.805397775607887
1.03,31.222181582698823,131.01046190440871,19.060579487947816,2.0690125034029463,-4.003031232870446,16.34279467810038,15.320082317333917,-4.464897629442751,247.3046933904342,32.63195672389946,14.448254031222415,64.53903338604661,-14.21147217666898,104.5583808164294,651.0299051576513,1.274,1.022853416101322,0.0,5.810075354837942,210.00008998959544,0.0959141916926199,-2.461027400108155e-06,-0.2582441664391501,-0.4939961412685632,0.0261330617934523,4.505341679882399,11.560827459117837,32.00367347600045,22.841347835489852
1.04,31.22218095308648,131.01046323365375,19.347527822454907,1.976874531122228,-3.7349300467523054,26.933908548085444,15.53645811363484,-4.583757458152172,345.4656368807608,32.79321804618198,14.548114144087045,64.32508395093222,-14.70711289870713,104.00893936503124,657.4622323838448,1.274,1.0228049544826707,0.0,5.824726727226893,210.00008998959544,0.096388494647607,-2.588888492136969e-06,-0.2618534204999999,-0.5010049921497495,0.0266285168629353,4.22518613328731,11.74315998013108,32.20695201784474,31.429727851645893
1.05,31.222180320904908,131.0104645729598,19.635678274765176,1.8722831382770275,-3.4445713618101568,15.399120568589952,15.833313273690912,-4.747737176237638,240.4562587980608,33.13471048788463,14.724142792814495,64.1060605425761,-15.20106486456091,103.46037457943252,671.2079286465894,1.274,1.022755494436122,0.0,5.8392401705356045,210.00008998959544,0.0973925536817802,-2.71732668761437e-06,-0.2653294328417191,-0.5075856625269141,0.0272622238685151,3.919986153921285,11.869350766007765,32.59396435817792,22.591319833144674
1.06,31.22217968286393,131.01046593873588,19.928344430575184,1.7801418161564884,-3.178261728238211,22.67828665003953,15.999627210934728,-4.846491439585559,308.1796836557233,33.25197483237668,14.806758794771016,63.88206911897148,-15.692662934926975,102.91339848387302,675.9481687339209,1.274,1.0227013895379469,0.0,5.853634562645872,210.00008998959544,0.0977375504733116,-2.846082662438695e-06,-0.2686829843769498,-0.5137556647744013,0.0277037187555877,3.6423895087741385,12.072464761232014,32.75299063903045,28.174123509777907
1.07,31.222179045398768,131.01046730072665,20.219317632483587,1.6773748542846032,-2.8942592468462447,26.9699217299463,16.23941233237426,-4.986884491744298,348.5093681440431,33.53688995110415,14.96088837491067,63.65321610933946,-16.181292444906752,102.36867105873468,687.5621229794672,1.274,1.0226540159946436,0.0,5.868075906373784,210.00008998959544,0.0985753253146062,-2.9750229842174933e-06,-0.2718856159395651,-0.5194601511117501,0.0282733548215564,3.344836214697626,12.221852601124104,33.08245409326792,31.87419344790231
1.08,31.2221784023352,131.01046869008576,20.514866484734508,1.5725177112296482,-2.608039431214125,17.330163138763506,16.48039389347609,-5.131275478045117,261.0015785751465,33.850903555320265,15.128500804085826,63.41964137497159,-16.66632122060699,101.82687615262692,700.4781213002159,1.274,1.0226061614050743,0.0,5.882258938048133,210.00008998959544,0.0994986405539286,-3.103883519299202e-06,-0.2749456846293423,-0.5247118413323291,0.028858461264046,3.0451557337519577,12.363789700509113,33.44137513527435,24.459516048603017
1.09,31.222177756225072,131.01047009544703,20.812621698841177,1.4750312473195597,-2.335717197422312,15.653169418884197,16.61745880630863,-5.224385968550536,246.54375332456465,34.00033325430208,15.226596451560548,63.181487361936966,-17.14716503630181,101.2886486762566,706.6558710597933,1.274,1.0225512795791307,0.0,5.896492739025496,210.00008998959544,0.099938198050088,-3.2324461303456534e-06,-0.2778576151350254,-0.529496642858233,0.0292920019913843,2.7622611339372494,12.563438746788751,33.63354126760153,23.419134458473128
1.1,31.222177109447617,131.01047150382504,21.110028833143726,1.3754162072215943,-2.060988208728302,33.72147398259265,16.75025542212088,-5.318557738903806,413.1890617384087,34.17392084019995,15.33567265291612,62.93891085429433,-17.623262246896036,100.75460294882753,713.8695150207008,1.274,1.0224981043155532,0.0,5.9106615960078335,210.00008998959544,0.1004487663458258,-3.3605589104331785e-06,-0.2806012228910886,-0.533778847024088,0.029731412335038,2.4776250943434377,12.756661231373844,33.85025138008293,38.026253045587026
1.11,31.222176459805425,131.010472928068,21.40957491384232,1.2634314156123532,-1.7691889960523253,23.90497382326077,17.018221411225905,-5.487788009766624,324.1593910379213,34.62777882575303,15.56720541321838,62.692094748297016,-18.0940567025226,100.22535206254844,732.9358972884487,1.274,1.0224548851875197,0.0,5.924646984841172,210.00008998959544,0.1017831532372107,-3.4880021507251897e-06,-0.2831723777984265,-0.5375495133686606,0.0304014430774546,2.173886214400719,12.854096399604224,34.34991942773443,29.85269587043068
1.12,31.22217580427284,131.01047438899718,21.715136379245443,1.1607590666738117,-1.4930374824792831,7.285601642868995,17.140236741781973,-5.583612310193093,172.7328179403806,34.84545622026175,15.697303668001387,62.44123471675628,-18.559022366408108,99.70148043572988,742.1578522177193,1.274,1.0223979224661404,0.0,5.938569304009532,210.00008998959544,0.1024233363939063,-3.614458540681905e-06,-0.2855820633037133,-0.5408182452934815,0.0308519779454234,1.891088982949327,13.034853247164888,34.61095698214907,19.4433647626497
1.13,31.22217514907056,131.0104758484665,22.019424515229776,1.064412002048526,-1.2264991943334933,28.44309797411319,17.134138742556495,-5.614793669228536,367.5328077894322,34.86420747939852,15.74071457672735,62.186527261141286,-19.01767686983828,99.18352845149003,742.9351025008707,1.274,1.0223460397860296,0.0,5.9526063319707605,210.00008998959544,0.1024788049743715,-3.7398078369224e-06,-0.2878070152985672,-0.5435480473026402,0.0311081661755005,1.6239150587964262,13.286618192195355,34.67156414994449,33.6766156369993
1.14,31.22217449364248,131.0104773085561,22.32290086340285,0.9542473629072854,-0.9444944756582688,14.386940849001531,17.328435571173618,-5.756462846932896,239.6953177322812,35.284292653395646,15.961833034005492,61.928196647516366,-19.469544678982988,98.67203405408208,760.924303447548,1.274,1.0223022138470996,0.0,5.966424294852886,210.00008998959544,0.1037139459003581,-3.863921715705533e-06,-0.2898308151353639,-0.5457177335309132,0.0317034519315629,1.3426002234765415,13.396282572298846,35.13593852726296,23.246410708862193
1.15,31.222173831936235,131.0104788146025,22.633849292443937,0.8537275321626298,-0.6750119477415907,14.043373115896182,17.329622523606808,-5.798859919472667,237.4125115347709,35.38896576391063,16.04433697511704,61.666488307438,-19.914172349903588,98.16751571007032,765.4227998685376,1.274,1.0222426194541194,0.0,5.980050724469086,210.00008998959544,0.1040219849563982,-3.986425659078821e-06,-0.2916676877790334,-0.5473346463475894,0.0319980708790978,1.088328124868427,13.61901805071788,35.282937587863266,23.046885291697066
1.16,31.22217317210916,131.01048030774393,22.941434377727788,0.7509242595120257,-0.4051166781509394,41.53467826856384,17.346517798781733,-5.853248533801967,490.043774385954,35.559841692207875,16.156930983885324,61.401646408081376,-20.35114587403537,97.67045262086478,772.809514159689,1.274,1.02219674531104,0.0,5.993855120718059,210.00008998959544,0.1045246188157887,-4.107245219070625e-06,-0.2932970417984422,-0.5483757488354114,0.0323312337411741,0.8532276187342351,13.817523513932358,35.49620664343958,45.390436184454266
