Time,Latitude,Longitude,Altitude,Angle of Attack,Angle of Sideslip,X-Acceleration,Y-Acceleration,Z-Acceleration,Thrust,True Velocity,Ground Velocity,Pitch,Roll,Yaw,Dynamic Pressure,cp,parachute_deploy_gain,Wind Speed,Mach,omega_x,omega_y,omega_z,Cmq,Angle of Attack(total),Angle of Attack(gust),True Velocity(gust),Acceleration
0.0,31.222186000000004,131.010384,3.000000003643237,0.0,0.0,0.0,0.0,0.0,2.2828121974499247,0.0,0.0,69.99999999623421,0.0,113.69999999388332,0.0,15.288,0.0,0.0,0.0,0.0,0.0,0.0,-0.0,0.0,90.0,0.0,0.0
0.01,31.22218600000153,131.01038399999584,2.99999882256592,0.0,0.0,0.0,0.0,0.0,34.24218696174923,7.502283530665459e-11,7.190531319924593e-11,69.99999999623329,-4.83564628150269e-13,113.69999999388072,3.446445726795683e-21,15.288,0.0,0.0,2.204725565824978e-13,-3.659182332138578e-19,7.589415207398531e-19,4.811147140404426e-19,-1.5108918610345807e-31,0.0,89.9999999995224,7.502283530665459e-11,0.0
0.02,31.22218600000288,131.01038399999217,2.999997775701936,0.0,0.0,0.0,0.0,0.0,25.871876237766408,1.5320717031631675e-10,1.4674636035870463e-10,69.99999999623222,-9.67129256300373e-13,113.69999999387804,1.4372842949972735e-20,15.288,0.0,0.0,4.5023593667086093e-13,-7.284483346386986e-19,1.5178830414797062e-18,9.757819552369542e-19,-6.170906918166791e-31,0.0,89.99999999902465,1.5320717031631675e-10,0.0
0.03,31.22218599928065,131.01038400193067,3.000201659671132,18.81500467334555,-0.00012974450181,11.96616230539064,-1.8916256735984712e-05,3.349833086198469,180.34219359854663,0.0882870268161719,0.0553390044312322,69.99999999799445,-4.212591857125379e-12,113.69999999488518,0.0047728553458352,15.288,0.0,0.0,0.0002594525584132,3.2187251995663407e-17,-7.20264389268894e-10,1.2365134327422308e-11,1.6874092354518158e-13,18.815004673776716,89.46786891739345,0.0882666465974854,12.426199017587786
0.04,31.22218599548236,131.0103840121632,3.001799604587872,9.46752327608497,-4.6177622759613696e-05,55.21900012092241,3.931876292165237e-06,3.349616504302861,548.6359724538078,0.3767519978512604,0.1853356633749705,70.00000000507204,-2.4624598767003407e-11,113.70000000019972,0.086915163246288,15.288,0.0,0.0,0.0011071759353184,1.6174128009138757e-15,-1.3693172015529268e-08,2.7753303060112748e-11,1.3689612277852356e-11,9.467523276196548,87.63554493451223,0.3767447442872393,55.32050167054111
0.05,31.222185984749512,131.01038404118162,3.00777936418888,5.376730308971262,-2.257790939128127e-06,80.28807156553681,5.266841443842784e-05,3.348887800834877,761.6984298824644,1.018787885905993,0.4366201147110198,70.00000000894464,-1.1355399380652658e-10,113.70000001523856,0.635552918586145,15.288,0.0,0.0,0.0029939522895272,1.6418815498809788e-14,-9.32122351075408e-08,4.303264669380585e-11,2.5199270302492604e-10,5.3767303089717045,83.57022052969386,1.0187875312530217,80.35788377762394
0.06,31.22218596447235,131.01038409608267,3.0201664202003013,4.296730121134882,2.4863835723705905e-05,60.21296515808257,0.0001057204249726,3.347700952379021,590.4875390737208,1.721098934225416,0.7081674028809783,69.99999995523842,-3.0560354507026086e-10,113.70000004366592,1.8138247671743823,15.288,0.0,0.0,0.0050578622752421,8.328976953118383e-14,-3.2824985336199985e-07,5.923438275930214e-11,1.4991363363716091e-09,4.296730121206683,79.20467073327266,1.7211028398275985,60.305955550063224
0.07,31.22218593493329,131.01038417609837,3.038741944736831,3.8204913578752526,4.8016684030909405e-05,91.4060317508128,0.0001597686613101,3.346072557365335,855.2937749779139,2.4375792548422868,0.9844712334613328,69.99999973536046,-5.939103491363046e-10,113.7000000850886,3.6383156301599167,15.288,0.0,0.0,0.007163413150771,2.709313825263564e-13,-7.906546256197275e-07,7.920022733617308e-11,5.114174483651565e-09,3.820491358176508,74.87999294483174,2.437586797285377,91.46725557277466
0.08,31.222185894468456,131.01038428575305,3.0647976109320942,3.588632851766762,7.220043782492885e-05,19.18449428359557,0.0002119618497595,3.3440615022685813,241.2171988638848,3.1292508166901074,1.2522236515868983,69.99999919480445,-9.914748373602156e-10,113.7000001418522,5.996012698481753,15.288,0.0,0.0,0.0091960591623389,6.80386533246681e-13,-1.5973238302190878e-06,1.0839624626357699e-10,1.3263625118823921e-08,3.58863285249208,70.86684630658345,3.1292621579083604,19.473766155861934
0.09,31.22218584634549,131.01038441616095,3.0957981580345013,3.551302481506045,9.685468678862004e-05,57.102946699906326,0.0002554087225869,3.341892818148368,563.0937377043176,3.701810007254615,1.479132491047967,69.99999812344194,-1.4359264356978275e-09,113.7000002093888,8.390904013834115,15.288,0.0,0.0,0.010878666406854,1.440096519545733e-12,-2.748643691533636e-06,1.5214952332699618e-10,2.6999776649034504e-08,3.5513024828250237,67.68737872952666,3.701825221153239,57.20065357568538
0.1,31.222185790329306,131.01038456796124,3.1319266121977414,3.608446747536112,0.0001234669721807,54.26147302645416,0.0002914860332524,3.3396271157106168,538.7437595981919,4.174070299823608,1.6716491241860567,69.9999963052332,-1.902380107712657e-09,113.70000028805804,10.668380938744466,15.288,0.0,0.0,0.0122665227999911,2.687800116751415e-12,-4.315796035622946e-06,2.1749089204950437e-10,4.7802076800548326e-08,3.608446749645647,65.17160335282355,4.174089693970246,54.36414778470795
0.11,31.222185727066616,131.0103847393952,3.172681775073216,3.633547373470009,0.0001485939126744,42.987553988990406,0.0003293995000288,3.337005588796181,442.8656393052949,4.672024955140527,1.8729475711242067,69.99999349387662,-2.3433348587116544e-09,113.70000037699285,13.365573690709628,15.288,0.0,0.0,0.0137298902182575,4.5789425819531184e-12,-6.340230783164189e-06,3.1157625832417107e-10,7.860218435507205e-08,3.6335473765043056,62.62546922225161,4.672048296217748,43.116880735560244
0.12,31.22218565692512,131.0103849294629,3.2177790417108385,3.650108937861461,0.0001727442530266,46.86777100765684,0.000367618259785,3.334068179146888,475.58594813540446,5.17479364099247,2.0758708919414386,69.99998941286465,-2.702771525550512e-09,113.70000047573096,16.396890189902592,15.288,0.0,0.0,0.0152074069417046,7.288473386564583e-12,-8.86736416607888e-06,4.42271554299792e-10,1.217615295152289e-07,3.6501089419435786,60.16906436414164,5.174820775596283,46.986210423745625
0.13,31.222185580265183,131.0103851371844,3.2669395832841857,3.7280113734654137,0.0001995014041665,51.64515456841877,0.0003986198234033,3.3311573548369657,515.9156326236895,5.579364582999854,2.2451120211463422,69.99998375846928,-2.9114380666036422e-09,113.70000058383452,19.060875702782603,15.288,0.0,0.0,0.0163963474924215,1.100846422415094e-11,-1.1941028436408576e-05,6.179653149059831e-10,1.7678562106638216e-07,3.728011378795934,58.279338776943774,5.579395920607139,51.75247433579817
0.14,31.22218549718016,131.01038536230575,3.320091807147376,3.768719651034081,0.0002242721760019,48.1660778383537,0.0004326225136175,3.32784677779744,486.2390860568404,6.025734265159953,2.428648685938864,69.99997621008868,-2.890941335368725e-09,113.70000070125378,22.232643351545065,15.288,0.0,0.0,0.0177081261985351,1.5941871344608664e-11,-1.560901486259027e-05,8.477542742712431e-10,2.495765160917323e-07,3.7687196576976176,56.27980129251342,6.025769493750979,48.280903250602165
0.15,31.22218540777004,131.01038560455507,3.377159065217065,3.821894709649632,0.000249725644238,46.56959330999435,0.0004643042952466,3.324387732286376,472.54218587214,6.441023336496372,2.6014999612196745,69.99996641132823,-2.546763407193136e-09,113.70000082794672,25.402620271850456,15.288,0.0,0.0,0.0189285691155931,2.2314099732464315e-11,-1.992367942778425e-05,1.1417519574710292e-09,3.4051816697623295e-07,3.821894717796148,54.501255563441134,6.441062563308839,46.68809885900716
0.16,31.22218531193176,131.01038586421257,3.4382223512025254,3.8463320955387794,0.0002733212404609,36.974247749122085,0.0004987816203583,3.3205066466509234,391.1218908297564,6.895451966878468,2.7877331692857847,69.99995397923414,-1.77088415515292e-09,113.70000096417354,29.113317717489338,15.288,0.0,0.0,0.0202640360420561,3.0367358387834494e-11,-2.4945905791363795e-05,1.5114297685186711e-09,4.5643121540033697e-07,3.846332105235269,52.641145594326446,6.895494900078523,37.12304892183151
0.17,31.222185210004127,131.010386140357,3.503019838429153,3.8860314262554336,0.000297865039677,46.520531453299206,0.0005306403365217,3.31650761597812,471.78125980632376,7.314788342774694,2.9619016331667103,69.99993849340957,-4.3039914767238207e-10,113.70000110959404,32.761746921137856,15.288,0.0,0.0,0.0214963781445172,4.0366633128431416e-11,-3.0713078585132897e-05,1.96747427715988e-09,5.961228045584824e-07,3.886031437653654,51.00464968745696,7.314835131305714,46.63860064094784
0.18,31.22218510147516,131.01038643438045,3.571950002194137,3.9107265153396016,0.0003214293682635,38.895647526122765,0.0005639254295027,3.312149448254175,407.10156721191447,7.754626295791602,3.1430587898572058,69.9999195084231,1.6149322372810674e-09,113.70000126508234,36.81988229018681,15.288,0.0,0.0,0.0227889722876034,5.2593391349219385e-11,-3.731786027786564e-05,2.525509173087448e-09,7.6786585232224e-07,3.9107265285284982,49.36615848311875,7.754676785798701,39.036415444581515
0.19,31.222184986476247,131.0103867459258,3.644912152926752,3.920599115663931,0.0003437679584038,43.86258669386953,0.0005989384366483,3.307389681300437,448.9531328318269,8.219206165926856,3.332657190859447,69.99989653019398,4.538529095696477e-09,113.70000143063515,41.36350714675367,15.288,0.0,0.0,0.02415428010977,6.735860419174937e-11,-4.481243905342629e-05,3.199401151670645e-09,9.773118416308382e-07,3.92059913071168,47.71893898797248,8.21926016487149,43.987104227715655
0.2,31.222184864792144,131.01038707557822,3.722074668489528,3.943376465171875,0.000367328732016,40.28070981710589,0.0006315894240138,3.30251450988504,418.51563019916136,8.65238089736321,3.511445117640573,69.99986902534273,8.534090245934178e-09,113.7000016067622,45.83799876721736,15.288,0.0,0.0,0.025427299120469,8.499785987217288e-11,-5.328041996372527e-05,4.006766070954748e-09,1.2232205148646746e-06,3.9433764822533854,46.2587826635041,8.652438597225508,40.41586552155969
0.21,31.22218473678744,131.01038742234647,3.803156063113743,3.9664546506877016,0.000390962054969,38.67679184347145,0.0006636984664108,3.297405915846789,404.8187610144644,9.079179692250786,3.688002035198235,69.99983642883521,1.3827831253856693e-08,113.70000179318536,50.47126980736161,15.288,0.0,0.0,0.0266815841422463,1.0586558589671407e-10,-6.275155280099118e-05,4.961340042512481e-09,1.5117124669161171e-06,3.9664546699249135,44.88773728276958,9.079241104426773,38.817098210937615
0.22,31.2221846022986,131.01038778667507,3.8882846911135607,3.956175711337521,0.0004112685792646,46.713636108302936,0.0007011135033803,3.291572407481395,472.5421858721365,9.580256326712124,3.889976788904857,69.99979815126248,2.0662823443484168e-08,113.70000199039316,56.195522894218605,15.288,0.0,0.0,0.0281541581291438,1.3033127211465288e-10,-7.330053770532661e-05,6.0817207473359025e-09,1.8632831045819008e-06,3.956175732680424,43.35679625546934,9.580320928629488,46.8294591882524
0.23,31.222184460898035,131.01038816972698,3.977794004014759,3.9879066397329104,0.0004360962274406,38.89105719050748,0.0007308686121188,3.286096544282012,406.3406421461021,9.977039034039262,4.056142701351626,69.99975353557706,2.9316661139418326e-08,113.70000219928508,60.9462612310605,15.288,0.0,0.0,0.0293202403623685,1.5880617816859538e-10,-8.505067486192354e-05,7.393319440773217e-09,2.2514912291167663e-06,3.987906663538912,42.20670487756048,9.97710753587448,39.0296395118868
0.24,31.222184313516166,131.01038856897196,4.070963590490852,4.003523997322975,0.000459165577055,40.0792299321398,0.0007630441688766,3.280134925833028,416.2328240017114,10.408422364424831,4.234121060914368,69.99970190737699,4.010976417051318e-08,113.70000241888,66.32994780718496,15.288,0.0,0.0,0.030588009649109,1.91711512587616e-10,-9.795845222523724e-05,8.904557280909524e-09,2.7052895870113487e-06,4.003524023611085,41.011349410369874,10.408494489985014,40.21323112692186
0.25,31.22218416001652,131.01038898478134,4.167901030441617,4.0261356185860135,0.0004830526730531,41.17760020658354,0.0007934613160587,3.2740610008587527,425.36408079150686,10.816813039390448,4.4041629376391525,69.99964258149416,5.3372865854010094e-08,113.70000264972064,71.63651430352668,15.288,0.0,0.0,0.0317882126436337,2.2947426169209347e-10,-0.0001121037688082,1.0637152702866709e-08,3.217380562698304e-06,4.026135647516394,39.93186687113378,10.816888917126896,41.30755663120434
0.26,31.222184000702686,131.0103894163294,4.26837241014618,4.053359329950934,0.000507503069958,44.80261175215926,0.0008224724146494,3.2678597736729302,455.8015834241788,11.207047269494833,4.567925492611352,69.99957484039399,6.947299261165984e-08,113.70000289176392,76.89781807056055,15.288,0.0,0.0,0.0329350617559806,2.7254099134167665e-10,-0.0001275114371842,1.260720913253598e-08,3.7915697709142366e-06,4.053359361668992,38.945390435244384,11.207126987890645,44.921630958721536
0.27,31.22218383516388,131.01038986473338,4.372698316214008,4.0614460923241,0.0005296455772492,41.029837477288126,0.0008548809954683,3.2610328932384265,423.84219965987256,11.645685385842508,4.748226940060522,69.99949794024376,8.879821051920497e-08,113.70000314600205,83.0342688744587,15.288,0.0,0.0,0.0342241635563461,3.2137296827284217e-10,-0.0001442952656441,1.4842505534226832e-08,4.458527942364847e-06,4.061446126801262,37.8838346421185,11.645768582375233,41.15922617924542
0.28,31.222183663504484,131.01039032970942,4.48079961904222,4.081133040992532,0.0005533279247169,47.27661484082626,0.0008845140695959,3.254218495915602,476.3468732012221,12.047344998676092,4.915789434712848,69.99941106884992,1.1178948978424788e-07,113.70000341275257,88.85982357848233,15.288,0.0,0.0,0.0354045979054623,3.764736350660473e-10,-0.0001625146963723,1.7365685655384934e-08,5.194620655212288e-06,4.081133078439725,36.956255322213885,12.047431915223257,47.38848224631549
0.29,31.22218348566054,131.0103908114315,4.592727908358551,4.1001100265020245,0.0005770279952742,37.989969791857405,0.0009138463939581,3.247164755122801,397.97031042211177,12.446314684600782,5.082367374004485,69.99931338876085,1.3891902435864665e-07,113.70000369260468,94.8417675268915,15.288,0.0,0.0,0.0365771315767517,4.3836067907166327e-10,-0.0001822432988888,2.0202163500922312e-08,6.018074062137429e-06,4.100110067036654,36.07377590258778,12.446405323946324,38.12849176886316
0.3,31.222183301933686,131.01039130907952,4.708251093558373,4.112858061667493,0.0005998635114143,35.655053282557844,0.000944131403186,3.2397207148238625,378.1859457108711,12.860033399289696,5.253940723820665,69.99920403105713,1.707002607527005e-07,113.7000039856728,101.2505662360602,15.288,0.0,0.0,0.03779301412572,5.075709863465428e-10,-0.0002035013069687,2.3370674033523645e-08,6.94335970778e-06,4.112858105337573,35.19685285507256,12.860127625629724,35.80193592228613
0.31,31.222183112488807,131.0103918222051,4.827243246502713,4.136140889545823,0.0006242383343011,37.56633644061071,0.0009716215464757,3.232339252743767,394.1656220930212,13.2364445751808,5.4126574282679245,69.99908210036875,2.0768081583188525e-07,113.7000042923011,107.26326115439352,15.288,0.0,0.0,0.0388992619788015,5.846561731689753e-10,-0.0002263323252403,2.6893437641668458e-08,7.948283231812338e-06,4.1361409365698805,34.43286455705216,13.236542630309057,37.70514091683033
0.32,31.22218291741533,131.01039235056504,4.949637017503345,4.1622282001352975,0.0006491019906456,40.83513712643371,0.0009979686925508,3.224840963348891,421.55939346242695,13.59846554462374,5.566374262777002,69.99894668612772,2.504388718903276e-07,113.70000461297312,113.2095365840355,15.288,0.0,0.0,0.0399632243410653,6.701756367872645e-10,-0.00025078340164,3.0793566854276295e-08,9.047716714467492e-06,4.16222825066026,33.72644865222576,13.598567505326,40.96227562489027
0.33,31.222182716732533,131.01039289410716,5.075419569102976,4.187801887681037,0.0006739743721461,40.48743503284469,0.0010239291638211,3.217136801802925,418.5156301991682,13.956637761217308,5.718704299733134,69.99879684673242,2.995902922462564e-07,113.70000494831164,119.25032483364384,15.288,0.0,0.0,0.0410158804634189,7.647061680070125e-10,-0.0002769136723495,3.509664608790402e-08,1.0253455741189656e-05,4.187801941818244,33.053267359159875,13.956743628864118,40.61505097607
0.34,31.222182510255863,131.01039345333336,5.204736257784645,4.19642921746386,0.0006961879027693,31.814592723444047,0.0010535137542081,3.208669900766693,345.46563688075645,14.367047160772364,5.88887983533068,69.99863160305904,3.557915789971256e-07,113.70000529927128,126.36523219087664,15.288,0.0,0.0,0.042222056531773,8.688448410811866e-10,-0.0003048202762282,3.9835373705550826e-08,1.1618525957862828e-05,4.196429275109305,32.30947868183619,14.367156517712404,31.97598901989736
0.35,31.222182298183583,131.0103940277045,5.337435501771672,4.210915783240843,0.0007193441544952,34.813487415034444,0.0010813034848195,3.200164272309822,370.5765700527033,14.754132934586384,6.050986755458457,69.99844991734221,4.1975736284587617e-07,113.70000566632532,133.26448209504355,15.288,0.0,0.0,0.0433596939127697,9.832256819293898e-10,-0.0003345386312107,4.503361101379695e-08,1.309465610343774e-05,4.210915844572415,31.63649055965014,14.75424592890194,34.96026256388454
0.36,31.222182080444604,131.0103946174141,5.4735747500461605,4.22903876037745,0.0007431682866607,39.2632255716727,0.0011077666085529,3.1915717453569297,407.8625232777193,15.124417129017054,6.2072589919251575,69.99825073022951,4.922382611919288e-07,113.70000605036684,140.03566173682628,15.288,0.0,0.0,0.0444479595865755,1.1084921261805627e-09,-0.0003661511460057,5.0723697896912267e-08,1.4691545926915382e-05,4.229038825557203,31.017264542603208,15.124533865618538,39.39272792946638
0.37,31.22218185710795,131.01039522227452,5.613102797925907,4.249164960780052,0.0007674149135003,37.28328237034959,0.001133274451316,3.1828514669894137,391.1218908297666,15.483077353331511,6.359470679857624,69.99803294268581,5.740349991123437e-07,113.70000645214331,146.75405277514704,15.288,0.0,0.0,0.0455020695186381,1.245311285088233e-09,-0.0003997125883071,5.6934243389647934e-08,1.641828325195534e-05,4.2491650299519,30.439178816713017,15.483197898584232,37.418894813348615
0.38,31.2221816281124,131.0103958424523,5.756069531572451,4.260095806433531,0.0007900626414612,38.9278000801764,0.0011607546399008,3.1735466295306622,404.8187610144602,15.87126705947922,6.521735074464384,69.99779542676283,6.659911329739736e-07,113.70000687263192,154.20298254405043,15.288,0.0,0.0,0.0466429667223463,1.3943646956867835e-09,-0.0004353006984059,6.369875435270817e-08,1.8328108041903096e-05,4.260095879559656,29.83470194713067,15.87139116222873,39.05694584372078
0.39,31.22218139339905,131.0103964781077,5.9025231349944285,4.274091258047817,0.0008133283308351,33.320076729592266,0.0011870382950339,3.164143363712209,357.64062493382744,16.24457853509073,6.678818328235205,69.9975369905506,7.690136753559805e-07,113.70000731287368,161.54010621938565,15.288,0.0,0.0,0.0477401448128051,1.5563705124515804e-09,-0.0004730068442167,7.105463478762673e-08,2.0383860516746246e-05,4.274091335289374,29.274934656826048,16.244706292406182,33.46997636540994
0.4,31.22218115316572,131.01039712870306,6.0523126585892895,4.286421841403391,0.0008363022448449,31.88018820767003,0.0012133780841982,3.1544430614236454,345.465636880754,16.62063299903514,6.836764518435374,69.99725641601981,8.840594270905819e-07,113.70000777359816,169.10340080049767,15.288,0.0,0.0,0.0488453895716005,1.7320643186450851e-09,-0.0005128553637434,7.9027539265021e-08,2.2612406375611563e-05,4.286421922834417,28.730746964325096,16.620764365084565,32.03586915718869
0.41,31.22218090752676,131.01039779392735,6.205351877049411,4.30025870409831,0.0008595777771371,35.882550741685804,0.0012389121673015,3.1445895889870297,378.94687077668647,16.987310563534386,6.99141560549392,69.9969524610574,1.0121301778427253e-06,113.70000825570062,176.64448930727934,15.288,0.0,0.0,0.0499230826371405,1.922193031274436e-09,-0.0005548883906878,8.764667734700782e-08,2.5005077415911235e-05,4.300258789847355,28.21875643368965,16.987445585695873,36.020076248499606
0.42,31.222180656535848,131.0103984736348,6.36160173428776,4.322008670726048,0.0008844838439129,40.34064925656127,0.001261804338223,3.134918999355981,416.2328240017114,17.318628721060172,7.133856886815013,69.99662385300175,1.154276942054023e-06,113.70000876021427,183.59942989625057,15.288,0.0,0.0,0.0508968652507098,2.1275184665783874e-09,-0.0005991661829955,9.694534598491077e-08,2.752657757470936e-05,4.322008761057615,27.772396468009568,17.318767655457478,40.462275036947325
0.43,31.222180400205527,131.0103991677914,6.521055075967404,4.339436441324956,0.0009085827200945,35.541853595187746,0.0012854696362701,3.124839917627212,375.9031395134336,17.662848429084132,7.280642039343927,69.99626930133451,1.3115939750280808e-06,113.70000928827632,190.96736675963504,15.288,0.0,0.0,0.0519085689713619,2.3488101247838237e-09,-0.0006457514522491,1.0695800287133593e-07,3.0255957891170616e-05,4.339436536261635,27.322335771349252,17.662991148924057,35.67895714766603
0.44,31.22218013836212,131.0103998768696,6.683849332059896,4.342209064313268,0.0009296474314902,32.82948243168077,0.0013129688908547,3.113754688841357,353.0750125389216,18.063580761318697,7.446730341918701,69.99588746395321,1.4852372182848018e-06,113.7000098413532,199.7278270846888,15.288,0.0,0.0,0.0530863610987301,2.586862292117705e-09,-0.0006947575786514,1.1773083546077225e-07,3.329010177793299e-05,4.342209163639375,26.81344244367223,18.06372678999575,32.9768158972058
0.45,31.22217987077456,131.0104006014978,6.850166573233225,4.3420317510315165,0.0009500780330031,38.11022602597878,0.001341042003417,3.1022288449712887,397.2093853562869,18.47486275310604,7.616350301328129,69.99547690348253,1.6764536248320808e-06,113.70001042108892,208.92306716049887,15.288,0.0,0.0,0.0542951637545535,2.842521175226318e-09,-0.0007463379956615,1.2932090054593452e-07,3.657529369088674e-05,4.342031854775571,26.30944884471334,18.47501199101448,38.23628058998621
0.46,31.22217959739673,131.01040134180155,7.020045503401754,4.351169003849846,0.0009725797783515,44.3937050866137,0.0013660055515545,3.09098240974522,449.7140588976434,18.844323061800488,7.771531995684422,69.99503610583268,1.8865779683531e-06,113.70001102895836,217.3591612614144,15.288,0.0,0.0,0.0553810645782081,3.1166808800591503e-09,-0.000800596194505,1.417768495237597e-07,4.001824400409673e-05,4.351169112337076,25.873596578896564,18.844475834274814,44.50118229261506
0.47,31.22217931813738,131.01040209802923,7.193559875579052,4.358630093683735,0.0009947969928181,30.22514089990685,0.0013910994973101,3.079396422776949,331.0078106302534,19.2180591098146,7.9280875671397615,69.99456352718363,2.1170044481277104e-06,113.70001166656292,226.0625808853568,15.288,0.0,0.0,0.0564795377574197,3.4102493884459798e-09,-0.0008576351980594,1.551487523304888e-07,4.3718862242359527e-05,4.35863020698899,25.44665981168229,19.218215372160817,30.381603425148434
0.48,31.22217903348153,131.01040286886197,7.370336324605091,4.365514409145237,0.001016880998596,29.779838936311712,0.001416009414045,3.067527859335786,327.2031223011574,19.5915905767454,8.084483592791102,69.99405758812365,2.369198154608765e-06,113.70001233476164,234.93171707892955,15.288,0.0,0.0,0.057577416115756,3.7241711041759195e-09,-0.0009173883913609,1.6944871263079066e-07,4.767297940601472e-05,4.365514527349481,25.03354780044292,19.59175030803913,29.937410312943754
0.49,31.22217874361868,131.01040365378466,7.5502307795521535,4.3786401372577615,0.0010404145545081,37.2489281064929,0.0014385799934191,3.0558405437943126,389.60000969812296,19.93403005898306,8.23012235628909,69.99351671352461,2.644660619562788e-06,113.700013034871,243.21198709852868,15.288,0.0,0.0,0.0585839249886784,4.059374595909599e-09,-0.0009798792959512,1.8470833984680338e-07,5.180951737438081e-05,4.378640260624215,24.667474291142685,19.934193486919103,37.37406598941686
0.5,31.22217844858332,131.0104044527036,7.733219389747018,-16.035769815520403,20.964178604209906,38.950181463746894,-1.2108385877260133,4.154853353134617,397.97031042210494,19.797392620780887,8.365996061088087,69.99293932307316,2.9449363413826395e-06,113.70001376847225,239.8850151180412,15.288,0.0,10.020627911594472,0.0581824826684097,4.416566661548473e-09,-0.0010631047813644,4.472187932587112e-05,5.5823658212828375e-05,26.172595755024865,46.66160520576409,23.01745045542136,39.18986568655719
0.51,31.222178148940223,131.01040526639812,7.919267762395965,-15.704018800070871,20.680325329595625,30.039022241885423,-1.240145242112191,4.171729782298299,323.3984349720841,20.10287880771276,8.525130405734066,69.99238160810228,0.000277077303182,113.70030592902744,247.34086664315308,15.288,0.0,10.060397678041245,0.0590803988705385,4.859692751362745e-09,-0.0008658997903413,0.0003338217690438,4.616920072261965e-05,25.75724648591835,46.02983640253046,23.28126123379965,30.352662928424177
0.52,31.22217784472865,131.01040609566908,8.108384844183636,-15.378229132786029,20.39383002301886,35.8752284846185,-1.2703807640211302,4.1892545329100015,372.0984511843415,20.417456997368863,8.686582578956527,69.99193798830736,0.0010111843763497,113.70108761718753,255.13778562625208,15.288,0.0,10.100031715795454,0.0600050414840041,5.3952861275682795e-09,-0.000664394490717,0.0006301895344251,3.597876509185361e-05,25.34321554822472,45.39572974086004,23.55369701225765,36.14133007583817
0.53,31.2221775358351,131.01040694092708,8.300682450564393,-15.065573863571068,20.11788905223775,37.615599861698655,-1.3008036586277487,4.20668930183745,386.5562464348624,20.72957412467741,8.846905359503406,69.9916110011267,0.0022170260292177,113.7023713505189,262.99302077935164,15.288,0.0,10.139535825923971,0.0609224573759917,6.0256938815007836e-09,-0.0004583861795884,0.0009341722193758,2.5201851992577456e-05,24.94501129679954,44.783204036728335,23.825150085402896,37.87243955696434
0.54,31.222177222175432,131.0104078024635,8.496236869407506,-14.764054356596448,19.850494658796688,33.160128717265074,-1.3315256068587265,4.224119462990542,349.2703242098436,21.04068969445912,9.006675004769953,69.9914032343822,0.0039067106660165,113.70417001640573,270.9413258754833,15.288,0.0,10.17893841619205,0.0618369360216064,6.7533317994507554e-09,-0.0002477397397303,0.0012460372822726,1.382477447110216e-05,24.55991637615073,44.18835727455294,24.09679255927025,33.45460031482851
0.55,31.22217690403888,131.0104086795537,8.694834731800897,-14.4773072211604,19.5964786808093,35.08263592764385,-1.3621537081504909,4.241263098902559,365.2500005919907,21.345220968899223,9.163805271654404,69.99131725986602,0.0060924544004523,113.70649661519748,278.83567445174714,15.288,0.0,10.218193120730051,0.0627320700860547,7.580660615739038e-09,-3.274736280402545e-05,0.0015654669544136,1.853835144825684e-06,24.19386428102896,43.62094339002318,24.36376401304281,35.36431985816139
0.56,31.22217658144018,131.0104095722174,8.89647529808163,-14.207528907671875,19.359034538591896,32.8113154931138,-1.392370440517474,4.257901634871978,346.2265619465787,21.638811439770027,9.31670009343972,69.9913555604444,0.0087863044516256,113.70936396666372,286.5533058034031,15.288,0.0,10.257299021403844,0.0635950560373617,8.510093251831451e-09,0.0001866220901361,0.0018925840439888,-1.0709819900369823e-05,23.850674596194008,43.08748683895936,24.622191376597986,33.115719019289344
0.57,31.22217625446451,131.01041048028162,9.101103080163428,-13.939552885418289,19.11981108183452,32.454021239904975,-1.4235155812144846,4.274996619234224,343.1828296833023,21.94048418393524,9.472497470488385,69.99152058249176,0.0120003374064667,113.7127849204092,294.59305174733754,15.288,0.0,10.296238782463206,0.064481801416425,9.544055130437894e-09,0.0004102943109969,0.0022273663002073,-2.3873653441939355e-05,23.50709447012578,42.55147692184459,24.88838570166104,32.76530920569235
0.58,31.22217592310393,131.01041140382625,9.3087347878184,-13.664303251371544,18.8674082178302,42.40786416156676,-1.4565669224657447,4.293227017240452,426.1250058573153,22.263575492796285,9.636146195840444,69.99181476614844,0.0157467763978185,113.71677248071587,303.32712655270154,15.288,0.0,10.335012160647228,0.0654315011630164,1.0684992056093424e-08,0.0006383066676664,0.0025699464981583,-3.7687108454907856e-05,23.14884233267507,41.99000648684032,25.1739882963058,42.64950560284472
0.59,31.22217558697625,131.01041234395137,9.519677826675215,-13.41549098573042,18.644323716055595,34.56819129697189,-1.488100977466807,4.310179056240609,360.68438819711065,22.55997684616745,9.789754092751249,69.99224072014877,0.0200386718481658,113.721340531311,311.4511423913244,15.288,0.0,10.373664852299315,0.0663027672481987,1.1935465326715909e-08,0.0008711817774201,0.0029211437032767,-5.212033029596589e-05,22.829052195425483,41.48822921722066,25.43720846849597,34.867634527739845
0.6,31.22217524630401,131.01041330011267,9.733770666289276,-13.148251885083283,18.39395207840366,30.83259890250416,-1.522815633272572,4.329139823885918,329.4859594986058,22.895030216498373,9.95758962858224,69.99280105928817,0.0248892879694561,113.72650318095693,320.7643857227084,15.288,0.0,10.412166435542284,0.0672876366982877,1.3298140158226573e-08,0.0011086748154321,0.0032807026095407,-6.731257460921151e-05,22.476947613462126,40.932552629933205,25.73497009595471,31.172256481531697
0.61,31.222174901053656,131.01041427246253,9.951050479734096,-12.885045036264144,18.144651470900754,35.954520047328295,-1.5584499678749533,4.348510418510483,372.0984511843297,23.236751424639674,10.127743175156985,69.99349844022053,0.0303122461300992,113.73227491713392,330.4041273642061,15.288,0.0,10.450526919178245,0.0682921099345686,1.4775720146046549e-08,0.0013508736964761,0.0036488349513022,-8.32399661762198e-05,22.1279629084346,40.37979098138691,26.03950520363714,36.25004580681238
0.62,31.22217455135166,131.01041526071904,10.171430553051351,-12.667315775704424,17.95060126414299,44.459434269025074,-1.5899851150298587,4.364848178559112,442.86563930529206,23.51653796456309,10.274924910571196,69.9943355571679,0.0363215188057726,113.73867059889024,338.40145533433133,15.288,0.0,10.488758779849556,0.0691145659492992,1.6370990385358882e-08,0.0015977223912828,0.0040255465567725,-9.963392863371272e-05,21.849105799284423,39.93943938164222,26.29031012458889,44.701468072197
0.63,31.22217419703132,131.0104162653921,10.395050662153023,-12.443727463073811,17.745786356214772,25.64123234050533,-1.6232585006079607,4.382183210585601,286.11251274707894,23.814917800615085,10.428913767577926,69.9953149008463,0.0429306282823594,113.74570460741243,347.035814631293,15.288,0.0,10.5267987172402,0.0699916740193406,1.808661336755249e-08,0.0018494076705518,0.0044112009066816,-0.0001167898128932,21.5583074372704,39.47852049788844,26.55806611498471,26.063600936760654
0.64,31.22217383867758,131.01041728495085,10.621468322237964,-12.207909116570915,17.52150534164314,25.18814459753309,-1.6592768622891243,4.4011761819297694,282.30782441796754,24.144893796950864,10.594414152290645,69.996439064626,0.0501532527539912,113.75339147823748,356.7116388284666,15.288,0.0,10.56468006082048,0.0709616496141652,1.992539381337748e-08,0.0021052274465167,0.0048048655206196,-0.0001347839257875,21.244936458843007,38.97911277857383,26.85446750643653,25.623547368706568
0.65,31.222173476284325,131.01041831946688,10.85069864626158,-12.004900449190604,17.33762149299217,43.757850359598216,-1.692125962748042,4.417822358712677,436.7781447787475,24.42662937301481,10.742125452277916,69.99771041262076,0.0580028224250767,113.76174549003342,365.0767761804968,15.288,0.0,10.602336786747408,0.0717898538715348,2.1889989055439745e-08,0.0023652712018692,0.0052067502837119,-0.0001531964515773,20.982664676596254,38.56272017906693,27.108644888416705,44.01283804482434
0.66,31.22217310936933,131.01041937030212,11.083125213809112,-11.800524277851252,17.149044548490778,37.363014373679576,-1.7262033482898056,4.435103701310879,383.51251517160017,24.71947129369364,10.893869856759528,69.99913130374705,0.0664929563388398,113.770781120807,373.8744467529304,15.288,0.0,10.63983844380104,0.0726507066594737,2.3982991705845185e-08,0.0026301490535617,0.0056178445023643,-0.000172390791957,20.715867185586024,38.13792081670792,27.373196583851307,37.66490098126922
0.67,31.222172738126368,131.0104204369876,11.318608692190928,-11.586144176436209,16.943938763326795,26.02213323063737,-1.762874522646708,4.453914639684657,289.1562440103425,25.041105400293773,11.05607094844133,70.00070439336227,0.0756382282461046,113.78051385264368,383.658301433398,15.288,0.0,10.677215613261348,0.0735961871672163,2.6207305105766025e-08,0.0028996469606328,0.0060379261014371,-0.0001925233128251,20.43010014984275,37.68045325276275,27.66402818983921,26.459336727764658
0.68,31.222172362732564,131.01042151909883,11.557022627214964,-11.381113495794276,16.748557258857783,32.250772818275564,-1.799370887624088,4.472397631671714,340.8999924858462,25.35460527260874,11.215222123240764,70.00243213708163,0.0854532631200013,113.79095923082755,393.31578088307776,15.288,0.0,10.7143391680141,0.0745177684617515,2.85658489179506e-08,0.0031736028470509,0.0064668438154359,-0.000213345846934,20.1574732855716,37.24388922798671,27.9481546751455,32.60908498475592
0.69,31.22217198327757,131.0104226164465,11.798307959562832,-11.194938827500668,16.57625738336591,39.490197434214686,-1.834088467568248,4.489510964177232,401.0140726853634,25.63924856617708,11.36380269181648,70.00431700647103,0.0959525190719467,113.802132612164,402.1871467669845,15.288,0.0,10.751299941802271,0.075354546778314,3.1061478925805135e-08,0.0034519302355629,0.0069045576577548,-0.0002346561831595,19.914162776212905,36.85546465363856,28.206869605853623,39.78687324479759
0.7,31.22217159963916,131.0104237294127,12.04256915623673,-11.01205195721929,16.405933038198636,33.26797507898067,-1.8693291943638968,4.5067790969025845,349.27032420985284,25.925303283449924,11.512860634831693,70.00636139777983,0.1071503593644455,113.8140492495828,411.2018936671016,15.288,0.0,10.788119700432311,0.076195480438583,3.3696960526253286e-08,0.0037348081833664,0.007351431229362,-0.0002567122895478,19.67433513850141,36.47213572336248,28.46727042314504,33.62385485515987
0.71,31.22217121188081,131.01042485787687,12.289767141256,-10.824006693707425,16.22589605845257,27.500089919188465,-1.90649539475926,4.525102156855477,301.33126406340574,26.230772382905155,11.668920319537431,70.00856763223034,0.1190615873077505,113.82672486985416,420.93909507152415,15.288,0.0,10.824677334651668,0.0770934810744192,3.647520812194168e-08,0.0040221718761479,0.0078074618471971,-0.0002797150970714,19.42376254760493,36.07010210209202,28.74559830891565,27.935035703998434
0.72,31.22217082001549,131.0104260018556,12.539902000302549,-10.629568480314868,16.034131578953282,33.46140060527484,-1.9460174255554008,4.544741825377999,350.79220534145287,26.56039267163288,11.83365776948004,70.01093817275107,0.1317013543389786,113.84017555838112,431.5743808647287,15.288,0.0,10.861081768582116,0.078062470992091,3.9399164240876616e-08,0.0043140520800907,0.0082727920275149,-0.0003037761309709,19.16009788535681,35.644956986817846,29.046282118789,33.82465066407328
0.73,31.22217042405144,131.01042716137957,12.792977772741416,-10.463658663494575,15.880168553954393,42.08479376680381,-1.9816065280334847,4.561652116362169,422.320318528234,26.83400601124225,11.978082329790835,70.01347552184647,0.1450854250201602,113.85441805272656,440.5012490031604,15.288,0.0,10.897343775057331,0.0788668609938677,4.2471876636273433e-08,0.0046105114799407,0.0087476124395428,-0.0003279879112892,18.943170710153293,35.29840297031249,29.29664289584865,42.377650959639865
0.74,31.222170023936584,131.0104283366377,13.04904428050769,-10.293122373013928,15.717354206463524,26.68256319247936,-2.019059171666993,4.579564192705544,294.48281347105944,27.125974237291786,12.129111957458948,70.01618201394362,0.1592291099350299,113.86946860375352,450.1281039259613,15.288,0.0,10.933384961058144,0.0797252046197617,4.5696290578414376e-08,0.0049115954219307,0.009232095936202,-0.0003531998155047,18.716488177312712,34.934801794497155,29.564002429682937,27.14789470022414
0.75,31.22216962003593,131.01042952669272,13.30782945341484,-10.120997104910348,15.549905742461895,30.99678378254296,-2.05794666519418,4.598188329256552,330.24688556441487,27.430213950288344,12.284509017169553,70.01905992478675,0.1741479348532082,113.8853436902515,460.2703894828053,15.288,0.0,10.969212393046137,0.080619622572502,4.90755621548395e-08,0.0052168387239249,0.0097256178685726,-0.0003793484817558,18.48517124723992,34.5626950306511,29.84291249010297,31.403488424851993
0.76,31.22216921224997,131.0104307318602,13.5694195919456,-9.960418114739117,15.396863148659124,33.29417617755015,-2.0956497631012407,4.61586673277924,349.27032420986166,27.714003109919787,12.432492977929806,70.02211157902948,0.1898573720878496,113.90205972173884,469.8316387595968,15.288,0.0,11.004872105968085,0.0814539423167199,5.2612595780203096e-08,0.0055264278213906,0.0102285648284736,-0.0004060080064718,18.27207942868441,34.221275654770515,30.103533119730407,33.67788801225683
0.77,31.222168800531254,131.01043195231355,13.833860574228884,-9.804825887831557,15.248944329719444,31.186028844957107,-2.1333744536445645,4.633369107906024,331.7687666960708,27.992508624731183,12.578544610896635,70.02533913031847,0.2063731848196926,113.91963342565184,479.3098442847551,15.288,0.0,11.040367844194774,0.0822727404804687,5.6310387978456336e-08,0.0058404517998922,0.0107411781697782,-0.000433379206675,18.06598773599704,33.89145678644451,30.35962956926862,31.60043972744775
0.78,31.222168384952816,131.0104331879005,14.10110527265224,-9.645092053350623,15.092855622823343,25.770500380471567,-2.1730296525169988,4.651880396763945,286.8734378128899,28.28933872825501,12.73113608224552,70.0287448625286,0.2237112582265813,113.93808164246268,489.5162949854116,15.288,0.0,11.075602658948068,0.0831454040929948,6.017200290013912e-08,0.0061588096670591,0.0112634015507654,-0.0004618364839067,17.850947147532885,33.54587557586907,30.632795799533724,26.27700018945085
0.79,31.222167965611032,131.01043443840624,14.371088671956928,-9.48452590687332,14.933314890300144,36.243712182396365,-2.214058001437401,4.671041419836228,373.6203323159534,28.596959782213563,12.887535524944308,70.03233089111805,0.2418877973173378,113.95742156105264,500.2073057513236,15.288,0.0,11.110656356029576,0.084049791423458,6.420058291146755e-08,0.0064813982520506,0.0117951724894975,-0.0004912991033848,17.632646539346265,33.194100686375506,30.916211662821954,36.61048147102058
0.8,31.22216754229592,131.0104357044399,14.643981694011249,-9.339912577806132,14.79545169167001,36.70668060336574,-2.252545134441051,4.688434401324357,377.42502064505743,28.86792815166439,13.03077289765,70.03609950153303,0.2609195203532865,113.97767090308533,509.7182121448996,15.288,0.0,11.145557848212844,0.0848464602180875,6.839913409988264e-08,0.0068085768909931,0.0123371702362133,-0.0005209763153221,17.440994636675278,32.88820620329005,31.166249222158925,37.07338368203963
0.81,31.22216711511776,131.0104369857473,14.919708343982844,-9.189732002580737,14.64723898961266,24.2093152990944,-2.2934218801477204,4.707103416646893,273.9374926939919,29.16217577630091,13.182297635690416,70.04005282882984,0.2808231695730756,113.99884741649949,520.1483995264665,15.288,0.0,11.180289273568215,0.0857115575199082,7.27709086075855e-08,0.0071401664987992,0.0128892182722579,-0.0005519030322703,17.237803814241186,32.561834856910906,31.43797990465364,24.769084636827323
0.82,31.22216668427218,131.01043828184493,15.19812700358036,-9.038922933376664,14.496033315097003,30.829092521469622,-2.335624642377597,4.72637611923992,328.72500443277005,29.46630253221208,13.337288638649056,70.04419307106573,0.3016155891919247,114.0209689442548,531.039828111711,15.288,0.0,11.21479768097948,0.0866056990216409,7.731919815741731e-08,0.007475914948445,0.0134510151843964,-0.0005838656168003,17.03183752342425,32.23022987642527,31.719119324635138,31.276616175474242
0.83,31.22216624975108,131.0104395927959,15.4792527589923,-8.90564424404417,14.369646986936385,38.9239580326002,-2.374427520487544,4.743381533465893,395.68750322465047,29.72439759647003,13.475818689954806,70.0485222352295,0.3233138943235093,114.04405362541834,540.3687258382938,15.288,0.0,11.24909605157032,0.0873645546262322,8.204718526826611e-08,0.0078158927085557,0.0140227811524445,-0.0006157477466627,16.855999669078546,31.95123908152841,31.957988217420684,39.2837381539193
0.84,31.222165811456428,131.01044091889986,15.763169024897804,-8.7716355145265,14.240392979591052,24.391091615273577,-2.414385701752295,4.76089978286026,275.4593748256452,29.990920357821807,13.61732568965876,70.05304233733817,0.345934935904421,114.06811930228405,550.0875651754666,15.288,0.0,11.283223345282652,0.0881481881914424,8.69579370821753e-08,0.0081602164689183,0.0146048211330359,-0.0006486207107612,16.677441747090434,31.667282356098603,32.204837329336414,24.9683955280257
0.85,31.222165369690064,131.0104422593855,16.04965218418676,-8.628069343859217,14.094509813150736,26.50666890418483,-2.458060548452901,4.780453442301361,292.96093233939376,30.295203538805264,13.772205124349536,70.05775529550962,0.3694956469519298,114.09318390116132,561.2909516395633,15.288,0.0,11.3171522274176,0.089042813721529,9.205485828524753e-08,0.0085084406357198,0.0151965123811222,-0.0006831423943991,16.479952181494273,31.349607287171544,32.486902220550974,27.046225118673227
0.86,31.22216492428596,131.01044361473467,16.338837963442668,-8.495641689797873,13.964085160688846,32.9498209303428,-2.4997517349935103,4.79861412348736,346.2265619465587,30.570536138201785,13.91674069495054,70.06266305401131,0.3940136549641626,114.11926608533317,571.523826938902,15.288,0.0,11.350905933225384,0.0898523567624018,9.734102659055841e-08,0.0088608763175045,0.015798478777848,-0.0007178852962156,16.301373404637044,31.06509954249973,32.74235885779652,33.391108930138756
0.87,31.22216447527556,131.01044498489836,16.630710163916994,-8.369394545014895,13.841647496980055,30.74057981092485,-2.5406689371357167,4.816119148265459,327.964078366998,30.83144678831016,14.056117357513624,70.06776744811121,0.4195065951094728,114.14638452207664,581.3047424945364,15.288,0.0,11.38448276296247,0.090619518967854,1.0281971539035316e-07,0.0092174845855933,0.0164107720479087,-0.0007531291880165,16.13282456107607,30.79823129426747,32.98460047356358,31.21911673014238
0.88,31.222164022701502,131.010446369796,16.925243733022644,-8.239480736684573,13.711760109512392,26.68772287250633,-2.5837117745917944,4.834684371356614,294.4828134710418,31.11126770729473,14.202149603585983,70.07307037841048,0.445992131227605,114.174557892598,591.8875262126008,15.288,0.0,11.41784041144002,0.0914422700530923,1.0849421733781664e-07,0.0095781694718984,0.0170333493892271,-0.0007896799193773,15.956146732718102,30.51677023864078,33.244605694093785,27.244894780940186
0.89,31.222163566652387,131.01044776922453,17.22237846235558,-8.106248221668679,13.574824237305384,29.17397822295341,-2.62893770191004,4.854326192276041,315.028134248087,31.41015274215565,14.354861720209527,70.07857354045687,0.4734882304165667,114.20380520773976,603.2974295112524,15.288,0.0,11.450995451096336,0.0923210627725568,1.1436789446928926e-07,0.0099428309193673,0.0176661591759375,-0.0008275963731703,15.771852270850864,30.221455348036557,33.52258783936338,29.691695835281976
0.9,31.22216310705988,131.01044918339923,17.52217437504834,-7.98871029941875,13.461356933203264,32.1221611675704,-2.6702152408413515,4.871449570026113,339.37814235421445,31.658610677249328,14.489689916422144,70.08427880029284,0.5020134442933927,114.23414608382488,612.8618362961316,15.288,0.0,11.48397879174214,0.0930516478023069,1.2044400078984138e-07,0.0103116115141824,0.018309561074772,-0.000865056286832,15.615617491774044,29.97624574950194,33.75371615146096,32.59899244487622
0.91,31.2221626440008,131.01045061214444,17.82457966317125,-7.867610249859541,13.340600738803223,24.65429243826337,-2.713659346838966,4.889641568517189,277.7421810230789,31.92609527794048,14.631191182003976,70.09018775788374,0.5315858387833847,114.2655996191177,623.2436627351002,15.288,0.0,11.516780693251237,0.0938381642995589,1.2672590888531413e-07,0.0106843685353252,0.0189634368520628,-0.0009038742693931,15.451435987058847,29.716670752738324,34.002748888370306,25.280559276856753
0.92,31.2221621776836,131.0104520549363,18.12944224299033,-7.743280586485606,13.212970815913753,29.170088813622243,-2.7593104118705374,4.908905992587531,315.02813424806214,32.21258315377338,14.779321181513568,70.0963019910587,0.562223738921545,114.29818517931103,634.4605885664314,15.288,0.0,11.549385715517303,0.0946805439937176,1.3321718987482266e-07,0.0110607698414337,0.0196273355932685,-0.0009440859847963,15.279824637642768,29.44352740389779,34.26972455139801,29.70867269649939
0.93,31.222161708023588,131.0104535120275,18.4368336746584,-7.632670952386557,13.106258133464136,34.51831974225759,-2.801148691239522,4.925765538692373,359.1625070654728,32.45134001956738,14.910572978799443,70.10262303051054,0.593945706814386,114.33192237577263,643.8815676280457,15.288,0.0,11.581810593151136,0.0953826387834728,1.3992098513826068e-07,0.0114410033540201,0.0203017016286637,-0.0009837495998694,15.13310266127278,29.21528292633474,34.49215921735237,34.9803373048536
0.94,31.222161234915585,131.01045498371954,18.746840225377408,-7.513173150838701,12.98340196891017,25.29080983651373,-2.84724099664129,4.94486819739645,283.0687504837787,32.73152675657284,15.056350166726716,70.10915227798755,0.6267701488319735,114.36683064722004,655.0286848882222,15.288,0.0,11.614054964626444,0.0962065145029599,1.4684048616708204e-07,0.0118251575870658,0.0209868197755864,-0.0010255293416816,14.968162782585356,28.95393969597516,34.753545770816096,25.926503138087817
0.95,31.22216075865604,131.01045646925647,19.059242980671844,-7.396974549615533,12.864453930269075,32.486473005848815,-2.8932180507008094,4.9636903978118605,342.4218736174873,33.00478221382824,15.199604703668031,70.11589118680806,0.6607162228423619,114.40293022376328,665.9912206179929,15.288,0.0,11.646105942975131,0.09701002569582,1.539794705934516e-07,0.0122128193762796,0.0216820912991791,-0.0010679592086007,14.808303310056424,28.701677443972542,35.00859023050479,32.990602622776905
0.96,31.222160278955208,131.010457969425,19.374268412951466,-7.288161974371642,12.756376818669535,31.83855133337576,-2.937380978638543,4.981274191740273,337.09533515678345,33.25275908785462,15.333921895137957,70.12284111178765,0.6958031056376304,114.44024134894286,676.0160281880519,15.288,0.0,11.677988611019508,0.0977392445583796,1.6134085188619266e-07,0.0126044458507039,0.0223884509981931,-0.0011104529495072,14.661546495198834,28.473245384897474,35.24001296026173,32.359459986145765
0.97,31.222159795837808,131.01045948418178,19.691903672527555,-7.178206289332416,12.644957604691836,20.662360122338743,-2.983014278539734,4.999486058884171,245.02188719299323,33.51114224111177,15.47182999322853,70.13000340269848,0.7320504781342325,114.47878479423454,686.5415629968272,15.288,0.0,11.70969989247067,0.0984990586076737,1.689281345093412e-07,0.0129999804735835,0.0231059379988559,-0.0011541636737835,14.5114242939647,28.23863316129911,35.481322658619696,21.46686658234414
0.98,31.222159309598418,131.01046101277478,20.01193119728708,-7.06045582465003,12.518791181584517,29.70956465558641,-3.0330428678491743,5.019951852938081,319.5937466429581,33.81071066248822,15.624069765883569,70.13737930978836,0.7694780643129928,114.51858136860092,698.8494398809931,15.288,0.0,11.74121843687678,0.099379936782778,1.767453042914373e-07,0.0133989233832429,0.0238337953646104,-0.0012001798303358,14.344809551793348,27.973614576808345,35.76154882765849,30.282957214718916
0.99,31.22215882009272,131.01046255560473,20.33446649271165,-6.960243508713852,12.421146618135875,32.38585544600267,-3.0766517713625268,5.036605066218521,341.6609485517054,34.03668985365287,15.75047879793412,70.14497008147329,0.8081061423135186,114.55965246267976,708.200458903325,15.288,0.0,11.772564405802925,0.1000445222965707,1.847955118427739e-07,0.0138015799133454,0.0245727022044901,-0.0012444710235555,14.2115377956289,27.769888102142566,35.97255188169942,32.91924679704363
1.0,31.22215832732259,131.01046411268143,20.659512939490096,-6.852483049189464,12.309190926627696,29.05586461795148,-3.1245508668740425,5.055442714745159,314.2672081822764,34.30278337323552,15.890840150837846,70.1527767138429,0.8479542658188045,114.60201868831096,719.2944874692679,15.288,0.0,11.80372425347778,0.1008270245463513,1.9308224117778225e-07,0.0142078448500688,0.0253226144745778,-0.0012910785779153,14.062267636075177,27.536668057515588,36.22146739294173,29.657437311043548
1.01,31.22215783147356,131.0104656835386,20.986935693933948,-6.747788903590501,12.201149214587156,30.34629086200579,-3.172139326890289,5.073889257672582,324.9203161036979,34.560198249539816,16.028077596717687,70.16080025663479,0.8890428579716829,114.64570157300476,730.1074884861137,15.288,0.0,11.834704863816029,0.1015840258159552,2.0160929793558522e-07,0.0146174489722644,0.0260831813131455,-0.0013382253800937,13.917963472159808,27.312575149701644,36.46229785861871,30.93063512425481
1.02,31.22215733247197,131.01046726838305,21.31679528266653,-6.646858125126284,12.0983405546928,25.441104637433945,-3.2189928010906854,5.091715137310809,284.59063161540416,34.804683728203806,16.160721098149356,70.16904160133255,0.9313921221377623,114.690722402245,740.4504074834674,15.288,0.0,11.865513777547529,0.1023030315128518,2.1037997799738329e-07,0.0150304901832753,0.0268547238421923,-0.001385729705976,13.780108723831855,27.100445255393176,36.69099591962157,26.14454594874152
1.03,31.222156830389245,131.01046886704117,21.64904226319408,-6.5415085712632495,11.986402494716074,20.902906185246668,-3.269062570893173,5.111086804729386,247.30469339049705,35.076928505077746,16.302937927896245,70.17750152213611,0.9750222634682562,114.73710245435936,752.0554259971334,15.288,0.0,11.89614556040856,0.1031036398460699,2.193978905759347e-07,0.0154468105879865,0.0276370983342774,-0.0014352058984384,13.632261344721243,26.869666600699823,36.9460444529733,21.76560280366976
1.04,31.222156325290445,131.0104704793585,21.98363249582591,-6.443167576164802,11.885535292141984,32.83228950747128,-3.316741014635861,5.1289271372952285,345.46563688072297,35.31910626440293,16.434589717114136,70.18618081645629,1.019954255317438,114.7848638152204,762.4514374557106,15.288,0.0,11.926604585790232,0.1038158788782483,2.2866665367089425e-07,0.0158663303675038,0.0284303001076121,-0.0014843149887097,13.49750570096283,26.66329910527554,37.17272059282998,33.39559699781185
1.05,31.22215581689168,131.01047210607865,22.32078338181797,-6.341617307388672,11.777613784941416,20.05571642135313,-3.36713914290708,5.148025051803728,240.45625879819983,35.583580016174565,16.57390283423937,70.19508013489289,1.0662089442297,114.83402842704994,773.8877855690938,15.288,0.0,11.956907450733008,0.1045936627044644,2.381891664344259e-07,0.0162894641827625,0.0292352592963169,-0.0015352611122104,13.355141430233555,26.442669459617424,37.4206022350239,20.977882379197126
1.06,31.222155305433407,131.01047374659095,22.66031855882712,-6.237692466531345,11.664014013546575,28.28768153424734,-3.4200344643289005,5.168237227838895,308.17968365593924,35.86730557626792,16.7197793058552,70.20420018191255,1.1138081612488564,114.88461926823923,786.2525278611128,15.288,0.0,11.987041539755232,0.1054280438823212,2.47969672257704e-07,0.0167157950872543,0.0300513507175838,-0.0015879522484045,13.206764128676005,26.21063292111916,37.686855655831984,28.958595241541246
1.07,31.222154790801834,131.0104754012,23.00232778342351,-6.143962371131204,11.567545271684958,33.190126019695654,-3.4684870202290927,5.185824829712015,348.5093681440308,36.10090838544596,16.848169053267185,70.21354163377103,1.1627743058669344,114.93665991192682,796.501397314391,15.288,0.0,12.017023987017415,0.1061151034786425,2.58011526354178e-07,0.0171455528509632,0.0308791648882997,-0.0016393323281417,13.078291589771103,26.016083113097984,37.90561553380089,33.77140279255858
1.08,31.222154272896823,131.01047707016778,23.346889289920245,-6.049639255784491,11.46877569301244,22.532782781999124,-3.5182921238613334,5.203914599615246,261.00157857466235,36.34262503047949,16.979281883477928,70.22310497439786,1.2131294563342077,114.990173579713,807.1764733761905,15.288,0.0,12.046849694604491,0.1068260213788199,2.683182253549432e-07,0.0175788222881395,0.031719034952782,-0.0016919560417207,12.947605367056935,25.81742454552089,38.13212993470942,23.39199449661507
1.09,31.22215375199649,131.010478752786,23.693798431349588,-5.947502952885633,11.354304731046204,20.764094456239786,-3.573836884344323,5.224823337571772,246.54375332474407,36.635446939332624,17.127947863639093,70.23289060970237,1.2648960169761745,115.04518382897729,820.2088016802622,15.288,0.0,12.076498682516736,0.1076871677748749,2.788942933307744e-07,0.0180150816253999,0.0325701302462564,-0.0017478584701253,12.799548205057556,25.58576062326162,38.40732625116582,21.707572585906107
1.1,31.22215322817912,131.01048044886124,24.04300047665314,-5.851422333830351,11.249663776719698,41.05372776465297,-3.627042230836076,5.244238189713073,413.1890617385841,36.89938115297424,17.26648587213413,70.24289886266492,1.318096711630319,115.10171454642943,832.0415894432117,15.288,0.0,12.105983348027667,0.1084634101605185,2.897435520119504e-07,0.0184542341424577,0.0334324242135097,-0.001803304543384,12.663042958115415,25.375958585245076,38.65514225206272,41.545950860570656
1.11,31.222152701040567,131.01048215942777,24.39479975137716,-5.765723961842616,11.163206785259444,30.202896097695977,-3.674834353952392,5.260564289980668,324.1593910376397,37.1053778813048,17.384931796381096,70.25313000101258,1.3727547621730078,115.15979013791748,841.3291020024318,15.288,0.0,12.135331846062885,0.1090693575972441,3.00868592926856e-07,0.0188969449573595,0.0343073840503852,-0.0018568112078261,12.547460288193893,25.206184313368134,38.84781728658772,30.87706069019892
1.12,31.222152170642943,131.01048388432216,24.74915162718928,-5.664337223927925,11.045953780758172,11.741466193942358,-3.7338570811631975,5.282549214123193,172.73281794065943,37.41410822871723,17.538680620000473,70.26358409797628,1.4288931077083076,115.21943469731823,855.3585641985167,15.288,0.0,12.164531459418484,0.1099772944247603,3.122735571390177e-07,0.0193429846466378,0.0351947576159623,-0.0019163877890998,12.39754267523005,24.97064959197328,39.1384744146114,13.405560163069552
1.13,31.222151637585007,131.01048562203252,25.10561513231867,-5.573329333425835,10.947014634340768,35.47671984766812,-3.7873572320255415,5.301382338570332,367.5328077900705,37.664040903184784,17.67201096754605,70.2742613932003,1.4865365347980133,115.28067426945536,866.7949385707396,15.288,0.0,12.193562904398645,0.1107124070237515,3.23964138978107e-07,0.0197913941815028,0.0360928239847086,-0.0019738445212512,12.268659336141368,24.775397901918183,39.37315112217055,36.070020524704596
1.14,31.22215110119628,131.01048737425117,25.464689383502407,-5.48968440233565,10.860990836673068,19.8827352641877,-3.836863192557779,5.317901264310782,239.69531773195544,37.870703005066304,17.790359183608885,70.28516168208303,1.545708117457318,115.343533070008,876.302994454079,15.288,0.0,12.222464682883077,0.111320335655128,3.359418918808957e-07,0.0202432589050358,0.0370039214092093,-0.0020299178204986,12.154657660435891,24.60895411480844,39.56654460175374,20.93620678635784
1.15,31.22215056196721,131.01048913973128,25.82601217182473,-5.390800351229684,10.74436389931942,19.593388525928912,-3.898294493814321,5.340339519233509,237.41251153546767,38.18457127677372,17.94538599536394,70.29628463778073,1.606431106515431,115.4080354896726,890.8576744570762,15.288,0.0,12.2512018492088,0.1122434041900132,3.482124345399542e-07,0.0206975991275291,0.0379262931012763,-0.0020926060472962,12.006683072233216,24.3767674485565,39.8624178130618,20.678897457775474
1.16,31.22215002003857,131.01049091812257,26.18948279928333,-5.310679599923835,10.662918658205914,50.40518342939584,-3.947328020765308,5.356128628394275,490.0437743845894,38.37654702649465,18.058426873133,70.30763007361217,1.6687305438913835,115.47420781054284,899.8064805932995,15.288,0.0,12.279786677248277,0.112808178916384,3.607798571124437e-07,0.0211542770088998,0.0388598311363516,-0.002149455734141,11.898512988342626,24.2218067168442,40.041822767514745,50.84242351558848
1.17,31.22214947452306,131.0104927116354,26.55575577035692,-5.223164945627401,10.565899354982896,9.35725535758186,-4.002867350062507,5.375016447255216,153.70937929486794,38.62414928255379,18.19044357115339,70.31919738521076,1.7326299079159035,115.54207464339346,911.4228203935138,15.288,0.0,12.308256904471012,0.1135364771170722,3.736449892229821e-07,0.0216146798385674,0.039807562010167,-0.0022103287691088,11.773255900560464,24.033748851291502,40.27444603545332,11.509647112637943
1.18,31.22214892658712,131.01049451734335,26.92397312439968,-5.12583591537933,10.448179157167376,24.761825404010448,-4.06741667002036,5.398218259369922,280.02501822196746,38.949200037684655,18.34876371639043,70.3309860276202,1.7981540417597544,115.61166203406096,926.7951820814512,15.288,0.0,12.336551287074895,0.1144924462418193,3.868161956906537e-07,0.022076679554348,0.0407653471528891,-0.0022764917302255,11.625257156944643,23.80108681536844,40.58131540345791,25.6677353126849
1.19,31.2221483757042,131.01049633655887,27.29452453175188,-5.053323622961488,10.378623003112043,42.869793345692685,-4.113356721966154,5.411708955206415,428.4078130529292,39.09796256854872,18.446664450787218,70.34299541540584,1.86532858885072,115.68299686818185,933.8550610929595,15.288,0.0,12.364719412102678,0.1149302191919672,4.00294931620836e-07,0.0225413354574756,0.0417355420832695,-0.0023332006592798,11.531341664906291,23.67452106328772,40.71933203718925,43.405362328177866
1.2,31.222147821415163,131.01049817039748,27.667744937193657,-4.962796357150894,10.271881023437988,4.852531329768122,-4.175071512837955,5.432923267920587,117.1843741360236,39.38559297340514,18.591878348514168,70.35522446994366,1.934177153152788,115.75610385326226,947.6117347073326,15.288,0.0,12.392764742216524,0.1157762093605306,4.14083713035686e-07,0.0230091859855952,0.0427195037849962,-0.0023990615718656,11.39632928995706,23.46727612016069,40.99046697579781,8.3961263496213
1.21,31.222147264895423,131.01050001594052,28.04277526102263,-4.874285195495739,10.167932880534927,34.4914865344201,-4.236490214901286,5.453688314629448,359.92343213200894,39.664922619362926,18.734030136965675,70.36767237402101,2.0047260982908703,115.83101061276813,961.0660367421018,15.288,0.0,12.420594117502224,0.1165978083800034,4.281912405163394e-07,0.0234781663764262,0.0437131230497875,-0.0024652325446767,11.264788341473624,23.266777771117656,41.253727549704045,35.17603173935575
1.22,31.22214670524559,131.01050187539653,28.420273259453506,-4.802360482103853,10.096704192179692,25.091217331525595,-4.284425785985334,5.467447478519427,283.0687504825761,39.81824626025277,18.83312667268657,70.38033793135601,2.077000498427898,115.907743390998,968.4752228762254,15.288,0.0,12.44830347363343,0.1170490126023103,4.426172209055434e-07,0.0239499050828998,0.0447200254094266,-0.0025243948221342,11.169904540436638,23.139078656146683,41.396037110958034,26.03494715615599
1.23,31.22214614281892,131.0105037478677,28.799978950972324,-4.714331932050352,9.991329374495542,10.011606476719606,-4.34788221857525,5.48867074994486,159.79687382222795,40.10527417272452,18.97755720932268,70.39321957753025,2.151024167506028,115.9863270803285,982.452123767218,15.288,0.0,12.47586522441694,0.1178932599958109,4.5736743111589044e-07,0.0244235301608914,0.0457386080870425,-0.0025927786441242,11.037470283026794,22.936835521902307,41.66676646668373,12.217276727347919
