Time,Latitude,Longitude,Altitude,Angle of Attack,Angle of Sideslip,X-Acceleration,Y-Acceleration,Z-Acceleration,Thrust,True Velocity,Ground Velocity,Pitch,Roll,Yaw,Dynamic Pressure,cp,parachute_deploy_gain,Wind Speed,Mach,omega_x,omega_y,omega_z,Cmq
0,31.2221860000000042,131.010383999999988,3.00000000364323682,0,0,0,0,0,2.2828121974499247,0,0,69.9999999962342088,0,113.699999993883324,0,15.2880000000000003,0,0,0,0,0,0,-0
0.01,31.2221859999997946,131.010384000000556,3.00000016469923247,0,0,0,0,0,34.2421869617492334,9.11367326775851009e-12,8.66229497295429822e-12,69.9999999962370651,-4.92863947922479589e-13,113.699999993882884,5.08594204168408172e-23,15.2880000000000003,0,0,2.67827100510624443e-14,-3.65918233213857746e-19,7.58941520739853104e-19,4.81114714040442593e-19,-1.83541113936281872e-32
0.02,31.2221859999996028,131.010384000001039,3.00000030885429547,0,0,0,0,0,25.8718762377664078,1.96992978605390895e-11,1.88456988716431921e-11,69.9999999962400494,-1.04152381447771591e-12,113.699999993882386,2.37621641206600858e-22,15.2880000000000003,0,0,5.78911013494094702e-14,-7.28448334638698292e-19,1.51788304147970621e-18,9.75781955236953991e-19,-7.93451985123442364e-32
0.03,31.222185999409362,131.010384001586402,3.00018176030779937,18.6493779029494604,-0.000129237623237530007,10.7928899806483045,-1.97644583900689674e-05,3.34983967390763571,180.342193598546658,0.0785672533977095078,0.0490694047558625918,69.9999999976775626,-4.2497891361524094e-12,113.699999994705607,0.00377978965327356543,15.2880000000000003,0,0,0.000230888677896110966,2.88330015245363835e-17,-7.25223402354589416e-10,1.08188208080271277e-11,1.51197624781400831e-13
0.04,31.2221859959356287,131.010384010943454,3.00162780953569674,9.74253989061216075,-4.88763086122285772e-05,51.6475445943311158,1.54548216767323456e-06,3.34965665682309899,548.635972453807767,0.346420694310776434,0.171860503977579737,70.0000000036447574,-2.28205307288861013e-11,113.699999999565534,0.0734838809649275282,15.2880000000000003,0,0,0.00101804013696402693,1.80009747884589399e-15,-1.58734069119923437e-08,2.61929145365345784e-11,1.45916869803439425e-11
0.05,31.222185985910329,131.010384038045004,3.00715844163023283,5.5769968489095687,-4.21135943534799539e-06,75.3242160169835273,4.73080294831520123e-05,3.34902689347595528,761.698429882464552,0.947854334293939504,0.409211128642743283,70.0000000010935537,-1.04766136577077691e-10,113.700000013612069,0.55013262299765131,15.2880000000000003,0,0,0.00278549703395658196,1.95473045844392346e-14,-1.13584749331540247e-07,4.14067569904437612e-11,2.85688606727574374e-10
0.06,31.222185966868647,131.010384089593572,3.01868664272593046,4.48500474963244322,2.31139019787050305e-05,56.3605563030587007,9.71465785775115924e-05,3.34799244711343214,590.487539073720654,1.60618980149218604,0.665693519146445256,69.9999999197690244,-2.82941102348924619e-10,113.700000040305838,1.57971028663545732,15.2880000000000003,0,0,0.00472017413217633904,1.01936766184118274e-13,-4.07864410983111553e-07,5.76522069423461223e-11,1.73837509686130208e-09
0.07,31.2221859390775336,131.010384164863126,3.03600551209402658,4.00448286551149391,4.63712119495135773e-05,85.8192455386477917,0.000147926970097503541,3.34656708333141317,855.293774977913927,2.27788210706903049,0.926660947343454056,69.9999996219982279,-5.49831570978999292e-10,113.700000079276109,3.1772067926123353,15.2880000000000003,0,0,0.00669410445039518576,3.35900025920073467e-13,-9.92070622953462368e-07,7.83315922772719921e-11,5.99658406989250883e-09
0.08,31.2221859009658012,131.01038426812616,3.06033476575187802,3.77263127792190334,7.06371256062416025e-05,17.6076228145981588,0.000196957592070898702,3.34480227118667583,241.217198863884818,2.92612482887636283,1.17954495655796454,69.9999989088305909,-9.15694670892462832e-10,113.700000132739973,5.24285298735243899,15.2880000000000003,0,0,0.00859912396431777512,8.49635706706491564e-13,-2.01744800413265681e-06,1.10032289818440005e-10,1.56647792516492608e-08
0.09,31.2221858556197738,131.010384390989856,3.0892797608365723,3.74258231141200604,9.5325675231994802e-05,53.4176180048964397,0.000237730218002333866,3.34289666486112669,563.093737704317618,3.46187703891102627,1.39384941462988121,69.9999975134546446,-1.31671842773002699e-09,113.70000019638816,7.33844512707370811,15.2880000000000003,0,0,0.0101735644468633635,1.80613395740032365e-12,-3.4856561047658452e-06,1.59232278560273843e-10,3.20202005890100843e-08
0.1,31.2221858028175774,131.010384534057465,3.12301320909491364,3.81071421019783685,0.000121971080758598364,50.732831688561788,0.000271545837515448313,3.34090447591365036,538.7437595981919,3.9029133825176725,1.57567038389986336,69.999995157830341,-1.72222432289554893e-09,113.700000270567642,9.32732681847184431,15.2880000000000003,0,0,0.0114696609641860067,3.37914451533694905e-12,-5.48904943388414521e-06,2.34452541412924053e-10,5.68476506314615152e-08
0.11,31.2221857431700727,131.010384695667796,3.16106164078641116,3.84323765504598036,0.000147145408783231387,40.0848474374385688,0.000307099758177995722,3.33859717034531034,442.865639305294906,4.36819921201157246,1.76578242121538631,69.9999915253729768,-2.07703942468805025e-09,113.700000354470319,11.6837607126815346,15.2880000000000003,0,0,0.0128370221364947634,5.76365694334259916e-12,-8.08162139954488366e-06,3.4437809457680147e-10,9.36754562129998513e-08
0.12,31.2221856770245907,131.01038487487628,3.20315617196047642,3.86558564807459826,0.000171348089099210797,43.7480799143332604,0.000342946594964391399,3.33600966231316054,475.585948135404465,4.83801864946757032,1.95742650583495204,69.9999862600106582,-2.3147200577597177e-09,113.700000447673773,14.3321420062794882,15.2880000000000003,0,0,0.0142177082532951912,9.17772063248746377e-12,-1.13223702306849879e-05,4.98555567062495836e-10,1.45354343598177095e-07
0.13,31.2221856047215205,131.010385070757366,3.24903338361815308,3.95285669440916232,0.000198169826234992146,48.2585391180499741,0.000371981107240517913,3.33344523512332414,515.915632623689476,5.21512035057569623,2.1172615234944101,69.9999789703044399,-2.35265113573284059e-09,113.700000549782459,16.6533950244453948,15.2880000000000003,0,0,0.0153259223232261182,1.38588880633063252e-11,-1.52681962163171846e-05,7.07166414280215559e-10,2.11287244421402401e-07
0.14,31.2221855263490333,131.010385283071088,3.29862557546706325,3.99981420118284792,0.000223008237377726162,44.9721767850953427,0.000403855591455553264,3.33052592490198407,486.239086056840392,5.63167615200940475,2.29059513099545553,69.9999692426645623,-2.0964169591742506e-09,113.700000660771011,19.4199179783547713,15.2880000000000003,0,0,0.0165500839355928395,2.00553635588333716e-11,-1.99811439493909854e-05,9.81252131659242702e-10,2.9859131057555361e-07
0.15,31.2221854420015994,131.010385511560628,3.35186028506811029,4.05975476911301225,0.000248539990764711958,43.4637160193537753,0.000433543226731567866,3.32747422849243879,472.54218587214001,6.01888316560526437,2.45383766868271946,69.99995661705006,-1.43188768134039915e-09,113.700000780625842,22.182048585914238,15.2880000000000003,0,0,0.0176879988684610287,2.80404916713566325e-11,-2.55291719775422389e-05,1.33309260321839681e-09,4.07727088477750495e-07
0.16,31.2221853515819241,131.010385756490507,3.40881389436676407,4.08854462484130732,0.000272210944932510383,34.4023069357135967,0.000465877824565354701,3.32404684464906053,391.12189082975641,6.44303061809316624,2.62971580822363071,69.9999405987561403,-2.27841984783363582e-10,113.700000909623355,25.4183784408083007,15.2880000000000003,0,0,0.0189344747787753703,3.81042963600432359e-11,-3.19913711614788564e-05,1.77662362644707755e-09,5.46937370926295155e-07
0.17,31.2221852554099399,131.010386016990765,3.46923909377793649,4.13347468842419552,0.00029684158695823977,43.4155809381403728,0.000495744973995866601,3.3205135250562221,471.78125980632376,6.83404379119085981,2.79420112365087148,69.9999206448319882,1.67575894446247236e-09,113.700001047478835,28.5969980778046526,15.2880000000000003,0,0,0.0200835795555658371,5.05622819343119236e-11,-3.94162603380559734e-05,2.32482468580976756e-09,7.14768170397066036e-07
0.18,31.2221851530022434,131.010386294375877,3.53351204963262022,4.16207877285686756,0.000320492787063832857,36.2151660219171347,0.000526966735016640565,3.31665933612355879,407.101567211914528,7.2444022294323478,2.96528531587496236,69.9998961790314524,4.45070668055043651e-09,113.700001195059045,32.1341903991183955,15.2880000000000003,0,0,0.0212895378539265934,6.5741708189353534e-11,-4.79243856484647045e-05,2.99669991322666987e-09,9.21230820748327094e-07
0.19,31.2221850444828668,131.010386588308563,3.60153760019172342,4.17456309251139679,0.000342914278589344943,40.9041800427263027,0.00055982867240863632,3.31244583927210501,448.953132831826849,7.67810673790947895,3.14433961722118216,69.9998665624008964,8.30674092292676784e-09,113.700001352409558,36.0967170721845179,15.2880000000000003,0,0,0.0225641073333706747,8.40032927522686365e-11,-5.75836346763551867e-05,3.80911503044151526e-09,1.17316671380156179e-06
0.2,31.2221849296486234,131.01038689934137,3.67347464118590317,4.20078915399145636,0.000366573034254704516,37.5214898208491761,0.000590466919182690893,3.30812712915434881,418.515630199161365,8.08216006412957277,3.31318683933006453,69.9998311045104487,1.34800080829191884e-08,113.700001520067786,39.9955165273270055,15.2880000000000003,0,0,0.0237515420632470921,1.05728805481567758e-10,-6.85028882131185225e-05,4.78351733027568889e-09,1.4690610466811608e-06
0.21,31.2221848088436893,131.01038722653837,3.74905730552401684,4.22722562033261262,0.000390310433246848657,36.0064697775761644,0.000620601272787201603,3.30359776763142721,404.818761014464428,8.48018829437500621,3.47992805775657654,69.9997890742529592,2.02433263776548733e-08,113.700001697833756,44.0315784885794201,15.2880000000000003,0,0,0.0249212734096428447,1.31320595517854955e-10,-8.07208291683553139e-05,5.93661589182972911e-09,1.81631626331753899e-06
0.22,31.2221846819136672,131.010387570319409,3.82840670130281646,4.2176244726165093,0.000410696285369717819,43.5935627685881499,0.000655758920494764063,3.29841875767922987,472.542185872136486,8.94831461811120121,3.67066782999472752,69.9997397083127737,2.88926538075102191e-08,113.700001886238866,49.0266756129506618,15.2880000000000003,0,0,0.0262970098082033268,1.61186003536399267e-10,-9.43348117723774896e-05,7.29106197993283208e-09,2.23980539128825791e-06
0.23,31.2221845484548304,131.01038793178239,3.91183756115468473,4.25320537954326383,0.0004356497720089569,36.207459360748949,0.000683686922722525747,3.29355466128287455,406.340642146102141,9.31799902525197865,3.82760028360492655,69.9996821549030983,3.9766623706965518e-08,113.70000208621326,53.1608354775167555,15.2880000000000003,0,0,0.0273834518362109196,1.95767624418301473e-10,-0.000109505708778552874,8.87784718088286285e-09,2.70740355927931971e-06
0.24,31.2221844093456014,131.010388308538637,3.99866964940866776,4.27135264557773553,0.00045883378920767232,37.3286080087975947,0.000713911697673520317,3.2882529474867046,416.232824001711379,9.7203332459195213,3.9956861712714935,69.9996155408946805,5.32509871046438109e-08,113.700002296918697,57.8502398901668755,15.2880000000000003,0,0,0.0285658473732890855,2.35534745143307651e-10,-0.00012617657385590063,1.07071802425012536e-08,3.25424194465518317e-06
0.25,31.2221842644570167,131.010388700938847,4.08900446593793809,4.29698686981540234,0.000482848983334858658,38.3649566400252979,0.000742483922667206905,3.28284626589867479,425.364080791506922,10.1009615935159527,4.1562806652626314,69.9995389781877293,6.97479781374676735e-08,113.700002518962805,62.4689963611702623,15.2880000000000003,0,0,0.0296844577155840929,2.80933085873043406e-10,-0.000144451636124542286,1.28055329635332884e-08,3.87142965072796435e-06
0.26,31.2221841140756986,131.010389108203611,4.18262110402873155,4.32755423691547136,0.000507438991606541483,41.7865661614553829,0.000769736419800412888,3.27732087646770287,455.80158342417883,10.4644497354123782,4.31094871887776954,69.9994515368878751,8.97024502886333285e-08,113.700002752408935,67.0452443356678742,15.2880000000000003,0,0,0.0307527002093570291,3.32431765373287754e-10,-0.00016436315770221847,1.51925047864838523e-08,4.56355359993810651e-06
0.27,31.2221839578137299,131.010389531387915,4.27982215321117465,4.33742811840656994,0.000529702335486379188,38.2242911032538473,0.000800211178185602123,3.27123004841987974,423.842199659872563,10.8736118498261902,4.48123226393084195,69.9993522521519935,1.13587393208351198e-07,113.700002998306658,72.3900346549699947,15.2880000000000003,0,0,0.0319551720828357214,3.90484337603431509e-10,-0.000186059811616844751,1.79019946498730075e-08,5.36790267753501075e-06
0.28,31.2221837957695953,131.010389970223883,4.38053283172365671,4.35979025650862262,0.000553527510562852902,44.1207307275094038,0.000828072271385077072,3.26514386100193477,476.346873201222195,11.2478718916014184,4.63949182586423614,69.9992400702920463,1.41938296327408329e-07,113.700003257081931,77.4582454645660761,15.2880000000000003,0,0,0.0330550782151640757,4.55595825375374429e-10,-0.000209619220926101062,2.09616181379585756e-08,6.25569396794615011e-06
0.29,31.2221836278828384,131.010390424876022,4.48480177698289584,4.38135974025744623,0.00057737648726709299,35.3536197607625553,0.000855659611391794222,3.2588361863853601,397.970310422111766,11.6195889013503368,4.79682445966682813,69.9991139044831527,1.7532937395312496e-07,113.700003529427192,82.6616578528940948,15.2880000000000003,0,0,0.0341475147840558241,5.28268525040872464e-10,-0.000235137545717689308,2.44023887909330158e-08,7.24907222782668121e-06
0.3,31.2221834544381096,131.010390894570321,4.59240982688131272,4.39617507281761988,0.000600356665334356751,33.1490797613948018,0.000884158719714270942,3.25217107922164672,378.185945710871067,12.0052186882677852,4.95887519756831807,69.998972627127344,2.14383684192303281e-07,113.700003815596887,88.2385269149682756,15.2880000000000003,0,0,0.0352808420099011907,6.09029939588318471e-10,-0.000262641159892275291,2.82471356422800846e-08,8.36561857411674722e-06
0.31,31.2221832755909574,131.01039137888381,4.7032380575360353,4.42235615181669761,0.000624899913490765827,34.9528590290802086,0.000910025197609511073,3.24555398289468222,394.16562209302117,12.3556398803864607,5.10879227158949156,69.9988150759387651,2.59766173767152649e-07,113.700004116072961,93.4639131761651498,15.2880000000000003,0,0,0.0363107024397255479,6.98403788157463991e-10,-0.000292187019282257228,3.25229566712151178e-08,9.57826248689966157e-06
0.32,31.2221830914257232,131.010391877587324,4.81722282885169673,4.45155794779377789,0.000649944303128982049,38.0379859115142835,0.000934821026682707218,3.23882361682650144,421.559393462426954,12.6924793110791878,5.25399282922068878,69.9986400687318024,3.12179641788393281e-07,113.700004431478234,98.6283237403037703,15.2880000000000003,0,0,0.0373006526995305274,7.96905013945712519e-10,-0.000323836613651358495,3.72580440687311147e-08,1.09050644159405278e-05
0.33,31.22218290196043,131.01039239063175,4.9343519698327194,4.48019701204722054,0.000675004219851668761,37.7093551175013246,0.000959261610436717115,3.23189933669563656,418.515630199168186,13.0256844327599097,5.39788776638052958,69.9984463826819052,3.72372687880250348e-07,113.700004762578004,103.87354288045799,15.2880000000000003,0,0,0.0382799263433428877,9.05047894999210997e-10,-0.000357667290238851605,4.24836225249657193e-08,1.23603484615852587e-05
0.34,31.222182707020778,131.010392918491164,5.05476263450916541,4.49049305198152204,0.000697378143373914754,29.5227085089536203,0.000987142430045659337,3.22427911658814059,345.465636880756449,13.4081741031825317,5.55863100914667463,69.9982327456812641,4.41143957445642244e-07,113.700005110463266,110.062177258613033,15.2880000000000003,0,0,0.0394040418267209702,1.02333461745717641e-09,-0.000393806243978271305,4.82396483202145133e-08,1.40087103268591529e-05
0.35,31.2221825067937928,131.010393460657156,5.17831168393457641,4.50711781535187139,0.000720712543856854714,32.3530371383660977,0.00101333646443235357,3.21661305844837253,370.576570052703289,13.7686530554979374,5.71176159517965232,69.9979978091806316,5.19362042776584697e-07,113.700005475786654,116.058400304168075,15.2880000000000003,0,0,0.0404634764462946869,1.15232390415689195e-09,-0.000432299813734132244,5.45552399130644805e-08,1.57912776608867467e-05
0.36,31.2221823012122108,131.010394017312592,5.30505329869157727,4.52767240178778962,0.000744729708600240731,36.5526511043957356,0.00103828652712813154,3.20885713174522058,407.862523277719447,14.1132764952183631,5.85938873702120233,69.9977401961163537,6.07939829707116331e-07,113.700005859608282,121.939407863977465,15.2880000000000003,0,0,0.0414763190843316643,1.29254043868676357e-09,-0.000473255972436325862,6.14699225552327593e-08,1.77198251922661022e-05
0.37,31.222182090341061,131.010394588280832,5.43493909097431604,4.55039311415752579,0.00076918150115683735,34.6835787828593496,0.00106234372950533948,3.20097384516078431,391.121890829766642,14.446930470491731,6.00318739776240751,69.9974584775585669,7.0785096329375243e-07,113.700006262864989,127.771540530283914,15.2880000000000003,0,0,0.042456928843506235,1.4445318520011827e-09,-0.000516746496826029863,6.90186481791334769e-08,1.98053803654614999e-05
0.38,31.2221818741223878,131.010395173719473,5.56801609611825477,4.56315131642791805,0.000792019287104061913,36.2353933787001239,0.00108827974821363053,3.19255015153205646,404.818761014460279,14.8084413239345949,6.1564787166299757,69.9971511865591651,8.20121521966083772e-07,113.700006686723384,134.244380272309172,15.2880000000000003,0,0,0.0435194095147296359,1.60882660749176723e-09,-0.000562873331420229127,7.72423853301427293e-08,2.21128406351508731e-05
0.39,31.2221816525004634,131.010395773780147,5.704329739781131,4.57922628245169783,0.000815489716137310881,30.9425419640016202,0.00111309493143926189,3.18402316666385765,357.640624933827439,15.1559126959619999,6.30488433186772657,69.9968167722787769,9.45855271408966431e-07,113.700007132429306,140.616382889747683,15.2880000000000003,0,0,0.0445406353688629561,1.78596578656278109e-09,-0.000611756345505213715,8.61868943159197994e-08,2.45968452142520012e-05
0.4,31.2221814256617982,131.010396387955836,5.84373750626454935,4.59349479979191955,0.000838670682925170751,29.5834243852937959,0.00113797512888990423,3.17521289611434332,345.465636880754005,15.505969085398343,6.45410901523083158,69.9964536498379317,1.08621525395706341e-06,113.700007600947828,147.185065961143067,15.2880000000000003,0,0,0.045569462889951777,1.97653506559195414e-09,-0.000663427505461186432,9.58835144134294998e-08,2.72901174189528038e-05
0.41,31.2221811937141673,131.010397015953487,5.98615797249314241,4.60939449845229365,0.000862163931524819621,33.360545626359837,0.00116210409424792778,3.16624854525325983,378.946870776686467,15.8471768437686258,6.60022848408685459,69.9960602026584695,1.24241947051318175e-06,113.700008093413757,153.73182724817184,15.2880000000000003,0,0,0.0465722905345462151,2.18109996727848554e-09,-0.000717942131686907965,1.06367950505874699e-07,3.01820283711074823e-05
0.42,31.2221809567080335,131.010397657635991,6.13155423418529733,4.63387609959193458,0.000887317919769279608,37.5676427387571721,0.001183742077125155,3.15743374731593907,416.232824001711379,16.155026338188506,6.73482947265292431,69.9956347739890248,1.41574639558456e-06,113.700008611107208,159.760443802515937,15.2880000000000003,0,0,0.0474770882933877245,2.400206535531791e-09,-0.00077537935552726017,1.17680930846389008e-07,3.32294321368729263e-05
0.43,31.222180714655078,131.010398312971745,6.27991949833728835,4.65367427313455995,0.000911660169575580258,33.0386483003103493,0.00120612360190941372,3.14823214930187856,375.903139513433644,16.4750454055619109,6.87353555569934649,69.9951756835756242,1.60752723178871754e-06,113.700009155418982,166.15023929888028,15.2880000000000003,0,0,0.0484176551665520677,2.63438237315801404e-09,-0.000835821567166909188,1.29864614855892046e-07,3.65287677570896608e-05
0.44,31.2221804673911407,131.010398982407111,6.43138341412837455,4.65757387742934892,0.000932929976641759203,30.4788052564327749,0.00123214974254881528,3.13809943757763454,353.075012538921555,16.8483715860516412,7.03046484016701978,69.9946811832270441,1.81916859536649675e-06,113.700009728069276,173.762989227436179,15.2880000000000003,0,0,0.0495148886868988364,2.88411342836306464e-09,-0.000899417740154189794,1.42975581697416844e-07,4.01983191819108926e-05
0.45,31.2221802146980103,131.010399666535704,6.58611776122768511,4.65827001030579346,0.000953562143933252499,35.4620561517945134,0.00125873275223327787,3.12754579585638304,397.209385356286873,17.2316459864824161,7.19073264961644831,69.9941493995125938,2.05218870761162579e-06,113.700010330973456,181.755888424112015,15.2880000000000003,0,0,0.0506413642318551335,3.14987863732273609e-09,-0.000966369542842942814,1.57083782729145849e-07,4.41725079750487196e-05
0.46,31.2221799565319174,131.010400365476642,6.74415901717088939,4.66907507286434065,0.00097630283571516251,41.3913707355688842,0.0012823814722795761,3.11722412848720953,449.71405889764344,17.5754687869478978,7.33738035579407555,69.9935783582983362,2.30821229426708146e-06,113.700010965912341,189.078525726536213,15.2880000000000003,0,0,0.0516519027755614896,3.43223060675433133e-09,-0.00103681314204437207,1.7224885851047691e-07,4.83373548649469587e-05
0.47,31.2221796928065203,131.010401079464799,6.90557672428163105,4.67806301106434042,0.000998761260684927557,28.0209900204918974,0.00130616618884544979,3.10657060381263461,331.007810630253402,17.9233234115620377,7.48533101007974988,69.9929660462147325,2.5889364060732201e-06,113.700011634803886,196.634049649816575,15.2880000000000003,0,0,0.0526742959306323727,3.73170463860384924e-09,-0.0011108841623615434,1.88532207060213475e-07,5.28148505664365441e-05
0.48,31.2221794239793269,131.010401807256216,7.07001851744381948,4.68642527483421745,0.00102109091231145262,27.6007969606275125,0.00132978852885184593,3.09563681785184297,327.203122301157407,18.2709832353803314,7.63313726727991071,69.9923104035261474,2.89614261094227829e-06,113.700012338884164,204.33305198470137,15.2880000000000003,0,0,0.0536961221459722679,4.04904859899578719e-09,-0.00118849531779471017,2.05948560519311644e-07,5.75998398329450787e-05
0.49,31.2221791502289392,131.010402548365278,7.23734841566291642,4.70156796398202914,0.00104489945272251677,34.6487244505178253,0.00135120419031512233,3.08484494341801163,389.60000969812296,18.589315545984995,7.7707981814672209,69.9916093757078812,3.23165731652504743e-06,113.700013079832303,211.511801733856089,15.2880000000000003,0,0,0.0546317638991248022,4.38486615800834454e-09,-0.00126967773493266863,2.2453662401782158e-07,6.26054017926546362e-05
0.5,31.2221788715876762,131.010403302704333,7.40754387012007864,4.72212438923579736,0.00106996435823571525,35.6033845714535389,0.00137072557486675028,3.0741588573465477,397.970310422105001,18.8826594549893159,7.8998011517407587,69.9908609011483378,3.5973597360057951e-06,113.700013859590555,218.236320199079358,15.2880000000000003,0,0,0.0554939729313439212,4.73968531279909998e-09,-0.00135450679800636423,2.44344941868023912e-07,6.78409867869358833e-05
0.51,31.2221785881337617,131.010404070060673,7.5805467220577798,4.73558879650721298,0.00109346949398930206,27.1956639286467201,0.00139183542187690463,3.06284319292573448,323.39843497208409,19.200774511812984,8.03722958125224807,69.9900628955037689,3.99519228958782199e-06,113.700014680103109,225.647740475438098,15.2880000000000003,0,0,0.0564289867670437692,5.11403675587933804e-09,-0.00144303978709531136,2.65418546512062939e-07,7.34915902759761199e-05
0.52,31.222178299889606,131.010404850469456,7.75636950764500988,21.4973486258276019,-0.00206601851417566014,33.2609457815301184,0.0007942656795296906,1.64563788794479193,372.098451184341457,23.6820952729624956,8.17542055223892383,69.9892121681357224,1.13426793294983863e-05,113.700022903341917,343.262538718661517,15.2880000000000003,0,7.51932921174142965,0.0695992388493927999,5.50629806561706708e-09,-0.00160282702923348654,4.42306534966696623e-05,0.000100679266239276247
0.53,31.2221780070319888,131.010405643581834,7.93518585898459783,21.29829749956928,-0.0020213927628499914,34.9090575289873684,0.000810904551201918947,1.5997476804529509,386.55624643486243,24.0115555255867328,8.30293118474951797,69.988141550564535,8.08812570742519415e-05,113.700097320020973,352.873704382513154,15.2880000000000003,0,7.54793280187357762,0.0705676309479669056,6.01742727926785526e-09,-0.00219911426424923605,4.41699185338559875e-05,0.000140053476785384674
0.54,31.2221777095539395,131.010406449248052,8.11709984238292392,21.1050411882669273,-0.00197758088326318877,30.7112889520239243,0.000827417752697982172,1.5531815213463076,349.270324209843579,24.3393853277512449,8.42948123834379892,69.9867251391564906,0.00015031384980888866,113.70017163056616,362.568718767632788,15.2880000000000003,0,7.57649064378400006,0.0715312377080219719,6.7251100150069929e-09,-0.00281160392073720108,4.410871024612128e-05,0.000181502229397655058
0.55,31.2221774077177585,131.010407266726276,8.30191221228205833,20.9219852024490933,-0.00193512921759394531,32.531428446383714,0.000843613754376435453,1.50639440750837328,365.250000591990727,24.660203584408162,8.55312975177823276,69.9849537628052332,0.000219636107076652093,113.700245829978314,372.183167500689194,15.2880000000000003,0,7.6049557635313878,0.0724742444567652438,7.62787649080524151e-09,-0.00343980475179771076,4.40471250433341265e-05,0.000224978470596127144
0.56,31.2221771015341112,131.01040809598814,8.48962421182845617,20.752130890917222,-0.00189426467798248211,30.3948026367927646,0.000859332723371996829,1.45975550946262267,346.226561946578727,24.9698668980401521,8.67237196803421995,69.9828183339983525,0.000288843684886565212,113.700319913635852,381.582139923452189,15.2880000000000003,0,7.63332734958186609,0.0733844740396311368,8.72382115291097195e-09,-0.0040839917112897306,4.3985185410219709e-05,0.00027046044722202399
0.57,31.2221767910800985,131.010408936824604,8.68018539174598658,20.579054276573892,-0.00185353083483017151,30.0641592101228383,0.000875277797775486448,1.4117056116843576,343.182829683302316,25.2867725156856764,8.79395512236623489,69.9803097246350347,0.000357932188273401685,113.700393876771074,391.322158990284947,15.2880000000000003,0,7.66160380745854663,0.0743159944731554278,1.00109479497220493e-08,-0.00474418909018558318,4.39229378593583274e-05,0.000318163333175329715
0.58,31.2221764763449201,131.010409789265481,8.87361340473685622,20.3923520081306293,-0.00181205049866547539,39.4616241374849821,0.000891937141331711507,1.36108342909246427,426.12500585731533,25.6237328552830057,8.92255423260815128,69.9774186554135156,0.000426904818238435047,113.700467725622417,401.813354952290467,15.2880000000000003,0,7.68978234502740587,0.0753064608507635902,1.14870788549007656e-08,-0.00542069225547474245,4.38604044700812446e-05,0.000368369631313732421
0.59,31.2221761569644336,131.010410654301609,9.0702002069556702,20.2306331945503928,-0.00177308116550981302,32.0719035511694486,0.000907539418817995868,1.31187854859602826,360.68438819711065,25.9344990135767333,9.0412423061829319,69.9741354064360053,0.000495741574651584627,113.70054143385417,411.611120235353724,15.2880000000000003,0,7.71790412896619582,0.0762199511281816539,1.31496676616883659e-08,-0.00611499963572099178,4.37975018359625093e-05,0.000420584022000312322
0.6,31.2221758331450303,131.010411531372284,9.26979533130705136,20.0423387243498219,-0.00173228284536112911,28.5543169162596762,0.000924481005250688773,1.25856595192539489,329.48595949860578,26.2818565014237393,9.17295934305283289,69.9704499539680427,0.000564453139677442814,113.700615018188628,422.702804463496307,15.2880000000000003,0,7.74593997124446343,0.077240988060262597,1.49968287302573819e-08,-0.00682673548361093126,4.37343179308044978e-05,0.0004758162424022208
0.61,31.2221755048514034,131.010412420574113,9.4724357714480778,19.8532219194115243,-0.00169184478568609482,33.3931013895113651,0.000941585976663414847,1.20377818748696686,372.09845118432969,26.6350424629462879,9.30646259208434046,69.9663521713014944,0.000633019166212453054,113.700688451397184,434.131587289468996,15.2880000000000003,0,7.77389250282219102,0.0782791618949571916,1.70262990507531644e-08,-0.00755633693034557432,4.36708688076138242e-05,0.000533735887604710893
0.62,31.2221751721990977,131.010413321593404,9.67804166556186729,19.7133468774564058,-0.00165581275851990313,41.4234215465795472,0.000956354683530175791,1.15348741091840279,442.86563930529212,26.9284190216000745,9.41786928849660221,69.9618315368525288,0.000701450419106587272,113.700761750534525,443.739140594799096,15.2880000000000003,0,7.80175967893450917,0.0791415656447117116,1.92360048405899008e-08,-0.00830387566151387715,4.36072039361130778e-05,0.000592986514597625787
0.63,31.2221748350272712,131.010414234868108,9.8867466771250001,19.5621588830865782,-0.00161919434543227915,23.6778885008054907,0.000971722942312874273,1.10075402175037884,286.112512747078938,27.2391805957506534,9.53529623474282317,69.9568779178427747,0.000769733849629495757,113.700834899008086,454.030888163983434,15.2880000000000003,0,7.8295453690349861,0.0800550701906083267,2.16231024402183559e-08,-0.0090700691785815489,4.35433180601738876e-05,0.000655162539674905391
0.64,31.2221744938842107,131.010415158907961,10.0981352699623965,19.391249935933633,-0.00158140713343262926,23.2576842638776,0.000988161762634110147,1.04437348840329869,282.307824417967538,27.5796414085431536,9.66325987698762745,69.9514810109475036,0.000837864723431968749,113.700907891124913,465.442177805368658,15.2880000000000003,0,7.85716830522026921,0.081055866799223969,2.41863196100176121e-08,-0.00985333126678570627,4.34794008885573848e-05,0.000720621645011331304
0.65,31.2221741487605939,131.010416093738769,10.3122234800609505,19.2566233229721817,-0.00154682895604293567,40.7824659745421272,0.00100277479046922686,0.991415065549602015,436.778144778747503,27.8736368026026895,9.77405805499775759,69.9456306712054214,0.000905838388615006667,113.700980722102173,475.408400097538731,15.2880000000000003,0,7.88470837180844164,0.0819201096634046833,2.69228666402335053e-08,-0.0106540873244820623,4.34154699837186335e-05,0.000787474617826788674
0.66,31.2221737991978863,131.01041704060782,10.5293747691703867,19.1161797856980264,-0.00151211374993787183,34.75734205233708,0.00101770983240757678,0.936608155719310886,383.512515171600171,28.1778274138272948,9.88827566920484813,69.9393165799663308,0.000973657756039134352,113.70105339863666,485.831344742644944,15.2880000000000003,0,7.91211773549384656,0.0828143231939907215,2.98286512281194986e-08,-0.0114741737908341836,4.33514307476053214e-05,0.000857327091818203498
0.67,31.2221734453751303,131.010417999028817,10.7494595188366091,18.9587161266192794,-0.00147644236476998127,24.0668881395153633,0.0010336031481483687,0.878267458880143459,289.156244010342505,28.5090513243749548,10.0120214774812055,69.9325278919125708,0.00104130026801620449,113.701125890182055,497.309636569331985,15.2880000000000003,0,7.93943072215939072,0.0837879946416818372,3.2901625406675343e-08,-0.0123132644588135193,4.328736931302891e-05,0.000930817230773227258
0.68,31.2221730874556265,131.01041896855827,10.9723602454587787,18.8090987546995301,-0.00144171448549998242,29.9498912670168629,0.00104912124915265345,0.819717146278999165,340.899992485846269,28.832141716561992,10.1325380723916556,69.9252535633463879,0.00110877940462220971,113.701198217756343,508.63454774955386,15.2880000000000003,0,7.96665448144878408,0.084737769177750305,3.61396521105045664e-08,-0.0131711521958786191,4.32233611426823783e-05,0.00100693124549123495
0.69,31.2221727255202453,131.010419948976818,11.1980229642752906,18.6798641325303585,-0.00140882791750084231,36.7862884484710193,0.00106351669601667748,0.762974575814502787,401.014072685363431,29.1273780594427976,10.2427096557041235,69.9174827723337557,0.00117607937079709638,113.701270360639342,519.093298053095737,15.2880000000000003,0,7.99370836989766964,0.0856056878007063066,3.95402858902906256e-08,-0.0140478289726362494,4.31594652402535466e-05,0.00108492655237811542
0.7,31.2221723594499991,131.010420940608469,11.4265478043983855,18.5511967564013318,-0.00137627623583113073,30.9249326165242451,0.00107787898305678463,0.705208214846022807,349.270324209852845,29.423621670840177,10.3529853377266186,69.9092046545845704,0.00124320404651922243,113.701342326539304,529.694375310126247,15.2880000000000003,0,8.02066012251735039,0.0864765740166251323,4.31001420103384022e-08,-0.0149440157236663314,4.30956850135801069e-05,0.00116585260475456629
0.71,31.2221719893010317,131.010421943301026,11.6578995545495179,18.4121125993681467,-0.00134328380702021565,25.4923893338314684,0.00109285394388535005,0.644643051602622585,301.331264063405797,29.7379762193647217,10.4695650913364755,69.9004081882335555,0.00131013171912500973,113.70141408634322,541.061057480286536,15.2880000000000003,0,8.04751425411357424,0.0874006960310777514,4.68166638982251933e-08,-0.0158597772000762076,4.30320764448107178e-05,0.0012504866140675623
0.72,31.2221716150817201,131.010422957032119,11.8920799293084141,18.2603257811146769,-0.00130973298995502928,31.1231640093498179,0.00110860630966950753,0.58074329341451425,350.79220534145287,30.0748622636567511,10.5940561169308314,69.8910819402434953,0.00137687416810998247,113.701485658954056,553.376847584440497,15.2880000000000003,0,8.07422313327142405,0.0883910465237722487,5.06871131444254128e-08,-0.0167954397051889893,4.29686766404261566e-05,0.00133923198816717349
0.73,31.2221712367958837,131.010423981792002,12.1290943851898607,18.1435196499073257,-0.00127891052505437353,39.2648450965785543,0.00112226377858383269,0.521347419319064254,422.320318528233997,30.3582990215818143,10.6989484912906772,69.8812142133936902,0.00144341383985411458,113.70155702136222,563.843625500130656,15.2880000000000003,0,8.10081064086583424,0.0892243154112757203,5.47087106201070211e-08,-0.0177514046118094904,4.29055191601312091e-05,0.00142876585116015454
0.74,31.2221708543905834,131.010425017724998,12.3689914135118855,18.017068161723433,-0.00124769882856519735,24.745917950162525,0.00113648648545414056,0.459201192496612731,294.482813471059444,30.6588434898708471,10.8097834034393152,69.8707934779602766,0.00150975988984808525,113.701628188841369,575.049642891115013,15.2880000000000003,0,8.12730242424472138,0.0901078720995901611,5.88784688028294839e-08,-0.0187280606240777907,4.28426399574785241e-05,0.00152226223800378609
0.75,31.2221704682063681,131.010426063905641,12.6115161390113943,17.8849274041223154,-0.00121640844492697524,28.8233250043389582,0.00115105757147570468,0.394831810619993506,330.246885564414924,30.9706951169726707,10.9244911610113746,69.8598082263156783,0.0015758881292359066,113.701699128396442,586.793902720399046,15.2880000000000003,0,8.15367042003825127,0.0910246686641603825,6.31957599626318265e-08,-0.0197243391932812907,4.27801785890122448e-05,0.00161951211035748902
0.76,31.2221700781454992,131.010427120600042,12.856751387190398,17.7654737137225851,-0.00118624610160477707,30.9985783546285205,0.00116480574107049239,0.331565817697747289,349.270324209861712,31.2628537633832622,11.0318640235152259,69.8482467973915675,0.00164181010661205475,113.70176985882091,597.902951467174717,15.2880000000000003,0,8.17986063210283021,0.0918835940858475503,6.76569990299830386e-08,-0.0207410032711091465,4.27181441592497298e-05,0.00171901210957049592
0.77,31.2221696841594358,131.010428187940732,13.1047418308015757,17.6498617711091086,-0.00115659370767564923,29.0188904824209253,0.00117827135934504704,0.267865944713554516,331.76876669607077,31.5497391933980111,11.1371055004919715,69.8360974958618215,0.00170750934612537019,113.701840358734671,608.91218281675242,15.2880000000000003,0,8.20594041718622691,0.0927270287690291073,7.22590179342527976e-08,-0.0217785588847093994,4.26565666370936912e-05,0.0018215249585516772
0.78,31.2221692863132141,131.010429265751213,13.3554444802739329,17.5252145710586973,-0.00112663713371959203,23.920107992361892,0.00119229175885602256,0.201266906831072234,286.873437812889904,31.8536741731845652,11.2482998111911705,69.8233484572236023,0.00177298404540020878,113.701910627620066,620.685682168653557,15.2880000000000003,0,8.23190413060399351,0.0936205810717267717,7.69996659210028691e-08,-0.0228369709056622239,4.25955141975674608e-05,0.00192840296460443676
0.79,31.2221688846938576,131.010430353795329,13.608799509163978,17.3959740448308295,-0.00109668190877038204,33.8061325879361902,0.00120659654682647895,0.132475001005725512,373.620332315953419,32.1675149613003128,11.3628734548829513,69.8099876501053558,0.00183822868083643445,113.701980659620517,632.961241208178649,15.2880000000000003,0,8.25774618806295813,0.0945432553309118601,8.18769793812872647e-08,-0.0239161886720271159,4.25350559499217774e-05,0.0020393824349094797
0.8,31.2221684790992313,131.010431452622981,13.8649692993421905,17.2868987905642015,-0.00106821877217648303,34.251581078522598,0.00121949982290465173,0.0665383080737886601,377.42502064505743,32.4464586912878943,11.4646152059482951,69.7960026904685407,0.00190323763634855318,113.702050449194275,643.970565138512825,15.2880000000000003,0,8.28344695238730644,0.0953633719697389026,8.68862937351349239e-08,-0.0250175184843939892,4.24751749339135351e-05,0.00215174122610447714
0.81,31.2221680696294186,131.010432561962489,14.1238835995202994,17.1664510330345585,-0.00103932521064507887,22.4746688780810793,0.00123312286444539018,-0.00290983986987919429,273.937492693991885,32.747109758298258,11.5740077456446873,69.7813811995429347,0.00196800530912344049,113.70211999038797,655.943695648633593,15.2880000000000003,0,8.30901591385406668,0.0962472965390009094,9.20262376903838576e-08,-0.0261407074118792764,4.24159572540880282e-05,0.00226912291216275564
0.82,31.2221676564650927,131.010433681323036,14.3854103692416775,17.0419398739552257,-0.00101046703810974922,28.7265408897315844,0.00124699069755475822,-0.0745302922254923589,328.725004432770049,33.0568143894383581,11.6864913272776931,69.7661107267135066,0.00203252608942765603,113.702189277129293,668.392706980688672,15.2880000000000003,0,8.33445977329646048,0.0971578386187160331,9.72960458970043485e-08,-0.0272852602649987369,4.23575027860651228e-05,0.00239081461483364689
0.83,31.2221672395945973,131.01043481073674,14.6495651156836324,16.9411333058149545,-0.000983219935374403387,36.3694654219669857,0.00125912783368484064,-0.142146876210400092,395.68750322465047,33.3228682845910527,11.783001083609836,69.7501786756710231,0.00209679434072553884,113.702258303592657,679.177734181025357,15.2880000000000003,0,8.35978499733808533,0.0979400939865062159,1.0269280213327198e-07,-0.0284516383105268313,4.22998521231969374e-05,0.00251301708035243758
0.84,31.2221668189215222,131.01043595046599,14.9164275419771304,16.8364497500795913,-0.000955971750877485636,22.6739782395105642,0.00127145245463208562,-0.211693392545482167,275.459374825645227,33.5966414144469709,11.8821149324745132,69.7335726236435676,0.00216080448907389738,113.702327064140974,690.365825422234138,15.2880000000000003,0,8.38499307277542805,0.098745044902236484,1.08213110530131233e-07,-0.02964047567254725,4.22430378568184375e-05,0.00263946366353013653
0.85,31.2221663947268482,131.010437099747236,15.1857883288577327,16.7140095602636158,-0.000928000260992678104,24.6783596817491429,0.00128499583196526657,-0.28656445895021021,292.960932339393764,33.9057369862865343,11.9938597735311809,69.716280117905356,0.00222455097867542981,113.702395552623415,703.109069103513207,15.2880000000000003,0,8.41004901123517001,0.0996538211925237366,1.13857937952110001e-07,-0.0308506800753145759,4.21871944530738968e-05,0.00277243486072256814
0.86,31.2221659668498539,131.010438259017775,15.4577764016389043,16.6060141773815211,-0.000901058481656672491,30.7637028770576251,0.00129740616339380703,-0.359230796544601827,346.226561946558718,34.1873111614263223,12.0954831358470276,69.6982882628421549,0.00228802815650899338,113.702463763414571,714.816992095919773,15.2880000000000003,0,8.43495621042971777,0.100481716410308453,1.19622530261196877e-07,-0.0320834599245804,4.21323227819856314e-05,0.00290708826432399536
0.87,31.2221655353162113,131.010439428208088,15.7323776288092532,16.5050897502426395,-0.000874710692347259932,28.6901100952817671,0.00130919434269956628,-0.431284782385211729,327.964078366998024,34.4550908936960596,12.1919484537422385,69.6795841883595415,0.00235123040681747136,113.702531690665907,726.039626688573435,15.2880000000000003,0,8.45974355526160871,0.101269075602298239,1.25504858871542215e-07,-0.0333389616420538895,4.2078487673654117e-05,0.00304443069671718729
0.88,31.2221651001621758,131.010440607219948,16.0095694912497279,16.395678449527022,-0.000848148292991880281,24.8781964547269538,0.00132152673854066087,-0.50661504948857583,294.482813471041823,34.7404527307139759,12.2946287395988332,69.6601550153558975,0.00241415214348712033,113.702599328546768,738.096101117923354,15.2880000000000003,0,8.48440496165615698,0.102108119463732064,1.31503489717772103e-07,-0.0346171665448750734,4.20257635727120426e-05,0.00318724943580128879
0.89,31.2221646614673851,131.010441795837181,16.2892963946876996,16.2780917807536127,-0.000821418949025928022,27.2323993646319344,0.00133440352524871763,-0.585327318331687718,315.028134248086985,35.0435258226638169,12.4035889445756151,69.6399877125339941,0.00247678777689844297,113.702666671162717,751.010289092314906,15.2880000000000003,0,8.50893820370634657,0.102999228084202685,1.37617152161899895e-07,-0.0359180353646656805,4.19742261202293472e-05,0.00333578278818883432
0.9,31.2221642191631403,131.010442994246688,16.5716158456311753,16.1834375840098552,-0.000796036302097980278,30.0222698782772319,0.00134539657396471474,-0.659168393444027001,339.378142354214447,35.2989624096402608,12.4951396579705207,69.6190688640647295,0.00253913165504007256,113.702733712764953,761.977944485508715,15.2880000000000003,0,8.53335239734837003,0.103750332663851239,1.43842324386024263e-07,-0.0372422880332757764,4.19239125719173504e-05,0.00348388582452224685
0.91,31.2221637733180124,131.01044420226242,16.8564800289511361,16.0803950830214717,-0.000770456487326211053,22.9907749919449742,0.00135692731163888415,-0.736365008224562967,277.742181023078899,35.5720903438638132,12.5929694286349569,69.5973854267371195,0.00260117826768120749,113.702800447560776,773.794098350607555,15.2880000000000003,0,8.55764008800719367,0.104553443415906333,1.50178217226011184e-07,-0.0385897677697020769,4.18749070452244921e-05,0.00363777043853467236
0.92,31.2221633241248462,131.010445419360479,17.1437468918993829,15.9693340700156678,-0.000744733320561906257,27.2587767414207995,0.00136899094441023409,-0.817000332183188571,315.028134248062145,35.8628700920560206,12.6970983929906929,69.5749242159403707,0.00266292211719517053,113.70286686959551,786.474677668969093,15.2880000000000003,0,8.58178959899652583,0.105408444545576699,1.56626148225970493e-07,-0.0399596779186815534,4.18273239654989496e-05,0.00379759614729172296
0.93,31.22216287149962,131.010446645769377,17.4334845932235325,15.8788505628553906,-0.000720154078659275901,32.3116863892032313,0.001379266405907696,-0.892870277791528832,359.162507065472823,36.108599540988223,12.7847600567020372,69.5516719226987306,0.00272435772219187244,113.702932973324693,797.267136348571057,15.2880000000000003,0,8.60580854861488831,0.106131041536228585,1.63181843047592953e-07,-0.0413528962636230332,4.17811956033187717e-05,0.00395681957750600513
0.94,31.2221624153390103,131.010447881770119,17.7257749549273562,15.7707682562704168,-0.000694997652240907917,23.621597280857852,0.00139084356992009322,-0.974996840190458181,283.068750483778672,36.3930505306979839,12.8863714815332582,69.5276153858134762,0.00278547969438778771,113.702998753329894,809.855064651398607,15.2880000000000003,0,8.62968291458594905,0.106967457750766728,1.698422950942996e-07,-0.0427700261203176543,4.1736571106322703e-05,0.00412453938987304269
0.95,31.2221619559189136,131.010449126613139,18.0204131235776899,15.6657860264800064,-0.000670200692560374961,30.4162916102837002,0.00140204416543082667,-1.05741408165801887,342.421873617487279,36.6707942105102589,12.9854645469281991,69.502740977768724,0.0028462825908843175,113.703064203598188,822.240234156414658,15.2880000000000003,0,8.6534234992200787,0.10778416796358424,1.76610213520100911e-07,-0.0442099750448312345,4.16935782312624883e-05,0.00429581703449360801
0.96,31.222161492961586,131.010450381053374,18.3176125661595499,15.5711702125925964,-0.000646032023623642048,29.8157543634345288,0.00141223095708696155,-1.13777121294976458,337.095335156783449,36.9246227906916147,13.075750733031775,69.4770351018541135,0.0029067610336160044,113.703129318969673,833.638628716604103,15.2880000000000003,0,8.67704845278499626,0.108530594356746668,1.8347813235961366e-07,-0.0456745611386366809,4.16522143170533488e-05,0.00446872103585159528
0.97,31.2221610264861766,131.01045164503887,18.6173618768719891,15.4721849950861081,-0.000621874147397495592,19.2891204250503989,0.00142263353872725462,-1.22060733712350888,245.021887192993233,37.1880469527838073,13.1694238348828758,69.450483868280017,0.00296690964227074678,113.703194093861413,845.55124654234578,15.2880000000000003,0,8.70055530904684105,0.109305232784101605,1.90444938884638744e-07,-0.0471639147537993297,4.16125565098908305e-05,0.00464722293944469424
0.98,31.2221605567668732,131.01045291782475,18.9194574442450651,15.3568793356391797,-0.000597299097828763999,27.8293009279014072,0.00143430719627653225,-1.31002354520030662,319.593746642958081,37.4899386754205608,13.2770497280159852,69.4230734117905826,0.00302672311860091667,113.703258522415567,859.310368692212933,15.2880000000000003,0,8.72392823686648988,0.110192945804678408,1.975152904337643e-07,-0.0486766448854505096,4.15747442792538681e-05,0.00483507323169865381
0.99,31.2221600836631374,131.010454199793088,19.2240083761485892,15.2705284171082596,-0.000574021809243211258,30.3630366463391113,0.00144330213755200346,-1.39091519902739136,341.660948551705417,37.7226048249300021,13.3593672663879879,69.3947895399089134,0.00308619615429974294,113.703322599351026,869.983942691729339,15.2880000000000003,0,8.74718453178845756,0.110877194802685472,2.04683131296922138e-07,-0.0502140706698069386,4.15388046831193398e-05,0.00501859431492944225
1,31.2221596071726779,131.010455490950136,19.5310182972459074,15.1683121144783097,-0.000550342965805413181,27.2340601522169123,0.0014535214571654311,-1.4782981887539588,314.26720818227642,37.9927403628712881,13.4552765298860901,69.3656186153280032,0.0031453236642822735,113.703386319425164,882.462628255893492,15.2880000000000003,0,8.77031710434432554,0.111671584903389728,2.11948106436081626e-07,-0.0517761778443551132,4.15048219053253077e-05,0.00521162055060001798
1.01,31.2221591274666821,131.010456790830744,19.84036123657717,15.0693298500150252,-0.000526979917374765139,28.4611369239544807,0.00146328811014111181,-1.56568858484039297,324.920316103697928,38.2545649062721864,13.5481061033165933,69.3355464606176213,0.00320410051658968692,113.703449677099897,894.6408266318291,15.2880000000000003,0,8.79332257617812196,0.112441554982840169,2.19312013481287528e-07,-0.0533623327247828294,4.14729031443656889e-05,0.00540813284145250789
1.02,31.2221586444714454,131.010458099635343,20.1520943959093337,14.975005772862092,-0.000503962243870637061,23.8474279471168416,0.00147245455567702088,-1.65247617543576597,284.590631615404163,38.5041018666338744,13.6363925079812347,69.3045591109341075,0.00326252172022638027,113.703512667331708,906.323355487842377,15.2880000000000003,0,8.81620632248659319,0.113175416500668716,2.26771519556382713e-07,-0.0549731887046078643,4.14431074907116334e-05,0.00560756350796056367
1.03,31.2221581582504122,131.010459417191527,20.4661717756956705,14.8701554886016911,-0.000480792833178378084,19.5798014090571968,0.00148240463699151432,-1.74428697552605549,247.30469339049705,38.7795055984928254,13.734108059740695,69.2726426686102599,0.00332058239816839917,113.70357528500179,919.307093631269595,15.2880000000000003,0,8.83896411220097278,0.113985316874968573,2.343271153077362e-07,-0.0566085129711767429,4.14155276860682785e-05,0.00581550171334428972
1.04,31.2221576688609659,131.010460743343572,20.7825523968563104,14.7761823436586912,-0.000458161214946105843,30.8364453876937858,0.00149116735926836186,-1.8331229024319069,345.465636880722968,39.0265613793534385,13.8214205609221388,69.2397827767148613,0.00337827765946932665,113.703637524984586,931.029523607485203,15.2880000000000003,0,8.86159898284789449,0.114711902021597228,2.41978118956211262e-07,-0.058268320472304104,4.13902476957841599e-05,0.00602396949183836398
1.05,31.2221571760305103,131.010462078831864,21.1014402298598078,14.673842830376385,-0.000435454780261049668,18.8026840790366805,0.00150051450656035388,-1.92631585682766349,240.456258798199826,39.2943675903444003,13.916293779697126,69.205965237503932,0.00343560275321663951,113.703699382767894,943.822189457894979,15.2880000000000003,0,8.88412300657959442,0.115499488183226057,2.4971648810119334e-07,-0.059954450534091222,4.13672952854876767e-05,0.00624062957658455802
1.06,31.2221566799821382,131.010463423050481,21.4226702921396139,14.5645600293444399,-0.000412752160571457994,26.5734709743385018,0.00151033799328862284,-2.023571971242351,308.179683655939243,39.5800615806632408,14.0177326703917178,69.1711752534875899,0.00349255289719450435,113.703760853103532,957.566861066417914,15.2880000000000003,0,8.90652665526942755,0.116339661535502764,2.57547388556310939e-07,-0.0616657275014250231,4.13467979359386236e-05,0.00646522434639171077
1.07,31.2221561806038928,131.010464776303451,21.7463269348015302,14.4727186316121053,-0.000390718747205278305,31.2055320295133818,0.00151828910847350528,-2.11486020383603845,348.509368144030759,39.818638009674423,14.1018442480586952,69.1353977119247105,0.00354912334337009576,113.703821931252321,969.115361552402533,15.2880000000000003,0,8.92882240530431837,0.117041348670339357,2.65465460413791585e-07,-0.0634033124490822469,4.13288111887220644e-05,0.00668725867002251204
1.08,31.2221556777967457,131.010466138859726,22.0724834648703307,14.3775887231086088,-0.000368760333746039797,21.17010247905041,0.00152633252201609879,-2.20855364109003904,261.001578574662346,40.0646800052338037,14.188666601093173,69.0986178064133725,0.0036053095377001328,113.703882612659186,981.098083123094852,15.2880000000000003,0,8.951011488583827,0.117764988329073797,2.73467857106855517e-07,-0.0651678924702503576,4.13134100667582484e-05,0.00691562639005772768
1.09,31.2221551718194696,131.010467510016326,22.4009483875648883,14.2647434063451879,-0.000346554489334735549,19.5135966976119732,0.00153590624650754102,-2.311079771786273,246.543753324744074,40.3584578275158492,14.2930962348052049,69.0608205942284314,0.00366110702180736606,113.703942892361326,995.507403056438989,15.2880000000000003,0,8.97308094006108092,0.118628950262916033,2.81562274496557956e-07,-0.0669578878817630452,4.13007318803579752e-05,0.00715745745385448426
1.1,31.2221546627418505,131.010468889583677,22.7316706175133909,14.1616047567449694,-0.000324788129698179776,38.6496302791291981,0.00154431894262015905,-2.41065351245360482,413.189061738584087,40.6250289976433692,14.387544590177173,69.0219909995751806,0.00371651143268742976,113.704002765762183,1008.66962009101997,15.2880000000000003,0,8.99503484226206851,0.119412950587405808,2.89748481587513864e-07,-0.0687732522190813017,4.12908689499541526e-05,0.00739983296816044446
1.11,31.2221541501770545,131.010470278612303,23.0649348116723019,14.0772648496646724,-0.000303599198500553713,28.4322750546419591,0.0015505993965993605,-2.50271869472456299,324.159391037639693,40.8372022476243899,14.4618846311995721,68.9821136920484719,0.00377151847543135809,113.704062228981641,1019.20051027084241,15.2880000000000003,0,9.01689353354061218,0.120037062713163223,2.98012919623852796e-07,-0.0706168630457180424,4.12838470626471883e-05,0.00763763976664165196
1.12,31.2221536341794419,131.010471676954353,23.4006989347022021,13.9587628236414147,-0.000281864805953040251,11.0413785946049661,0.00156010445785183033,-2.61181386919843961,172.73281794065943,41.1454704725093876,14.5717705370922257,68.9411736383768385,0.00382612406935979588,113.704121277737912,1034.61251889693517,15.2880000000000003,0,9.03864755036272882,0.120943646026461307,3.0635906425317041e-07,-0.0724882825591093016,4.12797794988303878e-05,0.00789897255349540292
1.13,31.2221531153112508,131.010473083082871,23.7385508923474617,13.8592591174414466,-0.000260721127836888102,33.4243537533970922,0.00156744988126664999,-2.71319493188352912,367.532807790070478,41.3985339777522796,14.661322161525149,68.8991546265601613,0.00388032400685436743,113.704179906895291,1047.34434992140609,15.2880000000000003,0,9.06028267898724415,0.121687968838659955,3.14803041352945348e-07,-0.0743841257903615077,4.12788369213322519e-05,0.00815514887139295007
1.14,31.2221525929334334,131.010474498733089,24.078956815068409,13.772973500083058,-0.000239968321770905727,18.7368050864674842,0.00157315288280132203,-2.80907740698205854,239.695317731955441,41.6109561587938614,14.7357971386890352,68.8560417300813015,0.0039341145167780308,113.704238113474915,1058.0854944010191,15.2880000000000003,0,9.08182380262942601,0.122312838192008722,3.23322029594359751e-07,-0.0763089880821098132,4.12810233774510166e-05,0.00840883552160075036
1.15,31.2221520675060482,131.010475922655417,24.4215779288070003,13.6525057217552739,-0.00021882191872617032,18.4746837773557324,0.00158218877052879528,-2.9231927855987121,237.412511535467729,41.9236299648742659,14.8475974530698771,68.8118200152968029,0.00398749199027252903,113.70429589311054,1074.01126128971782,15.2880000000000003,0,9.10322650172052761,0.123232400026779779,3.31934297618753708e-07,-0.0782594637373616731,4.12865071521511029e-05,0.00868828226061642284
1.16,31.2221515391579132,131.010477354499983,24.7663201992205977,13.5696183838138236,-0.000198454254136973599,47.5263086636622063,0.00158699222445915999,-3.01917340905579623,490.043774384589426,42.1220445368454506,14.9170016866516857,68.7664734101250872,0.0040404527108271809,113.704353241790258,1084.16549562635601,15.2880000000000003,0,9.12451915118982271,0.12381611137222065,3.40639710935215025e-07,-0.0802352963035817823,4.12953883657132359e-05,0.00894949845052893378
1.17,31.2221510070443102,131.010478796560108,25.1137938618406373,13.4688821945683053,-0.000177960936311982086,8.84843597398334936,0.00159340031633947721,-3.12537909569581096,153.709379294867944,42.372436203268002,15.0057507345004684,68.7199870385696272,0.00409299338703642424,113.704410157324162,1097.05668669869056,15.2880000000000003,0,9.14572936546096749,0.124552616342201092,3.49409145622817422e-07,-0.082242486486311342,4.13076765718280924e-05,0.00922760433702589193
1.18,31.2221504722656817,131.010480245847617,25.46319797273879,13.344615829274888,-0.000157385993065402573,23.3777482294103152,0.00160211868846169741,-3.2456292538891014,280.025018221967457,42.6952149301844202,15.1217087953400249,68.6723452067231506,0.00414511072921995832,113.704466634769318,1113.79696981671759,15.2880000000000003,0,9.1668118681335482,0.12550191044156106,3.58285217147326639e-07,-0.0842728795984833412,4.13235996775474507e-05,0.00952712272811153706
1.19,31.2221499343187148,131.010481703728942,25.8148957730481428,13.2724398504867409,-0.000137579082785155391,40.4547841768057381,0.00160485168966387486,-3.33812526449819957,428.407813052929214,42.8528399263371256,15.1760151238025855,68.6235317713872206,0.00419680150226128552,113.70452267150813,1121.99822251075693,15.2880000000000003,0,9.18780301529378285,0.12596574659058915,3.67241973353102792e-07,-0.086331064502445598,4.13431931760473295e-05,0.00979550327766086359
1.2,31.2221493927639777,131.010483171396544,26.1691984932560366,13.1585422534374565,-0.000117481855446902749,4.63484821077554177,0.00161186819879394075,-3.45502565193074185,117.184374136023607,43.1403689104123202,15.2789923044835732,68.5735321367380379,0.00424806299211348722,113.704578265377151,1137.06654055472563,15.2880000000000003,0,9.20870516467620703,0.126811443904938786,3.76267795863166664e-07,-0.088419787293315219,4.13665387516533054e-05,0.0100994701356331654
1.21,31.2221488487108836,131.010484645838432,26.5253051934639359,13.0469551609718533,-9.76299650295296586e-05,32.578612197288443,0.00161837532522749882,-3.57192455111736606,359.923432132008998,43.4200101006591268,15.379257627263037,68.5223299224911671,0.00429889228530096461,113.704633411810661,1151.81612723406056,15.2880000000000003,0,9.22948409799803038,0.127633964259863203,3.85405408848178851e-07,-0.0905308660666263726,4.13938287308953924e-05,0.0104072744613245075
1.22,31.2221483013025569,131.010486129380382,26.8838279554858488,12.970726421160963,-7.81795445985901264e-05,23.729727363097517,0.00162056803281867808,-3.66859846929667777,283.068750482576149,43.5815953589287517,15.4352184359528106,68.4699097623868767,0.00434928685626054939,113.704688109430407,1160.36496025594602,15.2880000000000003,0,9.25018092014416027,0.128109465618113122,3.94614694968113493e-07,-0.0926714424292379435,4.14250999350305714e-05,0.0106926291021086865
1.23,31.2221477508696204,131.01048762112444,27.2445236069225381,12.8559404949028444,-5.86561693353502688e-05,9.52840589769396296,0.0016268224095386777,-3.78950465023332139,159.796873822227951,43.8682409735700958,15.5384001450362366,68.4162573121514868,0.00439924459877896312,113.70474235561619,1175.63836659847925,15.2880000000000003,0,9.27077217668105291,0.128952594313603092,4.03914833739150997e-07,-0.0948383723463990802,4.1460490720626175e-05,0.0110142446807596078
1.24,31.2221471978801333,131.010489119799871,27.6070551819721857,12.7545462704086887,-3.93975241200608241e-05,39.3344425750446476,0.00163124481281991794,-3.90313564829917592,418.515630199805003,44.1086530409352306,15.6243959974779898,68.3613568952274022,0.00444876331060328062,113.704796147451844,1188.51803667805211,15.2880000000000003,0,9.29121120726310856,0.129659826494144176,4.13322315743116912e-07,-0.0970282590585984928,4.1500122782543829e-05,0.0113299323858833349
1.25,31.2221466415318005,131.010490627583778,27.9719887669563434,12.6730332727584312,-2.03280316865814449e-05,19.2542282916080545,0.00163300298294542443,-4.00467067821812339,244.260946125734876,44.2783534330843409,15.6837320852389244,68.3051937156622273,0.0044978411585026171,113.704849484204274,1197.63887713727672,15.2880000000000003,0,9.31156551762847862,0.130159206259737398,4.22798544743828984e-07,-0.0992478152392251428,4.15440722068461413e-05,0.011633287902117203
1.26,31.2221460823423129,131.010492143070621,28.3389496672568413,12.5518676991492057,-1.36879553371380962e-06,11.531070376379386,0.00163907101912280835,-4.13298148587571124,177.298446336408631,44.5823635890039114,15.7941572259586991,68.2477534818912233,0.00454647662335318919,113.704902363601221,1214.09824015826666,15.2880000000000003,0,9.3318105133826581,0.131053407374725289,4.3237214236791833e-07,-0.101492274422221612,4.15924701591067195e-05,0.0119776280704663035
1.27,31.2221455204806624,131.010493665801476,28.7078152308139458,12.4629094470736437,1.73996079331604985e-05,37.8484660757980222,0.00164100998475818572,-4.24065500668517537,405.579686079964688,44.772158387512988,15.8614638912899153,68.1890200496391543,0.00459466799608159501,113.704954783664419,1224.41410664616365,15.2880000000000003,0,9.35195580718673192,0.131611872200468216,4.42043758810472338e-07,-0.103760963781692778,4.16454211415031051e-05,0.0122970627184246714
1.28,31.222144955298436,131.010495197535363,29.079035543919808,12.3665587510869024,3.60297531236741523e-05,12.5743204804612088,0.00164345123229146382,-4.35391399620769715,186.429688124688823,44.9847079165775838,15.9375350854987943,68.1289794546802199,0.00464241421378735943,113.705006744248081,1236.02309042086313,15.2880000000000003,0,9.37201880463505788,0.132237235091759581,4.5178522187914918e-07,-0.106058853844829895,4.17030387341266412e-05,0.0126286145072946974
