Time,Latitude,Longitude,Altitude,Angle of Attack,Angle of Sideslip,X-Acceleration,Y-Acceleration,Z-Acceleration,Thrust,True Velocity,Ground Velocity,Pitch,Roll,Yaw,Dynamic Pressure,cp,parachute_deploy_gain,Wind Speed,Mach,omega_x,omega_y,omega_z,Cmq,Angle of Attack(total),Angle of Attack(gust),True Velocity(gust),Acceleration
0.0,31.222186000000004,131.010384,3.000000003643237,0.0,0.0,0.0,0.0,0.0,2.2828121974499247,0.0,0.0,69.99999999623421,0.0,113.69999999388332,0.0,15.288,0.0,0.0,0.0,0.0,0.0,0.0,-0.0,0.0,90.0,0.0,0.0
0.01,31.22218600000153,131.01038399999584,2.99999882256592,0.0,0.0,0.0,0.0,0.0,34.24218696174923,7.502283530665459e-11,7.190531319924593e-11,69.99999999623329,-4.83564628150269e-13,113.69999999388072,3.446445726795683e-21,15.288,0.0,0.0,2.204725565824978e-13,-3.659182332138578e-19,7.589415207398531e-19,4.811147140404426e-19,-1.5108918610345807e-31,0.0,89.9999999995224,7.502283530665459e-11,0.0
0.02,31.22218600000288,131.01038399999217,2.999997775701936,0.0,0.0,0.0,0.0,0.0,25.871876237766408,1.5320717031631675e-10,1.4674636035870463e-10,69.99999999623222,-9.67129256300373e-13,113.69999999387804,1.4372842949972735e-20,15.288,0.0,0.0,4.5023593667086093e-13,-7.284483346386986e-19,1.5178830414797062e-18,9.757819552369542e-19,-6.170906918166791e-31,0.0,89.99999999902465,1.5320717031631675e-10,0.0
0.03,31.22218599928065,131.01038400193067,3.000201659671132,18.81500467334555,-0.00012974450181,11.96616230539064,-1.8916256735984712e-05,3.349833086198469,180.34219359854663,0.0882870268161719,0.0553390044312322,69.99999999799445,-4.212591857125379e-12,113.69999999488518,0.0047728553458352,15.288,0.0,0.0,0.0002594525584132,3.2187251995663407e-17,-7.20264389268894e-10,1.2365134327422308e-11,1.6874092354518158e-13,18.815004673776716,89.46786891739345,0.0882666465974854,12.426199017587786
0.04,31.22218599548236,131.0103840121632,3.001799604587872,9.46752327608497,-4.6177622759613696e-05,55.21900012092241,3.931876292165237e-06,3.349616504302861,548.6359724538078,0.3767519978512604,0.1853356633749705,70.00000000507204,-2.4624598767003407e-11,113.70000000019972,0.086915163246288,15.288,0.0,0.0,0.0011071759353184,1.6174128009138757e-15,-1.3693172015529268e-08,2.7753303060112748e-11,1.3689612277852356e-11,9.467523276196548,87.63554493451223,0.3767447442872393,55.32050167054111
0.05,31.222185984749512,131.01038404118162,3.00777936418888,5.376730308971262,-2.257790939128127e-06,80.28807156553681,5.266841443842784e-05,3.348887800834877,761.6984298824644,1.018787885905993,0.4366201147110198,70.00000000894464,-1.1355399380652658e-10,113.70000001523856,0.635552918586145,15.288,0.0,0.0,0.0029939522895272,1.6418815498809788e-14,-9.32122351075408e-08,4.303264669380585e-11,2.5199270302492604e-10,5.3767303089717045,83.57022052969386,1.0187875312530217,80.35788377762394
0.06,31.22218596447235,131.01038409608267,3.0201664202003013,4.296730121134882,2.4863835723705905e-05,60.21296515808257,0.0001057204249726,3.347700952379021,590.4875390737208,1.721098934225416,0.7081674028809783,69.99999995523842,-3.0560354507026086e-10,113.70000004366592,1.8138247671743823,15.288,0.0,0.0,0.0050578622752421,8.328976953118383e-14,-3.2824985336199985e-07,5.923438275930214e-11,1.4991363363716091e-09,4.296730121206683,79.20467073327266,1.7211028398275985,60.305955550063224
0.07,31.22218593493329,131.01038417609837,3.038741944736831,3.8204913578752526,4.8016684030909405e-05,91.4060317508128,0.0001597686613101,3.346072557365335,855.2937749779139,2.4375792548422868,0.9844712334613328,69.99999973536046,-5.939103491363046e-10,113.7000000850886,3.6383156301599167,15.288,0.0,0.0,0.007163413150771,2.709313825263564e-13,-7.906546256197275e-07,7.920022733617308e-11,5.114174483651565e-09,3.820491358176508,74.87999294483174,2.437586797285377,91.46725557277466
0.08,31.222185894468456,131.01038428575305,3.0647976109320942,3.588632851766762,7.220043782492885e-05,19.18449428359557,0.0002119618497595,3.3440615022685813,241.2171988638848,3.1292508166901074,1.2522236515868983,69.99999919480445,-9.914748373602156e-10,113.7000001418522,5.996012698481753,15.288,0.0,0.0,0.0091960591623389,6.80386533246681e-13,-1.5973238302190878e-06,1.0839624626357699e-10,1.3263625118823921e-08,3.58863285249208,70.86684630658345,3.1292621579083604,19.473766155861934
0.09,31.22218584634549,131.01038441616095,3.0957981580345013,3.551302481506045,9.685468678862004e-05,57.102946699906326,0.0002554087225869,3.341892818148368,563.0937377043176,3.701810007254615,1.479132491047967,69.99999812344194,-1.4359264356978275e-09,113.7000002093888,8.390904013834115,15.288,0.0,0.0,0.010878666406854,1.440096519545733e-12,-2.748643691533636e-06,1.5214952332699618e-10,2.6999776649034504e-08,3.5513024828250237,67.68737872952666,3.701825221153239,57.20065357568538
0.1,31.222185790329306,131.01038456796124,3.1319266121977414,3.608446747536112,0.0001234669721807,54.26147302645416,0.0002914860332524,3.3396271157106168,538.7437595981919,4.174070299823608,1.6716491241860567,69.9999963052332,-1.902380107712657e-09,113.70000028805804,10.668380938744466,15.288,0.0,0.0,0.0122665227999911,2.687800116751415e-12,-4.315796035622946e-06,2.1749089204950437e-10,4.7802076800548326e-08,3.608446749645647,65.17160335282355,4.174089693970246,54.36414778470795
0.11,31.222185727066616,131.0103847393952,3.172681775073216,3.633547373470009,0.0001485939126744,42.987553988990406,0.0003293995000288,3.337005588796181,442.8656393052949,4.672024955140527,1.8729475711242067,69.99999349387662,-2.3433348587116544e-09,113.70000037699285,13.365573690709628,15.288,0.0,0.0,0.0137298902182575,4.5789425819531184e-12,-6.340230783164189e-06,3.1157625832417107e-10,7.860218435507205e-08,3.6335473765043056,62.62546922225161,4.672048296217748,43.116880735560244
0.12,31.22218565692512,131.0103849294629,3.2177790417108385,3.650108937861461,0.0001727442530266,46.86777100765684,0.000367618259785,3.334068179146888,475.58594813540446,5.17479364099247,2.0758708919414386,69.99998941286465,-2.702771525550512e-09,113.70000047573096,16.396890189902592,15.288,0.0,0.0,0.0152074069417046,7.288473386564583e-12,-8.86736416607888e-06,4.42271554299792e-10,1.217615295152289e-07,3.6501089419435786,60.16906436414164,5.174820775596283,46.986210423745625
0.13,31.222185580265183,131.0103851371844,3.2669395832841857,3.7280113734654137,0.0001995014041665,51.64515456841877,0.0003986198234033,3.3311573548369657,515.9156326236895,5.579364582999854,2.2451120211463422,69.99998375846928,-2.9114380666036422e-09,113.70000058383452,19.060875702782603,15.288,0.0,0.0,0.0163963474924215,1.100846422415094e-11,-1.1941028436408576e-05,6.179653149059831e-10,1.7678562106638216e-07,3.728011378795934,58.279338776943774,5.579395920607139,51.75247433579817
0.14,31.22218549718016,131.01038536230575,3.320091807147376,3.768719651034081,0.0002242721760019,48.1660778383537,0.0004326225136175,3.32784677779744,486.2390860568404,6.025734265159953,2.428648685938864,69.99997621008868,-2.890941335368725e-09,113.70000070125378,22.232643351545065,15.288,0.0,0.0,0.0177081261985351,1.5941871344608664e-11,-1.560901486259027e-05,8.477542742712431e-10,2.495765160917323e-07,3.7687196576976176,56.27980129251342,6.025769493750979,48.280903250602165
0.15,31.22218540777004,131.01038560455507,3.377159065217065,3.821894709649632,0.000249725644238,46.56959330999435,0.0004643042952466,3.324387732286376,472.54218587214,6.441023336496372,2.6014999612196745,69.99996641132823,-2.546763407193136e-09,113.70000082794672,25.402620271850456,15.288,0.0,0.0,0.0189285691155931,2.2314099732464315e-11,-1.992367942778425e-05,1.1417519574710292e-09,3.4051816697623295e-07,3.821894717796148,54.501255563441134,6.441062563308839,46.68809885900716
0.16,31.22218531193176,131.01038586421257,3.4382223512025254,3.8463320955387794,0.0002733212404609,36.974247749122085,0.0004987816203583,3.3205066466509234,391.1218908297564,6.895451966878468,2.7877331692857847,69.99995397923414,-1.77088415515292e-09,113.70000096417354,29.113317717489338,15.288,0.0,0.0,0.0202640360420561,3.0367358387834494e-11,-2.4945905791363795e-05,1.5114297685186711e-09,4.5643121540033697e-07,3.846332105235269,52.641145594326446,6.895494900078523,37.12304892183151
0.17,31.222185210004127,131.010386140357,3.503019838429153,3.8860314262554336,0.000297865039677,46.520531453299206,0.0005306403365217,3.31650761597812,471.78125980632376,7.314788342774694,2.9619016331667103,69.99993849340957,-4.3039914767238207e-10,113.70000110959404,32.761746921137856,15.288,0.0,0.0,0.0214963781445172,4.0366633128431416e-11,-3.0713078585132897e-05,1.96747427715988e-09,5.961228045584824e-07,3.886031437653654,51.00464968745696,7.314835131305714,46.63860064094784
0.18,31.22218510147516,131.01038643438045,3.571950002194137,3.9107265153396016,0.0003214293682635,38.895647526122765,0.0005639254295027,3.312149448254175,407.10156721191447,7.754626295791602,3.1430587898572058,69.9999195084231,1.6149322372810674e-09,113.70000126508234,36.81988229018681,15.288,0.0,0.0,0.0227889722876034,5.2593391349219385e-11,-3.731786027786564e-05,2.525509173087448e-09,7.6786585232224e-07,3.9107265285284982,49.36615848311875,7.754676785798701,39.036415444581515
0.19,31.222184986476247,131.0103867459258,3.644912152926752,3.920599115663931,0.0003437679584038,43.86258669386953,0.0005989384366483,3.307389681300437,448.9531328318269,8.219206165926856,3.332657190859447,69.99989653019398,4.538529095696477e-09,113.70000143063515,41.36350714675367,15.288,0.0,0.0,0.02415428010977,6.735860419174937e-11,-4.481243905342629e-05,3.199401151670645e-09,9.773118416308382e-07,3.92059913071168,47.71893898797248,8.21926016487149,43.987104227715655
0.2,31.222184864792144,131.01038707557822,3.722074668489528,3.943376465171875,0.000367328732016,40.28070981710589,0.0006315894240138,3.30251450988504,418.51563019916136,8.65238089736321,3.511445117640573,69.99986902534273,8.534090245934178e-09,113.7000016067622,45.83799876721736,15.288,0.0,0.0,0.025427299120469,8.499785987217288e-11,-5.328041996372527e-05,4.006766070954748e-09,1.2232205148646746e-06,3.9433764822533854,46.2587826635041,8.652438597225508,40.41586552155969
0.21,31.22218473678744,131.01038742234647,3.803156063113743,3.9664546506877016,0.000390962054969,38.67679184347145,0.0006636984664108,3.297405915846789,404.8187610144644,9.079179692250786,3.688002035198235,69.99983642883521,1.3827831253856693e-08,113.70000179318536,50.47126980736161,15.288,0.0,0.0,0.0266815841422463,1.0586558589671407e-10,-6.275155280099118e-05,4.961340042512481e-09,1.5117124669161171e-06,3.9664546699249135,44.88773728276958,9.079241104426773,38.817098210937615
0.22,31.2221846022986,131.01038778667507,3.8882846911135607,3.956175711337521,0.0004112685792646,46.713636108302936,0.0007011135033803,3.291572407481395,472.5421858721365,9.580256326712124,3.889976788904857,69.99979815126248,2.0662823443484168e-08,113.70000199039316,56.195522894218605,15.288,0.0,0.0,0.0281541581291438,1.3033127211465288e-10,-7.330053770532661e-05,6.0817207473359025e-09,1.8632831045819008e-06,3.956175732680424,43.35679625546934,9.580320928629488,46.8294591882524
0.23,31.222184460898035,131.01038816972698,3.977794004014759,3.9879066397329104,0.0004360962274406,38.89105719050748,0.0007308686121188,3.286096544282012,406.3406421461021,9.977039034039262,4.056142701351626,69.99975353557706,2.9316661139418326e-08,113.70000219928508,60.9462612310605,15.288,0.0,0.0,0.0293202403623685,1.5880617816859538e-10,-8.505067486192354e-05,7.393319440773217e-09,2.2514912291167663e-06,3.987906663538912,42.20670487756048,9.97710753587448,39.0296395118868
0.24,31.222184313516166,131.01038856897196,4.070963590490852,4.003523997322975,0.000459165577055,40.0792299321398,0.0007630441688766,3.280134925833028,416.2328240017114,10.408422364424831,4.234121060914368,69.99970190737699,4.010976417051318e-08,113.70000241888,66.32994780718496,15.288,0.0,0.0,0.030588009649109,1.91711512587616e-10,-9.795845222523724e-05,8.904557280909524e-09,2.7052895870113487e-06,4.003524023611085,41.011349410369874,10.408494489985014,40.21323112692186
0.25,31.22218416001652,131.01038898478134,4.167901030441617,4.0261356185860135,0.0004830526730531,41.17760020658354,0.0007934613160587,3.2740610008587527,425.36408079150686,10.816813039390448,4.4041629376391525,69.99964258149416,5.3372865854010094e-08,113.70000264972064,71.63651430352668,15.288,0.0,0.0,0.0317882126436337,2.2947426169209347e-10,-0.0001121037688082,1.0637152702866709e-08,3.217380562698304e-06,4.026135647516394,39.93186687113378,10.816888917126896,41.30755663120434
0.26,31.222184000702686,131.0103894163294,4.26837241014618,4.053359329950934,0.000507503069958,44.80261175215926,0.0008224724146494,3.2678597736729302,455.8015834241788,11.207047269494833,4.567925492611352,69.99957484039399,6.947299261165984e-08,113.70000289176392,76.89781807056055,15.288,0.0,0.0,0.0329350617559806,2.7254099134167665e-10,-0.0001275114371842,1.260720913253598e-08,3.7915697709142366e-06,4.053359361668992,38.945390435244384,11.207126987890645,44.921630958721536
0.27,31.22218383516388,131.01038986473338,4.372698316214008,4.0614460923241,0.0005296455772492,41.029837477288126,0.0008548809954683,3.2610328932384265,423.84219965987256,11.645685385842508,4.748226940060522,69.99949794024376,8.879821051920497e-08,113.70000314600205,83.0342688744587,15.288,0.0,0.0,0.0342241635563461,3.2137296827284217e-10,-0.0001442952656441,1.4842505534226832e-08,4.458527942364847e-06,4.061446126801262,37.8838346421185,11.645768582375233,41.15922617924542
0.28,31.222183663504484,131.01039032970942,4.48079961904222,4.081133040992532,0.0005533279247169,47.27661484082626,0.0008845140695959,3.254218495915602,476.3468732012221,12.047344998676092,4.915789434712848,69.99941106884992,1.1178948978424788e-07,113.70000341275257,88.85982357848233,15.288,0.0,0.0,0.0354045979054623,3.764736350660473e-10,-0.0001625146963723,1.7365685655384934e-08,5.194620655212288e-06,4.081133078439725,36.956255322213885,12.047431915223257,47.38848224631549
0.29,31.22218348566054,131.0103908114315,4.592727908358551,4.1001100265020245,0.0005770279952742,37.989969791857405,0.0009138463939581,3.247164755122801,397.97031042211177,12.446314684600782,5.082367374004485,69.99931338876085,1.3891902435864665e-07,113.70000369260468,94.8417675268915,15.288,0.0,0.0,0.0365771315767517,4.3836067907166327e-10,-0.0001822432988888,2.0202163500922312e-08,6.018074062137429e-06,4.100110067036654,36.07377590258778,12.446405323946324,38.12849176886316
0.3,31.222183301933686,131.01039130907952,4.708251093558373,4.112858061667493,0.0005998635114143,35.655053282557844,0.000944131403186,3.2397207148238625,378.1859457108711,12.860033399289696,5.253940723820665,69.99920403105713,1.707002607527005e-07,113.7000039856728,101.2505662360602,15.288,0.0,0.0,0.03779301412572,5.075709863465428e-10,-0.0002035013069687,2.3370674033523645e-08,6.94335970778e-06,4.112858105337573,35.19685285507256,12.860127625629724,35.80193592228613
0.31,31.222183112488807,131.0103918222051,4.827243246502713,4.136140889545823,0.0006242383343011,37.56633644061071,0.0009716215464757,3.232339252743767,394.1656220930212,13.2364445751808,5.4126574282679245,69.99908210036875,2.0768081583188525e-07,113.7000042923011,107.26326115439352,15.288,0.0,0.0,0.0388992619788015,5.846561731689753e-10,-0.0002263323252403,2.6893437641668458e-08,7.948283231812338e-06,4.1361409365698805,34.43286455705216,13.236542630309057,37.70514091683033
0.32,31.22218291741533,131.01039235056504,4.949637017503345,4.1622282001352975,0.0006491019906456,40.83513712643371,0.0009979686925508,3.224840963348891,421.55939346242695,13.59846554462374,5.566374262777002,69.99894668612772,2.504388718903276e-07,113.70000461297312,113.2095365840355,15.288,0.0,0.0,0.0399632243410653,6.701756367872645e-10,-0.00025078340164,3.0793566854276295e-08,9.047716714467492e-06,4.16222825066026,33.72644865222576,13.598567505326,40.96227562489027
0.33,31.222182716732533,131.01039289410716,5.075419569102976,4.187801887681037,0.0006739743721461,40.48743503284469,0.0010239291638211,3.217136801802925,418.5156301991682,13.956637761217308,5.718704299733134,69.99879684673242,2.995902922462564e-07,113.70000494831164,119.25032483364384,15.288,0.0,0.0,0.0410158804634189,7.647061680070125e-10,-0.0002769136723495,3.509664608790402e-08,1.0253455741189656e-05,4.187801941818244,33.053267359159875,13.956743628864118,40.61505097607
0.34,31.222182510255863,131.01039345333336,5.204736257784645,4.19642921746386,0.0006961879027693,31.814592723444047,0.0010535137542081,3.208669900766693,345.46563688075645,14.367047160772364,5.88887983533068,69.99863160305904,3.557915789971256e-07,113.70000529927128,126.36523219087664,15.288,0.0,0.0,0.042222056531773,8.688448410811866e-10,-0.0003048202762282,3.9835373705550826e-08,1.1618525957862828e-05,4.196429275109305,32.30947868183619,14.367156517712404,31.97598901989736
0.35,31.222182298183583,131.0103940277045,5.337435501771672,4.210915783240843,0.0007193441544952,34.813487415034444,0.0010813034848195,3.200164272309822,370.5765700527033,14.754132934586384,6.050986755458457,69.99844991734221,4.1975736284587617e-07,113.70000566632532,133.26448209504355,15.288,0.0,0.0,0.0433596939127697,9.832256819293898e-10,-0.0003345386312107,4.503361101379695e-08,1.309465610343774e-05,4.210915844572415,31.63649055965014,14.75424592890194,34.96026256388454
0.36,31.222182080444604,131.0103946174141,5.4735747500461605,4.22903876037745,0.0007431682866607,39.2632255716727,0.0011077666085529,3.1915717453569297,407.8625232777193,15.124417129017054,6.2072589919251575,69.99825073022951,4.922382611919288e-07,113.70000605036684,140.03566173682628,15.288,0.0,0.0,0.0444479595865755,1.1084921261805627e-09,-0.0003661511460057,5.0723697896912267e-08,1.4691545926915382e-05,4.229038825557203,31.017264542603208,15.124533865618538,39.39272792946638
0.37,31.22218185710795,131.01039522227452,5.613102797925907,4.249164960780052,0.0007674149135003,37.28328237034959,0.001133274451316,3.1828514669894137,391.1218908297666,15.483077353331511,6.359470679857624,69.99803294268581,5.740349991123437e-07,113.70000645214331,146.75405277514704,15.288,0.0,0.0,0.0455020695186381,1.245311285088233e-09,-0.0003997125883071,5.6934243389647934e-08,1.641828325195534e-05,4.2491650299519,30.439178816713017,15.483197898584232,37.418894813348615
0.38,31.2221816281124,131.0103958424523,5.756069531572451,4.260095806433531,0.0007900626414612,38.9278000801764,0.0011607546399008,3.1735466295306622,404.8187610144602,15.87126705947922,6.521735074464384,69.99779542676283,6.659911329739736e-07,113.70000687263192,154.20298254405043,15.288,0.0,0.0,0.0466429667223463,1.3943646956867835e-09,-0.0004353006984059,6.369875435270817e-08,1.8328108041903096e-05,4.260095879559656,29.83470194713067,15.87139116222873,39.05694584372078
0.39,31.22218139339905,131.0103964781077,5.9025231349944285,4.274091258047817,0.0008133283308351,33.320076729592266,0.0011870382950339,3.164143363712209,357.64062493382744,16.24457853509073,6.678818328235205,69.9975369905506,7.690136753559805e-07,113.70000731287368,161.54010621938565,15.288,0.0,0.0,0.0477401448128051,1.5563705124515804e-09,-0.0004730068442167,7.105463478762673e-08,2.0383860516746246e-05,4.274091335289374,29.274934656826048,16.244706292406182,33.46997636540994
0.4,31.22218115316572,131.01039712870306,6.0523126585892895,4.286421841403391,0.0008363022448449,31.88018820767003,0.0012133780841982,3.1544430614236454,345.465636880754,16.62063299903514,6.836764518435374,69.99725641601981,8.840594270905819e-07,113.70000777359816,169.10340080049767,15.288,0.0,0.0,0.0488453895716005,1.7320643186450851e-09,-0.0005128553637434,7.9027539265021e-08,2.2612406375611563e-05,4.286421922834417,28.730746964325096,16.620764365084565,32.03586915718869
0.41,31.22218090752676,131.01039779392735,6.205351877049411,4.30025870409831,0.0008595777771371,35.882550741685804,0.0012389121673015,3.1445895889870297,378.94687077668647,16.987310563534386,6.99141560549392,69.9969524610574,1.0121301778427253e-06,113.70000825570062,176.64448930727934,15.288,0.0,0.0,0.0499230826371405,1.922193031274436e-09,-0.0005548883906878,8.764667734700782e-08,2.5005077415911235e-05,4.300258789847355,28.21875643368965,16.987445585695873,36.020076248499606
0.42,31.222180656535848,131.0103984736348,6.36160173428776,4.322008670726048,0.0008844838439129,40.34064925656127,0.001261804338223,3.134918999355981,416.2328240017114,17.318628721060172,7.133856886815013,69.99662385300175,1.154276942054023e-06,113.70000876021427,183.59942989625057,15.288,0.0,0.0,0.0508968652507098,2.1275184665783874e-09,-0.0005991661829955,9.694534598491077e-08,2.752657757470936e-05,4.322008761057615,27.772396468009568,17.318767655457478,40.462275036947325
0.43,31.222180400205527,131.0103991677914,6.521055075967404,4.339436441324956,0.0009085827200945,35.541853595187746,0.0012854696362701,3.124839917627212,375.9031395134336,17.662848429084132,7.280642039343927,69.99626930133451,1.3115939750280808e-06,113.70000928827632,190.96736675963504,15.288,0.0,0.0,0.0519085689713619,2.3488101247838237e-09,-0.0006457514522491,1.0695800287133593e-07,3.0255957891170616e-05,4.339436536261635,27.322335771349252,17.662991148924057,35.67895714766603
0.44,31.22218013836212,131.0103998768696,6.683849332059896,4.342209064313268,0.0009296474314902,32.82948243168077,0.0013129688908547,3.113754688841357,353.0750125389216,18.063580761318697,7.446730341918701,69.99588746395321,1.4852372182848018e-06,113.7000098413532,199.7278270846888,15.288,0.0,0.0,0.0530863610987301,2.586862292117705e-09,-0.0006947575786514,1.1773083546077225e-07,3.329010177793299e-05,4.342209163639375,26.81344244367223,18.06372678999575,32.9768158972058
0.45,31.22217987077456,131.0104006014978,6.850166573233225,4.3420317510315165,0.0009500780330031,38.11022602597878,0.001341042003417,3.1022288449712887,397.2093853562869,18.47486275310604,7.616350301328129,69.99547690348253,1.6764536248320808e-06,113.70001042108892,208.92306716049887,15.288,0.0,0.0,0.0542951637545535,2.842521175226318e-09,-0.0007463379956615,1.2932090054593452e-07,3.657529369088674e-05,4.342031854775571,26.30944884471334,18.47501199101448,38.23628058998621
0.46,31.22217959739673,131.01040134180155,7.020045503401754,4.351169003849846,0.0009725797783515,44.3937050866137,0.0013660055515545,3.09098240974522,449.7140588976434,18.844323061800488,7.771531995684422,69.99503610583268,1.8865779683531e-06,113.70001102895836,217.3591612614144,15.288,0.0,0.0,0.0553810645782081,3.1166808800591503e-09,-0.000800596194505,1.417768495237597e-07,4.001824400409673e-05,4.351169112337076,25.873596578896564,18.844475834274814,44.50118229261506
0.47,31.22217931813738,131.01040209802923,7.193559875579052,4.358630093683735,0.0009947969928181,30.22514089990685,0.0013910994973101,3.079396422776949,331.0078106302534,19.2180591098146,7.9280875671397615,69.99456352718363,2.1170044481277104e-06,113.70001166656292,226.0625808853568,15.288,0.0,0.0,0.0564795377574197,3.4102493884459798e-09,-0.0008576351980594,1.551487523304888e-07,4.3718862242359527e-05,4.35863020698899,25.44665981168229,19.218215372160817,30.381603425148434
0.48,31.22217903348153,131.01040286886197,7.370336324605091,4.365514409145237,0.001016880998596,29.779838936311712,0.001416009414045,3.067527859335786,327.2031223011574,19.5915905767454,8.084483592791102,69.99405758812365,2.369198154608765e-06,113.70001233476164,234.93171707892955,15.288,0.0,0.0,0.057577416115756,3.7241711041759195e-09,-0.0009173883913609,1.6944871263079066e-07,4.767297940601472e-05,4.365514527349481,25.03354780044292,19.59175030803913,29.937410312943754
0.49,31.22217874361868,131.01040365378466,7.5502307795521535,4.3786401372577615,0.0010404145545081,37.2489281064929,0.0014385799934191,3.0558405437943126,389.60000969812296,19.93403005898306,8.23012235628909,69.99351671352461,2.644660619562788e-06,113.700013034871,243.21198709852868,15.288,0.0,0.0,0.0585839249886784,4.059374595909599e-09,-0.0009798792959512,1.8470833984680338e-07,5.180951737438081e-05,4.378640260624215,24.667474291142685,19.934193486919103,37.37406598941686
0.5,31.22217844858332,131.0104044527036,7.733219389747018,6.636855917231856,-2.45799559374216,38.290566185531965,0.1664579228065607,2.885253863037702,397.97031042210494,20.650710306286385,8.3664649573212,69.99293932307316,2.9449363413826395e-06,113.70001376847225,261.00998175644355,15.288,0.0,1.2525784889493092,0.0606902948029963,4.416769394513709e-09,-0.0010472760810716,5.18679161945689e-06,5.736280827438489e-05,7.075489319468102,22.028785665563976,20.26472768174098,38.39947729986494
0.51,31.22217814843387,131.01040526528251,7.919245654220304,6.615683830097846,-2.422233071331936,29.380648133451867,0.170401116336201,2.8692162289576064,323.3984349720841,20.994277216940883,8.51040589299849,69.99231287311707,-1.664459669451387e-05,113.69999334168436,269.7622809747219,15.288,0.0,1.2575492032960045,0.0617001317836294,4.796833984119501e-09,-0.0011533388060475,-3.418229267828296e-05,6.422207012779089e-05,7.043322004383777,21.730374396439103,20.61390706255739,29.520906541816615
0.52,31.222177843095054,131.01040609145244,8.108324133715348,6.5921122565649135,-2.387011902193834,35.21813576141631,0.1745003761356385,2.8526415266702654,372.0984511843415,21.346575612886188,8.657266915180204,69.99162467885483,-9.886465027046128e-05,113.69990626829907,278.88677319999226,15.288,0.0,1.262502499919324,0.062735636199968,5.19228910482271e-09,-0.0012632735226722,-7.45313601444283e-05,7.152274812893905e-05,7.009179921288951,21.43190462944086,20.97173311504987,35.3339086511881
0.53,31.222177532427647,131.01040693159095,8.300566591017411,6.569964411829864,-2.35319738127956,36.959875203191885,0.1786172493341412,2.835829139091589,386.5562464348624,21.6951708931224,8.802729240237312,69.99087246360062,-0.0002452953295726,113.69975086627797,288.0644194962539,15.288,0.0,1.2674391736114794,0.0637602641677123,5.6039237898975445e-09,-0.0013772567319827,-0.0001159058103839,7.924804290953532e-05,6.976938863359735,21.14496988387915,21.32563542391509,37.068938561326505
0.54,31.22217721633457,131.01040778595373,8.496050323091254,6.548655035713903,-2.320533505480208,32.50586052136275,0.1827668018882742,2.818736817133148,349.2703242098436,22.04173068973817,8.947364606377116,69.99005387712515,-0.0004575568479357,113.6995254107263,297.33545602410294,15.288,0.0,1.272362817996238,0.0647789168221705,6.0325558569627804e-09,-0.0014954386470091,-0.0001583394288192,8.74211884741304e-05,6.945954730075053,20.86758890665701,21.67732178310437,32.62835651978848
0.55,31.222176895092296,131.01040865378096,8.694562945265018,6.529901482177467,-2.2895670863595154,34.42991932667547,0.1868973807073503,2.801515952062916,365.2500005919907,22.380235585212407,9.089102878333108,69.98916652680363,-0.0007372771269661,113.6992281678982,306.5323719682024,15.288,0.0,1.2772676810672847,0.0657739034426008,6.479044845505392e-09,-0.0016177528823286,-0.0002017886576675,9.602204970349056e-05,6.91802085169183,20.604323660227085,22.02068693641667,34.54421466905796
0.56,31.22217656870315,131.0104095350584,8.89610469515587,6.51489534149445,-2.2606485469214688,32.16025739744297,0.1909675455473152,2.7842944487472505,346.2265619465787,22.706058206290148,9.226348074713805,69.98820801648733,-0.0010860550593848,113.6988574352036,315.5165373798784,15.288,0.0,1.2821536879088669,0.0667316244239572,6.944241736699878e-09,-0.0017442961109958,-0.0002462682573644,0.0001050383015826,6.894370670969943,20.358153633963287,22.351048490299323,32.28112327739793
0.57,31.222176237240195,131.0104104295797,9.100621032131608,6.497560179728536,-2.231629256203392,31.80472814784561,0.1951540449116885,2.766544310084152,343.1828296833023,23.03992262306643,9.366244707600682,69.98717591950525,-0.0015054864886019,113.69841151306196,324.85693104971506,15.288,0.0,1.287018707732415,0.0677129863997728,7.429019223126737e-09,-0.0018751111303903,-0.0002917738983468,0.0001145737771404,6.86855792096007,20.11176567973049,22.6894677442885,31.92542223807333
0.58,31.222175900683435,131.0104113373918,9.30812961242307,6.474003912873783,-2.201188704104155,41.7604330694324,0.1995850549522648,2.7478670271333665,426.1250058573153,23.39619667446888,9.513744125484644,69.98606776285736,-0.001997179375575,113.69788868898355,334.9746778470593,15.288,0.0,1.291862743847079,0.068760215984161,7.934262963899295e-09,-0.0020102998332129,-0.000338321701947,0.0001247310703699,6.836469741563439,19.85433349511886,23.050519809180656,41.851217157204765
0.59,31.22217555863806,131.01041225956024,9.518938830865707,6.458749900195789,-2.174232728404672,33.92275373738682,0.2038108341140078,2.7296312655762014,360.68438819711065,23.72292208940712,9.650926890565897,69.98488093181557,-0.0025628429184171,113.69728714311044,344.38880458330976,15.288,0.0,1.2966916845621164,0.0697206109453664,8.460870682153473e-09,-0.0021502307722577,-0.0003860178641309,0.0001352735891726,6.8134202655260925,19.625903219454745,23.381476372622583,34.033008195419704
0.6,31.222175211314017,131.0104131955063,9.732888150196468,6.432421330814448,-2.1442220526445386,30.18924775920956,0.2084476881892606,2.7099406481744657,329.4859594986058,24.090560831583485,9.802084950845362,69.98361275285907,-0.003204206244276,113.69660503334876,355.1383386062776,15.288,0.0,1.3015014897485773,0.0708012557147398,9.009816721108234e-09,-0.0022948614057171,-0.0004348274024938,0.000146606831666,6.778967334823333,19.37296500849984,23.75382583359258,30.311349508431313
0.61,31.222174858665056,131.01041414534785,9.950015738657504,6.404727547710081,-2.114428913276976,35.31336425522594,0.2131985789701109,2.6896953982738614,372.0984511843297,24.464556427007143,9.955304904607758,69.98226047416637,-0.0039230368339028,113.69584047696809,366.2430351237176,15.288,0.0,1.306293561008042,0.0719005908777333,9.582080651188857e-09,-0.0024443294692651,-0.0004847766102871,0.000158576515379,6.7433452826348885,19.12223103754608,24.13249809291992,35.416290178275865
0.62,31.222174500804805,131.0104151087681,10.170235891375569,6.394748215602236,-2.09105029082237,43.82064673285782,0.217407778164275,2.670960285390185,442.86563930529206,24.771504928775965,10.0852855796512,69.98082126481798,-0.004721139162259,113.69499155144518,375.48300291590687,15.288,0.0,1.311069657303647,0.0728028841051674,1.0178682376923612e-08,-0.0025986922554704,-0.0005358647006778,0.0001707024839691,6.7265982345642215,18.925022883993154,24.443116427309317,43.90250989492583
0.63,31.22217413755479,131.01041608624487,10.393689330714771,6.379551264559463,-2.066499902698105,25.00494537748237,0.221838800952226,2.6513454188681287,286.11251274707894,25.09783484846229,10.221814909378304,69.97929233264071,-0.0056002485181496,113.69405640810048,385.43282168517067,15.288,0.0,1.3158214663455987,0.0737621461906206,1.0800615367762408e-08,-0.0027581528088407,-0.0005881378724645,0.0001835599195833,6.704582947573829,18.718901816439352,24.773300175039143,25.14609588613385
0.64,31.222173769487533,131.01041707621383,10.619934550135724,6.355951364377709,-2.0397924355599875,24.554453040691666,0.2266225318770822,2.6304168000813086,282.30782441796754,25.45728963286328,10.3696423103273,69.97767083106253,-0.0065621138610857,113.69303318242208,396.5437160685353,15.288,0.0,1.3205534145124431,0.0748187691769162,1.1448975792267929e-08,-0.0029223919269722,-0.0006414728103882,0.000197271554085,6.673963447656214,18.49538371375032,25.136947465317764,24.695983771488766
0.65,31.22217339658547,131.01041807871573,10.848987594129726,6.3453684485741615,-2.017751056866309,43.12694072025653,0.2309879413748642,2.610641293562824,436.7781447787475,25.764782810302776,10.499436400139542,69.97595392730105,-0.0076084388560511,113.69192005871322,406.1721708335446,15.288,0.0,1.3252577147452689,0.0757226848220925,1.2124790420370372e-08,-0.0030915459338571,-0.0006958955560989,0.000211206110993,6.657203627094797,18.311465215990815,25.44790072418182,43.20650204866435
0.66,31.222173018355903,131.01041909508385,11.081232905220968,6.331761706953049,-1.9952234730721905,36.73502563880828,0.2355082755868095,2.5901858805127738,383.51251517160017,26.08363630477467,10.633012993514452,69.97413869840851,-0.0087409337896612,113.69071521748296,416.2783063282839,15.288,0.0,1.329942233374878,0.0766599959530225,1.2829058988845176e-08,-0.003266076491855,-0.0007515339726167,0.0002258858843441,6.637462081461759,18.12420084108699,25.770290673578565,36.82698244123973
0.67,31.222172634980552,131.0104201248167,11.316532124006628,6.310776147168265,-1.9708691575603927,25.39717460897541,0.240360858807229,2.568459451698516,289.1562440103425,26.43254737677189,10.77682186144058,69.9722221581817,-0.009961448484373,113.68941668104578,427.4799328379757,15.288,0.0,1.33461121677589,0.0776856543421768,1.3562905386675384e-08,-0.0034459511695137,-0.000808357684154,0.0002415087834166,6.610181471618692,17.922162835230058,26.123025021387768,25.52785215046991
0.68,31.222172246624623,131.0104211674579,11.554759764608631,6.291999822269513,-1.9476687897195075,31.629007489731407,0.2451854120505351,2.5466258512971214,340.8999924858462,26.77230480792732,10.917349942926457,69.97020117901906,-0.0112718005742339,113.68802251418724,438.5299712777745,15.288,0.0,1.339249102746347,0.0786844180172971,1.4327480288851537e-08,-0.0036311639728231,-0.0008663455262573,0.0002577546319379,6.585393916948973,17.730535254113715,26.46642462725839,31.732310566648984
0.69,31.22217185336641,131.01042222278764,11.79585769426638,6.280428301439611,-1.927124455003644,38.8718130174537,0.2497738826459946,2.5253867885134613,401.0140726853634,27.08106837422955,11.047066529409983,69.96807266506173,-0.0126737847019275,113.68653080317516,448.6929968941985,15.288,0.0,1.3438661838338943,0.0795920977143192,1.5123927876819864e-08,-0.0038217545911837,-0.0009254908720652,0.0002744058662479,6.56831037167474,17.56193960266202,26.77841344536592,38.95456087145551
0.7,31.22217145507336,131.01042329116012,12.039931258819427,6.268376206671402,-1.906840260809475,32.65312660251015,0.2544254684701018,2.5037571726676755,349.27032420985284,27.39092858892189,11.177031246697524,69.96583350875329,-0.0141691709466004,113.68493966041582,459.00882568421537,15.288,0.0,1.34846571583603,0.0805030081446318,1.5953368574649782e-08,-0.0040179347428887,-0.0009858396955062,0.0002917858702381,6.550882426909364,17.396180018039676,27.091458110622906,32.749965026214106
0.71,31.22217105179808,131.01042437242577,12.286942289952362,6.251531644328948,-1.8854962910421853,26.888921326255463,0.2593217953990948,2.481112957760887,301.33126406340574,27.72086328293964,11.31379130165392,69.96348047513615,-0.0157597625346556,113.68324716527776,470.12216234594655,15.288,0.0,1.3530332401126124,0.081472926132876,1.6816990364443973e-08,-0.0042197625901177,-0.0010473902716453,0.0003101266512722,6.5286004770636685,17.222201648362656,27.42474367171605,27.00439333501669
0.72,31.22217064354277,131.01042546657212,12.536891781010484,6.22901724239448,-1.8628672491475973,32.85403122539633,0.2645180863063962,2.4572548401347194,350.79220534145287,28.075770139774708,11.459035477875153,69.96101035587401,-0.0174474205372801,113.68145132680196,482.2254812366997,15.288,0.0,1.3575810929761467,0.082516246833408,1.7715984353948195e-08,-0.0044273584317627,-0.0011101597269431,0.0003295416092778,6.500557384687192,17.03780875233581,27.78320318862045,32.946857800504525
0.73,31.22217023030456,131.01042657360048,12.789784697909104,6.219615517942522,-1.8445281926221937,41.481469463527205,0.2692002397471918,2.4349586002768286,422.320318528234,28.37135673018775,11.58369250967288,69.95841971001133,-0.019234046598181,113.67955011897396,492.4208809193124,15.288,0.0,1.362111262648943,0.0833852301405333,1.8651594272796162e-08,-0.0046408631580772,-0.0011741712046471,0.0003490617142212,6.4863338008787705,16.890593826368388,28.081668963769204,41.55374593231857
0.74,31.22216981202149,131.0104276936733,13.04567172053544,6.205773927777626,-1.8252217303108424,26.08344125350525,0.2741187143062375,2.4116638786737448,294.48281347105944,28.685888748679268,11.71475294346186,69.95570517849133,-0.021121476686987,113.67754158256,503.3872361820871,15.288,0.0,1.3666147167653937,0.0843099032374891,1.9625050439609906e-08,-0.004860414685153,-0.0012394457839973,0.00036961902067,6.467613621826826,16.735829060475577,28.399232079280527,26.19612893841936
0.75,31.222169389047007,131.01042882582283,13.304281744018736,6.189057621699007,-1.8054221822118284,30.40201183334312,0.2792176874418256,2.387549288707516,330.24688556441487,29.012918712767583,11.850003237925735,69.95286330583245,-0.0231115501213984,113.6754237566155,514.9174818653395,15.288,0.0,1.3710908723999475,0.0852713167665238,2.0637688332239974e-08,-0.0050857990515613,-0.0013059010165072,0.0003911582639469,6.446029405922638,16.57746295448008,28.729370588211065,30.496896196789
0.76,31.222168961272207,131.01042997033957,13.56570190988912,6.176827618560569,-1.787265255324115,32.703961218741924,0.2841587092801153,2.363792165224714,349.27032420986166,29.31816763042963,11.977614553656528,69.94989072721533,-0.025206110087321,113.67319466779492,525.7963157812624,15.288,0.0,1.375546216773569,0.0861687221930203,2.1690738176378737e-08,-0.0053172454060056,-0.0013735854896745,0.0004132515752817,6.429240328412157,16.433808233948973,29.03747018764736,32.79050684221598
0.77,31.22216852864041,131.01043112737224,13.829978915449086,6.165570619550341,-1.7697052309456769,30.600558058258684,0.2890977493354089,2.339854947177788,331.7687666960708,29.6175767971836,12.10308327152382,69.94678389977074,-0.0274069928327574,113.67085235814808,536.5768304922528,15.288,0.0,1.3799812273036267,0.0870489721177683,2.2785485749429123e-08,-0.0055549225306436,-0.0014425290056682,0.0004361215000319,6.413580809119408,16.295909218313987,29.339636347843868,30.69124715874811
0.78,31.22216809121493,131.01043229674306,14.097066496993715,6.1501337868938375,-1.7512532748737335,25.18993565103847,0.2942810964261486,2.3148588029298702,286.8734378128899,29.935823415711926,12.234927444215522,69.94353923016361,-0.0297160373798102,113.66839486613466,548.1559678480972,15.288,0.0,1.3843846432377296,0.0879845953716784,2.39232677592182e-08,-0.0057988673943246,-0.0015127228161166,0.0004601540130803,6.393687907143822,16.15099361040927,29.66078002475163,25.297787072087445
0.79,31.22216764908223,131.01043347821107,14.366900511122411,6.132297947959778,-1.732436707411826,35.668211328396644,0.2996364443220506,2.2890504441435087,373.6203323159534,30.264988446612623,12.370417757450069,69.94015316409143,-0.0321351247531117,113.66582017648768,560.2624304159417,15.288,0.0,1.3887647724064422,0.088952317503097,2.5105433166111308e-08,-0.0060491128309239,-0.0015841573283725,0.000485277070981,6.3714162744516845,16.003446749216987,29.992899389396243,35.74284310602281
0.8,31.22216720202439,131.01043467236434,14.639652642205377,6.122082514080501,-1.716061935156877,36.13649804829204,0.3046591505519422,2.264236185579183,377.42502064505743,30.55562598780608,12.49248180246777,69.93662188545231,-0.0346661551652845,113.66312626478675,571.0596451871672,15.288,0.0,1.393126060422362,0.0898068113709361,2.633330540057212e-08,-0.0063060302029281,-0.0016569186472066,0.0005107324241314,6.357164969534282,15.877703908028211,30.286107909163945,36.20864639690796
0.81,31.222166750142144,131.01043587892352,14.915247753345676,6.106781652627712,-1.698549312276456,23.644603614099807,0.3099848241603556,2.2381383963598136,273.9374926939919,30.87023112514237,12.622692100089948,69.93294169987034,-0.0373110413756912,113.66031108088548,582.8641819205596,15.288,0.0,1.3974662825948558,0.0907317573925014,2.7608299887767705e-08,-0.006569604581135,-0.0017309824986117,0.0005375437483922,6.337737622388687,15.742590234118378,30.603462701660465,23.75231850031427
0.82,31.222166293620884,131.0104370973785,15.193545132897532,6.089325579992674,-1.68072227317472,30.270023505032515,0.3154763907775104,2.211233748964445,328.72500443277005,31.19480196993697,12.756223662011909,69.92910871739359,-0.0400716603927934,113.6573726234918,595.1692223020119,15.288,0.0,1.4017797314235034,0.0916860026068913,2.8931887755455978e-08,-0.0068397597750147,-0.0018063083465303,0.0005655176688156,6.316175196168847,15.60527696131592,30.93083259367075,30.352321213391875
0.83,31.22216583244389,131.01043832776995,15.474560672291007,6.08104347969784,-1.665675332290192,38.370817571871775,0.3205249622862327,2.1857424673511443,395.68750322465047,31.4712505470354,12.873018468414944,69.92511909836324,-0.0429499224892799,113.65430884682968,605.7484045722799,15.288,0.0,1.4060662365822356,0.0924988179522402,3.03054801505829e-08,-0.0071166600291732,-0.0018829228357152,0.0005936105297583,6.304215893485952,15.4929859948327,31.20964373094961,38.43435764415602
0.84,31.22216536650626,131.01043957037928,15.758378494019018,6.0707512416188605,-1.6503217642567312,23.84407077300664,0.3257172212322651,2.159535538163808,275.4593748256452,31.75622665390032,12.992631171194452,69.92096901549279,-0.0459476855355623,113.6511177607008,616.7515170742098,15.288,0.0,1.4103315633321971,0.0933367051973767,3.173047595656845e-08,-0.0074005143797842,-0.0019608637504422,0.0006228598520479,6.290260920972352,15.378582525642646,31.497030560935357,23.943880146646013
0.85,31.22216489609933,131.01044082440822,16.0447759154447,6.052751742074671,-1.633132509467616,25.965888255569887,0.3313825892203789,2.131380834386269,292.96093233939376,32.08011342191028,13.125568014730668,69.91665449332902,-0.0490667709915662,113.64779742104868,629.3790541904028,15.288,0.0,1.4145723015308351,0.0942889656698614,3.320843108555683e-08,-0.0076910938412885,-0.0020400492549139,0.000653900393434,6.268412551133721,15.248480117174749,31.82361630242121,26.05532482204683
0.86,31.222164421050785,131.010442090322,16.33388933218931,6.040267817359464,-1.6176752299669293,32.41554080726859,0.3367876245387498,2.1039850833974167,346.2265619465587,32.3737199871976,13.247925293472514,69.91217153220607,-0.0523090888928353,113.64434578058496,640.9344991488822,15.288,0.0,1.4187913569717812,0.0951522362070587,3.4740759049687805e-08,-0.0079887568855497,-0.0021205578706243,0.000685405121937,6.252360048857379,15.13421062364146,32.119649914540084,32.485496224667656
0.87,31.222163941384355,131.01044336805182,16.62570330997613,6.030301853851509,-1.6031161196052914,30.2130386018178,0.3420880124514978,2.076781848220554,327.964078366998,32.65216591577036,13.364923129362708,69.90751606604285,-0.0556765164653341,113.64076082923576,651.9889789359604,15.288,0.0,1.4229885202103796,0.095970955294579,3.632896993414301e-08,-0.0082935948563234,-0.0022023945214936,0.0007176590636399,6.238992288102989,15.028462443552607,32.400381879547616,30.28626336490347
0.88,31.222163457135235,131.01044465749783,16.920193552734315,6.016430690429163,-1.587741664913406,26.1670980783428,0.3476564653453711,2.048369490844621,294.4828134710418,32.949956327694,13.488487266420735,69.90268399847139,-0.0591709138038301,113.6370405742454,663.9168162391086,15.288,0.0,1.427159418964104,0.0968465400193417,3.7974602867664426e-08,-0.0086056543024305,-0.0022855520196831,0.0007514322318195,6.221662881420102,14.91601558188308,32.70058636895418,26.249451507232127
0.89,31.22216296838404,131.01044595843655,17.217300638397194,5.99876038602588,-1.5715956235326711,28.660443944342745,0.3534997224651234,2.018705585318286,315.028134248087,33.26720308480075,13.618663075251728,69.89767116380642,-0.0627941490656357,113.63318301346388,676.7436181094376,15.288,0.0,1.4313042959437985,0.0977793197475188,3.96792236624428e-08,-0.008924976383577,-0.0023700219526369,0.0007867958365036,6.20048442524677,14.797165859146856,33.02036837643918,28.733624577849397
0.9,31.22216247505624,131.01044727106728,17.517085267078038,5.990273655979405,-1.558060036158307,31.616035210938545,0.3588306137749846,1.990779939163679,339.37814235421445,33.53213387889515,13.73063496444074,69.89247326198475,-0.0665481401180802,113.62918609156888,687.545539601267,15.288,0.0,1.435427930964798,0.0985583405538402,4.1444373927549424e-08,-0.0092518022045491,-0.0024558484738333,0.0008220793039436,6.188867240178227,14.702215896028642,33.28742454270429,31.680682546859128
0.91,31.222161977221635,131.01044859519646,17.819496369461117,5.977939681646048,-1.5437250735702293,24.155756983182417,0.3644342599145601,1.961612010959342,277.7421810230789,33.81651223382816,13.849214176475208,69.88708606687014,-0.0704347157363567,113.62504784650136,699.2365141753437,15.288,0.0,1.4395291086102169,0.0993945304429311,4.3271656790503406e-08,-0.0095861436830317,-0.0025430147078539,0.0008589864594704,6.173345610094284,14.60060017461456,33.57405380343334,24.238014139815693
0.92,31.222161475079524,131.01044993027713,18.12438273164899,5.961890995541297,-1.5286382272867638,28.679359047258064,0.3703146116637118,1.931168269150258,315.02813424806214,34.120268781821345,13.974388852957349,69.88150528052013,-0.0744557086659717,113.620766311234,711.8338607152793,15.288,0.0,1.443605902075442,0.1002876860146993,4.5162757312866354e-08,-0.0099278439543504,-0.0026314608555057,0.0008975698159721,6.154058743520376,14.492660983507612,33.88017933596164,28.746689881739904
0.93,31.22216096854051,131.0104512765501,18.431816513224856,5.9541816170948,-1.5158720379037356,34.03578185446557,0.3756986434547041,1.9024321225989944,359.1625070654728,34.37463462368824,14.082365255825584,69.87572653706145,-0.0786129508779788,113.61633951949116,722.4655007796574,15.288,0.0,1.4476604007791587,0.1010356789591504,4.711922225167425e-08,-0.0102771869604651,-0.0027212411693913,0.0009360528674321,6.143441101416721,14.406217231704058,34.136549778453535,34.09097892253254
0.94,31.222160457496184,131.0104526343087,18.74188449234071,5.938733398680292,-1.5013280726629392,24.81662805515945,0.3816221224705957,1.8713944346682008,283.0687504837787,34.671486912304026,14.204928748891124,69.86974544619679,-0.0829082168733108,113.61176556789756,734.9756197159847,15.288,0.0,1.4516925591089311,0.1019085588873368,4.914263910099626e-08,-0.0106343857358967,-0.0028123901719521,0.0009769221873784,6.124905090697281,14.304122763051762,34.43568583591693,24.89001367220583
0.95,31.22215994223223,131.01045400277025,19.054368748616486,5.924275544889653,-1.4872231128021831,32.02088559949657,0.387525163921995,1.8402162213764848,342.4218736174873,34.9609937535571,14.324848511332789,69.86355757711928,-0.0873433683530507,113.6070424497838,747.2785258847898,15.288,0.0,1.4557007685457788,0.1027598574617848,5.1234787785669344e-08,-0.0109992053915518,-0.0029048289873476,0.0010188427124203,6.1074532321128565,14.206456074091774,34.72740752563034,32.07606095003152
0.96,31.22215942245924,131.01045538272243,19.36949604868649,5.913926498981901,-1.4743236703796196,31.381838302894696,0.3931901524193008,1.8097587770837809,337.09533515678345,35.224322149377485,14.43559180167072,69.85715831915752,-0.0919202046118845,113.6021682368096,758.5550588403335,15.288,0.0,1.459688158817691,0.1035342192949967,5.339718997645289e-08,-0.011372189429684,-0.0029986751533448,0.0010612938507104,6.094295030200058,14.12027918861174,34.992761484466946,31.43643746667583
0.97,31.22215889819685,131.0104567741095,19.687254185030223,5.901429745767177,-1.4610603485986595,20.214745610513127,0.3990375620722946,1.778370213001636,245.02188719299323,35.49817930997939,14.549868095272451,69.85054310504579,-0.0966405873831496,113.59714092068506,770.3724152024141,15.288,0.0,1.4636543448596604,0.1043395368537189,5.563155965023816e-08,-0.0117534320101224,-0.0030939316252298,0.0011053668658419,6.07898147759962,14.031246112025968,35.26870135927056,20.296742883728804
0.98,31.22215836972909,131.01045817615332,20.007426575704223,5.8816421391669325,-1.4461773967386329,29.271212464189183,0.4054415942501327,1.7445465307352768,319.5937466429581,35.81413438918764,14.67863046569041,69.84370717816452,-0.1015063155556651,113.5919585710275,784.1228842301416,15.288,0.0,1.4675966613008504,0.1052686016021067,5.7939811697515966e-08,-0.0121426152738978,-0.003190499567074,0.0011520968861338,6.056219237386221,13.927701263447254,35.586993494748185,29.325956158460592
0.99,31.22215783690992,131.01045958925064,20.33012916356215,5.874021097932606,-1.4344420123498418,31.957131711841697,0.4110184164491325,1.7137970392451147,341.6609485517054,36.05437729748926,14.781053765283747,69.83664578599115,-0.1065192484606476,113.58661918285964,794.6534046580786,15.288,0.0,1.4715180915051027,0.1059751342565756,6.032357145021848e-08,-0.0125401580899781,-0.0032884631331721,0.0011977601471817,6.04603452390228,13.853660282737478,35.829079210503025,32.00569173878896
1.0,31.222157299738008,131.01046101340384,20.655365861104528,5.859307368509032,-1.421133991122666,28.636850614106365,0.4171407122001683,1.6806454917328346,314.2672081822764,36.33561609542932,14.897580080338356,69.82935424870472,-0.111681110712371,113.5811208966822,807.0737836523593,15.288,0.0,1.4754161702682471,0.1068021753411644,6.278460284563227e-08,-0.0129461162925126,-0.0033878153660094,0.0012461413688282,6.028603410229119,13.765529316913437,36.112407778496966,28.689158034653104
1.01,31.222156758390668,131.0104624481264,20.983002660655767,5.84573488932935,-1.40826060788567,29.937247306549,0.42321703313362,1.6474516670865142,324.9203161036979,36.60778333089838,15.010865205867828,69.82182769466313,-0.1169936967248228,113.57546177789172,819.1838495438171,15.288,0.0,1.4792918511957167,0.1076025610460098,6.53247895349378e-08,-0.0133603785717054,-0.0034885093667786,0.0012956085678331,6.0123978464334416,13.681852077628475,36.38659654390084,29.985529609229783
1.02,31.22215621279281,131.01046389362244,21.31310050135025,5.83394570737884,-1.395965959255608,25.0423072509146,0.4291930526227339,1.614439717611861,284.59063161540416,36.866546107592335,15.119401463461832,69.81406128175207,-0.1224587375494032,113.56963995801448,830.7792701410617,15.288,0.0,1.4831462774817714,0.1083635553312572,6.794585986936862e-08,-0.0137831867957306,-0.0035905837904047,0.0013460151225074,5.998075025474368,13.604009962752308,36.64728998124563,25.097963557377163
1.03,31.22215566301142,131.0104653497078,21.645610555011327,5.817327974222473,-1.3826712788803888,20.514543828894784,0.4355742548350803,1.5795494522408342,247.30469339049705,37.15356911622742,15.237648418798935,69.80605013018418,-0.1280779215282804,113.56365361415496,843.7386762491224,15.288,0.0,1.486978768492851,0.1092076251847479,7.064966375457007e-08,-0.0142145394936909,-0.0036940180553606,0.0013989020596104,5.978838562879996,13.51719983312491,36.93640069947562,20.579873904161673
1.04,31.22215510910669,131.01046681621656,21.98048931316301,5.805235064367892,-1.370595749558264,32.45467155867126,0.4416432229944202,1.5457018142864292,345.46563688072297,37.40965933314108,15.345068643758406,69.79778927349084,-0.1338530079719495,113.55750084055155,855.3826056894547,15.288,0.0,1.490789867017784,0.1099607814359865,7.343805549270518e-08,-0.0146545055400196,-0.0037988089207258,0.0014520946609587,5.964298280273091,13.442249442621025,37.194387188618215,32.49446027888955
1.05,31.22215455080083,131.01046829390864,22.31795412033672,5.789245162420985,-1.3577480562209483,19.689059112970497,0.448053339306938,1.510220880589876,240.45625879819983,37.6884041405297,15.460253513445796,69.78927361336015,-0.1397856704894653,113.5511798326156,868.1491158508234,15.288,0.0,1.4945816392440168,0.110780537059446,7.631268933882526e-08,-0.0151036634652709,-0.0039050726818299,0.0015077036188215,5.945801984752866,13.36041777451247,37.475149534964096,19.751976297501987
1.06,31.22215398832489,131.01046978215075,22.65782953767348,5.769958582118269,-1.3442804855048307,27.932193570531386,0.4547761178018068,1.473202101229351,308.17968365593924,37.98665338287751,15.582127760431534,69.78049800920684,-0.145877695531608,113.54468865067716,881.9149827935189,15.288,0.0,1.498352509139544,0.1116576331274695,7.92756514050733e-08,-0.015561753052146,-0.0040127270468613,0.0015656738720222,5.923968168923492,13.273045678359216,37.77551367029197,27.974713285573177
1.07,31.22215342156613,131.01047128125103,23.000205591088747,5.758163710949961,-1.332693552976093,32.84617876208889,0.460924144408403,1.4383249852203928,348.5093681440308,38.23353879509562,15.686063283752809,69.7714570285027,-0.1521308607985005,113.53802537605328,893.3864572042685,15.288,0.0,1.5021046098428412,0.1123837601291541,8.23287771038324e-08,-0.0160291712981259,-0.0041218442997385,0.0016231289945119,5.90986782603423,13.203943174369666,38.02421865699537,32.88088637949268
1.08,31.222152850426543,131.0104727914781,23.34516071266184,5.74472094777095,-1.3208550137836692,22.20062856688597,0.4672380989609291,1.4025218675474227,261.00157857466235,38.48858125822785,15.792734228373298,69.76214542027101,-0.1585468885718075,113.53118813708517,905.31514590028,15.288,0.0,1.505837055159251,0.1131338729847069,8.547394311153251e-08,-0.0165061846172409,-0.0042324642914191,0.0016825255956569,5.894117940713061,13.132880478808548,38.281120214952125,22.249792983192066
1.09,31.222152275173844,131.01047431209835,23.692491252466983,5.723178869233188,-1.307299075593935,20.44388643216952,0.474278500354909,1.3634234442858923,246.54375332474407,38.7956217478233,15.917407564721232,69.75255772886277,-0.1651274687229298,113.52417510414644,919.7862741657956,15.288,0.0,1.5095478989590223,0.1140368390585998,8.871339409935505e-08,-0.0169924172798799,-0.0043444787104416,0.0017458481635556,5.870103849939089,13.0456834277026,38.59028950632274,20.49478850917404
1.1,31.222151695882,131.010475842909,24.042143088775607,5.705754719789788,-1.2948216438727915,40.74578900443333,0.4810129343424096,1.3253488575984536,413.1890617385841,39.07302117252112,16.031698307897457,69.74268856320447,-0.1718743134356735,113.51698441135603,932.9554175847708,15.288,0.0,1.513238383209424,0.1148526871784467,9.204913954435736e-08,-0.0174879297238737,-0.0044578810302473,0.0018095450330943,5.850355031047821,12.969167283978996,38.86964837611202,40.770175921022734
1.11,31.222151112160727,131.01047738498067,24.394420007251785,5.696589403502555,-1.284333792832824,29.907638040128106,0.4870486425624906,1.2899856208938676,324.1593910376397,39.29122774957335,16.12529020064313,69.73253229650123,-0.1787891217093924,113.5096142151964,943.372927918938,15.288,0.0,1.5169120122534971,0.1154945508221617,9.548282611575673e-08,-0.0179936224852642,-0.0045728546612356,0.0018722054795443,5.839109958836441,12.912324430228082,39.08950196368986,29.939407015197425
1.12,31.222150524070766,131.01047893814817,24.749277801993628,5.671865556010744,-1.2704790645328168,11.45894183984778,0.4945110843562628,1.248307114130858,172.73281794065943,39.61399196786792,16.255200191364878,69.72208333177385,-0.1858735066872216,113.50206276212909,958.9028839108632,15.288,0.0,1.5205671967432444,0.1164437660136375,9.901661811065569e-08,-0.0185094485970802,-0.0046893651700667,0.0019416305413921,5.811961783490403,12.823129508365948,39.414441936753896,11.537337645780978
1.13,31.22214993218583,131.0104805008372,25.106277430752428,5.655519986959336,-1.258627948603154,35.207320067321206,0.5012610626496175,1.2093926646068118,367.5328077900705,39.8766932611174,16.364133786728676,69.71133582879955,-0.1931292828315018,113.4943280704109,971.629716249102,15.288,0.0,1.524201531282696,0.1172164383378788,1.0265318378259153e-07,-0.0190345122756343,-0.0048071902682393,0.0020098817297665,5.793436136594428,12.75374152598256,39.67900434555892,35.23165167279178
1.14,31.22214933586336,131.01048207481296,25.46591659057688,5.645020857806303,-1.2481867732405492,19.62684915898292,0.5074935249144442,1.1724473461791944,239.69531773195544,40.09522980140268,16.457580216117233,69.70028409565988,-0.2005579698379192,113.4864084863119,982.2746228190836,15.288,0.0,1.5278198069842828,0.1178592988062587,1.063938864395089e-07,-0.019570226309002,-0.0049266235701462,0.002077701546473,5.780932986966205,12.698603691285896,39.89918058940356,19.668385555679485
1.15,31.222148735575004,131.0104836587823,25.827834599447705,5.6188119187987295,-1.234405398752099,19.351052971715536,0.515240295139802,1.1287118231259723,237.41251153546767,40.42272568862706,16.588955165226977,69.68892252398908,-0.2081610842539083,113.47830234566796,998.351789824001,15.288,0.0,1.53141766662337,0.1188224531410611,1.1024139613899649e-07,-0.0201156809674887,-0.0050474396769353,0.0021529792465896,5.75238351290431,12.610890653868246,40.22884074185673,19.390789412902734
1.16,31.2221481314544,131.01048525237863,26.191931565515457,5.609602886226724,-1.2244632217327631,50.17693965312696,0.5213975244143665,1.0915781226384322,490.0437743845894,40.62608931419221,16.67696961200253,69.67724505526533,-0.2159402879251838,113.47000783338744,1008.3870517013336,15.288,0.0,1.5349966353951705,0.1194207304663589,1.1419792753691505e-07,-0.0206708866615242,-0.0051696206420788,0.002223455516694,5.741268232762273,12.561462801881088,40.4337657214166,50.19151991252937
1.17,31.222147522657504,131.01048685792432,26.55885959236788,5.592091971597662,-1.2128207834367708,9.143298001709232,0.5283764306845866,1.0506219453189911,153.70937929486794,40.885921450259694,16.784589471287184,69.66524595081849,-0.223897005588233,113.46152338537836,1021.2909765473664,15.288,0.0,1.538561406270058,0.1201850068927712,1.1826464627306065e-07,-0.0212376916217637,-0.0052935472795755,0.00229895310922,5.721691457486157,12.4955977715333,40.695426233770114,9.2186162992365
1.18,31.22214691029788,131.01048847236018,26.927764423378044,5.563575585940022,-1.1989238665810429,24.562243764327,0.536496653845061,1.0043868371066296,280.02501822196746,41.224301763053376,16.919611338245723,69.65291917638694,-0.2320327670989114,113.4528473207114,1038.228967046938,15.288,0.0,1.5421043506971377,0.1211801872913147,1.2244516885178338e-07,-0.0218137813394216,-0.0054186920894517,0.0023807724410108,5.690893689786164,12.407416594906424,41.03598898570559,24.588624205440215
1.19,31.22214629387441,131.01049009706531,27.29903446328081,5.558981931407407,-1.190272413812639,42.68527149277163,0.542235707610589,0.9683142958739795,428.4078130529292,41.383467907159925,16.99194964945324,69.64025851443067,-0.2403491398728002,113.4439779186996,1046.2242895740942,15.288,0.0,1.545631637317355,0.1216485711048536,1.2674091099299065e-07,-0.0224006058077819,-0.0055453485483277,0.0024541707675008,5.684591467508668,12.372214936539129,41.19651380146711,42.6996961880272
1.2,31.222145672956216,131.01049173322954,27.673003206345523,5.534943730011777,-1.177570763306655,4.6830774701596045,0.5499773821366485,0.923160454170505,117.1843741360236,41.6835693915972,17.113467846182036,69.62725815382524,-0.2488473926389989,113.43491377508448,1061.4150360299054,15.288,0.0,1.5491436907757687,0.1225312501052517,1.3115362506698882e-07,-0.022999073855249,-0.0056736860141389,0.0025379191374255,5.658441362134596,12.296625484773706,41.49861003056918,4.804780425422441
1.21,31.222145048658977,131.01049337778392,28.0488157252266,5.511810611106864,-1.1651748184395332,34.33738766938458,0.5576732192959825,0.8778942046888323,359.92343213200894,41.97507837174777,17.231969788524843,69.61391169324526,-0.2575290585638054,113.42565319923362,1076.2738452620872,15.288,0.0,1.5526295945183617,0.123388680858909,1.356870947584674e-07,-0.0236068378616588,-0.0058031806265891,0.0026231080848437,5.63324931921429,12.224352854825852,41.79206575427144,34.353135076900195
1.22,31.222144420133898,131.01049503306828,28.42712691098987,5.505097837493825,-1.1563337838839922,24.95306924049469,0.5636418996328336,0.8400238902104935,283.0687504825761,42.13863082257838,17.305612125894985,69.60021298188285,-0.266395459722741,113.41619472634528,1084.6379921888963,15.288,0.0,1.5560999774392996,0.1238699836118763,1.4034221343361806e-07,-0.0242261373530335,-0.0059342860956238,0.0027023130931839,5.624863798489365,12.188709492910652,41.95700666658176,24.973565961793845
