Time,Latitude,Longitude,Altitude,Angle of Attack,Angle of Sideslip,X-Acceleration,Y-Acceleration,Z-Acceleration,Thrust,True Velocity,Ground Velocity,Pitch,Roll,Yaw,Dynamic Pressure,cp,cg,parachute_deploy_gain,Wind Speed,Wind Direction,Mach,omega_x,omega_y,omega_z,Cmq,Angle of Attack(total),Angle of Attack(gust),True Velocity(gust),Acceleration
0.0,31.222216000000007,131.010392,3.000000004412624,0.0,0.0,0.0,0.0,0.0,2.2828121974499247,0.0,0.0,69.99999999623412,0.0,119.9999999935444,0.0,1.274,1.0271675151847728,0.0,0.0,0.0,0.0,0.0,0.0,0.0,-0.0,0.0,90.0,0.0,0.0
0.01,31.22221599999084,131.01039200000497,3.000002745347096,0.0,0.0,0.0,0.0,0.0,34.242186961749226,3.465174813755316e-14,2.8705476994166025e-14,69.9999999962611,-2.1713911667908447e-11,119.99999999352175,7.352495975525499e-28,1.274,1.0271659134330349,0.0,0.0,0.0,1.0183245502395064e-16,-3.3305335486039093e-18,7.169286865560398e-18,5.624298769768554e-18,-7.715917190115602e-34,0.0,89.99999999999979,3.465174813755316e-14,0.0
0.02,31.222215999994315,131.0103920000094,3.0000030495639742,0.0,0.0,0.0,0.0,0.0,25.871876237766216,3.8197434737535036e-11,2.4171837235633357e-11,69.99999999628672,-1.1921727947863515e-11,119.99999999353136,8.93414285188691e-22,1.274,1.027164492361118,0.0,0.0,0.0,1.1225230367947217e-13,-6.657678965418802e-18,1.4338573731120796e-17,1.1241821275959074e-17,-1.7010872994127372e-30,0.0,89.99999999975682,3.8197434737535036e-11,0.0
0.03,31.222215999994315,131.0103920000094,3.0000030495639742,0.0,0.0,9.81877837424427,-2.5122800045972096e-05,3.3498614629347925,180.34219359854663,1.2659015405517447e-10,1.1364406173918436e-10,69.99999999631459,-1.6431898037347223e-11,119.99999999352724,9.812605835254651e-21,1.274,1.0271551940870716,0.0,0.0,0.0,3.720154642239108e-13,-9.991600645811728e-18,2.150108433310316e-17,1.6859343782149594e-17,-8.453698244545225e-30,0.0,89.99999999919412,1.2659015405517447e-10,10.374487003414373
0.04,31.222215999994315,131.0103920000094,3.0000030495639742,18.83801224594347,-0.0001111777826462,48.68248476615645,-1.016330065874988e-05,3.3497854396877287,548.635972453808,0.1556173050466994,0.0975908358443652,69.99999999633813,-2.0932768807056278e-11,119.99999999352085,0.0148286043323172,1.274,1.027133720825283,0.0,0.0,0.0,0.0004573186944143,-1.3322134194415637e-17,-1.04744143520903e-11,1.336824254131964e-11,5.0626055458604615e-15,18.83801224625964,89.06236267790787,0.1555998412814392,48.79759610369246
0.05,31.22221599164764,131.01039201704114,3.002326315126219,5.772385609593056,-4.395076213712875e-06,71.20344550265034,4.905512691849684e-05,3.349217396035405,761.6984298824663,0.8326471944351852,0.3620326097059287,70.00000001316391,-1.0866255162484559e-10,120.00000000231074,0.4245281043148827,1.274,1.027093426565204,0.0,0.0,0.0,0.0024469331205246,-5.0245994431125096e-18,-7.32924164976824e-07,2.217344936947165e-11,1.895424184525467e-09,5.772385609594774,84.74112356985832,0.8326465040582279,71.28217104309611
0.06,31.22221596664444,131.01039206837547,3.015081730143309,4.056581213689704,3.169093567502233e-05,53.16249142470188,0.0001203825427859,3.3481235983850643,590.4875390737236,1.657216205300742,0.6755452977614796,69.99999964391398,-3.9285905645317736e-10,120.0000000287861,1.6816755551786196,1.274,1.027050317124926,0.0,0.0,0.0,0.0048701272653724,3.095757869075056e-13,-7.483541766772344e-06,3.074135420506017e-11,3.8518749565858254e-08,4.056581213813337,79.59316473687034,1.657221183301277,53.26781792157489
0.07,31.22221592883117,131.0103921460222,3.034593611434361,4.115662018628709,6.450869598349036e-05,81.18203554989698,0.0001593212642178,3.347059402768047,855.2937749779172,2.099899704220947,0.8579771146174259,69.99999543281565,-8.233801910783518e-10,120.00000006883089,2.700101932075157,1.274,1.027003201295312,0.0,0.0,0.0,0.006171060252819,3.4704292086287e-12,-2.6327204536316785e-05,1.9541142932033486e-10,1.7170712165327165e-07,4.115662019133419,76.90111966094352,2.099909837223217,81.2510043180746
0.08,31.22221588914193,131.01039222747755,3.0542761843835606,3.459696193892355,8.037433511260004e-05,16.298214211652088,0.0002413456836072,3.344878926597744,241.2171988638792,3.051964775152957,1.2149999716613011,69.99998042886442,-1.0128995578004475e-09,120.00000011111383,5.703497661025892,1.274,1.0269597189470347,0.0,0.0,0.0,0.0089689344021769,1.458982438104473e-11,-5.702803872814215e-05,7.043261397829576e-10,5.405702492731987e-07,3.459696194824858,71.30331929508368,3.051977400323993,16.63790856991177
0.09,31.2222158241468,131.01039236098703,3.0886872184095737,4.313676956300389,0.0001337561018991,50.35975918308536,0.0002293282821279,3.344215841840564,563.0937377043203,2.893161298572128,1.191209213966114,69.99994788602814,-7.098432023887522e-10,120.00000018106356,5.125380275808925,1.274,1.026918932011013,0.0,0.0,0.0,0.0085022553945842,3.8672912027154325e-11,-0.0001115933708951,2.016054215232918e-09,1.0027525988343615e-06,4.313676958370176,72.2316578138625,2.893182308931483,50.47067588835877
0.1,31.2222157788302,131.01039245392113,3.109877853389092,4.035124630954496,0.0001457499816535,47.804664812504015,0.0002878217657545,3.341734392237128,538.7437595981891,3.5677148583138303,1.4531247507621967,69.99988403958329,1.9248461973355822e-09,120.0000002323013,7.7939962029572305,1.274,1.0268846934974103,0.0,0.0,0.0,0.0104845969583028,8.579678749070606e-11,-0.0001726817043215,3.984565639703107e-09,1.913455350430327e-06,4.0351246335824245,68.43243098813296,3.567737752667411,47.92132267234452
0.11,31.222215703308,131.01039260899836,3.148841432727305,4.043401107254707,0.0001752764476999,37.67622367577205,0.0003286462930162,3.3392563999062723,442.86563930529127,4.034183355956686,1.6436552022667772,69.99978525353545,7.302513231814865e-09,120.00000031883242,9.96528118825134,1.274,1.026848594915519,0.0,0.0,0.0,0.0118554331868328,1.5870341853361987e-10,-0.0002596204409236,7.232030302688121e-09,3.252930323390323e-06,4.04340111104746,65.92012987243639,4.034210888316708,37.82391391539392
0.12,31.222215627491828,131.01039276462643,3.186995101203875,4.17874459224363,0.0002066711490009,41.15991989399172,0.0003576945202315,3.336766085769504,475.58594813540793,4.361857560629481,1.7865750500940407,69.99963665601238,1.781774420198147e-08,120.00000041104812,11.649831899889556,1.274,1.0268114448194128,0.0,0.0,0.0,0.0128183893919737,2.682972478760441e-10,-0.0003710216542429,1.2215991071490164e-08,5.026311388647148e-06,4.178744597345269,64.21681651392016,4.361890024457652,41.29495143136631
0.13,31.22221554594398,131.01039293200228,3.2277173449026786,4.202734874672792,0.0002327160860324,45.44886120763352,0.0003953741266062,3.333578629398489,515.9156326236897,4.792165672014363,1.9646716520715424,69.99942424225341,3.613383418913551e-08,120.00000051758742,14.061726603124043,1.274,1.026779572895131,0.0,0.0,0.0,0.0140829618979635,4.248908088871395e-10,-0.0005056103199642,1.908859219307828e-08,7.5253154423526356e-06,4.202734881104192,62.048594618540655,4.792202226971676,45.570952718869485
0.14,31.222215454191247,131.01039312033683,3.2737880595608355,4.184830647080848,0.000257138757548,42.32232525579263,0.0004369426767266,3.329727443445437,486.2390860568421,5.269261304374574,2.158791628597544,69.99913473613935,6.515851355725497e-08,120.00000064630268,17.000925061330125,1.274,1.0267449573927567,0.0,0.0,0.0,0.0154850332441425,6.382432869666793e-10,-0.0006690086306358,2.8426433029675884e-08,1.0948547100483978e-05,4.184830654966803,59.74181173116622,5.269301695636157,42.45310707234106
0.15,31.222215353826755,131.0103933263496,3.3242182719560263,4.21963947489699,0.0002846467688673,40.886944113003565,0.0004726792395108,3.325585650885676,472.5421858721398,5.6781946837482895,2.329510773545807,69.99875162806286,1.0876776246115984e-07,120.00000079954532,19.742017654108928,1.274,1.0267115958081523,0.0,0.0,0.0,0.0166867950518804,9.204756288136623e-10,-0.000865746478554,4.08948221429571e-08,1.526771148078443e-05,4.219639484480408,57.84996018384879,5.678239395958187,41.02196629910223
0.16,31.222215247130432,131.01039354534575,3.3775922280208457,4.253495568077899,0.0003118339050386,32.26872905470846,0.0005078415214353,3.32090791922544,391.1218908297597,6.081244877834229,2.4981889727471702,69.99825581174558,1.7187028096464329e-07,120.0000009800088,22.644030778355887,1.274,1.026675762255412,0.0,0.0,0.0,0.0178712695992133,1.2856146928958252e-09,-0.0010961187242953,5.6923362293832417e-08,2.0702404729358337e-05,4.253495579487569,56.06022383757386,6.081293860589489,32.43916312841722
0.17,31.22221513260033,131.01039378041813,3.4348437275053194,4.364838523348639,0.0003448792023946,40.840448242802736,0.0005326487904353,3.3162727284953744,471.78125980632416,6.362544479165355,2.6250789114832647,69.99762801982864,2.5997588617291615e-07,120.00000119506798,24.78723182122683,1.274,1.0266409836796937,0.0,0.0,0.0,0.0186979513961862,1.747791994374917e-09,-0.0013624931601664,7.706724512977917e-08,2.6923621797558364e-05,4.364838536947241,54.85936171416122,6.362598652663785,40.97486885600156
0.18,31.222215014088988,131.01039402363364,3.4935801365785646,4.353948305387995,0.0003681615230806,33.992183768165326,0.0005718025428208,3.310131992647221,407.1015672119096,6.81502088160835,2.810667639293692,69.99684761766231,3.794979223522764e-07,120.00000144728236,28.437950785509614,1.274,1.0266048342046536,0.0,0.0,0.0,0.020027681385988,2.3221419748804155e-09,-0.0016616990447559,1.0147209890543081e-07,3.517105786247627e-05,4.353948320923495,52.99157233768714,6.815078712285162,34.152972512863755
0.19,31.22221488419521,131.01039429023237,3.558399965607869,4.432620772533925,0.0003996774584738,38.45149959021069,0.0005986099513107,3.304145139297767,448.95313283182486,7.1223367465208405,2.946425726785696,69.99589577323147,5.440084577183829e-07,120.00000176148238,31.060341085698347,1.274,1.026566130444714,0.0,0.0,0.0,0.0209308229359413,3.022391489754689e-09,-0.0020041563310821,1.3135864879722746e-07,4.433199397898183e-05,4.432620790516937,51.77883352025967,7.122399527709208,38.59320142454953
0.2,31.222214751373183,131.01039456280608,3.624052454705669,4.443889400961181,0.0004246617145652,35.23432408779927,0.0006337972852267,3.2968110145188256,418.5156301991588,7.530482904611057,3.1167566004785483,69.99474776398331,7.478025600151903e-07,120.00000211715036,34.72195181863731,1.274,1.026529240027363,0.0,0.0,0.0,0.0221302820454282,3.866698391504749e-09,-0.0023849544920781,1.668144671071589e-07,5.57780533277244e-05,4.443889421210987,50.22448880200342,7.530549610317194,35.38822625098952
0.21,31.222214608673173,131.01039485566503,3.6948551453492566,4.493351735844891,0.0004538195602194,33.79371564104691,0.0006629296043866,3.2891790438445727,404.8187610144608,7.868284042829251,3.2629204975089228,69.99338155599101,1.0150082652278477e-06,120.00000255293388,37.906665490338085,1.274,1.0264923657015164,0.0,0.0,0.0,0.0231230169900677,4.871073773182836e-09,-0.0028117605859743,2.089322918608601e-07,6.870935089180403e-05,4.493351758715364,48.992529909481824,7.868355328639073,33.95340801819282
0.22,31.22221446109996,131.01039515850383,3.767700382407304,4.5412639153933885,0.000482649303782,41.008966751568416,0.0006914639179131,3.2808061382386606,472.5421858721387,8.20057841132235,3.4071691679735228,69.9917708347139,1.3454961520984431e-06,120.00000305929996,41.175744234065135,1.274,1.0264494137127138,0.0,0.0,0.0,0.0240995709751246,6.054779813287368e-09,-0.0032829112061357,2.580881224843564e-07,8.3609968899004e-05,4.54126394098788,47.82515604752711,8.2006542256977,41.13999323561041
0.23,31.22221430675399,131.0103954752338,3.843768625625224,4.52371495179584,0.0005047555656171,33.98493478127787,0.0007294889663961,3.2705214710765107,406.340642146096,8.647938096586296,3.5908865300848416,69.98989017772566,1.7539876018835507e-06,120.00000365514876,45.79040229326471,1.274,1.0264133390858623,0.0,0.0,0.0,0.0254142776666487,7.436335125872812e-09,-0.0038001790077148,3.1489825108822685e-07,0.0001020628978177,4.523714979897577,46.31461705147579,8.648017383405135,34.14194053232237
0.24,31.222214142622448,131.0103958120587,3.92493179063287,4.57837522350066,0.0005351929930195,35.051650311058864,0.0007555049947555,3.26053011385611,416.2328240017099,8.954297884844461,3.72617527247482,69.98771316795013,2.25257161141768e-06,120.0000043564586,49.09180568115741,1.274,1.0263750048312463,0.0,0.0,0.0,0.0263146218848643,9.034877387788232e-09,-0.0043732521010013,3.809642748985157e-07,0.00012161410144,4.578375254714954,45.32798984252032,8.954381952763216,35.20297212911011
0.25,31.22221397517227,131.0103961556623,4.0071748888306855,4.6034117733065,0.0005618935542827,36.03738579534623,0.000785606492708,3.249069743648399,425.3640807915084,9.311611941121669,3.8789349536029696,69.98520781816889,2.8559738498748624e-06,120.00000517181904,53.08749562138344,1.274,1.0263373768840591,0.0,0.0,0.0,0.0273647110956883,1.0873791100894836e-08,-0.0049950711786164,4.5609738277273444e-07,0.0001444478241125,4.603411807525074,44.2165428352526,9.311700203154778,36.183554686886296
0.26,31.22221379934012,131.01039651647062,4.09364247475714,4.621386912291471,0.0005881033207375,39.29107511182762,0.0008162761165496,3.236407051295005,455.80158342417656,9.67833954512075,4.034902068846398,69.98234620927953,3.5784678110229355e-06,120.00000612171208,57.350948423913096,1.274,1.0263006300381676,0.0,0.0,0.0,0.0284424679130479,1.2973286442992724e-08,-0.0056712051373577,5.414206381221602e-07,0.0001704578711045,4.621386949630312,43.12063533194282,9.678431924174348,39.42414126789902
0.27,31.222213616776543,131.01039689108487,4.183310605341074,4.617158109135719,0.0006115457810536,35.90419462403674,0.0008503454714941,3.221982799915672,423.8421996598744,10.088790784535757,4.205862468567124,69.97909721779352,4.436165972465058e-06,120.000007221354,62.31798301949865,1.274,1.026260090595354,0.0,0.0,0.0,0.0296487219805601,1.5355910600537293e-08,-0.0064045199323113,6.379142666348734e-07,0.0002006609239367,4.617158149547818,41.94410287616451,10.08888684592241,36.048472443180565
0.28,31.22221342607797,131.0103972823952,4.277051150896916,4.642105655370123,0.0006389739579882,41.51133203546672,0.0008785747638736,3.2071101123224945,476.3468732012228,10.432377224420517,4.35383399240675,69.97542808435722,5.446665372087172e-06,120.00000849080963,66.63429581008447,1.274,1.0262212716723291,0.0,0.0,0.0,0.0306584788590473,1.8045308789081613e-08,-0.0072006835403936,7.469524967369969e-07,0.0002332868227611,4.642105699250441,41.0023231023774,10.432477594215127,41.63503624837164
0.29,31.22221323001776,131.01039768469093,4.373143569786686,4.62134615173668,0.0006600657405645,33.17552944492765,0.0009148746278066,3.1894209319791806,397.9703104221098,10.876662296046485,4.536381530986506,69.9713027936179,6.629751536885327e-06,120.00000994797426,72.43000748232016,1.274,1.026183007522519,0.0,0.0,0.0,0.0319641703260467,2.1067646517035105e-08,-0.0080566154554079,8.688043379161898e-07,0.000272130659453,4.621346198772975,39.83162628795024,10.876765978930557,33.32848872465723
0.3,31.22221302403368,131.01039810736614,4.4744193758467325,4.664362353358112,0.0006905183788532,31.08096762732793,0.0009381960428197,3.172549142946348,378.1859457108735,11.168362145070317,4.66647911311536,69.96668711012893,8.005507138509574e-06,120.00001161892672,76.36634300732833,1.274,1.0261430389738484,0.0,0.0,0.0,0.0328214509167604,2.4447409007156216e-08,-0.0089829108229115,1.0056222251461646e-06,0.0003115527202986,4.664362404357781,39.09908960432563,11.168470611443622,31.242464973103964
0.31,31.22221281503337,131.01039853619727,4.576593712520673,4.700143580504286,0.0007196683316923,32.79732593144512,0.0009620705970519,3.154230688182399,394.1656220930229,11.470279728974068,4.800072153432283,69.96154070456518,9.597499105113692e-06,120.00001352112182,80.55022837857167,1.274,1.0261054058068628,0.0,0.0,0.0,0.0337087616009043,2.8214060606649844e-08,-0.0099686353219717,1.1565909895184251e-06,0.0003550834484269,4.700143635477137,38.36463422765983,11.47039277421126,32.94865339301887
0.32,31.222212598991007,131.01039897947376,4.68216432480395,4.718667719113184,0.0007464384342556,35.7316568886908,0.0009885845337584,3.133859770838664,421.5593934624264,11.808280530415894,4.946054328851105,69.95582953472353,1.14278227255889e-05,120.00001568218067,85.36654007972253,1.274,1.026068246703101,0.0,0.0,0.0,0.0347021168382987,3.2392058795580455e-08,-0.0110163301561155,1.3226102501723267e-06,0.0004039614423012,4.718667778018562,37.5686120062341,11.808397780690962,35.8688218659563
0.33,31.222212376029034,131.0103994369436,4.791055524254013,4.72141404831576,0.0007708346814671,35.42013590291081,0.0010176135371143,3.1111955852784385,418.5156301991632,12.181577273013426,5.104163223586657,69.94951809396906,1.351997394754887e-05,120.00001812674968,90.84831229869296,1.274,1.0260310883392356,0.0,0.0,0.0,0.0357992034445943,3.700677535501642e-08,-0.0121310534481307,1.5051409581878843e-06,0.0004588955105349,4.721414111097893,36.7208578211118,12.181698355442045,35.55651229220977
0.34,31.222212145785647,131.0103999093516,4.903491659547144,4.73024573449122,0.0007962944975467,27.63851074646407,0.0010446307681611,3.0871492806781062,345.4656368807584,12.53557620048282,5.2556261014174765,69.94256797855994,1.5899658158227497e-05,120.000020882338,96.20413272674828,1.274,1.0259901535019136,0.0,0.0,0.0,0.0368395817555172,4.208561016221623e-08,-0.0133180771902383,1.7057647550599631e-06,0.0005184333231541,4.730245801363397,35.94841996438923,12.535701282129995,27.810389570354005
0.35,31.222211909310875,131.01040039453565,5.018822212845608,4.780248518778662,0.0008286678570753,30.332092807652543,0.0010618579815451,3.063967690608957,370.5765700527057,12.774786382148209,5.367579971644358,69.93493776125636,1.8594985713558667e-05,120.00002397748868,99.9096898192772,1.274,1.025950003202184,0.0,0.0,0.0,0.0375426220587071,4.7658312175989686e-08,-0.0145774693288123,1.9252724355785177e-06,0.0005782798420984,4.780248590437683,35.44790728185619,12.774916548990808,30.486451961956565
0.36,31.22221166933814,131.0104008868675,5.135354490370708,4.798132156899578,0.0008554457330409,34.32674769697476,0.0010851169437774,3.0374319611165923,407.8625232777224,13.09301701329486,5.506730645516068,69.92658597246795,2.163521613217148e-05,120.0000274401514,104.94818266210537,1.274,1.0259105142325406,0.0,0.0,0.0,0.0384778908056978,5.3755109608570216e-08,-0.0158991451700967,2.162609490834569e-06,0.0006464142451675,4.798132232978766,34.796094028187134,13.09315138639638,34.46087058603792
0.37,31.222211421355144,131.01040139563804,5.255882891363927,4.797392186816851,0.0008791822061288,32.551601855236584,0.00111162791192,3.0078619428913056,391.1218908297639,13.457513730739372,5.661815946371007,69.91747693543164,2.5047738471809164e-05,120.0000313040604,110.87154396328836,1.274,1.025872170958032,0.0,0.0,0.0,0.0395491312153729,6.040098808671168e-08,-0.0172926678053148,2.420031948898497e-06,0.0007226353721561,4.797392267189059,34.07332166419882,13.457651832357364,32.69027405888565
0.38,31.22221116634284,131.01040191882743,5.379799334000849,4.811698494594017,0.0009057112478668,34.02947987649063,0.0011338447913587,2.9774881690446744,404.81876101445977,13.77554886562956,5.800899861213392,69.90756948297444,2.886339581486796e-05,120.00003560072224,116.17243393848278,1.274,1.02583050512925,0.0,0.0,0.0,0.0404838339452728,6.762496638941508e-08,-0.0187646375218858,2.69955777313946e-06,0.0008026686661094,4.8116985796350695,33.46655348088405,13.775691134419684,34.15949264475229
0.39,31.222210906095896,131.01040245274032,5.505993307722699,4.813508003664984,0.000929862892873,29.00025983045028,0.0011579891265804,2.9442136901860865,357.6406249338268,14.124492165837273,5.950648592462506,69.8968186645841,3.311602501056718e-05,120.00004036395212,122.13093644173792,1.274,1.02579027384009,0.0,0.0,0.0,0.0415093739609825,7.545934774906889e-08,-0.020311592409804,3.0013532510753577e-06,0.0008908380763632,4.813508093268025,32.821616487639595,14.124638228358922,29.149330452482886
0.4,31.222210638473225,131.0104030017851,5.635788650457906,4.841647069358873,0.0009592124397379,27.71178845184976,0.0011749448424961,2.91135549588368,345.4656368807565,14.390874239274588,6.07193451174791,69.8851815212744,3.783947407715338e-05,120.00004563180136,126.77947425345651,1.274,1.0257493418632293,0.0,0.0,0.0,0.0422922854866381,8.39343718693383e-08,-0.021938519432511,3.3271332720311508e-06,0.0009803271643914,4.841647164150728,32.348088166612904,14.391024912012275,27.864299944624147
0.41,31.22221036681104,131.01040355909262,5.767123077463226,4.86553909860892,0.0009876699832274,31.306062598221665,0.0011918093836199,2.876450850006428,378.9468707766882,14.663028799871563,6.195223154320929,69.87261222561014,4.307011032901644e-05,120.0000514391194,131.6183642808765,1.274,1.025708445186429,0.0,0.0,0.0,0.0430921644173401,9.308325447883581e-08,-0.0236371933433427,3.6760977501392174e-06,0.0010761942383903,4.865539198612839,31.87689439156756,14.663183942709727,31.437931330109585
0.42,31.22221008906472,131.01040412887247,5.901259531771367,4.867510642114694,0.0010118258958528,35.308283402190774,0.0012128114559048,2.8374461227958245,416.23282400171047,14.9952917972178,6.33928625560071,69.85906967380902,4.884273094936628e-05,120.00005782486392,137.64909586091787,1.274,1.0256701057426505,0.0,0.0,0.0,0.0440686959134695,1.0293499639582845e-07,-0.0254093547296826,4.049238334851429e-06,0.0011830797791891,4.867510747027452,31.315270489291198,14.995450734457847,35.422111438762386
0.43,31.222209804115888,131.01040471342728,6.038886819939341,4.854590670645608,0.0010330089741511,31.00586934514032,0.0012363751872706,2.794478603999558,375.90313951343126,15.369430568701889,6.497852263156962,69.8445117629242,5.519340856908871e-05,120.00006482835984,144.60167924299955,1.274,1.0256308158337524,0.0,0.0,0.0,0.0451682983415116,1.135186446762958e-07,-0.0272634397889413,4.449073329427772e-06,0.0013010625065656,4.854590780289497,30.70250814963406,15.369592833372094,31.13154422839874
0.44,31.22220951192321,131.01040531284193,6.180028459770617,4.866912332640401,0.0010595850174406,28.57707721036899,0.0012525768202179,2.752165534925872,353.07501253892326,15.659290812546615,6.627318538707029,69.82889155423543,6.216182865383864e-05,120.00007249162944,150.1053167542629,1.274,1.025586171750536,0.0,0.0,0.0,0.0460202245100907,1.2486676023179565e-07,-0.0292060158163984,4.8779154055816594e-06,0.001420032405556,4.866912447705031,30.24619499837236,15.659457251771938,28.709297424144207
0.45,31.222209215425703,131.01040592106523,6.322872201489905,4.881836476567178,0.0010866574689855,33.31904824532484,0.0012669045761511,2.7082028218433374,397.2093853562887,15.934249290371609,6.751662050993672,69.81215834018458,6.97909417564726e-05,120.00008085697964,155.42080512416243,1.274,1.0255397023523487,0.0,0.0,0.0,0.0468283602442113,1.3701614206272197e-07,-0.0312276295846745,5.334643585560923e-06,0.0015449645531859,4.8818365972149325,29.82567893138932,15.934419982127675,33.428929688274074
0.46,31.22220891307435,131.0104065412864,6.468371919199588,4.869610441729251,0.0011078049156487,38.95909776354321,0.0012868374716666,2.6582856015412624,449.7140588976424,16.292139278621757,6.904766425053949,69.79426683863348,7.812149592850748e-05,120.00008996920153,162.4785746623087,1.274,1.02549635315424,0.0,0.0,0.0,0.0478802236363867,1.499987870203256e-07,-0.0333272350234362,5.819761874615242e-06,0.0016858511402973,4.869610567434908,29.29014635640275,16.292313292210977,39.04968351401366
0.47,31.22220860266524,131.01040717804253,6.6178810515614845,4.838450928223533,0.0011247917292402,26.253747818137555,0.0013104398935566,2.6026193242279367,331.0078106302504,16.710658191447514,7.078951441335346,69.77517236812905,8.719457259907165e-05,120.0000998741591,170.9309671061642,1.274,1.025453319323251,0.0,0.0,0.0,0.0491102725711187,1.6384464803343264e-07,-0.0355167087264168,6.3368207228363735e-06,0.0018427306558807,4.838451058652396,28.68386015667837,16.710834873319172,26.382435512333956
0.48,31.222208284201663,131.0104078313267,6.771393590864176,4.869339340099417,0.0011561785713505,25.860860976019296,0.0013165328518772,2.5543454292827983,327.20312230115803,16.911139899671,7.177575416403102,69.75482343794755,9.70562828082882e-05,120.00011062072316,175.0543877818846,1.274,1.0254092882449153,0.0,0.0,0.0,0.0496995461609974,1.7858865391586845e-07,-0.0378054080201581,6.88909442277235e-06,0.0019849793891693,4.869339477030596,28.40887970825325,16.911321511776286,25.986704537635287
0.49,31.22220796480208,131.01040848648364,6.924537656029012,4.881367714530694,0.0011829003785372,32.565703383222065,0.0013261973190012,2.5011623511055703,389.6000096981238,17.169005224738054,7.296160258358563,69.73316318155707,0.0001077573203115,120.000122255028,180.4309832312717,1.274,1.025367445590036,0.0,0.0,0.0,0.05045746454003,1.942747077649401e-07,-0.0401641298712614,7.47069711110948e-06,0.002140948887153,4.881367857509675,28.058569663954906,17.169191034294997,32.66161128464712
0.5,31.222207637929923,131.01040915697027,7.081324512896956,4.862566137860805,0.001202418260511,33.47759680712428,0.0013425340759632,2.4399894027711366,397.970310422106,17.52898693231981,7.450304424940405,69.71015149227495,0.0001193385310595,120.0001348274002,188.0736471953394,1.274,1.0253278572281015,0.0,0.0,0.0,0.0515154948878309,2.109295159784217e-07,-0.0426011733481599,8.084173008518589e-06,0.0023184335011768,4.862566286171007,27.57768313050809,17.529175807738486,33.56639745442473
0.51,31.22220730314019,131.01040984370235,7.24202048914867,4.8479762258125,0.001223054804074,25.49162310288008,0.0013562860883156,2.3767006597692686,323.39843497208153,17.86914397471067,7.597652147346554,69.68574349602717,0.0001318441288964,120.00014838524436,195.4407439266201,1.274,1.025286455263166,0.0,0.0,0.0,0.0525152689856776,2.2858192086249162e-07,-0.0451315948093539,8.734206149830708e-06,0.002503767471626,4.847976379721193,27.13799345359824,17.86933609171003,25.602178740977283
0.52,31.222206962738102,131.01041054193402,7.405210501673173,4.865306299521403,0.0012516517170965,30.733671928447727,0.0013599291289974,2.317711624364424,372.098451184342,18.08534843773428,7.701914987606457,69.65988568649581,0.0001453248538387,120.00016298000436,200.19561780583155,1.274,1.0252426840672306,0.0,0.0,0.0,0.0531507657929359,2.4726951523704535e-07,-0.0477531686556663,9.421346966092632e-06,0.0026812161964639,4.865306460134566,26.8699055233151,18.085545046726228,30.820940596104087
0.53,31.222206619320115,131.01041124632013,7.569307468221277,4.848802699234936,0.0012715119568563,32.301199055744725,0.0013711327835325,2.2490252325653923,386.55624643486095,18.41963113311156,7.8474319110539055,69.6325258319474,0.0001598315062727,120.0001786629144,207.6614205945027,1.274,1.0251993415311351,0.0,0.0,0.0,0.0541332845214831,2.67031759303889e-07,-0.0504479325599339,1.0141887756417996e-05,0.0028848299490111,4.848802865552398,26.45837260670532,18.419830861742675,32.37940050117613
0.54,31.22220626697288,131.01041196903336,7.737918664599091,4.831496690588052,0.0012913635058467,28.31291960103712,0.0013809098107221,2.177242866245296,349.2703242098436,18.75116898748492,7.992112829440902,69.60362200959217,0.0001754082864028,120.00019548734956,215.20067397992847,1.274,1.0251561018460285,0.0,0.0,0.0,0.0551077428911958,2.878941684235108e-07,-0.0532336286085667,1.090122304443916e-05,0.003098869611663,4.831496862756785,26.061835558272342,18.751371834390056,28.396510432451375
0.55,31.222205908994248,131.01041270328463,7.909026079894722,6.513254524653416,3.221351441463697,30.068444254434496,-0.1684980275329739,2.0122048554421923,365.2500005919912,19.321439881558085,8.113323699629928,69.57312211246325,0.0001921068626005,120.00021350480982,228.48556729167785,1.274,1.025112921033824,0.0,1.2532017829729258,0.0,0.0567838195707577,3.0989272306468813e-07,-0.0561100530405476,1.1700476995263424e-05,0.0033655954893797,7.263252841114067,28.864298325220624,19.8271820386331,30.136169296172707
0.56,31.222205546564343,131.01041344664463,8.081909946161325,2.379483022096597,2.678980457993838,28.013162485139564,-0.1746539680022549,2.1408763456570763,346.22656194657776,18.98337262964013,8.249440985479161,69.54097415464405,0.0002099796112633,120.00023276987916,220.55623128212684,1.274,1.0250709539098009,0.0,1.2577738927225492,75.00003213914121,0.0557903818330528,3.33055098311298e-07,-0.0602110325869796,0.0020678997594897,0.0035483298780807,3.58256173562341,28.115114280551477,19.40403258098037,28.095393358249382
0.57,31.22220517743276,131.01041420478916,8.258244915209472,2.404763881697078,2.646432581486989,27.699299184580816,-0.2094621869988067,2.0972115957105952,343.1828296833045,19.25196279129113,8.375462826826974,69.50647648621381,0.0033802394768671,120.00361702871795,226.83771333259511,1.274,1.0250279191823897,0.0,1.2623102824056371,75.00003213914121,0.0565798561033185,3.590379968374145e-07,-0.0616502284396578,0.0037188626858217,0.0036844858302159,3.5752456171411757,27.77651719134013,19.667515654171098,27.779369074942736
0.58,31.22220480329379,131.0104149729415,8.436442769166462,2.424065715733724,2.6125226395617624,36.6310646785188,-0.2455256835226258,2.0515355669888464,426.12500585731766,19.526047007652288,8.502528232688416,69.47115403528613,0.0090657700300075,120.00968756959207,233.33853308789807,1.274,1.024981594484354,0.0,1.2668518344190975,75.00003213914121,0.0573854813051289,3.864666534798786e-07,-0.0631465673643647,0.005395951408358,0.003827576095356,3.5633265022230622,27.43707131857432,19.93627891772885,36.6892897250099
0.59,31.222204423445817,131.01041575324447,8.617306367038774,2.424724866875528,2.560926435768256,29.60672381321617,-0.2847455050199305,1.9943462364943507,360.68438819710633,19.935394790413124,8.677275612633727,69.43497377838251,0.0172922009399706,120.01847303881225,243.22036797879747,1.274,1.0249386802161349,0.0,1.2713615954395898,75.00003213914121,0.0585886410470681,4.1537524436136613e-07,-0.0646985479222764,0.0070987511663086,0.0040037927386904,3.526147857445381,26.939952191487677,20.33753024629155,29.67518478233471
0.6,31.222204034026888,131.0104165534667,8.803032012198793,2.442137546894062,2.52893564808921,26.26526346334262,-0.3235158402503204,1.9456105013621128,329.4859594986072,20.19497994954793,8.799571345336197,69.39790342437215,0.0280836405059267,120.03000053135004,249.5912565449156,1.274,1.024891335813742,0.0,1.275859461177444,75.00003213914121,0.0593516668556845,4.457910616524082e-07,-0.0663171106453147,0.0088383373327702,0.0041573203471832,3.515064341107779,26.63471720317187,20.59209526052935,26.339212735400885
0.61,31.222203642287614,131.01041735871135,8.989256505603214,2.459469864925044,2.498612167034468,30.86565637938419,-0.3631906077410633,1.8961810403767008,372.0984511843332,20.439551647732845,8.91672330400915,69.35990424775649,0.0414801068955329,120.04431420288192,255.66865047161377,1.274,1.0248423929069768,0.0,1.280397531285168,75.00003213914121,0.0600705725711501,4.777643501334513e-07,-0.0679903561497567,0.0106009133095829,0.0043137540845952,3.505455644050282,26.35244693674662,20.83190834110125,30.925978621308904
0.62,31.222203244687552,131.0104181762552,9.178111851142711,2.4647496679562284,2.4575927777894866,38.496786442990285,-0.4056039317157416,1.83838150987683,442.86563930529206,20.769658355622727,9.064225927521854,69.3209442195581,0.0574995672218976,120.06143474460092,263.9888467463428,1.274,1.0247996097896497,0.0,1.2848686345882387,75.00003213914121,0.0610408657272476,5.113271866088125e-07,-0.0697168508733344,0.012384478632033,0.0044946506456934,3.480090034336976,25.97779802626256,21.155577764193318,38.54279086369436
0.63,31.222202839312203,131.01041901002682,9.370735995615448,2.4575392263865563,2.406235551996428,21.63218346110485,-0.4514982022639803,1.7710949062048955,286.11251274707456,21.191031996788432,9.244239778465143,69.28099198153141,0.0761559738261154,120.081378630646,274.8040030375799,1.274,1.024756158874558,0.0,1.2893225913634216,75.00003213914121,0.0622793946562423,5.465044434473451e-07,-0.0715036580512509,0.0141955088784072,0.0047032835416871,3.438883111557101,25.51213658784074,21.56889149716572,21.70926044544887
0.64,31.22220242528431,131.0104198618168,9.567639321278811,2.48289366820671,2.3879361102102745,21.23695597816801,-0.4926963176681721,1.7245039606523815,282.3078244179702,21.32177540735752,9.321540517177976,69.24001196863367,0.0974720505690377,120.10417179038652,278.2001486439916,1.274,1.024708534665538,0.0,1.2937880825202157,75.00003213914121,0.062663782267858,5.83326010390905e-07,-0.0733585468470655,0.0160409905978417,0.0048549712960962,3.4443329651203616,25.37071320056857,21.696762953432675,21.312554112315947
0.65,31.22220201269372,131.0104207109179,9.762794135003794,2.497267198415648,2.3601748831577662,37.89244155633404,-0.5362761961867567,1.6702327565492896,436.7781447787504,21.53072818944192,9.426676492407829,69.19796397242374,0.121479895223192,120.12985025692656,283.674257652534,1.274,1.0246641738210605,0.0,1.2982748455679904,75.00003213914121,0.063278024834083,6.218518622948251e-07,-0.0752559268989123,0.0178946998390984,0.0050292574892012,3.43558447962591,25.14647859057064,21.901358755065424,37.93302514590469
0.66,31.222201592496187,131.01042157587483,9.961592614763823,2.48088829191907,2.304810425210433,32.16569033551866,-0.5874370584399518,1.592911512070904,383.5125151715984,21.991025562575828,9.621380153332462,69.15482235023028,0.1481709393624061,120.1584066771358,295.9273919485031,1.274,1.0246195561629028,0.0,1.3026464943920812,75.00003213914121,0.0646309669737911,6.620953626125665e-07,-0.0772020149744421,0.0197625031018012,0.0052695104766481,3.385799343011753,24.66506383082345,22.35296670518906,32.21046544437685
0.67,31.222201160606662,131.01042246502655,10.166432526676136,2.4823862447567286,2.2675985140142814,22.009134007869136,-0.6359788763679555,1.5270990337490111,289.15624401033847,22.28240589661795,9.7562419461853,69.11055772671158,0.1775444711879643,120.18984216800592,303.8154249682668,1.274,1.024572383541697,0.0,1.307025783288854,75.00003213914121,0.0654874764022013,7.040620848788458e-07,-0.0792191167306287,0.0216648860591459,0.005478727344594,3.3616999203223648,24.367136034551567,22.63850645862818,22.071213839895737
0.68,31.222200726907023,131.01042335813523,10.371447623183014,2.4959958046780804,2.2425824448095053,27.603300592750934,-0.6820122220894677,1.4701242497800613,340.89999248584934,22.450231543157848,9.84718785248332,69.06512771763855,0.2096292968952797,120.22418951028,308.4031154774524,1.274,1.0245245285832842,0.0,1.3114620068677068,75.00003213914121,0.0659808647072783,7.478069290326039e-07,-0.0812914117331541,0.0235860235044592,0.0056642778840487,3.3549946278945164,24.195937014309145,22.80240563347301,27.650833795649543
0.69,31.22220028993527,131.0104242581967,10.577510808047707,2.492885156827424,2.203461459395982,34.10079971198218,-0.7329541122382552,1.399406988508907,401.0140726853658,22.75249423340744,9.986362236685364,69.01849887756035,0.244429234274198,120.26145485042836,316.75723256239485,1.274,1.024479631064582,0.0,1.3158260110960198,75.00003213914121,0.0668693652804872,7.933679584670142e-07,-0.0834066245759611,0.0255142042924556,0.0058897929292241,3.3266581429957056,23.89549326874044,23.09852783856415,34.13737105646623
0.7,31.22219984407176,131.01042517666176,10.787914526060188,2.4806083429778782,2.157499636018492,28.53181702649832,-0.7875662159161952,1.3198710170740635,349.270324209851,23.124100215337663,10.15066612301192,68.97064466548372,0.2819295274607935,120.30162453381269,327.182016791297,1.274,1.0244351749185203,0.0,1.3201441007704031,75.00003213914121,0.067961673064975,8.407510430492331e-07,-0.0855765184702937,0.0274595793467852,0.0061415946560968,3.287143655365354,23.53551142686743,23.462919381852483,28.57318503211961
0.71,31.22219939083779,131.01042611039307,11.001740989855488,2.4793086396111352,2.1222726633359663,23.372778237417748,-0.8396304919154324,1.2486835485478531,301.3312640634036,23.37982936534041,10.273647973280728,68.92153160005515,0.3221293967871519,120.3446999485108,334.45176823805616,1.274,1.0243880468141104,0.0,1.3244848447752706,75.00003213914121,0.0687134261593158,8.899763816049626e-07,-0.0878068649081476,0.0294265469775117,0.0063712197388254,3.263158093889849,23.29001149817871,23.71311895079981,23.421164627380872
0.72,31.222198934361217,131.0104270509776,11.216571576864206,2.4816112553189726,2.090955272733092,28.72732296558092,-0.8907634595161397,1.18035041491857,350.7922053414578,23.58605582388441,10.379010129403648,68.87112270223987,0.3650332929677238,120.39068817971992,340.3709657374334,1.274,1.024337302174265,0.0,1.3288165484060264,75.00003213914121,0.0693196946771597,9.410857296006138e-07,-0.0900855863946197,0.0314038541305379,0.0065940835882731,3.2446500336811392,23.092431817510096,23.9144294098828,28.765357140345063
0.73,31.22219847322,131.0104280013005,11.433233471833024,2.471022418479221,2.0496652866205647,36.46483282875592,-0.9467902292570636,1.0996636695587607,422.3203185282354,23.898188881923147,10.522786743193254,68.819387791187,0.4106277930988032,120.43957725584627,349.4321058879324,1.274,1.024292465384646,0.0,1.333101076352497,75.00003213914121,0.0702372290776589,9.941044809167682e-07,-0.0924067897922164,0.0333859315230981,0.0068533616940637,3.2100583116807906,22.802744724220336,24.22008088584064,36.49369404641683
0.74,31.222198003827646,131.01042896860403,11.653787324566414,2.449674753684655,2.000651177151901,22.67031097961532,-1.0077957322852371,1.0073540734758026,294.4828134710563,24.299433465975653,10.699113458585105,68.76629993270913,0.4588901732411587,120.49134531531666,361.25671244092086,1.274,1.0242470321640116,0.0,1.3373561593052667,75.00003213914121,0.0714166722002524,1.049036481151182e-06,-0.0947795459927143,0.0353799768825268,0.0071472069030668,3.1624471760232207,22.441749957144307,24.61363116063543,22.715048192328968
0.75,31.22219752599488,131.0104299532236,11.87831408928456,2.4518804351607675,1.971651781680404,26.54954427831045,-1.059681984412857,0.9379360201003184,330.24688556441737,24.455406630191806,10.786875195485182,68.71182680457059,0.5098071224859462,120.54598066988748,365.9013752780701,1.274,1.0241984712898409,0.0,1.341621816719358,75.00003213914121,0.0718752634856402,1.1058932159175952e-06,-0.097211322948147,0.0373915609692577,0.0073774786328157,3.145910832838605,22.295166527022456,24.765051847133545,26.587232862256613
0.76,31.222197048565285,131.0104309372871,12.101725730131855,2.4394490917368743,1.9317224971557725,28.61899368931984,-1.1176397410905847,0.8535154199494532,349.2703242098581,24.738296408027548,10.920915879210591,68.65593159627625,0.5633721631822772,120.60347904866336,374.4074874911266,1.274,1.0241522053390697,0.0,1.345888096732604,75.00003213914121,0.072706869325587,1.164730995010153e-06,-0.099676389529825,0.0393988059726226,0.00765189476298,3.111303334919852,22.04338563721137,25.04167318618428,28.653523464877498
0.77,31.22219656163279,131.0104319407563,12.32969227793408,2.424388854704327,1.890364236002714,26.74056805526179,-1.1770639155078464,0.7656246907528017,331.76876669606884,25.032789814754576,11.059483802420589,68.5985922407042,0.6195458591504877,120.66380090925117,383.36631115268415,1.274,1.0241065975906936,0.0,1.3500692050717091,75.00003213914121,0.0735725867668412,1.2255404031843452e-06,-0.1021857526148303,0.041410400499675,0.0079377422839937,3.073923414449041,21.78573279543432,25.32967366591277,26.77740914551608
0.78,31.222196069223408,131.01043295547328,12.55988487920678,2.4114613067788366,1.8515339687044745,21.89990231536819,-1.235504928958326,0.6798582890459896,286.8734378128874,25.288763523299888,11.18430093741709,68.53978015666361,0.6783003734336305,120.72691921593528,391.2380004576759,1.274,1.0240588105546735,0.0,1.3542717787614091,75.00003213914121,0.0743250989707401,1.2883343453003829e-06,-0.1047390182950228,0.0434252611252399,0.0082190928709655,3.039950504963262,21.562566829063517,25.579551182074933,21.945259195218767
0.79,31.222195571920924,131.01043398024677,12.791963252420524,2.4030056921669547,1.816702229066852,31.29747093341838,-1.2913244864965687,0.5994933052088637,373.6203323159581,25.481567902542423,11.286257361609987,68.47946686669484,0.7396052187221753,120.79280416605098,397.21757433380327,1.274,1.0240083170932772,0.0,1.3584520687487058,75.00003213914121,0.0748919579816502,1.3531316253225312e-06,-0.1073304928605941,0.0454384640257691,0.0084864759555003,3.012126799642682,21.39127417787125,25.766887007625403,31.32983558815118
0.8,31.22219507078514,131.0104350129386,13.025321365260105,2.377213391579088,1.7695648044296384,31.72209202083493,-1.356250760665804,0.4981434251005909,377.42502064505805,25.83926645608134,11.448999170963388,68.4176270631306,0.8034218296794504,120.86141734626464,408.43860995202925,1.274,1.0239625010683884,0.0,1.3626023350163736,75.00003213914121,0.0759434568525811,1.4199502560780396e-06,-0.1099519852976029,0.0474431743295389,0.0088155951621387,2.963225602819372,21.09437308354013,26.11718485779577,31.754978903726208
0.81,31.222194559402578,131.01043606630387,13.263537676045765,2.3538337161874074,1.724987654301228,20.536124266300337,-1.42003921907286,0.3990573674254208,273.9374926939922,26.156369930888093,11.5972266551426,68.3542400909846,0.8697010210367098,120.93270899100948,418.5153925664535,1.274,1.0239149950770308,0.0,1.3667078108818864,75.00003213914121,0.0768756533131521,1.488766988648066e-06,-0.1126181628152964,0.0494501293781743,0.0091399612865544,2.9179515546685253,20.833404203576784,26.427289426126094,20.589030041435443
0.82,31.2221940431202,131.0104371296335,13.503590901005785,2.3443318152199595,1.691183373917565,26.48177004430019,-1.4748710814410488,0.3187380708298073,328.725004432774,26.30373358103309,11.683152607093527,68.28927667797838,0.9384079752212208,121.0066448329655,423.23470857249777,1.274,1.0238644186635044,0.0,1.3708373908310612,75.00003213914121,0.0773089761902114,1.5596003386924812e-06,-0.1153227464256347,0.0514538488402814,0.0094119759549526,2.890397294342561,20.70095263034624,26.569345471812145,26.52472400127591
0.83,31.22219352533764,131.0104381961836,13.743596074393036,2.320057246813166,1.647310642747616,33.74524247520824,-1.538110796830736,0.2191417592041421,395.6875032246518,26.59598164168809,11.822904628859556,68.22271109435708,1.0094991539703728,121.08318128953252,432.6816937184089,1.274,1.0238188483711983,0.0,1.3749381492968804,75.00003213914121,0.0781681304947211,1.6324859549278995e-06,-0.1180462004252685,0.0534394791963539,0.0097410654850525,2.845138766249236,20.463369431986948,26.854704944626203,33.78098870140648
0.84,31.22219299783301,131.01043928219786,13.988084745332692,2.287413557528666,1.5981976507154705,20.735578551977696,-1.606744061270934,0.1072766636337313,275.45937482564227,26.967326619239245,11.992425342140178,68.15452889166409,1.0829094588963435,121.16225162246428,444.83819070466166,1.274,1.0237739661568126,0.0,1.3789788645592476,75.00003213914121,0.0792597674856005,1.7073908109991485e-06,-0.1208009278832207,0.0554156913702195,0.010107328803635,2.790186245909694,20.173184956458,27.21833836564476,20.798013189875306
0.85,31.222192462427447,131.0104403839871,14.236007721281,2.2732278499386926,1.5625406610754784,22.646205378470075,-1.661658252686364,0.023416365075441,292.9609323393965,27.10744482711356,12.076324715134044,68.08470835210564,1.1585853751977309,121.24380158568373,449.46212439520497,1.274,1.0237227741398531,0.0,1.383036042224012,75.00003213914121,0.0796718122744343,1.7843006036335296e-06,-0.1235924398939852,0.0573856986934276,0.010394374907115,2.7582271262743925,20.048122970716808,27.352857717261116,22.707097448126675
0.86,31.22219192741944,131.0104414852157,14.482825153402432,2.2493392222309576,1.520719100556598,28.43122753225277,-1.7221988352499746,-0.0737305741597853,346.2265619465616,27.34111248203428,12.195349406418064,68.013224487169,1.2364771451232854,121.3277810161633,457.23346004832416,1.274,1.023674789281455,0.0,1.387091221114408,75.00003213914121,0.0803588114240001,1.8632635889942888e-06,-0.1263946567495655,0.0593306137947478,0.0107214244827836,2.7149448011569874,19.85873106783129,27.579958434782743,28.48343560767258
0.87,31.222191383911923,131.0104426033295,14.733374232698468,2.217573958490826,1.47403435096374,26.46354719016561,-1.7878691435697671,-0.1828683614013464,327.9640783669946,27.651892769652456,12.343613416969674,67.94006746498107,1.3165084461334784,121.41411115301132,467.6758233502829,1.274,1.0236288969245204,0.0,1.3910663454965249,75.00003213914121,0.0812724617368901,1.944246173394685e-06,-0.129214441594004,0.0612549441330511,0.011084932782568,2.662578906809129,19.61907587157661,27.883408003417184,26.524502762507208
0.88,31.22219083308489,131.01044373592407,14.986969615157651,2.1890974559679446,1.4301514947020026,22.846089325921863,-1.8498414156809555,-0.2856954019240074,294.4828134710421,27.90425789005868,12.47039132034724,67.86522344176585,1.3986089761302116,121.50271971318264,476.2396698680501,1.274,1.0235805388426191,0.0,1.3950438769447222,75.00003213914121,0.0820144298759197,2.027221199639225e-06,-0.1320568605120223,0.0631614409097625,0.0114318893745639,2.614667395954013,19.42108516143552,28.128882234679537,22.922637994215457
0.89,31.222190277943746,131.01044487710195,15.241977792396604,2.1625893929469684,1.3880381084111568,25.087447954923054,-1.908592676630204,-0.3834935717444057,315.02813424808807,28.1122087590992,12.580800606650786,67.78867562503741,1.4827119191436413,121.5935381752126,483.3524419481397,1.274,1.0235293752791452,0.0,1.3990134346357743,75.00003213914121,0.0826258636466016,2.112193066069628e-06,-0.1349130434894718,0.0650436353429526,0.0117658915456674,2.569538407477815,19.25357383317018,28.33021994904927,25.162866255969902
0.9,31.222189718044145,131.01044602770725,15.4986287536298,2.1304908917600374,1.342788378759301,27.74048251978844,-1.970646637995986,-0.4897351606413952,339.3781423542166,28.371783078259067,12.711061172458471,67.71041240779375,1.568741515778087,121.68648835895276,492.30759476808544,1.274,1.0234837388140003,0.0,1.4029496606081764,75.00003213914121,0.083389031734577,2.199157055187333e-06,-0.1377755957428755,0.0668962157523416,0.0121261840591843,2.5181820723761725,19.05409417819107,28.582688475700163,27.814702211781835
0.91,31.222189151005256,131.01044719229233,15.758160882563471,2.094768812085368,1.2957737089738213,21.063749719665903,-2.0345658939818096,-0.60146524386493,277.7421810230785,28.659889854985884,12.852575614750783,67.63042653691072,1.6566149236249317,121.78148440661722,502.3443055225979,1.274,1.023436404813438,0.0,1.4068566623535304,75.00003213914121,0.0842360685030443,2.28808065145996e-06,-0.1406465328780163,0.0687199846285239,0.0125042587141863,2.4629936421516097,18.838751647672964,28.86341216321652,21.17032760892606
0.92,31.22218857734396,131.01044836978886,16.020268413235396,2.066030445724879,1.2535094156083015,25.123276334923496,-2.089732139010596,-0.6973410078061302,315.0281342480675,28.83465786352396,12.951413498494428,67.5487096395542,1.746250567924029,121.87844178707616,508.4767770328587,1.274,1.0233859136578225,0.0,1.4107534137740114,75.00003213914121,0.0847499906826851,2.378936678761752e-06,-0.1435254157671859,0.0705140702183907,0.0128376959967019,2.4164201938790155,18.695241426976505,29.03154295499664,25.219680384471744
0.93,31.222188001175283,131.01044955226587,16.282785082959467,2.0288534245604777,1.206575530079412,29.925280116147903,-2.1512979398724026,-0.8081093805013673,359.16250706547066,29.103584664658527,13.086520840463075,67.46525366445127,1.8375659513856817,121.97727492252756,517.9925768844232,1.274,1.0233407575091376,0.0,1.4146351931338697,75.00003213914121,0.0855406659102782,2.47173340293588e-06,-0.1463979065602568,0.072269044737099,0.013216421235356,2.3603944972658684,18.495158351963536,29.29309909768672,30.013388906067746
0.94,31.22218741635654,131.01045075143628,16.548888295064497,1.986684127477734,1.1571651028423064,21.67272995934817,-2.2164274007798945,-0.9280221553791768,283.06875048378083,29.424182227835924,13.241917003142463,67.38005904547752,1.930466621988516,122.07788524306623,529.4540470666904,1.274,1.0232914783978162,0.0,1.4184704625652893,75.00003213914121,0.0864832194281609,2.5664150515237274e-06,-0.1492697360132333,0.0739879759692623,0.0136237789668974,2.299001566236345,18.266587839781195,29.605936940497237,21.805526809380925
0.95,31.222186824125448,131.01045196483895,16.817891306427,1.95333355709284,1.1133503132006513,28.13168727190773,-2.2693418337223017,-1.0255561388603784,342.421873617488,29.597078743753304,13.341065429749063,67.29312297427131,2.02486278064524,122.18017912583323,535.6806330453353,1.274,1.0232418269359267,0.0,1.4223060384290178,75.00003213914121,0.0869916589230114,2.66293872030095e-06,-0.1521422591022854,0.0756709506770087,0.0139671858291321,2.24823945012718,18.12666643200101,29.771952396471868,28.241698010506585
0.96,31.222186230101176,131.0104531817818,17.086902011524355,1.9091696110388137,1.0638458937621995,27.562563237861607,-2.3323647370683,-1.1455561716001654,337.09533515678265,29.90798582734129,13.49380440996284,67.20444197042357,2.120665350940837,122.2840636429068,546.9798922340336,1.274,1.0231951201821403,0.0,1.4261316074862087,75.00003213914121,0.0879057430550539,2.761318980059871e-06,-0.1549977706694337,0.0773070755654295,0.0143784344009459,2.18546969278615,17.908165522416375,30.07508474777464,27.684781314833085
0.97,31.22218562549013,131.0104544188486,17.36038027108144,1.8664506213653231,1.015582060311614,17.56618990085535,-2.3913333035036763,-1.2597560628091753,245.0218871929888,30.1780852870214,13.631321367747136,67.11402308154024,2.217772127138093,122.3894315401222,556.8894435134017,1.274,1.0231476260761452,0.0,1.42990651141492,75.00003213914121,0.0886998948151581,2.8614747881239625e-06,-0.1578453866444331,0.078901079510079,0.0147744441459541,2.12477762947976,17.71522792687113,30.337604190643276,17.772914446965157
0.98,31.222185016117823,131.01045566496416,17.63533216024353,1.831635219753244,0.9720065417428904,25.684262079163524,-2.4369334323318097,-1.3496815960732278,319.593746642963,30.30116612548644,13.712181073285116,67.02186816938729,2.316087975148515,122.49618309489392,561.4264106294986,1.274,1.0230935628253934,0.0,1.4336937587671188,75.00003213914121,0.089061932220317,2.963383293004959e-06,-0.1606773448269959,0.0804478270760088,0.0151004571862228,2.0734903954586543,17.60514646167207,30.453841232424463,25.834891203865222
0.99,31.22218440511564,131.0104569142624,17.91019106639278,1.7847475673495636,0.9223723454964315,28.09168845962712,-2.495576041087617,-1.4681618235466602,341.66094855170127,30.59586858546992,13.860276253532495,66.92798382977253,2.4155123513130987,122.60421258365068,572.3850253798835,1.274,1.0230490803133316,0.0,1.437451508623736,75.00003213914121,0.0899284078313598,3.06705106281313e-06,-0.1634766671778495,0.0819376593050968,0.0155125503803552,2.0089348997083265,17.401371214675482,30.740748236679867,28.240509192111215
1.0,31.22218378303648,131.01045818432587,18.189636916993127,1.737015450799418,0.8727315422700948,25.12145425736808,-2.552729537605362,-1.586280648240875,314.2672081822764,30.88609653287015,14.00723616373958,66.83238683145292,2.5159340895973994,122.7134025919279,583.2799965332836,1.274,1.022999484445133,0.0,1.441159261084714,75.00003213914121,0.0907817418373567,3.172370157285807e-06,-0.1662547860890394,0.0833761219626407,0.0159253933528165,1.9438749075747952,17.202378144171952,31.023179581926776,25.300596403883112
1.01,31.222183155339543,131.0104594648766,18.4709124798912,1.691291765173334,0.8245976383426474,26.289545996793724,-2.6036453173703125,-1.6946249606457056,324.92031610370094,31.11975297307824,14.1325458022404,66.73508745743783,2.6172504522306497,122.82364467226007,592.1225261721987,1.274,1.0229507481225095,0.0,1.444880639841513,75.00003213914121,0.0914688051853832,3.2792955919619388e-06,-0.1690071502654084,0.0847600071034158,0.0163110708710552,1.8815503159713651,17.03519865260926,31.249275995800986,26.472456467306554
1.02,31.222182522588326,131.01046075484717,18.753731936902337,1.6424909794421017,0.7753643712025275,21.90901025684637,-2.6558623534710684,-1.8083626834812536,284.59063161543185,31.385759550045385,14.271111008578764,66.63609890924266,2.7193562982564967,122.93482758625434,602.2721639253056,1.274,1.0229039803623294,0.0,1.4485784467465823,75.00003213914121,0.0922509600179007,3.387797867504277e-06,-0.1717245248303469,0.086084082435084,0.0167145398407269,1.816260397284261,16.8526679707064,31.50754978328707,22.143362682081325
1.03,31.222181882176645,131.01046205898626,19.03933949730085,1.5963573624160627,0.727756194463518,17.859392089796604,-2.7000129101439265,-1.908820184680102,247.3046933904342,31.58025693994372,14.3819072086616,66.53544006187407,2.8221419191491286,123.04683492237636,609.7431217858888,1.274,1.022853416101322,0.0,1.4522493916673236,75.00003213914121,0.0928229378802998,3.497809435927553e-06,-0.1744052867606177,0.0873468549295016,0.0170801959924409,1.75437990549738,16.70800602764491,31.694569541836227,18.162916892103965
1.04,31.22218123792992,131.01046337020873,19.32585931446004,1.5509752846324518,0.6807976104585339,28.55421166166836,-2.738664471191953,-2.001137665195844,345.4656368807608,31.73592958482811,14.477692356349303,66.43313101059535,2.9254977460568714,123.15955019119266,615.7523644348755,1.274,1.0228049544826707,0.0,1.45590994699006,75.00003213914121,0.0932808035700994,3.609299743829935e-06,-0.1770394446622769,0.0885429493250257,0.0174231572529117,1.6937817169833242,16.583453487934115,31.842866507038792,28.754961983285458
1.05,31.22218058917357,131.0104646897257,19.613606390746487,1.4953421274216692,0.6296902013089497,17.12522722079958,-2.791816432090393,-2.1256710407466177,240.4562587980608,32.07219628524648,14.64600357842978,66.32919800854118,3.029309970423701,123.2728520417005,628.8528598701594,1.274,1.022755494436122,0.0,1.459536360857426,75.00003213914121,0.0942694918550214,3.7222208319949215e-06,-0.1796200338256525,0.0896687258408674,0.0178639323916189,1.6224881499546526,16.370589942769687,32.171105799631114,17.481021815900053
1.06,31.22217992871764,131.01046603051992,19.905953867686705,1.4496478813319684,0.5831577656043296,24.51096304887744,-2.822235805598025,-2.207490572263064,308.1796836557233,32.18366495609768,14.72493786131354,66.22367171298492,3.133462901349304,123.38661680681231,633.2139009367812,1.274,1.0227013895379469,0.0,1.4631334193605052,75.00003213914121,0.0945974426838318,3.836430959223777e-06,-0.1821567912836363,0.0907275815526144,0.0181786765712621,1.5625234047075574,16.268925914166044,32.2752655821762,24.771462192459794
1.07,31.222179269876044,131.01046736840323,20.19659143507855,1.3948730727115812,0.5333106476069795,28.910525623012084,-2.8659351018132324,-2.319295653280919,348.5093681440431,32.4629957248577,14.871755125852763,66.11657737295255,3.237847061234633,123.50072730922312,644.2352877298753,1.274,1.0226540159946436,0.0,1.4667433421573015,75.00003213914121,0.0954187925088932,3.951959071944448e-06,-0.1846286804215477,0.0917100676482391,0.0185847632931418,1.4933301519493822,16.087254109156188,32.54676675583086,29.144660027764456
1.08,31.222178599008192,131.010468727976,20.4919022029544,1.3379997731958628,0.4830584893001284,19.379562650206008,-2.910171376243288,-2.435630643888481,261.0015785751465,32.771409901489804,15.0310251724766,66.00795293476033,3.342344805674839,123.6150571793606,656.5159086739127,1.274,1.0226061614050743,0.0,1.4702885361838436,75.00003213914121,0.0963256382198795,4.068657737457566e-06,-0.1870437164270783,0.0926187403553147,0.0190061960489561,1.4225141397963597,15.894157396088804,32.84728765263192,19.74762878387717
1.09,31.222177921135607,131.01047010006147,20.7894819556092,1.2872030960746432,0.4354749437990538,17.81123515034385,-2.936413710236544,-2.51866707417548,246.54375332456465,32.91492610616876,15.124076386326504,65.89783197222978,3.4468439817480405,123.72948572257016,662.2597457290598,1.274,1.0225512795791307,0.0,1.4738476521685109,75.00003213914121,0.0967478030430825,4.186440013792804e-06,-0.1893992168139599,0.0934514008830261,0.0193292768240147,1.3588592021894053,15.779125415696727,32.98332969179715,18.226527559824586
1.1,31.222177241914743,131.0104714745392,21.08672490711912,1.234331165491816,0.3874479172348858,35.98794565059239,-2.962243992808442,-2.604133888927123,413.1890617384087,33.08258045802017,15.227333354725916,65.7862499949898,3.551232577340424,123.8438920806468,669.004355111032,1.274,1.0224981043155532,0.0,1.4773913018836136,75.00003213914121,0.0972409205317756,4.305304559515984e-06,-0.1916796260770844,0.0942019077042691,0.019661084717011,1.293702473757274,15.653538986492991,33.14344017070809,36.20343402129665
1.11,31.222176555771927,131.01047286131953,21.386173015595293,1.1697770015527744,0.3361117952470078,26.28013294730744,-3.0122689557341533,-2.743120340133056,324.1593910379213,33.53067930735954,15.445900014270867,65.6732519838111,3.655394886571095,123.95815101929507,687.2304643523225,1.274,1.0224548851875197,0.0,1.480889224681402,75.00003213914121,0.0985583680090321,4.425156967579223e-06,-0.1938827232699965,0.094868915912739,0.0201558499116599,1.2171005197344955,15.40402094155557,33.58347532188363,26.59405687724769
1.12,31.2221758537522,131.01047427610487,21.691804061251787,1.1134183419826067,0.2877968889692504,9.768151013945454,-3.0369092789863505,-2.833613671115752,172.7328179403806,33.74236677934945,15.568369160805355,65.55888459625822,3.7592168015505503,124.07213869869192,695.9147377653261,1.274,1.0223979224661404,0.0,1.484372148855778,75.00003213914121,0.0991809334218637,4.54577579666364e-06,-0.1960208725441892,0.0954545783142454,0.0205061799168525,1.1500074030940504,15.262019720776514,33.78757361885549,10.614563516092929
1.13,31.222175152360112,131.0104756896773,21.99616041040365,1.0629762450896327,0.2413773544960608,31.030948199914786,-3.0392949440893946,-2.8811850389412608,367.5328077894322,33.75496979508744,15.609121575392487,65.4431876440031,3.8625890151039752,124.18573616261078,696.4143341958232,1.274,1.0223460397860296,0.0,1.4878856444682396,75.00003213914121,0.0992183189731986,4.667192916703609e-06,-0.1980747935418325,0.0959523841449674,0.0207281786579339,1.0900343298055497,15.206931174981747,33.7928851491154,31.312270552797365
1.14,31.222174450665136,131.01047710377443,22.299707736293776,0.9983708915858026,0.1918302904776285,17.079214603726083,-3.077403556098433,-3.0071894477814487,239.6953177322812,34.16903065496773,15.816488635380177,65.32621258998353,3.9653987740365375,124.29882031158932,713.583679581738,1.274,1.0223022138470996,0.0,1.491344294309792,75.00003213914121,0.1004357407454305,4.789419550847989e-06,-0.2000296244849971,0.0963585437522626,0.0211889054657433,1.01663148341592,14.980667631059138,34.199163230237126,17.61286951357063
1.15,31.22217372924045,131.0104785522381,22.610964549580498,0.9432777282948251,0.1447784206951544,16.836821753316745,-3.0817840061456554,-3.0662734435912498,237.4125115347709,34.26760484786456,15.893555852819196,65.2080199346224,4.067533238356805,124.4112675665152,717.68539501942,1.274,1.0222426194541194,0.0,1.4947550286433646,75.00003213914121,0.1007258414733502,4.912148877831622e-06,-0.2019026077142439,0.0966749619809753,0.021448367374171,0.954322676049018,14.889726894807165,34.29034656480619,17.38901930082223
1.16,31.222173013351195,131.01047999093424,22.918798926474043,0.8853481181270062,0.0975838254256827,44.42646209867109,-3.0892827853382454,-3.135496594936477,490.043774385954,34.4323047582158,15.998580687605116,65.08866052583177,4.168883835903264,124.52295859837024,724.5793515866301,1.274,1.02219674531104,0.0,1.4982127809261987,75.00003213914121,0.1012103102607453,5.035454005770201e-06,-0.2036737153458089,0.0968973248009653,0.0217398628191787,0.8907093439131369,14.771924951406444,34.447633182258464,44.64398662338864
