Time,Latitude,Longitude,Altitude,Angle of Attack,Angle of Sideslip,X-Acceleration,Y-Acceleration,Z-Acceleration,Thrust,True Velocity,Ground Velocity,Pitch,Roll,Yaw,Dynamic Pressure,cp,parachute_deploy_gain,Wind Speed,Mach,omega_x,omega_y,omega_z,Cmq
0,31.2221860000000042,131.010383999999988,3.00000000364323682,0,0,0,0,0,2.2828121974499247,0,0,69.9999999962342088,0,113.699999993883324,0,15.2880000000000003,0,0,0,0,0,0,-0
0.01,31.2221859999997946,131.010384000000556,3.00000016469923247,0,0,0,0,0,34.2421869617492334,9.11367326775851009e-12,8.66229497295429822e-12,69.9999999962370651,-4.92863947922479589e-13,113.699999993882884,5.08594204168408172e-23,15.2880000000000003,0,0,2.67827100510624443e-14,-3.65918233213857746e-19,7.58941520739853104e-19,4.81114714040442593e-19,-1.83541113936281872e-32
0.02,31.2221859999996028,131.010384000001039,3.00000030885429547,0,0,0,0,0,25.8718762377664078,1.96992978605390895e-11,1.88456988716431921e-11,69.9999999962400494,-1.04152381447771591e-12,113.699999993882386,2.37621641206600858e-22,15.2880000000000003,0,0,5.78911013494094702e-14,-7.28448334638698292e-19,1.51788304147970621e-18,9.75781955236953991e-19,-7.93451985123442364e-32
0.03,31.222185999409362,131.010384001586402,3.00018176030779937,18.6493779029494604,-0.000129237623237530007,10.7928899806483045,-1.97644583900689674e-05,3.34983967390763571,180.342193598546658,0.0785672533977095078,0.0490694047558625918,69.9999999976775626,-4.2497891361524094e-12,113.699999994705607,0.00377978965327356543,15.2880000000000003,0,0,0.000230888677896110966,2.88330015245363835e-17,-7.25223402354589416e-10,1.08188208080271277e-11,1.51197624781400831e-13
0.04,31.2221859959356287,131.010384010943454,3.00162780953569674,9.74253989061216075,-4.88763086122285772e-05,51.6475445943311158,1.54548216767323456e-06,3.34965665682309899,548.635972453807767,0.346420694310776434,0.171860503977579737,70.0000000036447574,-2.28205307288861013e-11,113.699999999565534,0.0734838809649275282,15.2880000000000003,0,0,0.00101804013696402693,1.80009747884589399e-15,-1.58734069119923437e-08,2.61929145365345784e-11,1.45916869803439425e-11
0.05,31.222185985910329,131.010384038045004,3.00715844163023283,5.5769968489095687,-4.21135943534799539e-06,75.3242160169835273,4.73080294831520123e-05,3.34902689347595528,761.698429882464552,0.947854334293939504,0.409211128642743283,70.0000000010935537,-1.04766136577077691e-10,113.700000013612069,0.55013262299765131,15.2880000000000003,0,0,0.00278549703395658196,1.95473045844392346e-14,-1.13584749331540247e-07,4.14067569904437612e-11,2.85688606727574374e-10
0.06,31.222185966868647,131.010384089593572,3.01868664272593046,4.48500474963244322,2.31139019787050305e-05,56.3605563030587007,9.71465785775115924e-05,3.34799244711343214,590.487539073720654,1.60618980149218604,0.665693519146445256,69.9999999197690244,-2.82941102348924619e-10,113.700000040305838,1.57971028663545732,15.2880000000000003,0,0,0.00472017413217633904,1.01936766184118274e-13,-4.07864410983111553e-07,5.76522069423461223e-11,1.73837509686130208e-09
0.07,31.2221859390775336,131.010384164863126,3.03600551209402658,4.00448286551149391,4.63712119495135773e-05,85.8192455386477917,0.000147926970097503541,3.34656708333141317,855.293774977913927,2.27788210706903049,0.926660947343454056,69.9999996219982279,-5.49831570978999292e-10,113.700000079276109,3.1772067926123353,15.2880000000000003,0,0,0.00669410445039518576,3.35900025920073467e-13,-9.92070622953462368e-07,7.83315922772719921e-11,5.99658406989250883e-09
0.08,31.2221859009658012,131.01038426812616,3.06033476575187802,3.77263127792190334,7.06371256062416025e-05,17.6076228145981588,0.000196957592070898702,3.34480227118667583,241.217198863884818,2.92612482887636283,1.17954495655796454,69.9999989088305909,-9.15694670892462832e-10,113.700000132739973,5.24285298735243899,15.2880000000000003,0,0,0.00859912396431777512,8.49635706706491564e-13,-2.01744800413265681e-06,1.10032289818440005e-10,1.56647792516492608e-08
0.09,31.2221858556197738,131.010384390989856,3.0892797608365723,3.74258231141200604,9.5325675231994802e-05,53.4176180048964397,0.000237730218002333866,3.34289666486112669,563.093737704317618,3.46187703891102627,1.39384941462988121,69.9999975134546446,-1.31671842773002699e-09,113.70000019638816,7.33844512707370811,15.2880000000000003,0,0,0.0101735644468633635,1.80613395740032365e-12,-3.4856561047658452e-06,1.59232278560273843e-10,3.20202005890100843e-08
0.1,31.2221858028175774,131.010384534057465,3.12301320909491364,3.81071421019783685,0.000121971080758598364,50.732831688561788,0.000271545837515448313,3.34090447591365036,538.7437595981919,3.9029133825176725,1.57567038389986336,69.999995157830341,-1.72222432289554893e-09,113.700000270567642,9.32732681847184431,15.2880000000000003,0,0,0.0114696609641860067,3.37914451533694905e-12,-5.48904943388414521e-06,2.34452541412924053e-10,5.68476506314615152e-08
0.11,31.2221857431700727,131.010384695667796,3.16106164078641116,3.84323765504598036,0.000147145408783231387,40.0848474374385688,0.000307099758177995722,3.33859717034531034,442.865639305294906,4.36819921201157246,1.76578242121538631,69.9999915253729768,-2.07703942468805025e-09,113.700000354470319,11.6837607126815346,15.2880000000000003,0,0,0.0128370221364947634,5.76365694334259916e-12,-8.08162139954488366e-06,3.4437809457680147e-10,9.36754562129998513e-08
0.12,31.2221856770245907,131.01038487487628,3.20315617196047642,3.86558564807459826,0.000171348089099210797,43.7480799143332604,0.000342946594964391399,3.33600966231316054,475.585948135404465,4.83801864946757032,1.95742650583495204,69.9999862600106582,-2.3147200577597177e-09,113.700000447673773,14.3321420062794882,15.2880000000000003,0,0,0.0142177082532951912,9.17772063248746377e-12,-1.13223702306849879e-05,4.98555567062495836e-10,1.45354343598177095e-07
0.13,31.2221856047215205,131.010385070757366,3.24903338361815308,3.95285669440916232,0.000198169826234992146,48.2585391180499741,0.000371981107240517913,3.33344523512332414,515.915632623689476,5.21512035057569623,2.1172615234944101,69.9999789703044399,-2.35265113573284059e-09,113.700000549782459,16.6533950244453948,15.2880000000000003,0,0,0.0153259223232261182,1.38588880633063252e-11,-1.52681962163171846e-05,7.07166414280215559e-10,2.11287244421402401e-07
0.14,31.2221855263490333,131.010385283071088,3.29862557546706325,3.99981420118284792,0.000223008237377726162,44.9721767850953427,0.000403855591455553264,3.33052592490198407,486.239086056840392,5.63167615200940475,2.29059513099545553,69.9999692426645623,-2.0964169591742506e-09,113.700000660771011,19.4199179783547713,15.2880000000000003,0,0,0.0165500839355928395,2.00553635588333716e-11,-1.99811439493909854e-05,9.81252131659242702e-10,2.9859131057555361e-07
0.15,31.2221854420015994,131.010385511560628,3.35186028506811029,4.05975476911301225,0.000248539990764711958,43.4637160193537753,0.000433543226731567866,3.32747422849243879,472.54218587214001,6.01888316560526437,2.45383766868271946,69.99995661705006,-1.43188768134039915e-09,113.700000780625842,22.182048585914238,15.2880000000000003,0,0,0.0176879988684610287,2.80404916713566325e-11,-2.55291719775422389e-05,1.33309260321839681e-09,4.07727088477750495e-07
0.16,31.2221853515819241,131.010385756490507,3.40881389436676407,4.08854462484130732,0.000272210944932510383,34.4023069357135967,0.000465877824565354701,3.32404684464906053,391.12189082975641,6.44303061809316624,2.62971580822363071,69.9999405987561403,-2.27841984783363582e-10,113.700000909623355,25.4183784408083007,15.2880000000000003,0,0,0.0189344747787753703,3.81042963600432359e-11,-3.19913711614788564e-05,1.77662362644707755e-09,5.46937370926295155e-07
0.17,31.2221852554099399,131.010386016990765,3.46923909377793649,4.13347468842419552,0.00029684158695823977,43.4155809381403728,0.000495744973995866601,3.3205135250562221,471.78125980632376,6.83404379119085981,2.79420112365087148,69.9999206448319882,1.67575894446247236e-09,113.700001047478835,28.5969980778046526,15.2880000000000003,0,0,0.0200835795555658371,5.05622819343119236e-11,-3.94162603380559734e-05,2.32482468580976756e-09,7.14768170397066036e-07
0.18,31.2221851530022434,131.010386294375877,3.53351204963262022,4.16207877285686756,0.000320492787063832857,36.2151660219171347,0.000526966735016640565,3.31665933612355879,407.101567211914528,7.2444022294323478,2.96528531587496236,69.9998961790314524,4.45070668055043651e-09,113.700001195059045,32.1341903991183955,15.2880000000000003,0,0,0.0212895378539265934,6.5741708189353534e-11,-4.79243856484647045e-05,2.99669991322666987e-09,9.21230820748327094e-07
0.19,31.2221850444828668,131.010386588308563,3.60153760019172342,4.17456309251139679,0.000342914278589344943,40.9041800427263027,0.00055982867240863632,3.31244583927210501,448.953132831826849,7.67810673790947895,3.14433961722118216,69.9998665624008964,8.30674092292676784e-09,113.700001352409558,36.0967170721845179,15.2880000000000003,0,0,0.0225641073333706747,8.40032927522686365e-11,-5.75836346763551867e-05,3.80911503044151526e-09,1.17316671380156179e-06
0.2,31.2221849296486234,131.01038689934137,3.67347464118590317,4.20078915399145636,0.000366573034254704516,37.5214898208491761,0.000590466919182690893,3.30812712915434881,418.515630199161365,8.08216006412957277,3.31318683933006453,69.9998311045104487,1.34800080829191884e-08,113.700001520067786,39.9955165273270055,15.2880000000000003,0,0,0.0237515420632470921,1.05728805481567758e-10,-6.85028882131185225e-05,4.78351733027568889e-09,1.4690610466811608e-06
0.21,31.2221848088436893,131.01038722653837,3.74905730552401684,4.22722562033261262,0.000390310433246848657,36.0064697775761644,0.000620601272787201603,3.30359776763142721,404.818761014464428,8.48018829437500621,3.47992805775657654,69.9997890742529592,2.02433263776548733e-08,113.700001697833756,44.0315784885794201,15.2880000000000003,0,0,0.0249212734096428447,1.31320595517854955e-10,-8.07208291683553139e-05,5.93661589182972911e-09,1.81631626331753899e-06
0.22,31.2221846819136672,131.010387570319409,3.82840670130281646,4.2176244726165093,0.000410696285369717819,43.5935627685881499,0.000655758920494764063,3.29841875767922987,472.542185872136486,8.94831461811120121,3.67066782999472752,69.9997397083127737,2.88926538075102191e-08,113.700001886238866,49.0266756129506618,15.2880000000000003,0,0,0.0262970098082033268,1.61186003536399267e-10,-9.43348117723774896e-05,7.29106197993283208e-09,2.23980539128825791e-06
0.23,31.2221845484548304,131.01038793178239,3.91183756115468473,4.25320537954326383,0.0004356497720089569,36.207459360748949,0.000683686922722525747,3.29355466128287455,406.340642146102141,9.31799902525197865,3.82760028360492655,69.9996821549030983,3.9766623706965518e-08,113.70000208621326,53.1608354775167555,15.2880000000000003,0,0,0.0273834518362109196,1.95767624418301473e-10,-0.000109505708778552874,8.87784718088286285e-09,2.70740355927931971e-06
0.24,31.2221844093456014,131.010388308538637,3.99866964940866776,4.27135264557773553,0.00045883378920767232,37.3286080087975947,0.000713911697673520317,3.2882529474867046,416.232824001711379,9.7203332459195213,3.9956861712714935,69.9996155408946805,5.32509871046438109e-08,113.700002296918697,57.8502398901668755,15.2880000000000003,0,0,0.0285658473732890855,2.35534745143307651e-10,-0.00012617657385590063,1.07071802425012536e-08,3.25424194465518317e-06
0.25,31.2221842644570167,131.010388700938847,4.08900446593793809,4.29698686981540234,0.000482848983334858658,38.3649566400252979,0.000742483922667206905,3.28284626589867479,425.364080791506922,10.1009615935159527,4.1562806652626314,69.9995389781877293,6.97479781374676735e-08,113.700002518962805,62.4689963611702623,15.2880000000000003,0,0,0.0296844577155840929,2.80933085873043406e-10,-0.000144451636124542286,1.28055329635332884e-08,3.87142965072796435e-06
0.26,31.2221841140756986,131.010389108203611,4.18262110402873155,4.32755423691547136,0.000507438991606541483,41.7865661614553829,0.000769736419800412888,3.27732087646770287,455.80158342417883,10.4644497354123782,4.31094871887776954,69.9994515368878751,8.97024502886333285e-08,113.700002752408935,67.0452443356678742,15.2880000000000003,0,0,0.0307527002093570291,3.32431765373287754e-10,-0.00016436315770221847,1.51925047864838523e-08,4.56355359993810651e-06
0.27,31.2221839578137299,131.010389531387915,4.27982215321117465,4.33742811840656994,0.000529702335486379188,38.2242911032538473,0.000800211178185602123,3.27123004841987974,423.842199659872563,10.8736118498261902,4.48123226393084195,69.9993522521519935,1.13587393208351198e-07,113.700002998306658,72.3900346549699947,15.2880000000000003,0,0,0.0319551720828357214,3.90484337603431509e-10,-0.000186059811616844751,1.79019946498730075e-08,5.36790267753501075e-06
0.28,31.2221837957695953,131.010389970223883,4.38053283172365671,4.35979025650862262,0.000553527510562852902,44.1207307275094038,0.000828072271385077072,3.26514386100193477,476.346873201222195,11.2478718916014184,4.63949182586423614,69.9992400702920463,1.41938296327408329e-07,113.700003257081931,77.4582454645660761,15.2880000000000003,0,0,0.0330550782151640757,4.55595825375374429e-10,-0.000209619220926101062,2.09616181379585756e-08,6.25569396794615011e-06
0.29,31.2221836278828384,131.010390424876022,4.48480177698289584,4.38135974025744623,0.00057737648726709299,35.3536197607625553,0.000855659611391794222,3.2588361863853601,397.970310422111766,11.6195889013503368,4.79682445966682813,69.9991139044831527,1.7532937395312496e-07,113.700003529427192,82.6616578528940948,15.2880000000000003,0,0,0.0341475147840558241,5.28268525040872464e-10,-0.000235137545717689308,2.44023887909330158e-08,7.24907222782668121e-06
0.3,31.2221834544381096,131.010390894570321,4.59240982688131272,4.39617507281761988,0.000600356665334356751,33.1490797613948018,0.000884158719714270942,3.25217107922164672,378.185945710871067,12.0052186882677852,4.95887519756831807,69.998972627127344,2.14383684192303281e-07,113.700003815596887,88.2385269149682756,15.2880000000000003,0,0,0.0352808420099011907,6.09029939588318471e-10,-0.000262641159892275291,2.82471356422800846e-08,8.36561857411674722e-06
0.31,31.2221832755909574,131.01039137888381,4.7032380575360353,4.42235615181669761,0.000624899913490765827,34.9528590290802086,0.000910025197609511073,3.24555398289468222,394.16562209302117,12.3556398803864607,5.10879227158949156,69.9988150759387651,2.59766173767152649e-07,113.700004116072961,93.4639131761651498,15.2880000000000003,0,0,0.0363107024397255479,6.98403788157463991e-10,-0.000292187019282257228,3.25229566712151178e-08,9.57826248689966157e-06
0.32,31.2221830914257232,131.010391877587324,4.81722282885169673,4.45155794779377789,0.000649944303128982049,38.0379859115142835,0.000934821026682707218,3.23882361682650144,421.559393462426954,12.6924793110791878,5.25399282922068878,69.9986400687318024,3.12179641788393281e-07,113.700004431478234,98.6283237403037703,15.2880000000000003,0,0,0.0373006526995305274,7.96905013945712519e-10,-0.000323836613651358495,3.72580440687311147e-08,1.09050644159405278e-05
0.33,31.22218290196043,131.01039239063175,4.9343519698327194,4.48019701204722054,0.000675004219851668761,37.7093551175013246,0.000959261610436717115,3.23189933669563656,418.515630199168186,13.0256844327599097,5.39788776638052958,69.9984463826819052,3.72372687880250348e-07,113.700004762578004,103.87354288045799,15.2880000000000003,0,0,0.0382799263433428877,9.05047894999210997e-10,-0.000357667290238851605,4.24836225249657193e-08,1.23603484615852587e-05
0.34,31.222182707020778,131.010392918491164,5.05476263450916541,4.49049305198152204,0.000697378143373914754,29.5227085089536203,0.000987142430045659337,3.22427911658814059,345.465636880756449,13.4081741031825317,5.55863100914667463,69.9982327456812641,4.41143957445642244e-07,113.700005110463266,110.062177258613033,15.2880000000000003,0,0,0.0394040418267209702,1.02333461745717641e-09,-0.000393806243978271305,4.82396483202145133e-08,1.40087103268591529e-05
0.35,31.2221825067937928,131.010393460657156,5.17831168393457641,4.50711781535187139,0.000720712543856854714,32.3530371383660977,0.00101333646443235357,3.21661305844837253,370.576570052703289,13.7686530554979374,5.71176159517965232,69.9979978091806316,5.19362042776584697e-07,113.700005475786654,116.058400304168075,15.2880000000000003,0,0,0.0404634764462946869,1.15232390415689195e-09,-0.000432299813734132244,5.45552399130644805e-08,1.57912776608867467e-05
0.36,31.2221823012122108,131.010394017312592,5.30505329869157727,4.52767240178778962,0.000744729708600240731,36.5526511043957356,0.00103828652712813154,3.20885713174522058,407.862523277719447,14.1132764952183631,5.85938873702120233,69.9977401961163537,6.07939829707116331e-07,113.700005859608282,121.939407863977465,15.2880000000000003,0,0,0.0414763190843316643,1.29254043868676357e-09,-0.000473255972436325862,6.14699225552327593e-08,1.77198251922661022e-05
0.37,31.222182090341061,131.010394588280832,5.43493909097431604,4.55039311415752579,0.00076918150115683735,34.6835787828593496,0.00106234372950533948,3.20097384516078431,391.121890829766642,14.446930470491731,6.00318739776240751,69.9974584775585669,7.0785096329375243e-07,113.700006262864989,127.771540530283914,15.2880000000000003,0,0,0.042456928843506235,1.4445318520011827e-09,-0.000516746496826029863,6.90186481791334769e-08,1.98053803654614999e-05
0.38,31.2221818741223878,131.010395173719473,5.56801609611825477,4.56315131642791805,0.000792019287104061913,36.2353933787001239,0.00108827974821363053,3.19255015153205646,404.818761014460279,14.8084413239345949,6.1564787166299757,69.9971511865591651,8.20121521966083772e-07,113.700006686723384,134.244380272309172,15.2880000000000003,0,0,0.0435194095147296359,1.60882660749176723e-09,-0.000562873331420229127,7.72423853301427293e-08,2.21128406351508731e-05
0.39,31.2221816525004634,131.010395773780147,5.704329739781131,4.57922628245169783,0.000815489716137310881,30.9425419640016202,0.00111309493143926189,3.18402316666385765,357.640624933827439,15.1559126959619999,6.30488433186772657,69.9968167722787769,9.45855271408966431e-07,113.700007132429306,140.616382889747683,15.2880000000000003,0,0,0.0445406353688629561,1.78596578656278109e-09,-0.000611756345505213715,8.61868943159197994e-08,2.45968452142520012e-05
0.4,31.2221814256617982,131.010396387955836,5.84373750626454935,4.59349479979191955,0.000838670682925170751,29.5834243852937959,0.00113797512888990423,3.17521289611434332,345.465636880754005,15.505969085398343,6.45410901523083158,69.9964536498379317,1.08621525395706341e-06,113.700007600947828,147.185065961143067,15.2880000000000003,0,0,0.045569462889951777,1.97653506559195414e-09,-0.000663427505461186432,9.58835144134294998e-08,2.72901174189528038e-05
0.41,31.2221811937141673,131.010397015953487,5.98615797249314241,4.60939449845229365,0.000862163931524819621,33.360545626359837,0.00116210409424792778,3.16624854525325983,378.946870776686467,15.8471768437686258,6.60022848408685459,69.9960602026584695,1.24241947051318175e-06,113.700008093413757,153.73182724817184,15.2880000000000003,0,0,0.0465722905345462151,2.18109996727848554e-09,-0.000717942131686907965,1.06367950505874699e-07,3.01820283711074823e-05
0.42,31.2221809567080335,131.010397657635991,6.13155423418529733,4.63387609959193458,0.000887317919769279608,37.5676427387571721,0.001183742077125155,3.15743374731593907,416.232824001711379,16.155026338188506,6.73482947265292431,69.9956347739890248,1.41574639558456e-06,113.700008611107208,159.760443802515937,15.2880000000000003,0,0,0.0474770882933877245,2.400206535531791e-09,-0.00077537935552726017,1.17680930846389008e-07,3.32294321368729263e-05
0.43,31.222180714655078,131.010398312971745,6.27991949833728835,4.65367427313455995,0.000911660169575580258,33.0386483003103493,0.00120612360190941372,3.14823214930187856,375.903139513433644,16.4750454055619109,6.87353555569934649,69.9951756835756242,1.60752723178871754e-06,113.700009155418982,166.15023929888028,15.2880000000000003,0,0,0.0484176551665520677,2.63438237315801404e-09,-0.000835821567166909188,1.29864614855892046e-07,3.65287677570896608e-05
0.44,31.2221804673911407,131.010398982407111,6.43138341412837455,4.65757387742934892,0.000932929976641759203,30.4788052564327749,0.00123214974254881528,3.13809943757763454,353.075012538921555,16.8483715860516412,7.03046484016701978,69.9946811832270441,1.81916859536649675e-06,113.700009728069276,173.762989227436179,15.2880000000000003,0,0,0.0495148886868988364,2.88411342836306464e-09,-0.000899417740154189794,1.42975581697416844e-07,4.01983191819108926e-05
0.45,31.2221802146980103,131.010399666535704,6.58611776122768511,4.65827001030579346,0.000953562143933252499,35.4620561517945134,0.00125873275223327787,3.12754579585638304,397.209385356286873,17.2316459864824161,7.19073264961644831,69.9941493995125938,2.05218870761162579e-06,113.700010330973456,181.755888424112015,15.2880000000000003,0,0,0.0506413642318551335,3.14987863732273609e-09,-0.000966369542842942814,1.57083782729145849e-07,4.41725079750487196e-05
0.46,31.2221799565319174,131.010400365476642,6.74415901717088939,4.66907507286434065,0.00097630283571516251,41.3913707355688842,0.0012823814722795761,3.11722412848720953,449.71405889764344,17.5754687869478978,7.33738035579407555,69.9935783582983362,2.30821229426708146e-06,113.700010965912341,189.078525726536213,15.2880000000000003,0,0,0.0516519027755614896,3.43223060675433133e-09,-0.00103681314204437207,1.7224885851047691e-07,4.83373548649469587e-05
0.47,31.2221796928065203,131.010401079464799,6.90557672428163105,4.67806301106434042,0.000998761260684927557,28.0209900204918974,0.00130616618884544979,3.10657060381263461,331.007810630253402,17.9233234115620377,7.48533101007974988,69.9929660462147325,2.5889364060732201e-06,113.700011634803886,196.634049649816575,15.2880000000000003,0,0,0.0526742959306323727,3.73170463860384924e-09,-0.0011108841623615434,1.88532207060213475e-07,5.28148505664365441e-05
0.48,31.2221794239793269,131.010401807256216,7.07001851744381948,4.68642527483421745,0.00102109091231145262,27.6007969606275125,0.00132978852885184593,3.09563681785184297,327.203122301157407,18.2709832353803314,7.63313726727991071,69.9923104035261474,2.89614261094227829e-06,113.700012338884164,204.33305198470137,15.2880000000000003,0,0,0.0536961221459722679,4.04904859899578719e-09,-0.00118849531779471017,2.05948560519311644e-07,5.75998398329450787e-05
0.49,31.2221791502289392,131.010402548365278,7.23734841566291642,4.70156796398202914,0.00104489945272251677,34.6487244505178253,0.00135120419031512233,3.08484494341801163,389.60000969812296,18.589315545984995,7.7707981814672209,69.9916093757078812,3.23165731652504743e-06,113.700013079832303,211.511801733856089,15.2880000000000003,0,0,0.0546317638991248022,4.38486615800834454e-09,-0.00126967773493266863,2.2453662401782158e-07,6.26054017926546362e-05
0.5,31.2221788715876762,131.010403302704333,7.40754387012007864,4.72212438923579736,0.00106996435823571525,35.6033845714535389,0.00137072557486675028,3.0741588573465477,397.970310422105001,18.8826594549893159,7.8998011517407587,69.9908609011483378,3.5973597360057951e-06,113.700013859590555,218.236320199079358,15.2880000000000003,0,0,0.0554939729313439212,4.73968531279909998e-09,-0.00135450679800636423,2.44344941868023912e-07,6.78409867869358833e-05
0.51,31.2221785881337617,131.010404070060673,7.5805467220577798,4.73558879650721298,0.00109346949398930206,27.1956639286467201,0.00139183542187690463,3.06284319292573448,323.39843497208409,19.200774511812984,8.03722958125224807,69.9900628955037689,3.99519228958782199e-06,113.700014680103109,225.647740475438098,15.2880000000000003,0,0,0.0564289867670437692,5.11403675587933804e-09,-0.00144303978709531136,2.65418546512062939e-07,7.34915902759761199e-05
0.52,31.2221782998728337,131.010404850464795,7.75636823114045448,-2.72174124519860028,-8.14514734157115683,32.7577030960283082,0.42372233404232329,3.45916862900435218,372.098451184341457,18.7608961235497524,8.17783148261227844,69.9892126999656767,7.71456355442743267e-06,113.700019042121994,215.423620205808191,15.2880000000000003,0,3.75966460587071483,0.0551363414116297912,5.509757515598186e-09,-0.00152983984108791791,6.33298750690227937e-06,7.61259641360623353e-05
0.53,31.2221780063660539,131.010405644416323,7.9351085410150386,-2.59981159527740946,-8.0275522327126474,34.3997566840987616,0.434951157590434956,3.45813938450860991,386.55624643486243,19.0755519295917573,8.32078718209911017,69.9883495746488649,-8.83989040872159426e-05,113.699917163480634,222.706521115400335,15.2880000000000003,0,3.7739612728918317,0.0560611954559827735,5.87039613528724815e-09,-0.00148076267191135885,-0.000144202496600495574,7.49183798788084939e-05
0.54,31.2221777073190658,131.010406452230484,8.11683596603680257,-2.48212565531888352,-7.91412428639622778,30.1959082544370077,0.446313787154824559,3.45698259161219035,349.270324209843579,19.3884463396003355,8.46307309166396315,69.9875145195517376,-0.000424137126899100164,113.699560268578523,230.068493329892419,15.2880000000000003,0,3.78822669964107606,0.0569808785679345037,6.11509353441028387e-09,-0.0014319313165374074,-0.000298739738542625345,7.36348530792765106e-05
0.55,31.2221774029765058,131.010407273198979,8.30134937585425448,-2.36909888498973054,-7.80685325777608963,32.0099308979679762,0.4576728467088651,3.45566337102163734,365.250000591990727,19.6939123028850744,8.60272901446728078,69.9867073610999597,-0.00100565962447467933,113.698941799116952,237.370877474203695,15.2880000000000003,0,3.80243737092567269,0.0578787356966267985,6.24486936459862398e-09,-0.00138346962823699218,-0.000457112557101475652,7.22623636464013555e-05
0.56,31.2221770933328031,131.010408107316039,8.48864849865525883,-2.26089019065151442,-7.70702278257205009,29.8671414369936343,0.468919383853648397,3.45416002595343308,346.226561946578727,19.9875837789981823,8.7382489162600443,69.9859278727240053,-0.00183902532071458205,113.698055304256584,244.498511477448119,15.2880000000000003,0,3.81659376514875248,0.0587419353410767314,6.26075824744585369e-09,-0.00133542901689155604,-0.000619380753559806889,7.07919424247660815e-05
0.57,31.2221767784492208,131.010408954394649,8.6786814020248908,-2.15498418445383288,-7.60676971193172591,29.5303538803770422,0.480521130879682679,3.45257816185401412,343.182829683302316,20.2889546761036392,8.87637218880097123,69.9851757864527571,-0.00293029416227774024,113.696894332016768,251.922550449120962,15.2880000000000003,0,3.83069522411106922,0.0596277685124880219,6.16400469675184833e-09,-0.00128788402883317585,-0.000785529983484971827,6.92996797979212307e-05
0.58,31.2221764582993195,131.010409814486479,8.87146427044571873,-2.05002910601342636,-7.50126322308905902,38.9217383090164759,0.492819994165302033,3.45098085965959189,426.12500585731533,20.6115527406708878,9.02177021021395653,69.9844507993021239,-0.00428558641173129584,113.695452366394719,259.992656175632987,15.2880000000000003,0,3.84474065604947857,0.0605759926031457993,5.95589929184417769e-09,-0.00124088628892161392,-0.000955625243564041859,6.78311929152371922e-05
0.59,31.2221761325026357,131.010410688604964,9.06728756104240929,-1.95097559544538379,-7.40847804328152293,31.525842560847174,0.504627961164702876,3.44912095891593351,360.68438819711065,20.9064557865509713,9.15754448586203473,69.983752607454349,-0.00591142869162569664,113.69372245945604,267.480621388153793,15.2880000000000003,0,3.8587509223174381,0.0614428289176214976,5.63743080196320843e-09,-0.00119439460963303924,-0.00113008147141383116,6.6222693627502417e-05
0.6,31.2221758012493851,131.010411576211851,9.26599932956674621,-1.85125608977183043,-7.30447612894777976,28.0022077439890147,0.517582125884299304,3.44731968833119051,329.48595949860578,21.2400099632677062,9.30660863058326449,69.9830808709385508,-0.00781444060959564715,113.691697563543173,276.078534106536665,15.2880000000000003,0,3.87271168410976463,0.0624232647198058252,5.21014244515998252e-09,-0.00114852225282778553,-0.00130876526772336381,6.46940643696702531e-05
0.61,31.2221754644880747,131.0104124774262,9.46763509849598428,-1.75413652348721483,-7.20123702940784671,32.8349624416567991,0.53089643446784196,3.4454094341110566,372.09845118432969,21.5796794208953493,9.45772200709984112,69.9824352203035858,-0.0100014062964420541,113.689370456291599,284.973697085167828,15.2880000000000003,0,3.88662449285109801,0.0634216795371818631,4.67544628627957056e-09,-0.00110331764078665977,-0.0014917817741091151,6.31404173377824915e-05
0.62,31.2221751223179034,131.010413391957059,9.67211352688629589,-1.66491376093076804,-7.12139026950297005,40.8590475346670061,0.542818727253362332,3.44308472137090327,442.86563930529212,21.8563009046775143,9.58701390480469939,69.9818152539085219,-0.0124792705944799694,113.686733744131033,292.320716393002044,15.2880000000000003,0,3.90048854375600129,0.0642348054570247157,4.03487951433140939e-09,-0.0010588563423224711,-0.00167913171596535357,6.13715473841441211e-05
0.63,31.2221747745632108,131.010414320262754,9.87956690348390509,-1.57660523426657551,-7.0372584422163138,23.1073519800222513,0.555392207913066205,3.44071438898951509,286.112512747078938,22.1512875362881267,9.72259013851381937,69.9812205022859359,-0.0152547275850924303,113.683780300821581,300.258679058658629,15.2880000000000003,0,3.91430597828577831,0.0651019118824514853,3.29014463955589745e-09,-0.00101517514674859125,-0.00187099662282156384,5.96327269997436434e-05
0.64,31.2221744217565949,131.010415260874709,10.0895782607148767,-1.48846424439367997,-6.9451463586596569,22.6811015535070766,0.568960674201457461,3.43833268329236708,282.307824417967538,22.4776007203173158,9.86891372869449235,69.9806504554028947,-0.0183345433655907192,113.680502922531872,309.163892965125569,15.2880000000000003,0,3.92803759560872967,0.0660610922049953281,2.44327921988397975e-09,-0.000972458201875962824,-0.00206690063358659984,5.79638009561940767e-05
0.65,31.2221740638744762,131.010416213838511,10.302162291658929,-1.40592476447874382,-6.87008063913335487,40.1996796086626702,0.581463808787300418,3.43562132063789649,436.778144778747503,22.7550438229556491,9.99831904770872271,69.9801045453107662,-0.0217253264399438692,113.676894574008102,316.836603877643597,15.2880000000000003,0,3.94171895001249517,0.0668766507574488217,1.49616262766852099e-09,-0.000930753558985374465,-0.00226694811159316783,5.6161600618191209e-05
0.66,31.2221737004454489,131.010417180418926,10.5176812235377106,-1.32473585717373199,-6.79318590857816318,34.1684115277790781,0.594440122486554423,3.43281866665556334,383.512515171600171,23.0432910395232824,10.1313953041811136,69.9795821655577441,-0.0254337609176164339,113.672948140227462,324.907711547038616,15.2880000000000003,0,3.95533850198343684,0.0677239686306227995,4.50738250288982472e-10,-0.000890035008083293433,-0.0024716389235020478,5.43838189511545352e-05
0.67,31.2221733316336483,131.010418160150294,10.7360040890390263,-1.24401339662381494,-6.70955167670648045,23.4719260483536374,0.608368210719965496,3.42997687470446166,289.156244010342505,23.3599718018422458,10.2742178505771768,69.9790826971280921,-0.0294670049606380394,113.668656000785901,333.892399109657561,15.2880000000000003,0,3.9688962585950307,0.068654858864972218,-6.90999932020751459e-10,-0.000850406670398866794,-0.00268085767918281506,5.26754160474207644e-05
0.68,31.2221729575876701,131.010419152609245,10.9570120626688592,-1.16589974443244326,-6.63016125000424861,29.348883137259957,0.622285599872825279,3.42695997078847903,340.899992485846269,23.6681209754015747,10.4140379152404279,69.9786054347108291,-0.0338321964113271617,113.664010559789389,342.752197788169894,15.2880000000000003,0,3.98240407212550318,0.0695606814272845264,-1.92702693552367337e-09,-0.000811961540716081651,-0.00289452572389827748,5.09564336359564661e-05
0.69,31.2221725783745221,131.010420157595462,11.1806498784237842,-1.09111871724953646,-6.56038191968279971,36.1791707663187552,0.63561967780471218,3.42370184418035661,401.014072685363431,23.9471355712805902,10.5437535352645284,69.97814972813309,-0.0385363999443967195,113.659004290983617,350.87344949128402,15.2880000000000003,0,3.9958349636902577,0.0703808837669642334,-3.25524685999435529e-09,-0.000774780734670381908,-0.00311262123598864517,4.91952129504764248e-05
0.7,31.2221721938628853,131.010421175449721,11.4070164945383308,-1.01800661597294351,-6.49147779940680358,30.3117379015203596,0.64918105146395777,3.42030465936293826,349.270324209852845,24.2272697280127396,10.6737961972326616,69.9777147650835047,-0.0435865854727776128,113.653629777718763,359.122709602265957,15.2880000000000003,0,4.00919810382002506,0.0712043828473744034,-4.6733743021344404e-09,-0.000738913433126955422,-0.00333532553350689718,4.74656086990188968e-05
0.71,31.2221718040958649,131.010422206037646,11.6360754890925939,-0.945841736722107251,-6.41874132130444508,24.8732067161871697,0.663473837934292821,3.41681598727114499,301.331264063405797,24.5264261668841108,10.8103346003741443,69.9772997324408834,-0.0489899149593840608,113.647879395944955,368.03820843296478,15.2880000000000003,0,4.02250769521072993,0.0720837952971079138,-6.17918865711327022e-09,-0.00070444140256257701,-0.00356263510593224798,4.58089786372878447e-05
0.72,31.2221714090690341,131.01042324935429,11.8678273829341538,-0.874586607275140149,-6.34128045132882612,30.4981054139793883,0.678646355828156578,3.41323342440304156,350.79220534145287,24.8492260666942428,10.9549570133339174,69.9769037765804143,-0.0547537111873370869,113.641745350563696,377.781282448595732,15.2880000000000003,0,4.03575758298375042,0.0730327034287119453,-7.77045331846196652e-09,-0.000671434852034992523,-0.00379462023882052527,4.42362748503323617e-05
0.73,31.2221710087730351,131.010424305407668,12.1022764507831955,-0.806957641520991364,-6.27935540691649052,38.6337664929545852,0.692474109781484382,3.40935223199560777,422.320318528233997,25.1161483388989666,11.080264664678575,69.9765260072489212,-0.060885573229223458,113.635219552463141,385.932189586510958,15.2880000000000003,0,4.04892650827359013,0.0738173921301963493,-9.44495031966098987e-09,-0.000639961761634209999,-0.00403137502029855474,4.26146658352000339e-05
0.74,31.2221706031436312,131.010425374357425,12.3394700996002769,-0.740248324902454735,-6.21391276379242452,24.1089223579348939,0.70701542599984768,3.40536241295875897,294.482813471059444,25.4010234671513402,11.2116963828494196,69.9761654333145628,-0.0673928347082368012,113.62829419799553,394.727572611586595,15.2880000000000003,0,4.06204339464646402,0.0746548516161671949,-1.12002642109155441e-08,-0.000610096722457680995,-0.00427298412342787173,4.10858274655238184e-05
0.75,31.2221701925072672,131.01042645529742,12.5791522067109369,-0.674714901931612654,-6.14665845698220092,28.180488812943441,0.72211513128915128,3.40123726725607423,330.246885564414924,25.697771532060198,11.3471534316824147,69.975821126070457,-0.0742829259791339264,113.620961371576314,403.994975458824115,15.2880000000000003,0,4.07509436583193274,0.0755272129407250914,-1.30344697670960294e-08,-0.000581961103773129393,-0.00451913071792564049,3.96480248576592563e-05
0.76,31.222169776755706,131.010427548507778,12.8214045888294557,-0.611174964747237204,-6.08533066103335152,30.3498915686286672,0.736843512778277976,3.39690936171027547,349.270324209861712,25.9740430992439997,11.4754940688024831,69.975491993287207,-0.0815632081286376542,113.613213240447536,412.718604865274187,15.2880000000000003,0,4.0880765375761019,0.076339399442622552,-1.4945029624379569e-08,-0.000555613390867669226,-0.00477000782098965879,3.8259059700477337e-05
0.77,31.222169355830065,131.010428654134785,13.0662709278213427,-0.549081058600782268,-6.02610151927809934,28.36438605428771,0.751626641632207826,3.39240915665724874,331.76876669607077,26.244879232604422,11.6018983836515854,69.9751769316213057,-0.0892411458398438273,113.605041858716035,421.360555723799564,15.2880000000000003,0,4.10097765040909046,0.0771356175228584545,-1.69294523484544296e-08,-0.000531125627702387485,-0.00502573467264247689,3.69533363334062246e-05
0.78,31.2221689297843881,131.010429772016693,13.313707218375173,-0.48794825691733229,-5.9636401837164037,23.2598986790076836,0.767153767324386893,3.38777079533829495,286.873437812889904,26.5335691924225614,11.7343850873866433,69.9748747503356014,-0.0973242397541974474,113.596439244855688,430.671118461257265,15.2880000000000003,0,4.11381723794053755,0.0779843161094552623,-1.89854535559854482e-08,-0.000508586460862135671,-0.00528628055089065338,3.57735440381284624e-05
0.79,31.2221684986944545,131.010430901932409,13.5636525934572649,-0.427988983785779764,-5.89982133643315443,33.1403060159147032,0.783222910630797853,3.38297141342726215,373.620332315953419,26.8326378891983381,11.8703777542352196,69.9745843184932852,-0.105820120729003306,113.587397270327529,440.423735913554196,15.2880000000000003,0,4.12659266077783737,0.0788635257041637866,-2.11108380767863202e-08,-0.00048808282383484158,-0.00555161213410519661,3.47174620392757966e-05
0.8,31.2221680623502174,131.010432044441927,13.8162686419204768,-0.369893299893851779,-5.84484897456922603,33.580089855550348,0.798439269918154504,3.37795850445653256,377.42502064505743,27.0954088404698865,11.9938094260583714,69.9743043106285683,-0.114736620285780758,113.577907604645887,449.081182983687484,15.2880000000000003,0,4.13931385440399957,0.0796360600322697093,-2.33026845500244959e-08,-0.000469675116888423221,-0.00582206906554207787,3.37344628774915843e-05
0.81,31.2221676208411303,131.010433199287718,14.0714841444738727,-0.312665169950956001,-5.78568035023907878,21.7976596785301915,0.814562326426713446,3.37279079089269151,273.937492693991885,27.3808743827075105,12.1249849525341951,69.9740334934895429,-0.124081565521542245,113.567961910200083,458.582441900021877,15.2880000000000003,0,4.15195985274961465,0.0804753029402501957,-2.5558918458719657e-08,-0.000453460301743836066,-0.00609755996581906688,3.2912167180147214e-05
0.82,31.2221671743361568,131.010434365994854,14.3291660220708845,-0.256545024077477923,-5.72533568082519562,28.0441091771542119,0.831215006387807098,3.3674435225543462,328.725004432770049,27.6758199017848447,12.2593530923027441,69.9737704661895492,-0.133862781069339548,113.557551860421313,468.503717606562418,15.2880000000000003,0,4.16452906292242631,0.081342415686282879,-2.78776590417982573e-08,-0.000439535092334832989,-0.0063779306075903942,3.22443181992778719e-05
0.83,31.2221667228145954,131.010435544607077,14.5893289391684462,-0.201978539209319879,-5.6750895432970907,35.6815393222753201,0.84670363471542387,3.36189141962444138,395.68750322465047,27.9254020702682908,12.3780416292623645,69.9735137720773963,-0.144088166243877075,113.54666904951732,476.979889596666169,15.2880000000000003,0,4.17703625723780458,0.0820762072834413242,-3.02564239656026861e-08,-0.000427980551133826516,-0.00666328951069704214,3.16790220034210234e-05
0.84,31.2221662661737582,131.010436735394563,14.8520519351401479,-0.14837728875810155,-5.62369344369097579,21.9806712530594694,0.862661943428247424,3.35616514666886356,275.459374825645227,28.1830978116275368,12.4994538717053203,69.9732619730559691,-0.154765474563258204,113.53530522099355,485.811395172442133,15.2880000000000003,0,4.18948232696342693,0.0828338524449403341,-3.26925385981597966e-08,-0.000418881947024963132,-0.00695378732611044454,3.12908752395584685e-05
0.85,31.2221658046823087,131.010437937610561,15.1171246372245172,-0.0956539111051110391,-5.56558766000507088,23.9798728011954694,0.880011931314451212,3.35025099016223038,292.960932339393764,28.4775967466751005,12.6334574786919855,69.9730135712406849,-0.165902450088809938,113.523452128017368,496.004775557562709,15.2880000000000003,0,4.20185713447640197,0.0836996740928634131,-3.51846873675811011e-08,-0.000412338794507771309,-0.00724910850190764542,3.11231694208516019e-05
0.86,31.2221653381743955,131.01043915169825,15.3846754153590375,-0.0441012517450364919,-5.51374400307532397,30.0599786996094309,0.896703145079805641,3.34414386223693949,346.226561946558718,28.7435685956002338,12.7575750466211115,69.9727669023230447,-0.177507106768283629,113.511101245515519,505.30011731940732,15.2880000000000003,0,4.21416935647063351,0.0844816579013719371,-3.77297938324178681e-08,-0.000408431751887394963,-0.00754956379322156181,3.11153942574218242e-05
0.87,31.2221648666681659,131.010440377597661,15.6546894096616409,0.00646599692110766486,-5.465125189817857,27.9811589652963484,0.913169259019929958,3.33784974556152525,327.964078366998024,28.9952867944273081,12.8767177609214567,69.9725203565105573,-0.189587433237300651,113.49824406623965,514.175741066783871,15.2880000000000003,0,4.22641439516392481,0.0852217550590086692,-4.03256251976089248e-08,-0.000407253465218324908,-0.00785517626554337739,3.12965208015454846e-05
0.88,31.2221643901927806,131.010441615219491,15.9271434173840181,0.0560967210127884183,-5.41350510142108288,24.164167434036333,0.930460542688479775,3.33134676663603502,294.482813471041823,29.2653356008513299,13.0020925026084697,69.9722722633810008,-0.202151393937287066,113.484872108615733,523.784230525051839,15.2880000000000003,0,4.23858044070878837,0.0860157358274050987,-4.29701518997777803e-08,-0.000408897525557971246,-0.00816592136670189241,3.17146914629590966e-05
0.89,31.2221639088198053,131.010442864357799,16.2019811089280488,0.1047026397073616,-5.35906073340294853,26.5134457406875121,0.948602386483941795,3.32462027719409603,315.028134248086985,29.5538191629707789,13.1337333986928506,69.97202077895966,-0.215207007634956121,113.470976841659024,534.147452647630644,15.2880000000000003,0,4.25068056331550093,0.0868639068235990547,-4.56614071220986563e-08,-0.000413456409901196732,-0.00848177016651171199,3.23835441327812774e-05
0.9,31.2221634224758162,131.010444125204941,16.4792594752091688,0.152562328300203193,-5.31407064878988322,29.2983554126669468,0.965366551850682209,3.31773753569825658,339.378142354214447,29.7929573160731564,13.2483295212384675,69.9717641110943731,-0.228762564146684333,113.456549437104343,542.812202635768926,15.2880000000000003,0,4.26271946064276364,0.0875670501492679665,-4.83966930488560179e-08,-0.000421025848734262723,-0.00880289999220552725,3.32423598005341113e-05
0.91,31.2221629312228721,131.010445397582856,16.7589300850836835,0.199478095437752218,-5.26614153521431749,22.2620679777334551,0.982975164198630846,3.31062843685210462,277.742181023078899,30.0505184830873979,13.3691869054567078,69.9715003708454759,-0.242826038174116493,113.441581404498578,552.22319933676431,15.2880000000000003,0,4.27469352866557362,0.0883243490978240092,-5.11742207968705009e-08,-0.000431701747439255826,-0.00912924811479352491,3.43790271311495243e-05
0.92,31.2221624352436784,131.010446680981119,17.0408500361482602,0.245392270912261956,-5.215445344823749,26.5254450865989035,1.00144444563677149,3.3032747866367278,315.028134248062145,30.3264387607281982,13.4962809684937977,69.971227606670638,-0.25740547370031891,113.426064179175398,562.395423375307018,15.2880000000000003,0,4.28659704262087882,0.0891356162747431319,-5.39929832146299866e-08,-0.000445569988858321442,-0.00946058507486590566,3.58082744327926461e-05
0.93,31.2221619344517691,131.010447975630171,17.3250871664290536,0.290859044831552227,-5.17315024032950532,31.573720354358251,1.01857640953257844,3.29578602952218835,359.162507065472823,30.5557687734241377,13.6072793461245691,69.9709438034625464,-0.272508968685402697,113.409989139069893,570.917721848686597,15.2880000000000003,0,4.29843624275977199,0.0898099521929898725,-5.68500229255219946e-08,-0.000462732982976965328,-0.00979713002518256028,3.7467771564864373e-05
0.94,31.222161428743842,131.010449281809343,17.611723113417856,0.335138964362898695,-5.12436052254696595,22.8792477398218139,1.03732329435072179,3.2880015630980659,283.068750483778672,30.8252792767347685,13.7320157518342736,69.970646881470131,-0.288144477613080319,113.393347814830207,581.017453661885725,15.2880000000000003,0,4.31021100782267208,0.0906023943407153476,-5.97428112017869752e-08,-0.000483297432944612552,-0.0101390218340317324,3.94769639523282029e-05
0.95,31.2221609183829543,131.010450598786548,17.9005520517446008,0.378670009304378163,-5.07713253869782122,29.6696698231264442,1.05608428378443109,3.28000094678502041,342.421873617487279,31.0879071246259926,13.8543074565042073,69.9703346586668857,-0.304320251902338301,113.376131422465079,590.943640342320919,15.2880000000000003,0,4.32191655837650845,0.0913746141462196543,-6.26709072335810606e-08,-0.000507340959494948342,-0.0104859567613937964,4.1792812766060572e-05
0.96,31.2221604030976323,131.010451927305667,18.1917877053263375,0.421724869334342445,-5.03425381435310459,29.0649320842262497,1.07423704807125997,3.27183313957556265,337.095335156783449,31.3258622030810727,13.9680393769136515,69.9700049957614283,-0.321044503940648207,113.358331211692473,600.007957823914694,15.2880000000000003,0,4.33356223247784289,0.092074322222652355,-6.56301996312155366e-08,-0.000534994624719805842,-0.0108383987388975273,4.44069037961856796e-05
0.97,31.2221598829040836,131.010453267317388,18.4854183436730573,0.46389951041316474,-4.99002004561615475,18.5342763727617772,1.09298926406015662,3.26340996486888102,245.021887192993233,31.5738133779844681,14.0851288721741881,69.9696555775799851,-0.33832559931630185,113.339938276181442,609.526752390163324,15.2880000000000003,0,4.34514689473103477,0.0928034184600576434,-6.861886786138974e-08,-0.000566364527597054343,-0.0111963629578269476,4.73815077996092728e-05
0.98,31.222159358063923,131.010454618093917,18.7812394301131818,0.504704806873382705,-4.93986532637079634,27.0706961979617091,1.11342037087126244,3.25462243573965715,319.593746642958081,31.861579592761494,14.215823222664806,69.9692840072869018,-0.356171845313952184,113.32094377190657,620.670298451041617,15.2880000000000003,0,4.35666261457148085,0.0936495486984052633,-7.16372599051369008e-08,-0.000601518057509784583,-0.0115594661601975072,5.07796177785747253e-05
0.99,31.2221588284394969,131.010455980011244,19.0793601514892863,0.545911078144010742,-4.9011193067545058,29.6006329579354421,1.13153893368747527,3.24582026764635101,341.660948551705417,32.0778836650727257,14.3218753950935778,69.9688879460043154,-0.374591771260717299,113.301338608198179,629.108189029202208,15.2880000000000003,0,4.36811829210994151,0.0942856403304943858,-7.46817881860371336e-08,-0.000640587080600315889,-0.0119280434637267126,5.44433579701554104e-05
1,31.2221582940284961,131.010457353074031,19.3797840314743866,0.585767404910486955,-4.85662916651891496,26.4681342961550286,1.15131114726397321,3.23664375776583801,314.26720818227642,32.3329605890869871,14.441172727306256,69.9684648291115252,-0.393593432993955716,113.281114210779421,639.134611651920181,15.2880000000000003,0,4.37951043671003326,0.0950357030718865375,-7.77509704284641415e-08,-0.000683676408613233342,-0.0123020699361692763,5.85658641993077496e-05
1.01,31.2221577549934963,131.010458736828326,19.6823844503094882,0.62507363783603509,-4.81368497868990364,27.6918384518495522,1.17102507288276469,3.22724566632452881,324.920316103697928,32.5795186275600344,14.5574607139426568,69.9680121279286737,-0.413185259059655474,113.26026159844433,648.90048007135249,15.2880000000000003,0,4.39083743728337961,0.0957607337560025806,-8.08441748644374378e-08,-0.000730868405136474359,-0.0126813666527816563,6.30840719410083207e-05
1.02,31.2221572112639727,131.010460131468079,19.9872187503716567,0.663948456055343472,-4.77281055017460965,23.0749044733989592,1.1905226607373427,3.21764527975898895,284.590631615404163,32.8134637827452735,14.6693324153641385,69.9675272308729461,-0.433375479735483959,113.238772002132976,658.233842600542971,15.2880000000000003,0,4.40210213335279654,0.0964486987441757065,-8.39588548397310905e-08,-0.000782287054207792334,-0.0130660889572952275,6.80050825153039669e-05
1.03,31.2221566629010958,131.010461536822646,20.2942407187809835,0.701602605130591361,-4.72826535495980949,18.8043150775578312,1.21127627238000724,3.20766875444500021,247.30469339049705,33.0741511986033672,14.7903108480222745,69.9670074297320781,-0.454172230652770348,113.216636754739383,668.714379467303729,15.2880000000000003,0,4.41330247757224381,0.0972152747322683475,-8.7093925729211794e-08,-0.000838029153888836362,-0.0134561594449661495,7.34274049780073195e-05
1.04,31.2221561099594282,131.010462952738749,20.6034091432459583,0.739215225694467737,-4.68811839408620834,30.0581046203081144,1.23119268346878719,3.19755696012752022,345.465636880722968,33.3056673932962966,14.9011824585389814,69.9664499409989702,-0.475583933886427057,113.193846882332167,678.088895165144891,15.2880000000000003,0,4.42444011472237797,0.0978961147644145657,-9.02478686141776603e-08,-0.000898198320722786445,-0.0138515700997169956,7.92479119716713661e-05
1.05,31.2221555521826701,131.01046437993088,20.9149290167176432,0.775692950125890568,-4.64512994615605379,18.0217596436916665,1.2521878957163457,3.18707214824546803,240.456258798199826,33.5586290498694098,15.0193389670464725,69.965851924670929,-0.497618855562219131,113.170393575752669,688.407792091621218,15.2880000000000003,0,4.43552128834564119,0.0986399975251471967,-9.34163672642281183e-08,-0.000962977207662692658,-0.0142527795898955058,8.56060922844393608e-05
1.06,31.2221549897832915,131.010465817807159,21.2286346461960562,0.811065764376014853,-4.59985263241806042,25.7902179050471396,1.27417815862114581,3.17620410768432393,308.179683655939243,33.8300605162948287,15.1437566516538205,69.9652103934700449,-0.520285633291745153,113.146267632281976,699.567813841994507,15.2880000000000003,0,4.44654124577209142,0.0994381770884270738,-9.66001491309873613e-08,-0.00103242749547451758,-0.0146594692277937279,9.25195912464768126e-05
1.07,31.2221544226569812,131.010467266658395,21.5446108763540352,0.846962204627269677,-4.56138034896846101,30.4200491549249818,1.29455916579945662,3.16531253188488781,348.509368144030759,34.0530188007910084,15.2514356683928405,69.9645223737791184,-0.543593100424083486,113.121459632161873,708.797743765467203,15.2880000000000003,0,4.45750643089301857,0.100093885019622394,-9.97959256298170869e-08,-0.00110671072838204902,-0.0150719273091026503,9.98269784719957721e-05
1.08,31.222153850714264,131.010468726737656,21.8629316390128814,0.882060835986670289,-4.52196401160696926,20.3827178855280273,1.31550249859083079,3.1540985524756624,261.001578574662346,34.2837273439676693,15.3616923315947442,69.9637846805086099,-0.567549793805823266,113.095960481343226,718.412494239757734,15.2880000000000003,0,4.46841756624255559,0.100772381131017552,-1.03001377565130987e-07,-0.00118597652795656653,-0.0154903104904703312,0.000107698346609122451
1.09,31.2221532742012684,131.010470197359069,22.1834046474331004,0.915253699859478353,-4.47626974422661572,18.7247019509524328,1.33866853301080901,3.14228897104548244,246.543753324744074,34.5635983114961221,15.4887526060807375,69.9629942094881301,-0.592164330700949981,113.069760985712804,730.167236733552841,15.2880000000000003,0,4.47926813965703197,0.101595391403888916,-1.06218294476247252e-07,-0.0012702631066362506,-0.0159141956929998857,0.000116290483256206508
1.1,31.2221526931858975,131.010471678334113,22.5059787371389248,0.948548645275752,-4.43446452184535644,37.8593772026192852,1.36101112757482756,3.13033928175231768,413.189061738584087,34.8155146496291792,15.6061232920877426,69.9621475939944588,-0.61744533133435997,113.042851960299643,740.826699692002876,15.2880000000000003,0,4.49006031678596607,0.102336240609300175,-1.09445396354125092e-07,-0.00135967922853894507,-0.0163435621564213228,0.000125379740804922946
1.11,31.2221521073116506,131.010473170666444,22.830940593711194,0.982791637863850154,-4.39986422527398346,27.6407536500780111,1.38136800090200129,3.11846219251831958,324.159391037639693,35.0115612929976479,15.7042150949516124,69.9612415444344578,-0.643401576656126073,113.015224035027927,749.17001639786622,15.2880000000000003,0,4.50080454739586422,0.102912874779324787,-1.12676277761613084e-07,-0.00145449832187355193,-0.0167791329537485476,0.00013487430880631469
1.12,31.2221515166361527,131.010474674201589,23.158248469561066,1.01364439009288532,-4.35298352461341143,10.2491680349583998,1.40604243797912698,3.10558660929407759,172.73281794065943,35.3064144957648267,15.8361608567146082,69.9602725888426136,-0.67004156502233303,112.986868147397615,761.817612456196571,15.2880000000000003,0,4.5114960971284388,0.103779948686901435,-1.15911144922021414e-07,-0.00155482541213204672,-0.0172207738199029979,0.000145387182901398693
1.13,31.2221509216831379,131.0104761874681,23.4874878509697105,1.0455223606556312,-4.31335683707576134,32.6315370956824182,1.42867729616128236,3.09278479263474049,367.532807790070478,35.5445756302239033,15.9485460309543079,69.9592370903350087,-0.697374559777405256,112.957774418868382,772.105614546439483,15.2880000000000003,0,4.52212779619288963,0.10448038955747864,-1.19155040509327711e-07,-0.00166057986913032926,-0.017667619162624805,0.00015631845132339412
1.14,31.2221503218687495,131.010477712117392,23.8191285573340856,1.07807523552447715,-4.27882751590721799,17.9435447543108424,1.44985407827331625,3.07998563696348704,239.695317731955441,35.7410616420245049,16.0465281582380008,69.9581315324700768,-0.725408895891437311,112.927933949316042,780.640548452810322,15.2880000000000003,0,4.53271393050401361,0.105058337392103851,-1.22398058691121532e-07,-0.00177216280881395318,-0.0181208237631040915,0.000167739125078076451
1.15,31.222149717624994,131.010479246939951,24.1528300970270386,1.10693347562879674,-4.23211136981675295,17.6815974574836616,1.47563242324500399,3.06604030689154428,237.412511535467729,36.0405082684258815,16.1797889133846375,69.9569521891514938,-0.754152836767827073,112.897337920927924,793.75066523425437,15.2880000000000003,0,4.5432415110067188,0.105938938637021335,-1.25646204582844653e-07,-0.00188949013721347665,-0.0185795038413733571,0.000180337033975053841
1.16,31.2221491090738574,131.010480791594176,24.4884981199865379,1.13885293381590658,-4.19932956760361442,46.7333142241491188,1.49673104289131453,3.05271529352123983,490.043774384589426,36.2227452037318045,16.2727028688138375,69.9556951601439749,-0.783615368858670558,112.865976745376997,801.772224812654372,15.2880000000000003,0,4.55371508454031293,0.106475016638966274,-1.28898275945179858e-07,-0.00201266171947595126,-0.0190435961055683903,0.000193057879051786825
1.17,31.2221484954528563,131.010482348249496,24.8267483789989036,1.16854891843546893,-4.16032544233646107,8.05604298840680499,1.52038381454693039,3.03860918275429093,153.709379294867944,36.458360235077599,16.3838613132081576,69.9543566871088132,-0.813804620298942738,112.833841735954678,812.210197954277646,15.2880000000000003,0,4.56414538697768712,0.107168004766074215,-1.32142019120010205e-07,-0.00214221827820941426,-0.0195145946931312188,0.000206815043116590055
1.18,31.2221478777739101,131.010483914047626,25.1667742924336615,1.19529411131671726,-4.11306547616193541,22.5864951239173095,1.54753935327314185,3.02346720775514255,280.025018221967457,36.768208674210058,16.5204297750094753,69.9529326803551186,-0.844729191769957866,112.800923711953104,826.047332914085359,15.2880000000000003,0,4.574498612234426,0.108079207547287351,-1.35392820205743677e-07,-0.00227772493600499667,-0.0199904321445063954,0.000221758786222092083
1.19,31.2221472555847122,131.010485490277205,25.5089426133793964,1.2270417170664516,-4.08485990532501297,39.664458555012601,1.56760558796584282,3.00953288416013809,428.407813052929214,36.9088233792853799,16.5987818447532796,69.9514190593896217,-0.876397946953150653,112.767213202050542,832.350253861498004,15.2880000000000003,0,4.58480650719627647,0.108492959811166689,-1.38639562332077548e-07,-0.00241963219749092998,-0.0204722678458190109,0.000236467994846883012
1.2,31.2221466285012212,131.010487078046964,25.8535683944334629,1.25382692725260214,-4.0418796936049306,3.84624353889564752,1.59380229757168523,2.99397915403348058,117.184374136023607,37.1825930184653188,16.7227796084858689,69.9498117004235667,-0.908818610766630397,112.732701949910435,844.715930274349148,15.2880000000000003,0,4.59507035389213758,0.109298126843954707,-1.41876855750444798e-07,-0.00256829148287778712,-0.0209607635106252646,0.000252849687342673044
1.21,31.2221459975320528,131.01048867449262,26.1998442795617414,1.28033321983884552,-3.99999298897589517,31.7920294196227857,1.61993839214362434,2.97811181731143959,359.923432132008998,37.448285181296832,16.8439172005833022,69.9481062598015768,-0.942000072260133825,112.697380453924737,856.802575490714844,15.2880000000000003,0,4.60527272560464507,0.110079558380082973,-1.45120049519878208e-07,-0.00272320824981873771,-0.0214538673286885778,0.000270008091988591407
1.22,31.2221453619158638,131.010490281796422,26.5483888371457795,1.31048444504401029,-3.97101708318307312,22.9451519039639642,1.64092711689414195,2.96312970020847954,283.068750482576149,37.5931618836081682,16.9234669675252114,69.9462983786623056,-0.975950446734648036,112.66124003601783,863.415938649798818,15.2880000000000003,0,4.6154346962377053,0.110505859375050308,-1.48352734652836238e-07,-0.00288507640766525906,-0.0219533655286302185,0.000287154498326693301
1.23,31.2221447219635486,131.010491899088095,26.8989578274140513,1.33566053340479129,-3.92849259358652025,8.74662784706348262,1.66797037428806383,2.94641809006009892,159.796873822227951,37.8660770469291279,17.0469083565619357,69.9443836893686779,-1.01067709249572868,112.62427281947636,875.968229306722833,15.2880000000000003,0,4.62554434058727004,0.111308539393649542,-1.51581418927413509e-07,-0.00305378876318980518,-0.0224584498838542139,0.000306142857405223992
1.24,31.2221440781009782,131.010493525157614,27.2512117497841793,1.36198880961938662,-3.8910074432347872,38.5556778084224732,1.69313412609093961,2.92982842229308682,418.515630199805003,38.0917250451680971,17.1540282972818403,69.9423576112198049,-1.04618820079504204,112.586470037665109,886.409317433941965,15.2880000000000003,0,4.63559807141632785,0.111972284007857553,-1.54811384826895995e-07,-0.00322918974574942699,-0.0229682776444695529,0.000325644940004927292
1.25,31.2221434296277742,131.010495162029315,27.6057236592890298,1.39044542019121775,-3.86081009647405615,18.4786522929850676,1.71521670887383282,2.91369216312937196,244.260946125734876,38.2451184574873153,17.2362368133108106,69.9402155423528171,-1.08249128402882722,112.547823645123771,893.532310999945025,15.2880000000000003,0,4.64559314544959712,0.11242364042096914,-1.58026990026388338e-07,-0.0034119970319656614,-0.0234845153004960491,0.000345453815606322945
1.26,31.222142777018064,131.010496808360585,27.9621162638711809,1.41340154427195741,-3.81676057628932419,10.759533488384486,1.74395905035756726,2.89553857192260633,177.298446336408631,38.535852139167865,17.3655365408695381,69.9379528288124845,-1.11959344760691937,112.508326024568518,907.137887638901816,15.2880000000000003,0,4.65552958392911975,0.113278723783065402,-1.61238321506410325e-07,-0.00360194102656044004,-0.0240059595516642181,0.000367444740286987988
1.27,31.2221421204295204,131.010498463707307,28.3202664515759501,1.44015783168153932,-3.78436126455173527,37.080986257535109,1.76748970205038836,2.87839719693184515,405.579686079964688,38.7098787325292832,17.4546588461492611,69.935564538363991,-1.15750296415633791,112.46796831306726,915.318102968055314,15.2880000000000003,0,4.66541694324364276,0.113790746583723595,-1.6444455532566089e-07,-0.00379909457666726454,-0.0245324545777613826,0.000389293761616685003
1.28,31.222141459309686,131.010500129684772,28.6806309602125928,1.46556471610535177,-3.74957441302395456,11.8114204625793047,1.79237648688985574,2.86057719682186828,186.429688124688823,38.9072031291569118,17.5516946646932546,69.9330458456020381,-1.19622655428743863,112.426743297365235,924.641582637484476,15.2880000000000003,0,4.67526419739440602,0.114371262393776929,-1.67634239796434691e-07,-0.00400407313681786815,-0.0250652186726973182,0.000412375170018967419
