Time,Latitude,Longitude,Altitude,Angle of Attack,Angle of Sideslip,X-Acceleration,Y-Acceleration,Z-Acceleration,Thrust,True Velocity,Ground Velocity,Pitch,Roll,Yaw,Dynamic Pressure,cp,parachute_deploy_gain,Wind Speed,Mach,omega_x,omega_y,omega_z,Cmq
0,31.2221860000000042,131.010383999999988,3.00000000364323682,0,0,0,0,0,2.2828121974499247,0,0,69.9999999962342088,0,113.699999993883324,0,15.2880000000000003,0,0,0,0,0,0,-0
0.01,31.2221859999997946,131.010384000000556,3.00000016469923247,0,0,0,0,0,34.2421869617492334,9.11367326775851009e-12,8.66229497295429822e-12,69.9999999962370651,-4.92863947922479589e-13,113.699999993882884,5.08594204168408172e-23,15.2880000000000003,0,0,2.67827100510624443e-14,-3.65918233213857746e-19,7.58941520739853104e-19,4.81114714040442593e-19,-1.83541113936281872e-32
0.02,31.2221859999996028,131.010384000001039,3.00000030885429547,0,0,0,0,0,25.8718762377664078,1.96992978605390895e-11,1.88456988716431921e-11,69.9999999962400494,-1.04152381447771591e-12,113.699999993882386,2.37621641206600858e-22,15.2880000000000003,0,0,5.78911013494094702e-14,-7.28448334638698292e-19,1.51788304147970621e-18,9.75781955236953991e-19,-7.93451985123442364e-32
0.03,31.222185999409362,131.010384001586402,3.00018176030779937,18.6493779029494604,-0.000129237623237530007,10.7928899806483045,-1.97644583900689674e-05,3.34983967390763571,180.342193598546658,0.0785672533977095078,0.0490694047558625918,69.9999999976775626,-4.2497891361524094e-12,113.699999994705607,0.00377978965327356543,15.2880000000000003,0,0,0.000230888677896110966,2.88330015245363835e-17,-7.25223402354589416e-10,1.08188208080271277e-11,1.51197624781400831e-13
0.04,31.2221859959356287,131.010384010943454,3.00162780953569674,9.74253989061216075,-4.88763086122285772e-05,51.6475445943311158,1.54548216767323456e-06,3.34965665682309899,548.635972453807767,0.346420694310776434,0.171860503977579737,70.0000000036447574,-2.28205307288861013e-11,113.699999999565534,0.0734838809649275282,15.2880000000000003,0,0,0.00101804013696402693,1.80009747884589399e-15,-1.58734069119923437e-08,2.61929145365345784e-11,1.45916869803439425e-11
0.05,31.222185985910329,131.010384038045004,3.00715844163023283,5.5769968489095687,-4.21135943534799539e-06,75.3242160169835273,4.73080294831520123e-05,3.34902689347595528,761.698429882464552,0.947854334293939504,0.409211128642743283,70.0000000010935537,-1.04766136577077691e-10,113.700000013612069,0.55013262299765131,15.2880000000000003,0,0,0.00278549703395658196,1.95473045844392346e-14,-1.13584749331540247e-07,4.14067569904437612e-11,2.85688606727574374e-10
0.06,31.222185966868647,131.010384089593572,3.01868664272593046,4.48500474963244322,2.31139019787050305e-05,56.3605563030587007,9.71465785775115924e-05,3.34799244711343214,590.487539073720654,1.60618980149218604,0.665693519146445256,69.9999999197690244,-2.82941102348924619e-10,113.700000040305838,1.57971028663545732,15.2880000000000003,0,0,0.00472017413217633904,1.01936766184118274e-13,-4.07864410983111553e-07,5.76522069423461223e-11,1.73837509686130208e-09
0.07,31.2221859390775336,131.010384164863126,3.03600551209402658,4.00448286551149391,4.63712119495135773e-05,85.8192455386477917,0.000147926970097503541,3.34656708333141317,855.293774977913927,2.27788210706903049,0.926660947343454056,69.9999996219982279,-5.49831570978999292e-10,113.700000079276109,3.1772067926123353,15.2880000000000003,0,0,0.00669410445039518576,3.35900025920073467e-13,-9.92070622953462368e-07,7.83315922772719921e-11,5.99658406989250883e-09
0.08,31.2221859009658012,131.01038426812616,3.06033476575187802,3.77263127792190334,7.06371256062416025e-05,17.6076228145981588,0.000196957592070898702,3.34480227118667583,241.217198863884818,2.92612482887636283,1.17954495655796454,69.9999989088305909,-9.15694670892462832e-10,113.700000132739973,5.24285298735243899,15.2880000000000003,0,0,0.00859912396431777512,8.49635706706491564e-13,-2.01744800413265681e-06,1.10032289818440005e-10,1.56647792516492608e-08
0.09,31.2221858556197738,131.010384390989856,3.0892797608365723,3.74258231141200604,9.5325675231994802e-05,53.4176180048964397,0.000237730218002333866,3.34289666486112669,563.093737704317618,3.46187703891102627,1.39384941462988121,69.9999975134546446,-1.31671842773002699e-09,113.70000019638816,7.33844512707370811,15.2880000000000003,0,0,0.0101735644468633635,1.80613395740032365e-12,-3.4856561047658452e-06,1.59232278560273843e-10,3.20202005890100843e-08
0.1,31.2221858028175774,131.010384534057465,3.12301320909491364,3.81071421019783685,0.000121971080758598364,50.732831688561788,0.000271545837515448313,3.34090447591365036,538.7437595981919,3.9029133825176725,1.57567038389986336,69.999995157830341,-1.72222432289554893e-09,113.700000270567642,9.32732681847184431,15.2880000000000003,0,0,0.0114696609641860067,3.37914451533694905e-12,-5.48904943388414521e-06,2.34452541412924053e-10,5.68476506314615152e-08
0.11,31.2221857431700727,131.010384695667796,3.16106164078641116,3.84323765504598036,0.000147145408783231387,40.0848474374385688,0.000307099758177995722,3.33859717034531034,442.865639305294906,4.36819921201157246,1.76578242121538631,69.9999915253729768,-2.07703942468805025e-09,113.700000354470319,11.6837607126815346,15.2880000000000003,0,0,0.0128370221364947634,5.76365694334259916e-12,-8.08162139954488366e-06,3.4437809457680147e-10,9.36754562129998513e-08
0.12,31.2221856770245907,131.01038487487628,3.20315617196047642,3.86558564807459826,0.000171348089099210797,43.7480799143332604,0.000342946594964391399,3.33600966231316054,475.585948135404465,4.83801864946757032,1.95742650583495204,69.9999862600106582,-2.3147200577597177e-09,113.700000447673773,14.3321420062794882,15.2880000000000003,0,0,0.0142177082532951912,9.17772063248746377e-12,-1.13223702306849879e-05,4.98555567062495836e-10,1.45354343598177095e-07
0.13,31.2221856047215205,131.010385070757366,3.24903338361815308,3.95285669440916232,0.000198169826234992146,48.2585391180499741,0.000371981107240517913,3.33344523512332414,515.915632623689476,5.21512035057569623,2.1172615234944101,69.9999789703044399,-2.35265113573284059e-09,113.700000549782459,16.6533950244453948,15.2880000000000003,0,0,0.0153259223232261182,1.38588880633063252e-11,-1.52681962163171846e-05,7.07166414280215559e-10,2.11287244421402401e-07
0.14,31.2221855263490333,131.010385283071088,3.29862557546706325,3.99981420118284792,0.000223008237377726162,44.9721767850953427,0.000403855591455553264,3.33052592490198407,486.239086056840392,5.63167615200940475,2.29059513099545553,69.9999692426645623,-2.0964169591742506e-09,113.700000660771011,19.4199179783547713,15.2880000000000003,0,0,0.0165500839355928395,2.00553635588333716e-11,-1.99811439493909854e-05,9.81252131659242702e-10,2.9859131057555361e-07
0.15,31.2221854420015994,131.010385511560628,3.35186028506811029,4.05975476911301225,0.000248539990764711958,43.4637160193537753,0.000433543226731567866,3.32747422849243879,472.54218587214001,6.01888316560526437,2.45383766868271946,69.99995661705006,-1.43188768134039915e-09,113.700000780625842,22.182048585914238,15.2880000000000003,0,0,0.0176879988684610287,2.80404916713566325e-11,-2.55291719775422389e-05,1.33309260321839681e-09,4.07727088477750495e-07
0.16,31.2221853515819241,131.010385756490507,3.40881389436676407,4.08854462484130732,0.000272210944932510383,34.4023069357135967,0.000465877824565354701,3.32404684464906053,391.12189082975641,6.44303061809316624,2.62971580822363071,69.9999405987561403,-2.27841984783363582e-10,113.700000909623355,25.4183784408083007,15.2880000000000003,0,0,0.0189344747787753703,3.81042963600432359e-11,-3.19913711614788564e-05,1.77662362644707755e-09,5.46937370926295155e-07
0.17,31.2221852554099399,131.010386016990765,3.46923909377793649,4.13347468842419552,0.00029684158695823977,43.4155809381403728,0.000495744973995866601,3.3205135250562221,471.78125980632376,6.83404379119085981,2.79420112365087148,69.9999206448319882,1.67575894446247236e-09,113.700001047478835,28.5969980778046526,15.2880000000000003,0,0,0.0200835795555658371,5.05622819343119236e-11,-3.94162603380559734e-05,2.32482468580976756e-09,7.14768170397066036e-07
0.18,31.2221851530022434,131.010386294375877,3.53351204963262022,4.16207877285686756,0.000320492787063832857,36.2151660219171347,0.000526966735016640565,3.31665933612355879,407.101567211914528,7.2444022294323478,2.96528531587496236,69.9998961790314524,4.45070668055043651e-09,113.700001195059045,32.1341903991183955,15.2880000000000003,0,0,0.0212895378539265934,6.5741708189353534e-11,-4.79243856484647045e-05,2.99669991322666987e-09,9.21230820748327094e-07
0.19,31.2221850444828668,131.010386588308563,3.60153760019172342,4.17456309251139679,0.000342914278589344943,40.9041800427263027,0.00055982867240863632,3.31244583927210501,448.953132831826849,7.67810673790947895,3.14433961722118216,69.9998665624008964,8.30674092292676784e-09,113.700001352409558,36.0967170721845179,15.2880000000000003,0,0,0.0225641073333706747,8.40032927522686365e-11,-5.75836346763551867e-05,3.80911503044151526e-09,1.17316671380156179e-06
0.2,31.2221849296486234,131.01038689934137,3.67347464118590317,4.20078915399145636,0.000366573034254704516,37.5214898208491761,0.000590466919182690893,3.30812712915434881,418.515630199161365,8.08216006412957277,3.31318683933006453,69.9998311045104487,1.34800080829191884e-08,113.700001520067786,39.9955165273270055,15.2880000000000003,0,0,0.0237515420632470921,1.05728805481567758e-10,-6.85028882131185225e-05,4.78351733027568889e-09,1.4690610466811608e-06
0.21,31.2221848088436893,131.01038722653837,3.74905730552401684,4.22722562033261262,0.000390310433246848657,36.0064697775761644,0.000620601272787201603,3.30359776763142721,404.818761014464428,8.48018829437500621,3.47992805775657654,69.9997890742529592,2.02433263776548733e-08,113.700001697833756,44.0315784885794201,15.2880000000000003,0,0,0.0249212734096428447,1.31320595517854955e-10,-8.07208291683553139e-05,5.93661589182972911e-09,1.81631626331753899e-06
0.22,31.2221846819136672,131.010387570319409,3.82840670130281646,4.2176244726165093,0.000410696285369717819,43.5935627685881499,0.000655758920494764063,3.29841875767922987,472.542185872136486,8.94831461811120121,3.67066782999472752,69.9997397083127737,2.88926538075102191e-08,113.700001886238866,49.0266756129506618,15.2880000000000003,0,0,0.0262970098082033268,1.61186003536399267e-10,-9.43348117723774896e-05,7.29106197993283208e-09,2.23980539128825791e-06
0.23,31.2221845484548304,131.01038793178239,3.91183756115468473,4.25320537954326383,0.0004356497720089569,36.207459360748949,0.000683686922722525747,3.29355466128287455,406.340642146102141,9.31799902525197865,3.82760028360492655,69.9996821549030983,3.9766623706965518e-08,113.70000208621326,53.1608354775167555,15.2880000000000003,0,0,0.0273834518362109196,1.95767624418301473e-10,-0.000109505708778552874,8.87784718088286285e-09,2.70740355927931971e-06
0.24,31.2221844093456014,131.010388308538637,3.99866964940866776,4.27135264557773553,0.00045883378920767232,37.3286080087975947,0.000713911697673520317,3.2882529474867046,416.232824001711379,9.7203332459195213,3.9956861712714935,69.9996155408946805,5.32509871046438109e-08,113.700002296918697,57.8502398901668755,15.2880000000000003,0,0,0.0285658473732890855,2.35534745143307651e-10,-0.00012617657385590063,1.07071802425012536e-08,3.25424194465518317e-06
0.25,31.2221842644570167,131.010388700938847,4.08900446593793809,4.29698686981540234,0.000482848983334858658,38.3649566400252979,0.000742483922667206905,3.28284626589867479,425.364080791506922,10.1009615935159527,4.1562806652626314,69.9995389781877293,6.97479781374676735e-08,113.700002518962805,62.4689963611702623,15.2880000000000003,0,0,0.0296844577155840929,2.80933085873043406e-10,-0.000144451636124542286,1.28055329635332884e-08,3.87142965072796435e-06
0.26,31.2221841140756986,131.010389108203611,4.18262110402873155,4.32755423691547136,0.000507438991606541483,41.7865661614553829,0.000769736419800412888,3.27732087646770287,455.80158342417883,10.4644497354123782,4.31094871887776954,69.9994515368878751,8.97024502886333285e-08,113.700002752408935,67.0452443356678742,15.2880000000000003,0,0,0.0307527002093570291,3.32431765373287754e-10,-0.00016436315770221847,1.51925047864838523e-08,4.56355359993810651e-06
0.27,31.2221839578137299,131.010389531387915,4.27982215321117465,4.33742811840656994,0.000529702335486379188,38.2242911032538473,0.000800211178185602123,3.27123004841987974,423.842199659872563,10.8736118498261902,4.48123226393084195,69.9993522521519935,1.13587393208351198e-07,113.700002998306658,72.3900346549699947,15.2880000000000003,0,0,0.0319551720828357214,3.90484337603431509e-10,-0.000186059811616844751,1.79019946498730075e-08,5.36790267753501075e-06
0.28,31.2221837957695953,131.010389970223883,4.38053283172365671,4.35979025650862262,0.000553527510562852902,44.1207307275094038,0.000828072271385077072,3.26514386100193477,476.346873201222195,11.2478718916014184,4.63949182586423614,69.9992400702920463,1.41938296327408329e-07,113.700003257081931,77.4582454645660761,15.2880000000000003,0,0,0.0330550782151640757,4.55595825375374429e-10,-0.000209619220926101062,2.09616181379585756e-08,6.25569396794615011e-06
0.29,31.2221836278828384,131.010390424876022,4.48480177698289584,4.38135974025744623,0.00057737648726709299,35.3536197607625553,0.000855659611391794222,3.2588361863853601,397.970310422111766,11.6195889013503368,4.79682445966682813,69.9991139044831527,1.7532937395312496e-07,113.700003529427192,82.6616578528940948,15.2880000000000003,0,0,0.0341475147840558241,5.28268525040872464e-10,-0.000235137545717689308,2.44023887909330158e-08,7.24907222782668121e-06
0.3,31.2221834544381096,131.010390894570321,4.59240982688131272,4.39617507281761988,0.000600356665334356751,33.1490797613948018,0.000884158719714270942,3.25217107922164672,378.185945710871067,12.0052186882677852,4.95887519756831807,69.998972627127344,2.14383684192303281e-07,113.700003815596887,88.2385269149682756,15.2880000000000003,0,0,0.0352808420099011907,6.09029939588318471e-10,-0.000262641159892275291,2.82471356422800846e-08,8.36561857411674722e-06
0.31,31.2221832755909574,131.01039137888381,4.7032380575360353,4.42235615181669761,0.000624899913490765827,34.9528590290802086,0.000910025197609511073,3.24555398289468222,394.16562209302117,12.3556398803864607,5.10879227158949156,69.9988150759387651,2.59766173767152649e-07,113.700004116072961,93.4639131761651498,15.2880000000000003,0,0,0.0363107024397255479,6.98403788157463991e-10,-0.000292187019282257228,3.25229566712151178e-08,9.57826248689966157e-06
0.32,31.2221830914257232,131.010391877587324,4.81722282885169673,4.45155794779377789,0.000649944303128982049,38.0379859115142835,0.000934821026682707218,3.23882361682650144,421.559393462426954,12.6924793110791878,5.25399282922068878,69.9986400687318024,3.12179641788393281e-07,113.700004431478234,98.6283237403037703,15.2880000000000003,0,0,0.0373006526995305274,7.96905013945712519e-10,-0.000323836613651358495,3.72580440687311147e-08,1.09050644159405278e-05
0.33,31.22218290196043,131.01039239063175,4.9343519698327194,4.48019701204722054,0.000675004219851668761,37.7093551175013246,0.000959261610436717115,3.23189933669563656,418.515630199168186,13.0256844327599097,5.39788776638052958,69.9984463826819052,3.72372687880250348e-07,113.700004762578004,103.87354288045799,15.2880000000000003,0,0,0.0382799263433428877,9.05047894999210997e-10,-0.000357667290238851605,4.24836225249657193e-08,1.23603484615852587e-05
0.34,31.222182707020778,131.010392918491164,5.05476263450916541,4.49049305198152204,0.000697378143373914754,29.5227085089536203,0.000987142430045659337,3.22427911658814059,345.465636880756449,13.4081741031825317,5.55863100914667463,69.9982327456812641,4.41143957445642244e-07,113.700005110463266,110.062177258613033,15.2880000000000003,0,0,0.0394040418267209702,1.02333461745717641e-09,-0.000393806243978271305,4.82396483202145133e-08,1.40087103268591529e-05
0.35,31.2221825067937928,131.010393460657156,5.17831168393457641,4.50711781535187139,0.000720712543856854714,32.3530371383660977,0.00101333646443235357,3.21661305844837253,370.576570052703289,13.7686530554979374,5.71176159517965232,69.9979978091806316,5.19362042776584697e-07,113.700005475786654,116.058400304168075,15.2880000000000003,0,0,0.0404634764462946869,1.15232390415689195e-09,-0.000432299813734132244,5.45552399130644805e-08,1.57912776608867467e-05
0.36,31.2221823012122108,131.010394017312592,5.30505329869157727,4.52767240178778962,0.000744729708600240731,36.5526511043957356,0.00103828652712813154,3.20885713174522058,407.862523277719447,14.1132764952183631,5.85938873702120233,69.9977401961163537,6.07939829707116331e-07,113.700005859608282,121.939407863977465,15.2880000000000003,0,0,0.0414763190843316643,1.29254043868676357e-09,-0.000473255972436325862,6.14699225552327593e-08,1.77198251922661022e-05
0.37,31.222182090341061,131.010394588280832,5.43493909097431604,4.55039311415752579,0.00076918150115683735,34.6835787828593496,0.00106234372950533948,3.20097384516078431,391.121890829766642,14.446930470491731,6.00318739776240751,69.9974584775585669,7.0785096329375243e-07,113.700006262864989,127.771540530283914,15.2880000000000003,0,0,0.042456928843506235,1.4445318520011827e-09,-0.000516746496826029863,6.90186481791334769e-08,1.98053803654614999e-05
0.38,31.2221818741223878,131.010395173719473,5.56801609611825477,4.56315131642791805,0.000792019287104061913,36.2353933787001239,0.00108827974821363053,3.19255015153205646,404.818761014460279,14.8084413239345949,6.1564787166299757,69.9971511865591651,8.20121521966083772e-07,113.700006686723384,134.244380272309172,15.2880000000000003,0,0,0.0435194095147296359,1.60882660749176723e-09,-0.000562873331420229127,7.72423853301427293e-08,2.21128406351508731e-05
0.39,31.2221816525004634,131.010395773780147,5.704329739781131,4.57922628245169783,0.000815489716137310881,30.9425419640016202,0.00111309493143926189,3.18402316666385765,357.640624933827439,15.1559126959619999,6.30488433186772657,69.9968167722787769,9.45855271408966431e-07,113.700007132429306,140.616382889747683,15.2880000000000003,0,0,0.0445406353688629561,1.78596578656278109e-09,-0.000611756345505213715,8.61868943159197994e-08,2.45968452142520012e-05
0.4,31.2221814256617982,131.010396387955836,5.84373750626454935,4.59349479979191955,0.000838670682925170751,29.5834243852937959,0.00113797512888990423,3.17521289611434332,345.465636880754005,15.505969085398343,6.45410901523083158,69.9964536498379317,1.08621525395706341e-06,113.700007600947828,147.185065961143067,15.2880000000000003,0,0,0.045569462889951777,1.97653506559195414e-09,-0.000663427505461186432,9.58835144134294998e-08,2.72901174189528038e-05
0.41,31.2221811937141673,131.010397015953487,5.98615797249314241,4.60939449845229365,0.000862163931524819621,33.360545626359837,0.00116210409424792778,3.16624854525325983,378.946870776686467,15.8471768437686258,6.60022848408685459,69.9960602026584695,1.24241947051318175e-06,113.700008093413757,153.73182724817184,15.2880000000000003,0,0,0.0465722905345462151,2.18109996727848554e-09,-0.000717942131686907965,1.06367950505874699e-07,3.01820283711074823e-05
0.42,31.2221809567080335,131.010397657635991,6.13155423418529733,4.63387609959193458,0.000887317919769279608,37.5676427387571721,0.001183742077125155,3.15743374731593907,416.232824001711379,16.155026338188506,6.73482947265292431,69.9956347739890248,1.41574639558456e-06,113.700008611107208,159.760443802515937,15.2880000000000003,0,0,0.0474770882933877245,2.400206535531791e-09,-0.00077537935552726017,1.17680930846389008e-07,3.32294321368729263e-05
0.43,31.222180714655078,131.010398312971745,6.27991949833728835,4.65367427313455995,0.000911660169575580258,33.0386483003103493,0.00120612360190941372,3.14823214930187856,375.903139513433644,16.4750454055619109,6.87353555569934649,69.9951756835756242,1.60752723178871754e-06,113.700009155418982,166.15023929888028,15.2880000000000003,0,0,0.0484176551665520677,2.63438237315801404e-09,-0.000835821567166909188,1.29864614855892046e-07,3.65287677570896608e-05
0.44,31.2221804673911407,131.010398982407111,6.43138341412837455,4.65757387742934892,0.000932929976641759203,30.4788052564327749,0.00123214974254881528,3.13809943757763454,353.075012538921555,16.8483715860516412,7.03046484016701978,69.9946811832270441,1.81916859536649675e-06,113.700009728069276,173.762989227436179,15.2880000000000003,0,0,0.0495148886868988364,2.88411342836306464e-09,-0.000899417740154189794,1.42975581697416844e-07,4.01983191819108926e-05
0.45,31.2221802146980103,131.010399666535704,6.58611776122768511,4.65827001030579346,0.000953562143933252499,35.4620561517945134,0.00125873275223327787,3.12754579585638304,397.209385356286873,17.2316459864824161,7.19073264961644831,69.9941493995125938,2.05218870761162579e-06,113.700010330973456,181.755888424112015,15.2880000000000003,0,0,0.0506413642318551335,3.14987863732273609e-09,-0.000966369542842942814,1.57083782729145849e-07,4.41725079750487196e-05
0.46,31.2221799565319174,131.010400365476642,6.74415901717088939,4.66907507286434065,0.00097630283571516251,41.3913707355688842,0.0012823814722795761,3.11722412848720953,449.71405889764344,17.5754687869478978,7.33738035579407555,69.9935783582983362,2.30821229426708146e-06,113.700010965912341,189.078525726536213,15.2880000000000003,0,0,0.0516519027755614896,3.43223060675433133e-09,-0.00103681314204437207,1.7224885851047691e-07,4.83373548649469587e-05
0.47,31.2221796928065203,131.010401079464799,6.90557672428163105,4.67806301106434042,0.000998761260684927557,28.0209900204918974,0.00130616618884544979,3.10657060381263461,331.007810630253402,17.9233234115620377,7.48533101007974988,69.9929660462147325,2.5889364060732201e-06,113.700011634803886,196.634049649816575,15.2880000000000003,0,0,0.0526742959306323727,3.73170463860384924e-09,-0.0011108841623615434,1.88532207060213475e-07,5.28148505664365441e-05
0.48,31.2221794239793269,131.010401807256216,7.07001851744381948,4.68642527483421745,0.00102109091231145262,27.6007969606275125,0.00132978852885184593,3.09563681785184297,327.203122301157407,18.2709832353803314,7.63313726727991071,69.9923104035261474,2.89614261094227829e-06,113.700012338884164,204.33305198470137,15.2880000000000003,0,0,0.0536961221459722679,4.04904859899578719e-09,-0.00118849531779471017,2.05948560519311644e-07,5.75998398329450787e-05
0.49,31.2221791502289392,131.010402548365278,7.23734841566291642,4.70156796398202914,0.00104489945272251677,34.6487244505178253,0.00135120419031512233,3.08484494341801163,389.60000969812296,18.589315545984995,7.7707981814672209,69.9916093757078812,3.23165731652504743e-06,113.700013079832303,211.511801733856089,15.2880000000000003,0,0,0.0546317638991248022,4.38486615800834454e-09,-0.00126967773493266863,2.2453662401782158e-07,6.26054017926546362e-05
0.5,31.2221788715876762,131.010403302704333,7.40754387012007864,4.72212438923579736,0.00106996435823571525,35.6033845714535389,0.00137072557486675028,3.0741588573465477,397.970310422105001,18.8826594549893159,7.8998011517407587,69.9908609011483378,3.5973597360057951e-06,113.700013859590555,218.236320199079358,15.2880000000000003,0,0,0.0554939729313439212,4.73968531279909998e-09,-0.00135450679800636423,2.44344941868023912e-07,6.78409867869358833e-05
0.51,31.2221785881337617,131.010404070060673,7.5805467220577798,4.73558879650721298,0.00109346949398930206,27.1956639286467201,0.00139183542187690463,3.06284319292573448,323.39843497208409,19.200774511812984,8.03722958125224807,69.9900628955037689,3.99519228958782199e-06,113.700014680103109,225.647740475438098,15.2880000000000003,0,0,0.0564289867670437692,5.11403675587933804e-09,-0.00144303978709531136,2.65418546512062939e-07,7.34915902759761199e-05
0.52,31.2221782998954396,131.010404850471673,7.75637008425921426,19.0234787833538661,-15.1980791440495437,33.430422006160093,1.22400653122572356,1.92398531482125601,372.098451184341457,23.6590951909858624,8.17587618415017658,69.9892119860399475,1.26459746034443027e-05,113.700024290373378,342.596108420642452,15.2880000000000003,0,8.77255074703166748,0.0695316439778292106,5.50640401808175084e-09,-0.00159622042818405286,9.52796495328997358e-06,0.000100166905322859027
0.53,31.2221780063170549,131.010405643453112,7.93519245326232348,18.8481194659184048,-15.015960932222054,35.078319609182266,1.25264354190604288,1.88407383144414697,386.55624643486243,23.9826147750428582,8.30660965033048626,69.9881705690977043,-0.000279200314459251942,113.699714101554079,352.023590521560664,15.2880000000000003,0,8.80592265411093322,0.0704825768965683941,5.8697043756765e-09,-0.00209356112549778303,-0.000425676852824386789,0.000133170484607711924
0.54,31.2221777069879316,131.010406448776394,8.11711884876851109,18.6780994567021779,-14.8389267099037419,30.8803104658083178,1.28164534626651005,1.84356305096763573,349.270324209843579,24.3046695338636916,8.43643898184475916,69.9868405907394049,-0.00126278950591542896,113.698667721071317,361.535176439910686,15.2880000000000003,0,8.83924224803135594,0.0714292111655020073,6.15208985023154849e-09,-0.00260498443781453015,-0.000871050963348746752,0.00016792411577085746
0.55,31.2221774021436396,131.010407265693061,8.30194974982945944,18.5174688628256483,-14.6698839439248712,32.7001845605813841,1.31070562569733418,1.80284771655788867,365.250000591990727,24.6199658597182349,8.56342083101657536,69.9852140625893639,-0.00295367991885570535,113.69686857586494,370.969584461468799,15.2880000000000003,0,8.8724547329373511,0.0723559892310964708,6.35562834901064297e-09,-0.00313007876015567506,-0.0013262037942342363,0.000204386977234831228
0.56,31.2221770917778869,131.010408094170032,8.48968627133718812,18.3689744731420035,-14.510794083987216,30.5632685331982614,1.3395782856823375,1.76224802289694815,346.226561946578727,24.9244181080969049,8.68605021786928511,69.9832830521507958,-0.00536712270251008591,113.694300415353595,380.194331811169604,15.2880000000000003,0,8.9055589915992428,0.073250903673444806,6.48230710992978216e-09,-0.00366909136818404768,-0.00179127605775844328,0.000242541597990832532
0.57,31.2221767759512829,131.010408933993801,8.68027782184284646,18.2174898797994054,-14.3505657237281987,30.2322968072159739,1.36930024467402167,1.72040610665173066,343.182829683302316,25.2360915160336248,8.81107318900053116,69.9810395749496621,-0.00851829141010401747,113.690947066311281,389.755113042490791,15.2880000000000003,0,8.9385531199553494,0.0741670467601881489,6.53424001721803036e-09,-0.00422205394362500184,-0.00226623501193840438,0.000282579468139157572
0.58,31.2221764546367524,131.010409785189751,8.87374192380591253,18.0534564127529116,-14.1822207626212808,39.6293880402041765,1.40063898495841621,1.67631137037253652,426.12500585731533,25.5675916976628663,8.94316382965687318,69.9784754925614436,-0.0124224092032933463,113.686792300224496,400.054546593978046,15.2880000000000003,0,8.97143379069492752,0.0751414658002454994,6.51353215569590305e-09,-0.00478923163987323135,-0.00275123421886207253,0.000324744892445036782
0.59,31.2221761274533023,131.010410648744056,9.07037039518487376,17.9123708303260756,-14.0316281117416235,32.2392743817015131,1.43094654251201558,1.63343533112676065,360.68438819711065,25.873439417547452,9.06539926862766521,69.9755822873429452,-0.0170955949948832543,113.681818921227773,409.675219374715425,15.2880000000000003,0,9.00424896707859901,0.0760405007506525371,6.42198493766099696e-09,-0.00537192604100057789,-0.0032472500163745672,0.000368606214894744849
0.6,31.2221757945906262,131.010411524091467,9.27001263168249601,17.7468462387272474,-13.8642482117713328,28.7212381091146902,1.46388147469957941,1.5869697350960188,329.48595949860578,26.2153944423491367,9.20071471281022646,69.9723511356634873,-0.0225540523108611647,113.676009647778713,420.567621042319502,15.2880000000000003,0,9.03696453588833215,0.0770456597680133498,6.26191602844989757e-09,-0.00596982496255130547,-0.00375397188151993175,0.000415038259258309868
0.61,31.2221754559967977,131.010412411323955,9.47270548975403948,17.5805624460747794,-13.6973203422203103,33.5595348497583785,1.49769473304520062,1.53920523529195918,372.09845118432969,26.5632077083550087,9.33786788785888255,69.9687731280810397,-0.0288143023906854596,113.669346842286814,431.793026649550029,15.2880000000000003,0,9.06958351021384068,0.0780680431004132092,6.03544716635385061e-09,-0.00658331734398359941,-0.00427164476203681365,0.000463753280256215279
0.62,31.2221751117705786,131.010413310123226,9.67836896143336567,17.4594543705607634,-13.5641337365635533,41.5893597776011106,1.52844206051219467,1.49533571126662834,442.86563930529212,26.8522232245666501,9.45298025878596171,69.9648389704214253,-0.0358931011761167498,113.661812621474482,441.231499219313378,15.2880000000000003,0,9.10210345312855473,0.0789176294819072255,5.74481623201984434e-09,-0.00721247831562570659,-0.00480026261410131366,0.000513591560256212065
0.63,31.2221747617359462,131.010414220922996,9.88713658989598088,17.3279271386669578,-13.4242856160991497,23.8432804685640818,1.56070791635223216,1.4493231516496099,286.112512747078938,27.1584404214679722,9.57416440730073859,69.960539694289551,-0.0438065157654219176,113.653389819515297,451.343257165784166,15.2880000000000003,0,9.13452883251035352,0.0798177777825990614,5.39222751489592568e-09,-0.00785793801869348087,-0.00534025870966973321,0.00056592363068350669
0.64,31.2221744064250686,131.010415142228538,10.0985926987829,17.1782895214524238,-13.2721979206254801,23.4224740866034047,1.59527501157116092,1.40011867432832005,282.307824417967538,27.4940137157081246,9.70592836176502161,69.9558661593608804,-0.0525706399864896007,113.644061235759096,462.556487591843222,15.2880000000000003,0,9.16676463500249206,0.0808042095981168079,4.98031016838749812e-09,-0.00851834233908543501,-0.00589050249848737436,0.000621053222027552259
0.65,31.2221740458139934,131.010416074061567,10.3127531968211201,17.0618857494469331,-13.1449999192102762,40.946635455914695,1.62749458392857194,1.35387207149104749,436.778144778747503,27.7838678170639533,9.82057931293103081,69.9508093027184401,-0.0622010554933580401,113.633810209743615,472.351135418177023,15.2880000000000003,0,9.19890458899385521,0.0816562807418304837,4.51133907829323264e-09,-0.00919407182788738349,-0.00645122899215340266,0.000677372014359811387
0.66,31.2221736794312257,131.010417017665702,10.5299814373889564,16.940112713352427,-13.014731764801855,34.9208390171134653,1.66083015802941225,1.30599685193239501,383.512515171600171,28.083840790026251,9.9386992140708692,69.9453600202857331,-0.0727134040395410325,113.622620000900696,482.595758729273371,15.2880000000000003,0,9.23089135525371418,0.0825380981107960571,3.98743336798152966e-09,-0.00988672249668998832,-0.00702362435663116558,0.000736251920938883037
0.67,31.2221733074406629,131.010417972550357,10.7501476698017839,16.8027157297508687,-12.8740356505418454,24.2296569694714563,1.69638397957522802,1.25502726486529337,289.156244010342505,28.4105595606966475,10.0663901817632482,69.9395084789541528,-0.0841242599073507014,113.610472876555164,493.879374414124925,15.2880000000000003,0,9.26276706084885859,0.0834985283668182171,3.41101392570015028e-09,-0.010596026619264438,-0.00760741158534340624,0.000798235871719444679
0.68,31.2221729299906876,131.010418938267833,10.9731342762399553,16.672477630120639,-12.7393127823759418,30.1118922823847193,1.73197344564542832,1.20385472983495756,340.899992485846269,28.7293360441280043,10.1908986456013029,69.9332449123074724,-0.0964500300557922519,113.59735126310747,505.013739195439314,15.2880000000000003,0,9.29453901135195792,0.0844356236705601643,2.78444870536892768e-09,-0.0113218198098896591,-0.00820239483294895461,0.000862463929764749186
0.69,31.2221725471481939,131.010419914594848,11.1988871486589279,16.5608700260676187,-12.6187145932936602,36.9474812504073427,1.76627428616620419,1.15423106841828971,401.014072685363431,29.0206843603159967,10.305113181897271,69.9265595486012614,-0.109706712930579736,113.583238015043108,515.297338736011284,15.2880000000000003,0,9.32611155697681404,0.0852921146648724787,2.11009990473605977e-09,-0.0120641094214801858,-0.00880851262396129681,0.000928309116417098067
0.7,31.2221721587818379,131.010420901851802,11.4275063058117752,16.4497449858589526,-12.4991999883513216,31.0852677338613006,1.80114376434177204,1.10369379334685047,349.270324209852845,29.3130877495744961,10.4194774777746382,69.9194425926684175,-0.123909951205339527,113.568116357775665,525.722061172479926,15.2880000000000003,0,9.35756660273649388,0.0861517136877612139,1.39031144461500993e-09,-0.0128235319540704121,-0.00942619049245527196,0.000996665419536577448
0.71,31.2221717649347177,131.010421899882772,11.6589564171137088,16.3290524963581731,-12.3735749981764833,25.6518127502768252,1.83773673375574642,1.0506992156957502,301.331264063405797,29.6234426226051824,10.5401843338059731,69.9118840679477387,-0.139075652068101685,113.551969216263331,536.90131621543776,15.2880000000000003,0,9.3889079963407216,0.0870640798090782236,6.27441236462331119e-10,-0.0136001577146819524,-0.0100554139886618217,0.0010681936296158582
0.72,31.2221713656024704,131.010422908661667,11.8932390768440861,16.196712240868397,-12.240356373876919,31.281618127610276,1.87639167196430567,0.994780049301948188,350.79220534145287,29.9561284199266922,10.6688364996184912,69.9038736918738834,-0.15521989331484573,113.534779325988794,549.016010975633208,15.2880000000000003,0,9.42007818403910058,0.0880420848565141856,-1.76185862245576731e-10,-0.0143942831863218389,-0.0106963426656161154,0.00114323751375822982
0.73,31.2221709607758626,131.01042392817493,12.1303596261882678,16.0963351166618622,-12.1306379469306176,39.422292498999326,1.91200821403604571,0.942752422560999337,422.320318528233997,30.2360574920019047,10.7779521073874989,69.8954007445753831,-0.172359185933689874,113.516528952464853,559.311924243066869,15.2880000000000003,0,9.45110875168001741,0.0888650436920476183,-1.01827615793976005e-09,-0.0152062714910595927,-0.0113491831857582305,0.00121898610148415834
0.74,31.2221705503909135,131.010424958563647,12.3703664451112214,15.9871017029409579,-12.0152844460115062,24.9022997218447664,1.9493068514894818,0.888306906091430815,294.482813471059444,30.5329497447955696,10.8930463894204994,69.8864548772677097,-0.190509244449419857,113.497201184328063,570.336636002822388,15.2880000000000003,0,9.48202779129999662,0.089737865487875032,-1.89649192567319363e-09,-0.0160364734400699552,-0.012014133411517889,0.00129813085922886057
0.75,31.2221701347739611,131.010425998898256,12.6130045251267031,15.8726357956836175,-11.8968758710474027,28.978586709828086,1.9879385446179958,0.831901553320696707,330.246885564414924,30.8410809460643378,11.0120455470148642,69.877025431015781,-0.209685691556943943,113.476779205347839,581.892563455096365,15.2880000000000003,0,9.51280253279026589,0.0906437266227824306,-2.8085815416554387e-09,-0.0168839803864115345,-0.0126904273057377847,0.00138049600043006477
0.76,31.2221697138171592,131.010427049441887,12.8583565943022045,15.7697343484873276,-11.7872922758261893,31.1526658117625956,2.02573993989168244,0.776427885788266825,349.270324209861712,31.1297875380326374,11.1237575631578114,69.8671018039992902,-0.229903824957360198,113.455246525329827,592.823901542204567,15.2880000000000003,0,9.54336741769311381,0.0914925053091021762,-3.7522451604155016e-09,-0.0177494682989015676,-0.0133785093894820788,0.00146481235551069902
0.77,31.2221692874619912,131.010428110323829,13.1064672209967785,15.6703116444484234,-11.6807915933179558,29.171748576271316,2.06371316093201473,0.72054864264953622,331.76876669607077,31.413327196171096,11.2333798125899893,69.8566731939751833,-0.251178916169595423,113.432586667924951,603.657943838186156,15.2880000000000003,0,9.57380593116245038,0.0923261055661033642,-4.72519025946846472e-09,-0.0186333909886598655,-0.0140786522408119768,0.00155172935909806764
0.78,31.2221688557628632,131.010429181364572,13.3572933132348926,15.5626019492847067,-11.5690453204027168,24.0716762038026495,2.10344762815488417,0.662118810422862358,286.873437812889904,31.7137869698673391,11.3489810374488833,69.845728672720611,-0.273526079595984017,113.408783308086171,615.245991103735378,15.2880000000000003,0,9.60410907988158158,0.0932094429638852529,-5.72519707065909794e-09,-0.019535734053896036,-0.0147907717924097674,0.00164239464514697895
0.79,31.2221684187958815,131.010430262324576,13.6107749262619908,15.4506678814485454,-11.4549331286956431,33.9563526186437485,2.1444808999710161,0.601752057665369988,373.620332315953419,32.0241060636781967,11.4679879776852864,69.8342571106113326,-0.296960412718628775,113.383820122196653,627.329979482879253,15.2880000000000003,0,9.63427032704807118,0.0941217656211075226,-6.75010493304822748e-09,-0.0204564699222009073,-0.0155147741995328367,0.00173658808406496642
0.8,31.2221679763518161,131.010431353751414,13.86707436638536,15.3571184613525276,-11.3543436000597247,34.4003956846571199,2.18355519950746091,0.543839262985546634,377.42502064505743,32.2999246764971559,11.5742233872585096,69.8222470289951076,-0.321497281303425197,113.357680483935468,638.16699780750821,15.2880000000000003,0,9.66426361863261363,0.0949326961682396137,-7.79756813984325628e-09,-0.0213967478019779674,-0.016251450389226256,0.00183200939930011023
0.81,31.2221675285206075,131.01043245537025,14.1261212719592013,15.2531578952905438,-11.2469981583567495,22.6220124233331212,2.22477255143895958,0.482839269394592985,273.937492693991885,32.5972825122257106,11.6881271590376663,69.8096869094450483,-0.34715167047134976,113.330348153982825,649.955032843379513,15.2880000000000003,0,9.69410610697308783,0.0958069404806898145,-8.86550128388323574e-09,-0.0223563651157771444,-0.0170005715197437887,0.00193174682140634401
0.82,31.2221670754715568,131.010433566686885,14.3877834842167722,15.1454602440385369,-11.137602575724852,28.8723525071965668,2.26726513869478152,0.419917627095417245,328.725004432770049,32.9036576032931691,11.8051433452370134,69.7965650869751073,-0.373938302735431216,113.301807156912133,662.213392328732084,15.2880000000000003,0,9.7238026178257897,0.0967076955244109276,-9.95192457464027808e-09,-0.0233349098387315053,-0.0177617521870087544,0.00203519959448352243
0.83,31.2221666171846906,131.010434687730708,14.65207641588432,15.059372032855121,-11.0438780170886872,36.5136873894286396,2.30706759174538023,0.360448148331798224,395.68750322465047,33.1668362736947699,11.9062542002322509,69.7828698357962764,-0.401871788624570903,113.272041608741603,672.832058073411531,15.2880000000000003,0,9.75336068043365323,0.0974814990767684797,-1.10547073007084601e-08,-0.024332800085538453,-0.018535228484480238,0.00213915283741072937
0.84,31.2221661535582733,131.010435818762147,14.9190796985068825,14.9697148540706895,-10.9481663179524755,22.8165430774140887,2.34798889946888067,0.299266009065346728,275.459374825645227,33.4376976978577218,12.0099942416139669,69.7685894243615223,-0.430966011375322977,113.241036388864387,683.848943380168635,15.2880000000000003,0,9.78278201555684035,0.0982778908960702385,-1.21716456930771064e-08,-0.025350603331943649,-0.0193213467408291303,0.00224677307589495057
0.85,31.2221656848612596,131.010436959014129,15.1885838825811526,14.8638226371250557,-10.8416411707507852,24.8191994707695436,2.39219235471161573,0.233416161412192541,292.960932339393764,33.7436031038123616,12.1263539533788371,69.7537120815091356,-0.461234502384271328,113.208776727587306,696.40056371335811,15.2880000000000003,0,9.81202193406145184,0.0991772895991785558,-1.33010503022049878e-08,-0.0263873888416984274,-0.0201193372035382151,0.00235999549854558734
0.86,31.2221652109289813,131.010438108922244,15.46071783475867,14.7710916527810117,-10.7447851115406081,30.9026939751966374,2.43486900552923879,0.1694341514936204,346.226561946558718,34.0222753039663601,12.2326467331626496,69.7382255994887714,-0.492691138539149975,113.175247466035586,707.932033652447785,15.2880000000000003,0,9.84109194202491011,0.0999966541983946522,-1.44406388407467457e-08,-0.0274442260426619837,-0.0209299155771927176,0.00247472129590320345
0.87,31.2221647317805449,131.010439268414729,15.7354673241067591,14.6847854608488362,-10.6528751658803245,28.8272396920695826,2.47701874954164936,0.105964701361697902,327.964078366998024,34.2873074903688178,12.3338233455902841,69.7221177386759763,-0.525349318785790942,113.140433932043209,718.985547356007373,15.2880000000000003,0,9.87002202655495253,0.100775936601030777,-1.55884408071172624e-08,-0.0285212647071058159,-0.0217531125397456351,0.00259180698298980446
0.88,31.2221642474460133,131.010440437391111,16.0128097579333861,14.5907102582758057,-10.5560530635568366,25.0133947324629808,2.52113014644357625,0.0396068808594124827,294.482813471041823,34.5698084027791452,12.4412172235308116,69.7053761996948253,-0.559222007850734504,113.104321893151095,730.862658985057124,15.2880000000000003,0,9.89880507619659866,0.101606570376069724,-1.67425850534062576e-08,-0.029618501680708894,-0.0225888459698185759,0.00271361970362588977
0.89,31.2221637579978797,131.010441615632772,16.2926894425454343,14.489153229251766,-10.4545399038942204,27.365596012988366,2.56726196807626517,-0.0297329585469263274,315.028134248086985,34.8699153173990695,12.5548866237653911,69.6879884973458275,-0.594321968787037247,113.066897307933374,743.587260164732015,15.2880000000000003,0,9.92743848320908562,0.102488959493613599,-1.79012545848508035e-08,-0.0307359215876679866,-0.0234370244208108071,0.00284036652259735296
0.9,31.222163263364024,131.010442803325162,16.5751638148540046,14.4084911309607815,-10.3679171451619201,30.1533962384276819,2.61016388082332895,-0.0948680475918266403,339.378142354214447,35.1228083702247815,12.6512332697743375,69.6699417541554595,-0.630662146208240237,113.028145916765325,754.391596062437316,15.2880000000000003,0,9.9559328756376253,0.103232586728410916,-1.90623686043040364e-08,-0.031874170739705221,-0.0242980395608271317,0.00296683640996940655
0.91,31.2221627636075532,131.010444000280074,16.8601849861576625,14.3201537045041594,-10.2764381542808216,23.1197570965770147,2.65506559789205143,-0.162963845550440162,277.742181023078899,35.3932824601957137,12.7538537372400498,69.6512233623843571,-0.668254365801145722,112.98805462738639,766.034217612559246,15.2880000000000003,0,9.9842795457000264,0.104027895856759284,-2.02242141986768635e-08,-0.0330331315134378897,-0.025171723281992197,0.00309830502719131038
0.92,31.2221622589118475,131.010445205970683,17.1476107764529218,14.2244807060649681,-10.1803560112956308,27.3855419624757062,2.70201058960030105,-0.234094292523206571,315.028134248062145,35.681307390062365,12.8627590911110872,69.6318205326420809,-0.70711019853174395,112.94661059281988,778.531187069997259,15.2880000000000003,0,10.012464857494308,0.104874798521643706,-2.13853984083318103e-08,-0.0342121298057375678,-0.0260575021261787269,0.00323491195436559223
0.93,31.2221617491920398,131.010446420624618,17.4375093076977521,14.1475489173628191,-10.0975538001682654,32.436160410364991,2.74579875621539848,-0.301111864032581389,359.162507065472823,35.924654545700534,12.955286767423134,69.611720307755391,-0.747240919316760177,112.903801255223669,789.16461966088184,15.2880000000000003,0,10.0404927516644982,0.105590391911477219,-2.25438055473261949e-08,-0.0354119505281428604,-0.0269558645017293728,0.00337110246098118503
0.94,31.2221612343466219,131.010447644522571,17.7299623651058766,14.0545511628582407,-10.0041549400600207,23.7437025898217726,2.79340636087392502,-0.373622905048038467,283.068750483778672,36.2064656651084391,13.0617127794277916,69.5909098006261786,-0.788657039363252932,112.85961484370624,801.571878446195115,15.2880000000000003,0,10.0683566172872183,0.106419047396364388,-2.36975015290987281e-08,-0.0366331383864613169,-0.0278671228421500175,0.00351461343014321812
0.95,31.2221607146391058,131.010448876911227,18.024764958048884,13.9643606162203131,-9.91309402431791753,30.5359534105652735,2.84105324746776944,-0.446428821519820329,342.421873617487279,36.4816540326829468,13.1656397777672929,69.5693756526515159,-0.831369317145390196,112.814039294451476,813.779886478225421,15.2880000000000003,0,10.0960642378676244,0.107228245353995832,-2.4845361358068641e-08,-0.037874762227624717,-0.0287905179298966508,0.00366125050117608632
0.96,31.2221601898006575,131.01045011854697,18.3221305753750521,13.8836033723863999,-9.8288687321787247,29.9328941070927925,2.88725778490096729,-0.517481299022981234,337.095335156783449,36.7331280205844877,13.2608188115033254,69.5471044701797894,-0.875387917156628781,112.767063148667859,825.014026104220875,15.2880000000000003,0,10.1236367917170664,0.107967749392895884,-2.59848685016603469e-08,-0.0391384281384794669,-0.0297271237600963273,0.00380937649176859563
0.97,31.2221596598490692,131.010451369376881,18.6220477595824008,13.7988421116548263,-9.74230518570648663,19.4036580429589165,2.93488083556306245,-0.590737326783406624,245.021887192993233,36.994157254489231,13.3593775498265117,69.5240825372940634,-0.920722930023628372,112.718674995567966,836.756845662254591,15.2880000000000003,0,10.1510713963377892,0.108735346851903392,-2.71143969887469006e-08,-0.0404242710121633583,-0.030676948674881209,0.00396237368352314167
0.98,31.2221591250465131,131.010452628652246,18.9243127470940919,13.6991804179228662,-9.64602339003716125,27.9411592809208216,2.98649246926646583,-0.669773859349731882,319.593746642958081,37.2934245154728998,13.4718078315075367,69.500296094362497,-0.967383833902873636,112.668864046405176,850.324944186456946,15.2880000000000003,0,10.1783495678182057,0.109615344192024872,-2.82331636423246925e-08,-0.041731097843052678,-0.0316390494480215598,0.00412343888852276068
0.99,31.2221585852576524,131.010453896755791,19.2290346477617398,13.6259036602098078,-9.5680055611681869,30.4721316672646729,3.03259611638502857,-0.741422582441907396,341.660948551705417,37.5239613023207781,13.5590899114092434,69.4757310268765735,-1.0153800593097726,112.6176195317028,860.845151975151452,15.2880000000000003,0,10.2054914899156053,0.110293332667797242,-2.93388823500203687e-08,-0.0430600832444438253,-0.0326141777585793255,0.00428093192356152931
1,31.2221580404820891,131.01045517369343,19.5362170504541162,13.5381426582077218,-9.48055101904999198,27.3403105917959195,3.08262417851188486,-0.818776862146863849,314.26720818227642,37.791745435181241,13.6598819060155297,69.4503736436468557,-1.06471953875613545,112.564932248280911,873.149816579909384,15.2880000000000003,0,10.2324888851110885,0.111080809551297441,-3.04301068369002123e-08,-0.0444112355411117113,-0.033602250806210765,0.00444663794993432199
1.01,31.2221574908834789,131.010456458997481,19.8457338619284478,13.4533142453594241,-9.39544163154675793,28.5644596355674523,3.13250088558638939,-0.896183899013818674,324.920316103697928,38.0513014374632448,13.757613198409345,69.4242097080061313,-1.11541047847982444,112.510792666934336,885.158381032809643,15.2880000000000003,0,10.2593378054391327,0.111844109915119297,-3.15057018459926502e-08,-0.0457840238298667726,-0.0346028000033819713,0.00461543381431502291
1.02,31.2221569363936027,131.010457752868945,20.1576422859341804,13.3727176312843756,-9.31353320007906582,23.9477373662922659,3.18184425587590081,-0.973111942431964416,284.590631615404163,38.2986734522033316,13.850833233818852,69.3972251026337403,-1.16746012623923656,112.455192248019841,896.677780582931746,15.2880000000000003,0,10.2860445235630742,0.112571606156057963,-3.25638245105977833e-08,-0.0471790417248169683,-0.0356161566410222244,0.00478683976424004731
1.03,31.222156377075386,131.010459055134504,20.4718962592952671,13.2825071893072959,-9.2255180675848365,19.6770140853002751,3.23416733335925555,-1.05447023382443184,247.30469339049705,38.5717799847854437,13.9534078454053194,69.3694057002767579,-1.22087499975997371,112.398123196534684,909.484282999751713,15.2880000000000003,0,10.31260409808033,0.113374752466392933,-3.36031972628000582e-08,-0.048596107930418915,-0.0366421013861134917,0.00496562710952396739
1.04,31.2221558129851147,131.010460365637385,20.7884547422849231,13.2022008097002246,-9.14448854196677807,30.9304744834316381,3.2844702780590036,-1.13328129881255713,345.465636880722968,38.8167377060038277,14.0456523721424986,69.3407368957969652,-1.27566171422131669,112.339577577499085,921.044679026480708,15.2880000000000003,0,10.3390200721180587,0.114095168821348777,-3.46223709146110318e-08,-0.0500352590818754633,-0.0376805680257985623,0.0051449945119188354
1.05,31.2221552438703043,131.010461685122237,21.1075218117362304,13.1142509110206795,-9.05868841607100883,18.8934407438041525,3.33732533387769026,-1.21594447061912914,240.456258798199826,39.0823480126065448,14.1453927827525217,69.3112041539893227,-1.33182598403991737,112.279548382135658,933.664009105193713,15.2880000000000003,0,10.3653065386307333,0.114876298539542315,-3.56188723206205871e-08,-0.0514981279529454633,-0.0387326119000195659,0.00533148891094180864
1.06,31.2221546699443628,131.010463012979898,21.4289323478890843,13.0199557072798289,-8.96900612025876143,26.66086972742265,3.392537817778841,-1.30220516991909441,308.179683655939243,39.3657731340250407,14.2516289953077155,69.2807923333877085,-1.38937380607353722,112.21802826137035,947.22572906828168,15.2880000000000003,0,10.3914523721022398,0.115709800925489367,-3.65920949495376034e-08,-0.0529837095637452418,-0.0397974303938296442,0.00552489667234618877
1.07,31.2221540911060309,131.010464349516269,21.7527707286845633,12.9415525145859132,-8.89024484579671359,31.2894775216279726,3.44386762296091931,-1.38330755632456315,348.509368144030759,39.60237432204611,14.3406787533460474,69.2494859374151019,-1.44831098823207927,112.155010029536371,958.616402505451788,15.2880000000000003,0,10.4174721370992955,0.116405680101659748,-3.75399349145443082e-08,-0.0544930462831016219,-0.040875655419467867,0.00571625791773378022
1.08,31.2221535072689385,131.010465695002608,22.079110305876867,12.8601382680399645,-8.80979607880239435,21.250502094379037,3.49652149999340311,-1.46656171198430285,261.001578574662346,39.8464206519864916,14.4324084254513032,69.2172696667748397,-1.50864216511098181,112.090487715636911,970.437174751420116,15.2880000000000003,0,10.4433672723931892,0.117123451711847487,-3.84606809869003413e-08,-0.0560267650618463953,-0.0419676236287587559,0.00591317530824827207
1.09,31.222152918680063,131.010467048732238,22.4077594266156837,12.762555655141913,-8.71895955561669744,19.5903636730627149,3.55447314099710265,-1.5575830227136862,246.543753324744074,40.1379719156262453,14.541557894383363,69.1841280246715087,-1.57037148106848323,112.024455832086176,984.659179616146162,15.2880000000000003,0,10.4691226394565575,0.117980866869359949,-3.93541023007557196e-08,-0.0575835059703472818,-0.043072288408851557,0.00612175170137928184
1.1,31.222152325409315,131.010468410514818,22.7386669438887807,12.6738137235711115,-8.63430939173802869,38.7226704427624995,3.61041004272524235,-1.64608056878529041,413.189061738584087,40.402492018736865,14.6407979245003936,69.1500453190349162,-1.63350257278731625,111.956909393405169,997.648576185847901,15.2880000000000003,0,10.4947430047715571,0.118758836190020575,-4.02188464912113682e-08,-0.0591632544901700766,-0.0441895404308699224,0.00633094568851213547
1.11,31.2221517271056008,131.010469781408915,23.0721177403106346,12.6022066605047947,-8.56126985140648067,28.5014832333630608,3.66152446880599358,-1.7280731976426944,324.159391037639693,40.6129164532767817,14.7201253441269806,69.1150055529319758,-1.69803874219719719,111.887843730785889,1008.03526641911753,15.2880000000000003,0,10.5202521164100151,0.119377805679821369,-4.10517236163856808e-08,-0.0607685621144936627,-0.0453210416199588614,0.00653638473225083734
1.12,31.2221511238290823,131.010471161267247,23.4080697666190467,12.4994298419851013,-8.46801881696622694,11.1066689662626956,3.72297121906573025,-1.8250022242766073,172.73281794065943,40.9189719614054823,14.8346006623441795,69.0789929170056212,-1.76398210256871657,111.817255404014887,1023.25242985588932,15.2880000000000003,0,10.5456389256490954,0.120277882728627133,-4.18519463109444574e-08,-0.0623990705467461007,-0.0464664367711462786,0.00676212647501257813
1.13,31.2221505161019159,131.010472548552087,23.746110534885176,12.413971334037246,-8.38647024930670781,33.4856265927996475,3.77946259738862356,-1.91524750255551446,367.532807790070478,41.1701281372959897,14.928928029537186,69.0419904663337718,-1.83133579863533424,111.74513982411824,1035.81856888531001,15.2880000000000003,0,10.5708868335490571,0.121016596866452678,-4.26203504447132014e-08,-0.0640518358728158488,-0.0476235948475225365,0.00698361282199877649
1.14,31.2221499033481216,131.010473945013501,24.0867066149608497,12.3405646328420122,-8.31310610698960772,18.7939526533557206,3.8323806636905422,-2.0007446365145265,239.695317731955441,41.3808598480921219,15.0083368667081576,69.003982329257596,-1.90010027833829409,111.671495246419326,1046.41526798021755,15.2880000000000003,0,10.596028369302557,0.121636494921720184,-4.33525788302735623e-08,-0.0657309225847313855,-0.0487951985249040349,0.00720313215986230753
1.15,31.2221492859990732,131.010475349394,24.4295189345505044,12.2359676373282547,-8.21963552693460109,18.5276219523722112,3.89631571403781507,-2.10224136547581342,237.412511535467729,41.6913932147560473,15.1245934613292228,68.9649525492224882,-1.97027524932040365,111.596320673307787,1062.14439665707209,15.2880000000000003,0,10.6210086504014392,0.122549762771843193,-4.40498314512974038e-08,-0.0674333638818463421,-0.0499791093014035487,0.00744490356726094666
1.16,31.2221486641784836,131.010476761341522,24.7744533479661229,12.1656437643097171,-8.14881740672401378,47.5749234725559731,3.94890712015403222,-2.18793931826359511,490.043774384589426,41.8882204033346,15.1989379258689308,68.92488406716312,-2.04186134122527463,111.519614074517023,1072.16142094655038,15.2880000000000003,0,10.6458565373650718,0.123128805728703009,-4.47107219042737426e-08,-0.0691589642042141212,-0.0511750876607684965,0.00767120951591580055
1.17,31.2221480371344633,131.010478183171585,25.1221207707046439,12.0790282810584468,-8.06766371433452356,8.89262412814110625,4.00757767651261609,-2.28263995713290102,153.709379294867944,42.1368037172477301,15.2923674818348552,68.883760820720525,-2.11485664026714204,111.441376100168213,1084.88831317069503,15.2880000000000003,0,10.6706081008190861,0.123859992738836341,-4.53302025989677957e-08,-0.0709130300784600875,-0.0523866300651336866,0.00791218772151127195
1.18,31.2221474058723274,131.010479611871631,25.4717194108583769,11.9709332097235599,-7.97286901166368178,23.4174262994715434,4.07463688161102233,-2.38968880306173537,280.025018221967457,42.4574853936334122,15.4125904716293842,68.8415659306596552,-2.18925965301938286,111.361606900889953,1101.42722196225532,15.2880000000000003,0,10.695210461164125,0.124803120222814187,-4.59125121726019407e-08,-0.0726884141843992249,-0.0536087745652423231,0.00817172662034420551
1.19,31.2221467699473791,131.010481048821646,25.8236129161457235,11.9103652767541401,-7.90913766045719679,40.4898218991403382,4.12450593579572367,-2.47251663928718868,428.407813052929214,42.61374843788996,15.4719659382370569,68.7982820323250763,-2.2650687407467931,111.280306737640345,1109.51215290426671,15.2880000000000003,0,10.7197060817993943,0.125262950467250833,-4.64529336127238819e-08,-0.0744891882355664808,-0.0548441659242152324,0.00840470869021854236
1.2,31.2221461289834039,131.010482495229098,26.178112943520869,11.8117158303706091,-7.82105166173769728,4.66515466747081131,4.18908216312253323,-2.57676355666869616,117.184374136023607,42.8993806563858371,15.5793047232526423,68.7538930788060014,-2.34227923501587387,111.197479072787843,1124.39742810147982,15.2880000000000003,0,10.7440977209354394,0.126103069778081528,-4.69488255469053574e-08,-0.0763177992944681916,-0.0560943343655133306,0.00866845617339386323
1.21,31.2221454839814179,131.010483948054087,26.5344176136500316,11.7151666081909482,-7.73461569394903048,32.6040902766413154,4.25342983310587552,-2.68107448308211049,359.923432132008998,43.1771891744854983,15.6839030186363058,68.7083813303098481,-2.42088823385953855,111.113125423958337,1138.96838025970192,15.2880000000000003,0,10.7683454088040786,0.126920200476547951,-4.74041508581635759e-08,-0.0781670686453908165,-0.0573543384840365517,0.00893569269652537933
1.22,31.2221448341920222,131.010485409648282,26.8931397867272608,11.6508883658313547,-7.66918350861388998,23.7502453846706452,4.30524003131576194,-2.76774294269638377,283.068750482576149,43.3374336330173975,15.7448295038278072,68.6617298853781364,-2.50089057605627785,111.027249686789375,1147.39868645561478,15.2880000000000003,0,10.7924971624004176,0.127391757959181062,-4.78126333732393225e-08,-0.0800433246618215827,-0.0586283059093749281,0.00918382026971025812
1.23,31.2221441799264312,131.010486879107958,27.2540360547458853,11.5514055723106104,-7.58141157218787232,9.54387913577484426,4.37157934013391536,-2.87569497283365472,159.796873822227951,43.6222626059544609,15.8522038088351476,68.6139226916868807,-2.5822788692158003,110.939858102634147,1162.49016876799942,15.2880000000000003,0,10.8165255867701671,0.128229544014542923,-4.81754290390494239e-08,-0.0819438232092824931,-0.0599142818404946806,0.00946333951650056918
1.24,31.2221435216088743,131.010488355150727,27.6167690224463307,11.4641518506060294,-7.50172537727519817,39.3447620546204391,4.43326273494363754,-2.9773452404176215,418.515630199805003,43.8610665338283567,15.9425980908257703,68.5649424122930924,-2.66504680594282073,110.85095570013705,1175.21183321993431,15.2880000000000003,0,10.8403843691369595,0.128932046390247357,-4.8493111553048711e-08,-0.0838655982734203692,-0.0612101784413923294,0.0097379584082755901
1.25,31.2221428585514005,131.010489839981261,27.9819056052282598,11.3950446449722023,-7.43384633707110698,19.2592649663997264,4.48738350319043899,-3.06846257629696328,244.260946125734876,44.029433464329145,16.0067381698152289,68.5147724344199105,-2.74918605346166611,110.760549636664152,1184.21004685917319,15.2880000000000003,0,10.8641361149951354,0.129427503708850311,-4.8759850269988476e-08,-0.0858146095016019961,-0.0625198334550109563,0.0100021640317070042
1.26,31.222142191226208,131.010491332181772,28.3490706641047687,11.2897181786601628,-7.34315608736576486,11.5307430447971182,4.55749698631214439,-3.18310944682949337,177.298446336408631,44.3316371085633705,16.1210420955628955,68.4633965304108614,-2.83468680606666812,110.668648603073592,1200.47955343936951,15.2880000000000003,0,10.8877601571307601,0.130316391808351528,-4.89777602037517437e-08,-0.0877866770473468006,-0.0638403558409448152,0.0103018852050830272
1.27,31.2221415197925083,131.010492831290009,28.7181413869608093,11.2138050694692115,-7.27139873920807744,37.8426480259507301,4.61488123924509264,-3.27973822874312892,405.579686079964688,44.5200572943915915,16.192912681756944,68.41079671119941,-2.9215410070256338,110.575259362748341,1210.66297243539702,15.2880000000000003,0,10.911267725687372,0.130870813132038272,-4.91454347511076774e-08,-0.0897812403911467105,-0.0651712590555872662,0.010580355116950187
1.28,31.2221408437095107,131.010494339090911,29.0895686255424337,11.1311374533691101,-7.19558278920465266,12.5628996193066591,4.67541040590083767,-3.38133139632554691,186.429688124688823,44.7311648320174555,16.2733500428523676,68.3569569025798671,-3.00973683874791753,110.48039267532279,1222.12815657862598,15.2880000000000003,0,10.9346791618345769,0.131491934414028372,-4.92585150299011817e-08,-0.0918027273361922136,-0.0665153294377057308,0.010869491416641246
1.29,31.2221401636689784,131.010495853442592,29.4627956179772497,11.0306562802435746,-7.1087638198273897,20.3632306460760404,4.74448787747390721,-3.49577717106057939,254.153128984572163,45.0100483659763952,16.3794444332221261,68.3018603045663042,-3.09926269245301134,110.384059027364998,1237.37039903235222,15.2880000000000003,0,10.9579623790605414,0.132312299053876203,-4.93199345390350318e-08,-0.0938452195205212725,-0.0678685609868809325,0.0111801980100341234
