Time,Latitude,Longitude,Altitude,Angle of Attack,Angle of Sideslip,X-Acceleration,Y-Acceleration,Z-Acceleration,Thrust,True Velocity,Ground Velocity,Pitch,Roll,Yaw,Dynamic Pressure,cp,parachute_deploy_gain,Wind Speed,Mach,omega_x,omega_y,omega_z,Cmq,Angle of Attack(total),Angle of Attack(gust),True Velocity(gust),Acceleration
0.0,31.222216000000007,131.010392,3.000000004412624,0.0,0.0,0.0,0.0,0.0,2.2828121974499247,0.0,0.0,71.99999999612658,-1.0292491154817412e-14,119.99999999354436,0.0,15.288,0.0,0.0,0.0,0.0,0.0,0.0,-0.0,0.0,90.0,0.0,0.0
0.01,31.22221599999862,131.01039200000284,3.0000009727369523,0.0,0.0,0.0,0.0,0.0,34.24218696174923,5.916279387578309e-11,5.734623670548936e-11,71.99999999613168,-5.86671995824671e-13,119.9999999935449,2.1432944861733093e-21,15.288,0.0,0.0,1.7386402909615473e-13,-3.4220131069073734e-19,7.115076756936125e-19,5.488773498207866e-19,-1.1574302492039043e-31,0.0,89.99999999962336,5.916279387578309e-11,0.0
0.02,31.22221599999738,131.01039200000537,3.0000018317022668,0.0,0.0,0.0,0.0,0.0,25.871876237766408,1.2265415415436536e-10,1.1895038237325684e-10,71.9999999961369,-1.1836364828043265e-12,119.99999999354544,9.211895886571454e-21,15.288,0.0,0.0,3.6044858651615574e-13,-6.979551485375437e-19,1.4162390878091906e-18,1.0909784360635388e-18,-4.776231873571785e-31,0.0,89.99999999921916,1.2265415415436536e-10,0.0
0.03,31.22221599921969,131.01039200159065,3.0001883335529382,18.80143492628821,-0.0001350810307892,10.931161642028636,-1.75114298675875e-05,3.026590975169265,180.34219359854663,0.0798232026864394,0.0478175828508887,71.99999999765336,-5.341802909786072e-12,119.99999999436793,0.0039016003969354,15.288,0.0,0.0,0.0002345795854893,3.788270153300133e-17,-7.771883375645477e-10,1.1422790048099072e-11,1.7057759223764537e-13,18.80143492675591,89.51882325913425,0.079801984207741,11.342422482672777
0.04,31.222215995131297,131.01039200995308,3.001692634342189,9.19442604083399,-4.49173898918486e-05,52.29595764159784,6.445392950801871e-06,3.026413589912948,548.6359724538078,0.3504174083926908,0.1601447499964056,72.00000000319055,-3.111420077280171e-11,119.99999999870242,0.0751892535633216,15.288,0.0,0.0,0.0010297854387864,2.0082066977226968e-15,-1.520937588847922e-08,2.5623342884322286e-11,1.4654248781413086e-11,9.19442604094277,87.798916624545,0.3504103527855857,52.383455068075136
0.05,31.222215983575865,131.01039203366796,3.0074067499493786,5.158590039700252,1.707592688632746e-06,76.26884281015512,5.843947534199429e-05,3.0258124765658088,761.6984298824644,0.9592973585397016,0.3772700771701255,72.0000000004862,-1.3608731808076822e-10,120.0000000109612,0.5634958029902841,15.288,0.0,0.0,0.0028191251099456,2.086299069701397e-14,-1.0551247853743037e-07,3.973493515691201e-11,2.783064866637575e-10,5.158590039700515,83.94063169874748,0.959297626767734,76.32884071402438
0.06,31.222215961742712,131.0103920785344,3.019291017943491,4.109521257467909,3.140103977270004e-05,57.06876634333886,0.0001151069734147,3.024834864051463,590.4875390737208,1.6257536642597354,0.6118982818704327,71.99999992547217,-3.5903296759057166e-10,120.00000003412836,1.6184272268450337,15.288,0.0,0.0,0.0047776672697797,1.0694899894620088e-13,-3.741090980393931e-07,5.521401959501359e-11,1.6723176417636091e-09,4.109521257587776,79.78719176344794,1.6257585967235286,57.148873286519276
0.07,31.222215929936205,131.01039214392435,3.0371334573469446,3.649087515174788,5.707077112564807e-05,86.89643797254193,0.0001728541558773,3.0234947746384675,855.2937749779139,2.3057260079826607,0.8506307413593818,71.99999965378231,-6.907496536790437e-10,120.00000006788592,3.255354923652711,15.288,0.0,0.0,0.0067759305364855,3.495199904512709e-13,-9.036515915819006e-07,7.594816279105379e-11,5.728932851326001e-09,3.6490875156204896,75.6601668283889,2.305734972638426,86.94902215090157
0.08,31.222215886364623,131.01039223353447,3.0621840248716574,3.4254446680114707,8.413075603463509e-05,17.831756866644035,0.0002285946601282,3.021841001032126,241.2171988638848,2.961944911520492,1.0819695676346892,71.99999900671328,-1.141745983122182e-09,120.00000011415082,5.371998197385977,15.288,0.0,0.0,0.0087043901031071,8.800530155962314e-13,-1.829098470920821e-06,1.0943386634701918e-10,1.4896287129277132e-08,3.4254446690434226,71.81713637501419,2.9619581267487467,18.085991154451033
0.09,31.22221583454733,131.01039234010327,3.0919888289029,3.389560809024919,0.0001118726864415,54.09031716446879,0.0002748660999733,3.020060228038602,563.0937377043176,3.504225426410036,1.2780161667917422,71.99999774508822,-1.634190085504106e-09,120.00000016921716,7.519080503822694,15.288,0.0,0.0,0.0102980157586766,1.865782139518716e-12,-3.1503298654458527e-06,1.6284478329871028e-10,3.03536411425607e-08,3.389560810868955,68.76526501308032,3.504242999330529,54.17456206384468
0.1,31.22221577423132,131.0103924641528,3.1267248829165366,3.4447939461814814,0.0001419149103147,51.372195336549765,0.0003131602029306,3.0182021883815127,538.7437595981919,3.950569597142709,1.4443465951180965,71.99999562056465,-2.1287748602259068e-09,120.00000023339832,9.55649523509932,15.288,0.0,0.0,0.0116097108366932,3.485956000178229e-12,-4.949356763187612e-06,2.4573266549165286e-10,5.3761299442583966e-08,3.444793949101151,66.34639928474206,3.9505918890846927,51.460781166288626
0.11,31.222215706113143,131.01039260424562,3.165907002780892,3.4691423802630394,0.0001702373452339,40.591037561894986,0.0003534470100582,3.016051659024047,442.8656393052949,4.421478635995476,1.6182620895289603,71.99999235067894,-2.5564479031457968e-09,120.00000030601664,11.970509656144712,15.288,0.0,0.0,0.0129935974697161,5.942887149865172e-12,-7.273722517324353e-06,3.67769289312894e-10,8.842679949465076e-08,3.4691423844348632,63.88798785789768,4.421505376815134,40.70293476011277
0.12,31.222215630588888,131.0103927595646,3.2092596514826863,3.4852659299808075,0.0001974376474727,44.30042894095728,0.000394069215595,3.013641598889868,475.58594813540446,4.896982486381051,1.793579340340896,71.99998761802138,-2.8337988279882726e-09,120.00000038673312,14.683611096353944,15.288,0.0,0.0,0.0143909889875706,9.464337642181618e-12,-1.017558359402848e-05,5.395790443954697e-10,1.3700793350599625e-07,3.4852659355662303,61.5068242157714,4.897013499814194,44.40281567867803
0.13,31.222215548046687,131.0103929293088,3.256512891171917,3.5606043721293616,0.0002276507019012,48.86766833507025,0.0004268800875964,3.0112558910133567,515.9156326236895,5.278566579338586,1.939796541405244,71.99998107389406,-2.8573058577484587e-09,120.00000047523812,17.061052093156064,15.288,0.0,0.0,0.0155123760833565,1.4300406003001044e-11,-1.3705268062305584e-05,7.724776992181392e-10,1.989112774124932e-07,3.560604379397528,59.67313531776262,5.27860233862722,48.960358155653
0.14,31.222215458587108,131.01039311327068,3.30759734332425,3.6000732663755977,0.0002555702913645,45.540290862247225,0.0004629468001456,3.0085404980032777,486.2390860568404,5.70011779273801,2.098362647205908,71.99997235012626,-2.508533681468686e-09,120.00000057154703,19.894788765881632,15.288,0.0,0.0,0.0167512184495524,2.071534240530911e-11,-1.7917736259613292e-05,1.0787346240473087e-09,2.8081526258393346e-07,3.6000732754351943,57.72385750323359,5.700157937625502,45.639559681930805
0.15,31.222215362317904,131.01039331122794,3.3624387479639086,3.651605404442164,0.0002842753491325,44.01308509501,0.0004965057129938,3.005703619811542,472.54218587214,6.091938849578711,2.2476968067377374,71.99996103728932,-1.6446954747148112e-09,120.00000067569304,22.723773683610247,15.288,0.0,0.0,0.0179026934683374,2.9002783512213203e-11,-2.287326399669318e-05,1.47199345427166e-09,3.831202693354572e-07,3.651605415492516,55.98561718911576,6.091983503446133,44.115597174664394
0.16,31.22221525912812,131.01039352340948,3.421115382839859,3.67540086436193,0.0003108411545024,34.83804992586084,0.0005330990866742,3.002517946501868,391.1218908297564,6.521183188362317,2.4085903880902046,71.99994669525161,-1.0153513453738144e-10,120.00000078796704,26.03872642002185,15.288,0.0,0.0,0.019164148528834,3.9478358970291335e-11,-2.864207894220033e-05,1.9677461746207517e-09,5.135466997084602e-07,3.6754008774883777,54.15946979122355,6.521232015176687,34.96719658394182
0.17,31.2222151493826,131.01039374906244,3.4833737923187487,3.7139589864597298,0.0003384978477213,43.96471427482637,0.0005668629535037,2.999235483723449,471.78125980632376,6.916861975403744,2.559060925010733,71.99992884100092,2.3206494032971838e-09,120.0000009081849,29.29426197817256,15.288,0.0,0.0,0.0203269651395979,5.248754693205839e-11,-3.5267097947693114e-05,2.580363454062817e-09,6.706952682968329e-07,3.713959001863866,52.549031795895466,6.916915146521327,44.06689817851128
0.18,31.22221503253009,131.01039398932429,3.549599475912623,3.7380363034619775,0.0003650282082698,36.67395661481795,0.0006021794701355,2.9956556354306425,407.10156721191447,7.332140201215607,2.71556808256092,71.99990696207136,5.837017536380516e-09,120.00000103716444,32.917216366714264,15.288,0.0,0.0,0.0215473823438242,6.839750892601699e-11,-4.285557247677198e-05,3.331016495775474e-09,8.639362741436378e-07,3.738036321259578,50.93050624815799,7.332197539712479,36.796100973258795
0.19,31.22221490871209,131.01039424390297,3.619694897703461,3.747799769666444,0.0003901520189829,41.42208371271829,0.0006393759928961,2.991742733214697,448.9531328318269,7.771071983754382,2.879366399937307,71.99988049019642,1.0709144790974043e-08,120.00000117502664,36.97605053227239,15.288,0.0,0.0,0.0228373144884866,8.761416506509219e-11,-5.146771415177372e-05,4.238406957677133e-09,1.0996552116864756e-06,3.747799789945131,49.29705748437159,7.771133268690212,41.529983675580546
0.2,31.22221477769685,131.01039451327668,3.693822889232993,3.7700519460961166,0.0004166800650969,37.99697972290605,0.0006740224661302,2.987733789228414,418.51563019916136,8.179966026035371,3.0338260708461373,71.99984881140107,1.723179577184912e-08,120.0000013223286,40.969302182777255,15.288,0.0,0.0,0.024038975990988,1.1057590044953188e-10,-6.120032215177249e-05,5.3263847350253015e-09,1.376394225587184e-06,3.7700519690893857,47.8457752505109,8.180031477986942,38.11426270718793
0.21,31.222214639876928,131.01039479663547,3.771710975053407,3.7926098867321474,0.0004432924407074,36.46301043881366,0.0007080907240332,2.983530483977461,404.8187610144644,8.582757448615462,3.1863584283669346,71.99981127559042,2.5745201416596626e-08,120.00000147900325,45.103059028532826,15.288,0.0,0.0,0.0252227064089584,1.3774582723633048e-10,-7.20875523136271e-05,6.61341033873124e-09,1.7010673350603349e-06,3.792609912601061,46.47936953648762,8.582827080829217,36.584868250565684
0.22,31.22221449507626,131.01039509434258,3.8534832466471007,3.782921298925821,0.0004660920499522,44.14577847155813,0.0007479176313898,2.978724032883548,472.5421858721365,9.056569122268344,3.360845972992861,71.99976720416048,3.661811567390422e-08,120.00000164562512,50.21995530074818,15.288,0.0,0.0,0.0266151520780326,1.6960703048385348e-10,-8.421592474264931e-05,8.124635526119773e-09,2.0969540034515424e-06,3.7829213275976334,44.9464484092354,9.056642335836344,44.24615863872642
0.23,31.22221434283448,131.01039540734791,3.9394622486964206,3.813874679301352,0.0004940771488601,36.66675459308932,0.000779455230549,2.974212905336642,406.3406421461021,9.430647902846331,3.5044030163419806,71.99971583979395,5.0272885112871524e-08,120.00000182313076,54.45382429059888,15.288,0.0,0.0,0.0277145095638672,2.0669790509245914e-10,-9.77285871729516e-05,9.894576563683824e-09,2.5339062472561444e-06,3.813874711257219,43.79476959007253,9.430725512303388,36.78718303164376
0.24,31.222214184153326,131.01039573358457,4.028950821673608,3.829256049377765,0.0005200487408944,37.802126339316736,0.0008136255607606,2.9692962675112065,416.2328240017114,9.837806876534357,3.658163422426286,71.9996564062533,6.718950080713476e-08,120.0000020109434,59.25679777340223,15.288,0.0,0.0,0.0289110855155543,2.4956955046738006e-10,-0.0001125744417092,1.1934277804843484e-08,3.0448209172448607e-06,3.829256084638984,42.59361542722471,9.83788856559955,37.91856374864305
0.25,31.22221401888584,131.01039607335582,4.122052964664892,3.851417709838087,0.0005469594058717,38.85163035360012,0.0008459008130282,2.964283881833675,425.36408079150686,10.22297576958679,3.8050691648373967,71.99958811418384,8.786880969336211e-08,120.00000220974424,63.98709205399403,15.288,0.0,0.0,0.0300430411774988,2.987811646313829e-10,-0.0001288461362054,1.4273117985167728e-08,3.621333387698252e-06,3.8514177486178034,41.50703126619192,10.223061685769354,38.96455005232871
0.26,31.222213847358866,131.0103964259872,4.218542267117083,3.8780574625554745,0.0005745172425185,42.3164797140743,0.0008766626387865,2.959162938653076,455.8015834241788,10.590779679138215,3.946551912391076,71.99951013710364,1.1286401474734325e-07,120.00000241975916,68.67355887153568,15.288,0.0,0.0,0.0311239685467471,3.5491769188178554e-10,-0.0001465721578858,1.6932703957058654e-08,4.267712643344226e-06,3.8780575050466,40.51245375834074,10.590869924095635,42.41981967733593
0.27,31.22221366913008,131.0103967923915,4.318728802515264,3.886188503202341,0.0005994342651313,38.70936050721014,0.0009111181036949,2.953518013741325,423.84219965987256,11.004860953238978,4.102320296019413,71.99942161756776,1.4276417094868828e-07,120.0000026420792,74.14786134434608,15.288,0.0,0.0,0.0323408987462391,4.1858405402174807e-10,-0.0001658847815307,1.995072923688136e-08,5.018832267232506e-06,3.886188549362022,39.43841359495857,11.00495511215316,38.8218734782956
0.28,31.22221348431185,131.01039717233687,4.422535913956003,3.90556090261878,0.0006261175699806,44.68030766832924,0.0009425767186621,2.947879457547137,476.3468732012221,11.38358114165448,4.247086834352694,71.999321619057,1.7823531611327881e-07,120.000002877279,79.33831935330025,15.288,0.0,0.0,0.033453914386159,4.904408325040897e-10,-0.0001868529238516,2.3357766479368094e-08,5.847713054408178e-06,3.9055609527288775,38.49894431917428,11.383679491972384,44.77744842575601
0.29,31.222213292835256,131.0103975659655,4.530013412817602,3.9242599519377537,0.0006528240665589,35.802573724660256,0.0009737210635801,2.942037024315898,397.97031042211177,11.759725774384751,4.391004157029451,71.99920917567837,2.1999186079018322e-07,120.00000312617878,84.66717879828003,15.288,0.0,0.0,0.0345593650464213,5.711677680739745e-10,-0.0002095620322847,2.7188189988316943e-08,6.77505090435382e-06,3.9242600061534456,37.60352534239979,11.759828319749328,35.92324968749781
0.3,31.222213095024976,131.0103979726075,4.64093665799555,3.936939025755682,0.0006785438093183,33.570228713727204,0.0010059102294455,2.93586442972183,378.1859457108711,12.149968255527943,4.539237002744259,71.99908328532703,2.6880857935396905e-07,120.00000338923812,90.3787563598417,15.288,0.0,0.0,0.0357062504417728,6.614698865958865e-10,-0.0002340353597042,3.1467140861055e-08,7.817263716758327e-06,3.9369390841381695,36.71173884615234,12.150074840940263,33.698361337808635
0.31,31.22221289105846,131.01039839189684,4.755183729044857,3.9598342215431432,0.0007060286581592,35.396825578217346,0.0010350810412898,2.9297385597941448,394.1656220930212,12.504537499407316,4.6763673222047455,71.99894291513503,3.255120771695107e-07,120.00000366712923,95.72967338626896,15.288,0.0,0.0,0.0367483036680869,7.620720834468404e-10,-0.0002603234137215,3.622454560346964e-08,8.948994505138873e-06,3.9598342843844345,35.934338386209795,12.504648402129598,35.5178635353378
0.32,31.222212681031937,131.01039882363492,4.872689374180126,3.985461429033668,0.0007340760463279,38.52097867048992,0.0010630242168685,2.9235095146848846,421.55939346242695,12.84534566718622,4.809181081594425,71.99878701464397,3.909756427278764e-07,120.0000039606604,101.01782231644016,15.288,0.0,0.0,0.0377499198995686,8.737098716736534e-10,-0.0002884807530145,4.1491545539590986e-08,1.0187112828155184e-05,3.98546149652875,35.21473736963424,12.845460975581933,38.631757748577954
0.33,31.22221246496604,131.01039926777932,4.9934410812554,4.010606629086,0.0007621365968788,38.18822026147908,0.0010905599149574,2.917102431053817,418.5156301991682,13.18247167592885,4.940798912752974,71.99861449732019,4.661299779655886e-07,120.000004270781,106.38859400029033,15.288,0.0,0.0,0.0387407190563976,9.971421990244511e-10,-0.0003185760672934,4.7302669734505256e-08,1.154498667827874e-05,4.010606701382261,34.52805863348922,13.182591392065536,38.299473293007864
0.34,31.222212242662028,131.01039972474007,5.117579377337869,4.019339771238816,0.0007871574969313,29.898022638335373,0.0011220389395318,2.910051232417875,345.46563688075645,13.569536737955724,5.0878303926024735,71.99842423285973,5.519675040347761e-07,120.0000045987411,112.72655675097128,15.288,0.0,0.0,0.0398782837956187,1.1331556132162459e-09,-0.0003507224668667,5.37022358302301e-08,1.308298593306914e-05,4.019339848191799,33.76700548046532,13.5696603843662,30.039310197084795
0.35,31.22221201433324,131.01040019407705,5.2449575244483055,4.033762873683395,0.000813261106463,32.76415525156106,0.0011515840876071,2.902959820469776,370.5765700527033,13.934300103976534,5.227895396154902,71.99821502296155,6.495674834876441e-07,120.000004945438,118.8669740701126,15.288,0.0,0.0,0.040950312688979,1.2825853697215452e-09,-0.0003849609961885,6.072234695821837e-08,1.4746020857580124e-05,4.033762955530055,33.07785186209504,13.934427850732408,32.89250745069162
0.36,31.22221177990305,131.01040067594835,5.375631006350063,4.051723629010647,0.0008401329464575,37.01692984301412,0.0011797030485285,2.8957873473716007,407.8625232777193,14.282998147928636,5.362923567977223,71.9979856440668,7.600645476620651e-07,120.00000531213882,124.88900300695136,15.288,0.0,0.0,0.0419751331662584,1.4462801652534363e-09,-0.0004213876232777,6.84067806399068e-08,1.654507199147348e-05,4.051723715967022,32.44322602189087,14.283130115703262,37.13002398000203
0.37,31.222211539445663,131.01040117020102,5.509550188388412,4.071639898917391,0.0008674922629137,35.12417761390579,0.0012067983861697,2.88849906286036,391.1218908297666,14.620581431527652,5.494447309446232,71.99773482653193,8.846681943540367e-07,120.00000570002652,130.86067091914967,15.288,0.0,0.0,0.0429672939311924,1.6251202388969355e-09,-0.0004600660652957,7.679415042686734e-08,1.849041957573993e-05,4.071639991174516,31.85023865502424,14.620717696893658,35.24274792557624
0.38,31.222211292895075,131.01040167697127,5.646763233102716,4.08264881385344,0.0008930259828975,36.695642158537446,0.0012360471443664,2.880711738179021,404.8187610144602,14.986392916850402,5.634654729559426,71.99746126698146,1.0246533537040716e-06,120.0000061105033,137.4891296153862,15.288,0.0,0.0,0.0440424171304414,1.8200057922063743e-09,-0.0005010869196581,8.592980519823866e-08,2.0642694281337543e-05,4.082648911356968,31.228847973200924,14.986533193043764,36.808540518115166
0.39,31.22221104018777,131.0104021963902,5.787316652586672,4.096641430700089,0.0009192713382325,31.335681548387896,0.0012640110027448,2.872831219844713,357.64062493382744,15.337978856701952,5.770390286512262,71.99716358743511,1.1813915463769678e-06,120.00000654506955,144.01394309468844,15.288,0.0,0.0,0.0450757388736732,2.031886352449547e-09,-0.00054455673306,9.586443829735616e-08,2.295945663566148e-05,4.096641533664766,30.65298398882095,15.338123255506089,31.4670954954126
0.4,31.222210781536543,131.01040272801887,5.931064331106764,4.109028969993624,0.0009451871856381,29.95928076777898,0.0012920492774571,2.8646905607053603,345.465636880754,15.692185018814769,5.906873567965718,71.99684037970908,1.3563276523471372e-06,120.00000700500496,150.74021066990193,15.288,0.0,0.0,0.0461167659598875,2.2617341782092324e-09,-0.0005905037520737,1.0663253249436129e-07,2.5471259834659164e-05,4.1090290785164525,30.09246700352443,15.692333488470696,30.095929256306363
0.41,31.222210517064383,131.01040327160345,6.077922766619747,4.122888296344507,0.0009714525997821,33.78425365340317,0.0013192264430821,2.85640971467756,378.94687077668647,16.03742529732769,6.0405139809190125,71.99649020751959,1.5509747261474075e-06,120.0000074917568,157.44375780268788,15.288,0.0,0.0,0.0471314487675864,2.5105374204052982e-09,-0.0006389770219162,1.1827345344180344e-07,2.816813594418537e-05,4.122888410595805,29.56469007160549,16.037577892745222,33.904791300285986
0.42,31.22221024682894,131.0104038270252,6.227854084363214,4.14444025865494,0.0009995884754813,38.04468161607466,0.0013435485656724,2.8482703202464488,416.2328240017114,16.348862540904037,6.163613566771559,71.99611159893284,1.766920641656551e-06,120.00000800692096,163.6157044470786,15.288,0.0,0.0,0.0480467946810589,2.779304965995011e-09,-0.0006900467934588,1.308321832549104e-07,3.100973487310896e-05,4.144440378988911,29.104646754454564,16.34901955589459,38.15115260238947
0.43,31.222209970843565,131.0104043942566,6.380851271439565,4.1618082623168045,0.0010268052928652,33.45815353250911,0.0013687230309017,2.8397750580998298,375.9031395134336,16.67263197205097,6.290467308135904,71.99570306121484,2.005818691215035e-06,120.00000855220898,170.15779512382937,15.288,0.0,0.0,0.0489983878509763,3.0690566816849196e-09,-0.0007437862329608,1.443552931671376e-07,3.4086145072160934e-05,4.161808388761201,28.640125213458976,16.672793262249197,33.57845085853367
0.44,31.22220968892116,131.01040497368373,6.537047157143216,4.164954087655709,0.0010505545842624,30.86574023822051,0.0013980747538988,2.830419582421933,353.0750125389216,17.050421620730056,6.433992917638883,71.99526304125902,2.269416145406482e-06,120.00000912964636,177.9537948947602,15.288,0.0,0.0,0.050108743779844,3.380847125286677e-09,-0.0008003278134917,1.589055036683518e-07,3.750784460406397e-05,4.164954219916419,28.113519280259386,17.050586641458253,30.99524475496968
0.45,31.22220940081287,131.01040556582012,6.696617751072218,4.165241899529329,0.0010735835484822,35.912216710755274,0.0014280646808282,2.820677244966047,397.2093853562869,17.438293672974723,6.580571293039616,71.99478987454265,2.5595995397253085e-06,120.00000974147088,186.13940823302417,15.288,0.0,0.0,0.0512487363629523,3.7158016249566814e-09,-0.000859850913876,1.745604864109677e-07,4.121350642664912e-05,4.1652420376426775,27.591357195572936,17.43846231108416,36.02281959036367
0.46,31.222209106468902,131.0104061707686,6.859600379555308,4.174585124444534,0.0010989881252456,41.916816790010685,0.0014546917035209,2.811153314474766,449.7140588976434,17.786187321601275,6.714685486378061,71.99428180697711,2.8783880229668832e-06,120.0000103898448,193.6374175079873,15.288,0.0,0.0,0.0522712438446989,4.0751091178509895e-09,-0.0009224765531151,1.9138630415982226e-07,4.50966024037632e-05,4.1745852688465686,27.13985967570823,17.786359950252297,42.01097612387663
0.47,31.22220880579083,131.01040678873238,7.026066274755745,4.1823089530633855,0.0011240727220223,28.37640408484148,0.0014814747534716,2.801325368441072,331.0078106302534,18.138167428286582,6.849989708801916,71.99373704967608,3.2278903746588286e-06,120.00001107707628,201.37401505997488,15.288,0.0,0.0,0.0533057667609836,4.459978104761035e-09,-0.0009883252835099,2.094509673354327e-07,4.927107017839778e-05,4.182309103852639,26.69716826759888,18.13834399721685,28.514342615617974
0.48,31.222208499300592,131.0104074186346,7.195654207463586,4.189479568102716,0.0011490100608361,27.95074823096412,0.0015080719422187,2.7912412472910484,327.2031223011574,18.48995085190441,6.98515976370584,71.99315377257649,3.6103201777021456e-06,120.00001180491516,209.25751230436188,15.288,0.0,0.0,0.0543397174489847,4.8716620260348906e-09,-0.0010573190976925,2.2877013380347535e-07,5.373205427420879e-05,4.189479725385959,26.268461765425428,18.4901313379827,28.089773168283216
0.49,31.222208187201936,131.01040806005494,7.368224738812109,4.202723284133339,0.001175611380853,35.08821363242469,0.0015321405723077,2.781292092003844,389.60000969812296,18.812014261754847,7.111044804193205,71.99253015042137,4.027946338669921e-06,120.0000125755114,216.60722913930897,15.288,0.0,0.0,0.0552863302793499,5.311396446020465e-09,-0.0011294854492155,2.4938633613154685e-07,5.8398320167141767e-05,4.202723448262914,25.88860807032205,18.81219892635871,35.1982716047702
0.5,31.22220786953184,131.01040871291724,7.5437546994244835,4.220815778795054,0.0012036252596423,36.05491615971072,0.0015540388599792,2.7714444106710974,397.97031042210494,19.10875420627192,7.229005658018125,71.99186435180009,4.483102820610566e-06,120.00001339126192,223.4908652241728,15.288,0.0,0.0,0.0561585257949344,5.7804122391526605e-09,-0.0012048912160576,2.713531252030471e-07,6.327866493526626e-05,4.220815950099865,25.54902500917784,19.108943271285572,36.161276053538906
0.51,31.222207546379583,131.0104093770373,7.722184419225251,4.232567510615346,0.0012298790840397,27.54004661432325,0.0015777580800203,2.761017323676155,323.3984349720841,19.430597746636646,7.354673636736509,71.99115452520388,4.978202222778502e-06,120.00001425458936,231.07869697977367,15.288,0.0,0.0,0.0571045034845869,6.2799518101633574e-09,-0.0012835871653678,2.947201005874635e-07,6.854585242460463e-05,4.232567688976395,25.189423168613605,19.430790935591396,27.678103017910345
0.52,31.22220721787004,131.01041005271193,7.90353137614995,-11.291517663177192,16.133006295724655,33.46597203121532,-0.8618238462171103,3.567917121922173,372.0984511843415,19.17195040417857,7.488106457491389,71.99041448926043,0.0001244013256603,120.0001401785586,224.96378953246088,15.288,0.0,7.542872713208244,0.0563444811444388,6.836357589774793e-09,-0.0012242760470791,0.0002136049933502,6.450713321963983e-05,19.605513805864422,41.8820598959346,21.672763141249323,33.66666091142542
0.53,31.22220688400761,131.01041074117154,8.087906349132322,-11.049577497662442,15.910198368413166,35.12894206759642,-0.8841882391386928,3.57901673381903,386.5562464348624,19.476400236882352,7.6240309685265375,71.98976324726655,0.0007325016136393,120.00077996360947,232.1612417857909,15.288,0.0,7.5718917140859165,0.0572393483840289,7.476997483729315e-09,-0.0010314571850331,0.0005070738319301,5.520956174253536e-05,19.288998574788145,41.305135811711146,21.943573833274616,35.321858960305775
0.54,31.22220654467568,131.0104114427151,8.275381660720585,-10.816227247552057,15.694742127099044,30.87147503694389,-0.906828976769512,3.5901353766141457,349.2703242098436,19.779529850781163,7.759437873679016,71.9892235023151,0.001863831397779,120.00196994582664,239.43985874842525,15.288,0.0,7.600844143638065,0.0581303413697996,8.195476160002282e-09,-0.0008346923328916,0.0008082631656606,4.5372109790302384e-05,18.983360008841657,40.7457040452002,22.21413876263017,31.092754489947897
0.55,31.222206200178967,131.0104121567483,8.465751140982118,-10.594086109427316,15.490556735380428,32.708513374377425,-0.9294715888242558,3.6010931897192626,365.2500005919907,20.075819732045407,7.892527866983895,71.98879743794642,0.003531743873597,120.00372416869968,246.66251468326072,15.288,0.0,7.629694237240048,0.0590012386209524,8.994092961089741e-09,-0.0006342618393233,0.0011168571256312,3.499294682874664e-05,18.693256024935582,40.21301254724454,22.479535688119935,32.91927454785875
0.56,31.222205850526965,131.01041288328454,8.659014257391538,-10.38471553765102,15.300199531584628,30.53823913852335,-0.9518959038904402,3.6117519202437407,346.2265619465787,20.3609886251976,8.021922667425162,71.98848714886093,0.0057494007359358,120.00605647367055,253.715057907274,15.288,0.0,7.658440076698039,0.0598394577959623,9.875113523034732e-09,-0.000430148552062,0.0014329752547768,2.4068438436124968e-05,18.421650214900925,39.71318515876919,22.73587630636585,30.765807439865235
0.57,31.22220549580505,131.01041362218018,8.855117517470129,-10.177017655611625,15.108572735538887,30.196931981098167,-0.975037742621707,3.6227170234162753,343.1828296833023,20.65391981326253,8.153786637441371,71.9882946890912,0.0085299919900856,120.00898073078965,261.06299490955104,15.288,0.0,7.687067770881525,0.0607004954383938,1.0840825827442913e-08,-0.0002224323212183,0.001756594005545,1.262475009719818e-05,18.15003722310323,39.21134637144165,22.99976047231807,30.42908934395435
0.58,31.22220513599841,131.01041437349787,9.054077260535909,-9.96438363369947,14.906346260038635,39.70789023318956,-0.9995843360067944,3.634418009021196,426.1250058573153,20.967789526588568,8.292393218453338,71.98822209964119,0.011886865603576,120.01251097515656,269.0526926543692,15.288,0.0,7.715576214540387,0.0616230759446203,1.1893544260772778e-08,-1.109070862155636e-05,0.0020878429192243,6.390370768341014e-07,17.867101262553913,38.685705008219095,23.28294800036166,39.886397554556346
0.59,31.22220477068916,131.0104151381333,9.256190939237978,-9.771359799404692,14.728292338516836,32.21727708506314,-1.0231493999159431,3.6453352452476953,360.68438819711065,21.255012124671342,8.422288976691902,71.9882715684218,0.0158342791083545,120.01666219749563,276.4689296627065,15.288,0.0,7.744008353360567,0.0624673483658218,1.3035686418797424e-08,0.0002043423739895,0.0024275282959384,-1.1935083878609125e-05,17.614927317151746,38.21727453144143,23.54313203044514,32.43899268658828
0.6,31.222204400110183,131.01041591563938,9.461302543007552,-9.56529578565491,14.528110719528664,28.648255052958245,-1.0490221669063176,3.657543871016181,329.4859594986058,21.58017494770715,8.564432351745406,71.98844528091601,0.0203867221174658,120.02144963053276,284.98695803665635,15.288,0.0,7.772336196078114,0.0634231313366532,1.4269777957084517e-08,0.0004236298577383,0.0027753967392755,-2.5121100055144592e-05,17.337472467141385,37.69801908884825,23.83786968634644,28.899837235777234
0.61,31.22220402421873,131.01041670613773,9.669448204449248,-9.3625206300022,14.328982183021974,33.54228666272929,-1.0756242881981044,3.6700347526080206,372.0984511843297,21.911634894524365,8.708538863831835,71.98874545252231,0.0255590741113175,120.02688891581523,293.802812469123,15.288,0.0,7.8005636129772675,0.0643974279322322,1.5598384909939935e-08,0.0006468387753066,0.0031316556675006,-3.894567891252513e-05,17.062771402053222,37.18196900741268,24.13903717889434,33.75960777703762
0.62,31.22220364314413,131.0104175093954,9.880544263010217,-9.193016798067,14.174987925780345,41.668398554852565,-1.099429101783322,3.6806261626124495,442.86563930529206,22.181800470301656,8.832769993957609,71.9891743243437,0.0313665979946952,120.03299609635312,301.0864205933348,15.288,0.0,7.828689640405463,0.0651915891195201,1.7024155591392965e-08,0.000873904521508,0.0034963100784196,-5.326481555002621e-05,16.843622036807943,36.77285489687331,24.385757891314796,41.84508563051096
0.63,31.222203256700748,131.0104183258262,10.094726062145073,-9.01958489546886,14.01233910666361,23.6892148296068,-1.1245425114495522,3.691872554581189,286.11251274707894,22.470116797112343,8.962840092713817,71.98973397653405,0.0378240479914328,120.0397866789678,308.95790211151774,15.288,0.0,7.856694518979362,0.0660391009817712,1.854964044792752e-08,0.001104982924451,0.0038697160035077,-6.822312541767856e-05,16.615278688597414,36.344554489068486,24.64929445585961,24.00152949423411
0.64,31.22220286551156,131.01041915417727,10.311565911220864,-8.837611931992816,13.833950370628251,23.25682196013006,-1.1516705624428831,3.704188627931472,282.30782441796754,22.78932275989561,9.102816841584474,71.9904264332363,0.0449463784412369,120.0472763808522,317.7916218223743,15.288,0.0,7.8845874086519325,0.0669774030212557,2.0177546245259986e-08,0.0013394206210124,0.0042509538832665,-8.387066215663993e-05,16.369346845703387,35.88009558131021,24.94130247432746,23.57810692487593
0.65,31.222202469563904,131.0104199945046,10.531078604455573,-8.679581380356202,13.688438997760125,40.99873267446828,-1.1766443308300645,3.7150311506192826,436.7781447787475,23.06089443222106,9.227396487554714,71.99125372110889,0.0527482178376103,120.05548056778268,325.4038940873239,15.288,0.0,7.912298625738509,0.0677757150441181,2.1910430505248893e-08,0.001577285649626,0.0046402299089274,-9.993992449562532e-05,16.163772215095666,35.494441153414705,25.190673372187096,41.183516474966765
0.66,31.222202068333004,131.01042084791774,10.753635208653156,-8.520858714212068,13.539197313810124,34.88951354312872,-1.2025761898615244,3.7263006123134574,383.51251517160017,23.34323253873641,9.355420468142366,71.99221773315097,0.0612444225950079,120.06441485145751,333.4134855682772,15.288,0.0,7.939917419515086,0.068605675887276,2.3750823724600802e-08,0.0018191175986386,0.0050385167438954,-0.0001166715607391,15.954825529252709,35.101086416198925,25.45022729981402,35.1085411406101
0.67,31.222201662020986,131.01042171403105,10.97910118725791,-8.355200237389642,13.376593763781392,24.05523745213805,-1.2304323776246475,3.7385629887969856,289.1562440103425,23.653668731640547,9.492438136236906,71.9933205198623,0.0704509231933501,120.07409597021596,342.3330162946468,15.288,0.0,7.967445716956968,0.0695182235618258,2.5701550686203767e-08,0.0020647072458256,0.0054455947661461,-0.0001341809384987,15.731111484597404,34.677074621900296,25.73582313953743,24.375095198498297
0.68,31.222201250812034,131.0104225924952,11.207354454719,-8.196527403714672,13.22192616081518,30.00645685495724,-1.2582560678167556,3.750635374793843,340.8999924858462,23.95594350647689,9.626786515969153,71.99456419786289,0.0803836441240776,120.08454064609438,351.1307042735335,15.288,0.0,7.994784996039812,0.0704067915929945,2.7765426230313887e-08,0.0023138925865289,0.0058613141662348,-0.0001522932969881,15.517859298130778,34.27305940913026,26.0144543418837,30.266118466616476
0.69,31.22220083479652,131.010423483153,11.438338094486252,-8.051662886463975,13.086003164363143,36.92318398723377,-1.2849092563484603,3.761855559243523,401.0140726853634,24.22976767441911,9.75197106434954,71.99595062604547,0.0910583786790109,120.095765471407,359.19568755607366,15.288,0.0,8.022012302351513,0.0712117495205247,2.9945257987676495e-08,0.0025665802079982,0.0062856347359261,-0.0001708514904295,15.32775575845131,33.91468291436951,26.26748797960571,37.136559679119145
0.7,31.22220041383716,131.01042438631393,11.672153281418712,-7.90938914956197,12.951693812066196,30.979461600137988,-1.3120251908770713,3.7731934651178896,349.27032420985284,24.504844474810096,9.877532098906489,71.99748174205969,0.1024907809555188,120.10778687968804,367.3895202383743,15.288,0.0,8.049137064806914,0.0720203954647803,3.224376917916117e-08,0.0028229162054361,0.0067189130381706,-0.0001900443082122,15.140484544220223,33.56126608105513,26.522009804827643,31.235963888779363
0.71,31.222199987996287,131.0104253018769,11.908762421219304,-7.763660845757514,12.809559409560231,25.470006942461847,-1.3406060986738455,3.785222804361263,301.33126406340574,24.798802977281767,10.00910518672478,71.99915934888973,0.1146969897103715,120.12062182158772,376.2482005819043,15.288,0.0,8.07608008425948,0.0728845419485934,3.466382892029318e-08,0.003082826120973,0.0071611454335388,-0.0002100268458828,14.944913050421484,33.19042183502886,26.79420370119544,25.784615375054805
0.72,31.222199557281897,131.01042622985275,12.148165771986392,-7.613593713060565,12.657951545944588,31.16571679488191,-1.3709628486159435,3.79811080100484,350.79220534145287,25.116236631868176,10.148138343134196,72.00098538083198,0.1276935255245732,120.13428763918792,385.9332022860368,15.288,0.0,8.102904969106028,0.0738176898437986,3.72083429560802e-08,0.0033463213566299,0.0076124710048407,-0.0002308911511013,14.739175733403172,32.79796098737482,27.088408576331133,31.426216573551756
0.73,31.222199121696697,131.0104271702639,12.390367436153348,-7.484148100544561,12.536906329986898,39.40433997856804,-1.3986119449278962,3.8092760552222726,422.320318528234,25.37875453043569,10.26959286584742,72.0029618408138,0.1414975675558423,120.14880236372356,394.033839125932,15.288,0.0,8.129626467982627,0.0745894449518969,3.988031568236392e-08,0.0036134413715076,0.0080730761215698,-0.0002519221153705,14.570130302661118,32.479670862115626,27.33237046656541,39.61273417203059
0.74,31.222198681179016,131.01042812326207,12.635415756841226,-7.3516403634891905,12.408742978417932,24.69168737035376,-1.4276951362693566,3.8211027276715774,294.48281347105944,25.65910932952244,10.396716924843169,72.00509043379937,0.1561258165252033,120.16418352898656,402.77809577880464,15.288,0.0,8.156209933873978,0.0754136303974984,4.268269420482838e-08,0.0038842096742476,0.0085431295444534,-0.0002737845896144,14.393572943105791,32.14551134740398,27.59306855837604,25.026357398807235
0.75,31.22219823611549,131.01042908807935,12.88304787884852,-7.218179085464754,12.27680254418861,28.81391755596619,-1.4578984887143556,3.8333970691109407,330.24688556441487,25.951328592187554,10.527581296653906,72.00737296968286,0.1715951691487587,120.18044886294608,411.9946302196898,15.288,0.0,8.182617468826288,0.0762726930764359,4.5618586392975344e-08,0.0041581923251521,0.0090220163336868,-0.000296427573012,14.213420851240386,31.80344824466405,27.865041706214623,29.104333801255105
0.76,31.22219778639353,131.0104300649708,13.133347421936278,-7.09314445034128,12.156479485694796,31.0094979577528,-1.4873522560110015,3.845102984874056,349.27032420986166,26.223463156721746,10.652010058205745,72.00981109239676,0.1879225023417868,120.19761607580185,420.6704579574198,15.288,0.0,8.208902971322308,0.0770727324374544,4.869093562069887e-08,0.0044355388107529,0.0095101150176167,-0.0003195070307578,14.047586467740016,31.490368641250797,28.11870397955497,31.282359202745937
0.77,31.22219733195676,131.01043105407544,13.386358910681704,-6.971848692224333,12.040271707000382,28.996730808896004,-1.5169210229429957,3.856712491640775,331.7687666960708,26.490342039057712,10.774736665948248,72.0124065478886,0.2051249454775423,120.21570313211608,429.2660112105676,15.288,0.0,8.235069286488816,0.0778573318105101,5.190273992453749e-08,0.0047163108087161,0.0100076613651982,-0.0003431811471122,13.887278823091172,31.188295891851716,28.3677344233073,29.29139256226312
0.78,31.222196872878207,131.01043205526642,13.64203696459258,-6.847860087028896,11.917519502651116,23.82480259023756,-1.5479865279527811,3.868989048851328,286.8734378128899,26.77499672629808,10.9030798286802,72.01516092472386,0.2232198151750509,120.23472819708232,438.5302540454626,15.288,0.0,8.261083976704274,0.0786941827581807,5.5257099886175655e-08,0.005000400124066,0.0105145987684254,-0.0003677536215513,13.720116573566573,30.871595839627503,28.633527122759432,24.18649534377904
0.79,31.22219640925596,131.01043306836578,13.900318913985796,-6.7234281258946815,11.791911806645777,33.83020554381818,-1.5801391614255496,3.88169191929348,373.6203323159534,27.07005594579961,11.034681099957302,72.0180757814771,0.2422247375198834,120.25470975842934,448.2375568793347,15.288,0.0,8.286931004879905,0.0795616208392384,5.8757176693010016e-08,0.0052876967066502,0.011030864542161,-0.000393158520975,13.55038889527501,30.54911547823417,28.909276752381167,34.088813107275605
0.8,31.222195940859063,131.0104340938682,14.161370172774836,-6.610477209396072,11.683746418753785,34.27358909456661,-1.610564869064087,3.8932767302549216,377.42502064505743,27.329302085349024,11.154880186511807,72.02115279367301,0.262157905761453,120.27566689127656,456.8526310263817,15.288,0.0,8.312667726413885,0.0803238079304533,6.240604983618399e-08,0.0055785004671058,0.0115571239921435,-0.0004187425850825,13.401507808601986,30.26982085713612,29.15188760996252,34.53158600931911
0.81,31.222195467800663,131.01043513156353,14.425117454572554,-6.493773500142392,11.567215301608496,22.33749454459537,-1.6428243877393478,3.905696210035064,273.9374926939919,27.61113188640898,11.282206062356543,72.02439352714653,0.283037519516715,120.29761867515504,466.3118680013529,15.288,0.0,8.33828090167261,0.0811523780273173,6.620699911563183e-08,0.0058726326937551,0.012093201944607,-0.0004453558523738,13.24366283587534,29.971372866353065,29.415788255907213,22.73580870309788
0.82,31.222194990285576,131.0104361810545,14.691424043534012,-6.37685153745716,11.44828907429783,28.66200091073826,-1.6761550524430373,3.9185204024420113,328.72500443277005,27.902477880599967,11.41249633199895,72.0277994642916,0.3048819120647374,120.32058432767974,476.1924287446812,15.288,0.0,8.363758967456835,0.0820089247230501,7.016336473512834e-08,0.0061698504244226,0.0126388005392154,-0.0004728206284388,13.083749709332649,29.668149955655338,29.68882889370825,28.977139163681176
0.83,31.22219450829989,131.01043724239022,14.960304711168517,-6.272451761429794,11.349309698831188,36.39531413260112,-1.7071252083147046,3.9298981400228734,395.68750322465047,28.148948403858867,11.528536998619613,72.03137207426894,0.3277096622926694,120.3445833192241,484.62975661122016,15.288,0.0,8.38908659883669,0.0827335838671829,7.427839615703172e-08,0.0064701965290953,0.0131941345362851,-0.0005002043229962,12.947360701634484,29.41439225721464,29.92005844728099,36.64665423580349
0.84,31.222194021733603,131.0104383158126,15.231840261085072,-6.167657124446865,11.247941823225938,22.51562193717235,-1.7390362890584152,3.941614177354977,275.4593748256452,28.403549501665783,11.647118461814031,72.03511264197131,0.3515390912194273,120.36963484832788,493.4232768591736,15.288,0.0,8.41426308368949,0.0834821468452649,7.855528308494308e-08,0.0067737530212155,0.0137595009016349,-0.0005283946866314,12.80882037770846,29.155984541530817,30.15904531310023,22.9240877845873
0.85,31.22219353090581,131.01043940068976,15.505814712409464,-6.056319848793336,11.133158521078917,24.537940093644057,-1.7737576150682994,3.9546505895279056,292.96093233939376,28.694778805466576,11.777224305731895,72.03902250145173,0.3763885682212668,120.39575815184864,503.58030571130354,15.288,0.0,8.439295063228583,0.0843383726652139,8.299746817392171e-08,0.0070801066807642,0.0143342858706611,-0.0005579402904623,12.65555599128917,28.86600187744384,30.43258730437629,24.917784440064704
0.86,31.222193035633445,131.0104404974123,15.782359442949824,-5.952962983725998,11.030768344259595,30.693617566325344,-1.8071431942359872,3.9667994347319633,346.2265619465587,28.95778650227465,11.898365274881815,72.04310286752929,0.4022772357736299,120.42297328559953,512.8403217475907,15.288,0.0,8.464199852926892,0.0851116583434685,8.760818655330529e-08,0.0073895102076814,0.0149190994257436,-0.000587644292392,12.5170437303852,28.607189077661918,30.67981149574031,31.00160356477869
0.87,31.22219253594556,131.0104416059378,16.06145897217636,-5.854085721822169,10.934754611409987,28.585181800893974,-1.8400709332551928,3.978534141252571,327.964078366998,29.206716577528063,12.015020636436558,72.04735500960362,0.4292241989530969,120.45130025191692,521.6813030555933,15.288,0.0,8.488976219330358,0.0858435747673704,9.239081360977457e-08,0.0077019075351087,0.0155139896930376,-0.0006177359876804,12.386355526616494,28.364966328387062,30.91393600086361,28.919322494530938
0.88,31.22219203188333,131.0104427261979,16.343089254011986,-5.752830647665631,10.832743018754313,24.716047907665228,-1.8746673363995503,3.9909653075745086,294.4828134710418,29.473944658000143,12.137397992223743,72.05177997927309,0.4572486391211848,120.48075913712206,531.2568959041037,15.288,0.0,8.513618240071278,0.0866292794364358,9.734878536071e-08,0.0080171923939553,0.016118911778207,-0.0006488894142049,12.249401327675947,28.109152882305768,31.16542837367745,25.106278216462698
0.89,31.22219152353725,131.0104438580246,16.627192276505312,-5.649436887904769,10.725037854371884,27.09253202842882,-1.910978922688184,4.004101558611796,315.028134248087,29.75959959631811,12.26551974859004,72.05637894632368,0.4863699856922205,120.5113702728785,541.5896678814522,15.288,0.0,8.538123903375292,0.0874691515960208,1.0248556715730684e-07,0.0083352551787813,0.0167338122502222,-0.0006811523413023,12.106555653773611,27.840416254819324,31.434463529308445,27.45341438593891
0.9,31.22219101082943,131.0104450015908,16.913826230134447,-5.557099638263903,10.63611491893422,29.910146737665645,-1.9444981381894568,4.015612074593526,339.37814235421445,29.99625379076,12.378162890656537,72.06115295897358,0.5166083510606169,120.54315471243072,550.2224251126594,15.288,0.0,8.562488492711509,0.0881650086445781,1.0780460262426033e-07,0.0086561972927494,0.0173590408946875,-0.0007129851434163,11.985513331021751,27.618661225991385,31.65739172885271,30.241082837949676
0.91,31.222190493838028,131.01044615675085,17.20294121414046,-5.462402422750976,10.541261074225668,22.779781593689176,-1.979717120870008,4.027816373129832,277.7421810230789,30.25131007374676,12.496544904108063,72.06610286009273,0.5479832860129698,120.57613291423282,559.6036818652876,15.288,0.0,8.586704533906497,0.0889149602896641,1.1330941640825684e-07,0.0089798705993115,0.0179944780286773,-0.0007459135928992,11.85826313395675,27.38344549660215,31.897802122183705,23.217687957040397
0.92,31.2221899727822,131.01044732307497,17.494390419964155,-5.365612456620227,10.44083586533183,27.094707783001027,-2.0166719667208337,4.040717627734487,315.02813424806214,30.524726364834184,12.620630157499937,72.07122959167762,0.5805145835074844,120.61032557608064,569.7490262519751,15.288,0.0,8.610777358958385,0.0897188832914021,1.1900368307721633e-07,0.0093059632044307,0.0186396775673291,-0.0007799651711538,11.725241428709625,27.13554437294417,32.1557073611223,27.46848293252939
0.93,31.22218944756708,131.01044850076687,17.788243178456838,-5.278461369905957,10.357150650129688,32.20455532290645,-2.050919152306573,4.052060735417782,359.1625070654728,30.75181530688444,12.730106880624165,72.07653390448259,0.6142223036170402,120.64575367961396,578.241545106112,15.288,0.0,8.634719430684909,0.0903866473186446,1.248907842664968e-07,0.009634614164695,0.0192950714844164,-0.0008134950745262,11.611563675710975,26.929747654530036,32.36986697676988,32.52320477934108
0.94,31.222188918076263,131.01044969006992,18.08458301756489,-5.185302254152195,10.260449958298508,23.394148075224383,-2.0884259707829367,4.064861801039779,283.0687504837787,31.019001090076927,12.85210914698504,72.0820164545012,0.6491263095740568,120.6824379916202,588.3165038185032,15.288,0.0,8.658530496187247,0.0911722725486529,1.3097414025384465e-07,0.0099658748461789,0.0199609347411503,-0.0008487518214936,11.483727706431818,26.692956834182308,32.62210825150142,23.836333372868356
0.95,31.222188384623088,131.01045089036532,18.383198562526303,-5.094562100481494,10.166830828476357,30.26841759133092,-2.12595714509035,4.077478857489067,342.4218736174873,31.2794074012986,12.971909271762,72.08767792102189,0.685247268602099,120.72040011763548,598.2187118247832,15.288,0.0,8.682200986365139,0.0919379788360078,1.372576487787757e-07,0.010299363923139,0.0206366758638043,-0.000884492078074,11.359836647466963,26.464697523702952,32.868041940180234,30.615725225759753
0.96,31.22218784689372,131.010452102292,18.684308831503472,-5.009040775634493,10.081876458269509,29.65190543874291,-2.162254182094097,4.089290652098534,337.09533515678345,31.515280721260343,13.083961597761313,72.09351887664458,0.7226058469788978,120.75966165688617,607.2573224649585,15.288,0.0,8.70574956620697,0.092631584069577,1.4374456241274017e-07,0.0106354490145508,0.021323206622,-0.0009202153580083,11.24611485869772,26.258784916095504,33.09077845485421,30.01055043369707
0.97,31.22218730491084,131.01045332581205,18.98790157077137,-4.92286170838754,9.99418027695994,18.9810742928186,-2.199757845350048,4.101509498469207,245.02188719299323,31.761183278175864,13.199092643043052,72.09953986709404,0.7612232408335741,120.80024475896246,616.7527363744504,15.288,0.0,8.729173958271494,0.0933546752612095,1.504386077943952e-07,0.0109740540870246,0.0220205601530855,-0.0009568934333752,11.129770755712348,26.047096686419348,33.32311659730423,19.543349151404716
0.98,31.222186758985945,131.01045456031008,19.29376671913649,-4.831479018487514,9.894596344979938,27.623573805840746,-2.24065002028669,4.115190326351192,319.5937466429581,32.04688687143376,13.32658801475892,72.10574132972931,0.8011206691852937,120.84217159092876,627.8800347126933,15.288,0.0,8.75245829674406,0.0941947601936895,1.5734388604884709e-07,0.0113147240871581,0.0227279891287936,-0.0009954440640376,11.000618154715594,25.806933023144214,33.59341260218807,28.018157215317288
0.99,31.222186208960963,131.0104558061102,19.602016065654663,-4.752230006876672,9.817828966319237,30.18183071358936,-2.2768641288498768,4.126383586477472,341.6609485517054,32.26133360562963,13.43173801470747,72.11212367590686,0.842319932305939,120.8854649247224,636.2924258887248,15.288,0.0,8.775620375962577,0.0948254089234773,1.6446389380062154e-07,0.0116576928295581,0.0234461535729658,-0.001032450198688,10.897333930313678,25.624210178258437,33.79597872522914,30.54757039418618
1.0,31.222185654834817,131.01045706321798,19.9126530263026,-4.667953038758983,9.729529731331072,27.004307239941767,-2.316414950736456,4.139002482720148,314.2672081822764,32.51454339954422,13.548924012345024,72.11868707834773,0.8848420115529573,120.93014666504062,646.3004871780041,15.288,0.0,8.798653213008878,0.0955700008787796,1.718023647720446e-07,0.0120028436087852,0.0241750080997077,-0.0010713294364424,10.781632219833126,25.41387315841522,34.035519818642484,27.41769007931066
1.01,31.222185096802416,131.010458331251,20.225547465882745,-4.585889414321877,9.644301798648224,28.23917431259904,-2.3558433713690934,4.151356168730128,324.9203161036979,32.75930933263636,13.663390199042446,72.12543173117722,0.928708820623354,120.9762396894302,656.0479553721628,15.288,0.0,8.821553583994566,0.0962897813799322,1.793633153370839e-07,0.0123499203986019,0.0249142056537361,-0.0011105729073806,10.669763757880055,25.212088936660543,34.2670890616675,28.63974025523679
1.02,31.222184534781967,131.0104596103753,20.540758020750527,-4.506501431058784,9.563200114183312,23.557678827515648,-2.394829924639999,4.16329367395545,284.59063161540416,32.99153096541563,13.773865434645217,72.13235766878388,0.9739420038910612,121.023766585931,665.3618605681073,15.288,0.0,8.84432716816523,0.0969726977757069,1.871503779060944e-07,0.0126989771856921,0.0256640543697207,-0.0011500222510566,10.562875215972529,25.021513119871983,34.48674981420771,24.042305553418288
1.03,31.22218396884689,131.01046090044713,20.85823706509543,-4.424238223556196,9.474713028338751,19.22683691618,-2.4363490577415785,4.1762292173143045,247.30469339049705,33.250536501453155,13.89259610809898,72.13946480009933,1.0205631755657123,121.07274990385304,675.8293296165385,15.288,0.0,8.86696987213195,0.0977343483002525,1.9516742947912565e-07,0.0130498502416847,0.0264244061628923,-0.0011910389736448,10.448217766688888,24.81346099595323,34.73204721596539,19.82543681758589
1.04,31.22218339906362,131.0104622013382,21.17794210690891,-4.346836445998369,9.395027721818115,30.62120496895248,-2.4761726166918905,4.188147201372505,345.46563688072297,33.48044115421838,14.002176478366891,72.14675302577174,1.0685947572994772,121.12321303384388,685.1863915146793,15.288,0.0,8.889484987680094,0.0984104693067484,2.03418389099236e-07,0.0134024422158629,0.0271952491117898,-0.0012316393824717,10.34368490785585,24.628277077168395,34.94960425295601,31.005325374177566
1.05,31.22218282512649,131.01046351365167,21.50008332793184,-4.26738788324521,9.309619701161838,18.42371309879975,-2.5181695037329863,4.200876253759583,240.45625879819983,33.73184376411591,14.118359002952694,72.1542220947703,1.11805899556496,121.17517917570927,695.4935517367913,15.288,0.0,8.911885009341148,0.0991497879964141,2.1190663668552883e-07,0.0137570701582456,0.0279774865978031,-0.0012736821034529,10.233231056640596,24.42972252680914,35.187769330875035,19.063623561532513
1.06,31.222182247289265,131.0104648368877,21.824490484896323,-4.186470605541545,9.219593671587448,26.287378280288085,-2.5621710989084376,4.21431748915568,308.17968365593924,34.00178728274156,14.24019802424454,72.16187177137282,1.1689791767691964,121.2286726138912,706.6476309838122,15.288,0.0,8.93416043298853,0.0999436130872654,2.2063661023314466e-07,0.0141133510521777,0.0287704975670787,-0.0013170836917122,10.118095577711006,24.22046858131712,35.44375606293041,26.746054839741262
1.07,31.222181665427645,131.01046617129182,22.15125045205146,-4.112520541658283,9.143215404404687,30.971691287862924,-2.602907201926608,4.226015514900632,348.5093681440308,34.22328979328459,14.346902004094936,72.16970176470147,1.2213791675357668,121.28371823520176,715.8619749274596,15.288,0.0,8.956324155859505,0.1005950604090455,2.2961210654438293e-07,0.014471443273691,0.0295748495279681,-0.0013592566075021,10.018350915352482,24.046333195446884,35.65341481455032,31.366861402835738
1.08,31.22218107943249,131.01046751707463,22.480438948225512,-4.038286633190636,9.06492641010922,20.79851585624782,-2.644783574591521,4.238024348540478,261.00157857466235,34.45259321580996,14.455941241747489,72.17771159113505,1.2752824315180376,121.34034049545228,725.4640324871856,15.288,0.0,8.978377631308721,0.1012694451968106,2.3883702291457534e-07,0.0148313794256928,0.0303908534465311,-0.0014023537539845,9.91686992836022,23.86834528630956,35.87057554982692,21.39004423459295
1.09,31.22218048959781,131.01046887365715,22.8118584286438,-3.9589648500876025,8.97400317562982,19.113086053834103,-2.691142243863521,4.251860616386384,246.54375332474407,34.731172788938544,14.58014122005014,72.18590066917277,1.330712739407898,121.39856416484312,737.2200275762851,15.288,0.0,9.000307837357719,0.1020886796960113,2.483160500647762e-07,0.0151926898994373,0.0312176862344056,-0.0014480862057811,9.801924302445338,23.65941799006567,36.13504953343509,19.764377647149736
1.1,31.22217989600444,131.01047024087953,23.14545618071652,-3.883810448035225,8.890878836360143,38.489878006260696,-2.735833525184616,4.264691467078243,413.1890617385841,34.981826906098355,14.695570991977329,72.19426831469828,1.3876941628964068,121.45841432210776,747.8754627287353,15.288,0.0,9.022119114875364,0.1028258385639243,2.5805336824459045e-07,0.0155552598528719,0.032055311578837,-0.0014932968029967,9.69589643539925,23.4709665504031,36.37280486661248,38.821940798003965
1.11,31.222179298219704,131.01047161958076,23.481526328351418,-3.815661801257044,8.822231401872799,28.132463622717875,-2.776510643578183,4.275472607270393,324.1593910376397,35.176561636677384,14.793610374661858,72.20281376256078,1.446251266667077,121.51991655632192,756.2006835768682,15.288,0.0,9.043832384498518,0.1033986353944832,2.680522559653137e-07,0.0159196018257701,0.0329051535425663,-0.0015367313348228,9.60602749370875,23.320025577632865,36.55688505226702,28.590631102740055
1.12,31.222178696308013,131.01047300962517,23.82002588497547,-3.7372421244517846,8.728869271748076,10.50877311003696,-2.8258961210122746,4.289945125563588,172.73281794065943,35.47034112328223,14.922159677725787,72.2115360526891,1.506408253276862,121.583096067643,768.8593528621469,15.288,0.0,9.065438183931027,0.1042625745200655,2.783171557126453e-07,0.0162854856025077,0.0337669529973343,-0.0015851279227718,9.489567040140637,23.107416717686235,36.83617092948098,11.697163346099552
1.13,31.22217809090384,131.0104744097805,24.16052907367068,-3.6658096704629126,8.650086324301233,33.17509151599396,-2.8711607193964808,4.302312707757401,367.5328077900705,35.70737332516575,15.03304301740318,72.22043432189302,1.5681912858973843,121.64798010653573,779.1440801652686,15.288,0.0,9.086922172601048,0.1049597173289013,2.888537615604294e-07,0.0166520860063248,0.034639015283822,-0.001631588303354,9.389348936267458,22.932554132667544,37.060969982733496,33.575886520038615
1.14,31.222177481292366,131.01047582142056,24.503518133428752,-3.599330046098379,8.58155466682833,18.28962484038428,-2.913477060833414,4.31313080707306,239.69531773195544,35.90266668826623,15.130953514703709,72.22950730737625,1.6316245975689248,121.71459388945078,787.6641387688375,15.288,0.0,9.108312956297173,0.1055341791318111,2.9966458136703125e-07,0.017020251800518,0.0355236131700426,-0.0016767272153789,9.300602795616072,22.78468922853265,37.24561990051543,19.015830845506777
1.15,31.22217686799372,131.01047724352878,24.84864332840408,-3.5229675498876425,8.488477104749265,18.01733242639027,-2.965072538870756,4.327805870995562,237.41251153546767,36.2012483698569,15.260574313708732,72.23875360898873,1.6967325529155537,121.7829627616036,800.7931607115634,15.288,0.0,9.129584550299136,0.1064122602176281,3.107552031141376e-07,0.0173891406715604,0.0364190153717266,-0.0017272571369581,9.18556382850664,22.575146044330715,37.52974291240039,18.765548928311247
1.16,31.222176251155137,131.01047867581815,25.195807575507217,-3.4589789824186714,8.423427373179878,47.43939103285793,-3.007218081989621,4.3380612615103935,490.0437743845894,36.382332951956926,15.3538734760373,72.24817189692784,1.7635414038712491,121.8531140420474,808.7976234507462,15.288,0.0,9.150726452203774,0.1069449707864728,3.221301400106535e-07,0.0177586023819934,0.0373251032975277,-0.0017727201153023,9.10122623807132,22.437985689100767,37.70072058476712,47.73214805212169
1.17,31.22217562983323,131.01048012008263,25.54564311476787,-3.39025574577807,8.345833760572985,8.252215001515747,-3.054507317459547,4.350323876122199,153.70937929486794,36.61699332745216,15.463568051537711,72.25776046456157,1.832075627456468,121.92507317873316,819.236976522225,15.288,0.0,9.171774358002146,0.107635174116766,3.3379138392012497e-07,0.0181297154638604,0.038244817701143,-0.0018213773021823,9.003629874755106,22.26974534323067,37.92332286067413,9.816026956504059
1.18,31.22217500526513,131.01048157394126,25.897321465919287,-3.3152868683495247,8.251623520923062,22.96405364468173,-3.1088626441163107,4.365377631685821,280.02501822196746,36.92620311844994,15.596011055392054,72.26751760958035,1.902361116927724,121.99886709608052,833.1032364163051,15.288,0.0,9.192692261526371,0.1085445230552765,3.4574667906845e-07,0.0185007163796113,0.0391741008760733,-0.0018742813316649,8.888436640151697,22.059621650338208,38.21788909879755,23.581121869050783
1.19,31.22217437689005,131.0104830384582,26.2512191185837,-3.256502495332866,8.195809150586342,40.25641939168203,-3.148915388715745,4.373990355399853,428.4078130529292,37.06560873558293,15.676178987678584,72.27744154996209,1.9744245586477145,122.07452354436424,839.3769195577033,15.288,0.0,9.21351747366468,0.1089547408269445,3.57998589032275e-07,0.0188724168319233,0.0401152374234652,-0.0019190905777591,8.814967470303726,21.949022571220294,38.34861756869017,40.615597521068366
1.2,31.2221737442208,131.01048451453684,26.607659625220847,-3.186187237968159,8.110207975731155,3.964494441436592,-3.201323168860388,4.387651513752656,117.1843741360236,37.33870964269235,15.797263703848127,72.28753006904884,2.048290337900545,122.15206784946248,851.7624493862842,15.288,0.0,9.234252581717255,0.109757965286239,3.7055039631312897e-07,0.0192451966774507,0.0410695328914847,-0.001971349400198,8.70972767886717,21.76268343255008,38.60840817835781,6.724371495820255
1.21,31.22217310850217,131.01048599980405,26.96581352450942,-3.117332937381266,8.026801439764553,32.26580321998636,-3.253604393057558,4.400964684628888,359.92343213200894,37.60376622604425,15.91569931105264,72.29778110699513,2.1239857604642074,122.23152839305313,863.8684747796691,15.288,0.0,9.254862705238244,0.1105375517836333,3.83410181369386e-07,0.0196173616290952,0.0420329597905751,-0.0020236665180439,8.607185101424545,21.58268888886788,38.86049298676463,32.72669383137802
1.22,31.22217246877992,131.010487496051,27.326316122479835,-3.0592080152314978,7.969433493598751,23.29555796786435,-3.2955021419503026,4.409612604867566,283.0687504825761,37.74752052562742,15.99687230307554,72.30819225653276,2.2015366382391126,122.31293198212846,870.4558681124931,15.288,0.0,9.275390060722833,0.1109605738896685,3.965791724573361e-07,0.0199901607518038,0.0430090363317134,-0.0020699348704776,8.532888164225366,21.471017642316983,38.99532360730933,23.937168561188148
1.23,31.22217182542844,131.01048900254605,27.688916457184288,-2.9909046004375948,7.884730135760235,8.903767237805157,-3.34959905419816,4.4231255724720295,159.79687382222795,38.019922260278754,16.117266144073465,72.3187607759445,2.2809673220982822,122.396303880505,883.0335797172991,15.288,0.0,9.29581078721355,0.1117617686804885,4.1006313905814454e-07,0.0203628498958438,0.043996178428741,-0.0021236679914348,8.429586509082583,21.289323503001217,39.2545473099009,10.49099254974255
