Time,Latitude,Longitude,Altitude,Angle of Attack,Angle of Sideslip,X-Acceleration,Y-Acceleration,Z-Acceleration,Thrust,True Velocity,Ground Velocity,Pitch,Roll,Yaw,Dynamic Pressure,cp,parachute_deploy_gain,Wind Speed,Mach,omega_x,omega_y,omega_z,Cmq
0,31.2221860000000042,131.010383999999988,3.00000000364323682,0,0,0,0,0,2.2828121974499247,0,0,69.9999999962342088,0,113.699999993883324,0,15.2880000000000003,0,0,0,0,0,0,-0
0.01,31.2221859999997946,131.010384000000556,3.00000016469923247,0,0,0,0,0,34.2421869617492334,9.11367326775851009e-12,8.66229497295429822e-12,69.9999999962370651,-4.92863947922479589e-13,113.699999993882884,5.08594204168408172e-23,15.2880000000000003,0,0,2.67827100510624443e-14,-3.65918233213857746e-19,7.58941520739853104e-19,4.81114714040442593e-19,-1.83541113936281872e-32
0.02,31.2221859999996028,131.010384000001039,3.00000030885429547,0,0,0,0,0,25.8718762377664078,1.96992978605390895e-11,1.88456988716431921e-11,69.9999999962400494,-1.04152381447771591e-12,113.699999993882386,2.37621641206600858e-22,15.2880000000000003,0,0,5.78911013494094702e-14,-7.28448334638698292e-19,1.51788304147970621e-18,9.75781955236953991e-19,-7.93451985123442364e-32
0.03,31.222185999409362,131.010384001586402,3.00018176030779937,18.6493779029494604,-0.000129237623237530007,10.7928899806483045,-1.97644583900689674e-05,3.34983967390763571,180.342193598546658,0.0785672533977095078,0.0490694047558625918,69.9999999976775626,-4.2497891361524094e-12,113.699999994705607,0.00377978965327356543,15.2880000000000003,0,0,0.000230888677896110966,2.88330015245363835e-17,-7.25223402354589416e-10,1.08188208080271277e-11,1.51197624781400831e-13
0.04,31.2221859959356287,131.010384010943454,3.00162780953569674,9.74253989061216075,-4.88763086122285772e-05,51.6475445943311158,1.54548216767323456e-06,3.34965665682309899,548.635972453807767,0.346420694310776434,0.171860503977579737,70.0000000036447574,-2.28205307288861013e-11,113.699999999565534,0.0734838809649275282,15.2880000000000003,0,0,0.00101804013696402693,1.80009747884589399e-15,-1.58734069119923437e-08,2.61929145365345784e-11,1.45916869803439425e-11
0.05,31.222185985910329,131.010384038045004,3.00715844163023283,5.5769968489095687,-4.21135943534799539e-06,75.3242160169835273,4.73080294831520123e-05,3.34902689347595528,761.698429882464552,0.947854334293939504,0.409211128642743283,70.0000000010935537,-1.04766136577077691e-10,113.700000013612069,0.55013262299765131,15.2880000000000003,0,0,0.00278549703395658196,1.95473045844392346e-14,-1.13584749331540247e-07,4.14067569904437612e-11,2.85688606727574374e-10
0.06,31.222185966868647,131.010384089593572,3.01868664272593046,4.48500474963244322,2.31139019787050305e-05,56.3605563030587007,9.71465785775115924e-05,3.34799244711343214,590.487539073720654,1.60618980149218604,0.665693519146445256,69.9999999197690244,-2.82941102348924619e-10,113.700000040305838,1.57971028663545732,15.2880000000000003,0,0,0.00472017413217633904,1.01936766184118274e-13,-4.07864410983111553e-07,5.76522069423461223e-11,1.73837509686130208e-09
0.07,31.2221859390775336,131.010384164863126,3.03600551209402658,4.00448286551149391,4.63712119495135773e-05,85.8192455386477917,0.000147926970097503541,3.34656708333141317,855.293774977913927,2.27788210706903049,0.926660947343454056,69.9999996219982279,-5.49831570978999292e-10,113.700000079276109,3.1772067926123353,15.2880000000000003,0,0,0.00669410445039518576,3.35900025920073467e-13,-9.92070622953462368e-07,7.83315922772719921e-11,5.99658406989250883e-09
0.08,31.2221859009658012,131.01038426812616,3.06033476575187802,3.77263127792190334,7.06371256062416025e-05,17.6076228145981588,0.000196957592070898702,3.34480227118667583,241.217198863884818,2.92612482887636283,1.17954495655796454,69.9999989088305909,-9.15694670892462832e-10,113.700000132739973,5.24285298735243899,15.2880000000000003,0,0,0.00859912396431777512,8.49635706706491564e-13,-2.01744800413265681e-06,1.10032289818440005e-10,1.56647792516492608e-08
0.09,31.2221858556197738,131.010384390989856,3.0892797608365723,3.74258231141200604,9.5325675231994802e-05,53.4176180048964397,0.000237730218002333866,3.34289666486112669,563.093737704317618,3.46187703891102627,1.39384941462988121,69.9999975134546446,-1.31671842773002699e-09,113.70000019638816,7.33844512707370811,15.2880000000000003,0,0,0.0101735644468633635,1.80613395740032365e-12,-3.4856561047658452e-06,1.59232278560273843e-10,3.20202005890100843e-08
0.1,31.2221858028175774,131.010384534057465,3.12301320909491364,3.81071421019783685,0.000121971080758598364,50.732831688561788,0.000271545837515448313,3.34090447591365036,538.7437595981919,3.9029133825176725,1.57567038389986336,69.999995157830341,-1.72222432289554893e-09,113.700000270567642,9.32732681847184431,15.2880000000000003,0,0,0.0114696609641860067,3.37914451533694905e-12,-5.48904943388414521e-06,2.34452541412924053e-10,5.68476506314615152e-08
0.11,31.2221857431700727,131.010384695667796,3.16106164078641116,3.84323765504598036,0.000147145408783231387,40.0848474374385688,0.000307099758177995722,3.33859717034531034,442.865639305294906,4.36819921201157246,1.76578242121538631,69.9999915253729768,-2.07703942468805025e-09,113.700000354470319,11.6837607126815346,15.2880000000000003,0,0,0.0128370221364947634,5.76365694334259916e-12,-8.08162139954488366e-06,3.4437809457680147e-10,9.36754562129998513e-08
0.12,31.2221856770245907,131.01038487487628,3.20315617196047642,3.86558564807459826,0.000171348089099210797,43.7480799143332604,0.000342946594964391399,3.33600966231316054,475.585948135404465,4.83801864946757032,1.95742650583495204,69.9999862600106582,-2.3147200577597177e-09,113.700000447673773,14.3321420062794882,15.2880000000000003,0,0,0.0142177082532951912,9.17772063248746377e-12,-1.13223702306849879e-05,4.98555567062495836e-10,1.45354343598177095e-07
0.13,31.2221856047215205,131.010385070757366,3.24903338361815308,3.95285669440916232,0.000198169826234992146,48.2585391180499741,0.000371981107240517913,3.33344523512332414,515.915632623689476,5.21512035057569623,2.1172615234944101,69.9999789703044399,-2.35265113573284059e-09,113.700000549782459,16.6533950244453948,15.2880000000000003,0,0,0.0153259223232261182,1.38588880633063252e-11,-1.52681962163171846e-05,7.07166414280215559e-10,2.11287244421402401e-07
0.14,31.2221855263490333,131.010385283071088,3.29862557546706325,3.99981420118284792,0.000223008237377726162,44.9721767850953427,0.000403855591455553264,3.33052592490198407,486.239086056840392,5.63167615200940475,2.29059513099545553,69.9999692426645623,-2.0964169591742506e-09,113.700000660771011,19.4199179783547713,15.2880000000000003,0,0,0.0165500839355928395,2.00553635588333716e-11,-1.99811439493909854e-05,9.81252131659242702e-10,2.9859131057555361e-07
0.15,31.2221854420015994,131.010385511560628,3.35186028506811029,4.05975476911301225,0.000248539990764711958,43.4637160193537753,0.000433543226731567866,3.32747422849243879,472.54218587214001,6.01888316560526437,2.45383766868271946,69.99995661705006,-1.43188768134039915e-09,113.700000780625842,22.182048585914238,15.2880000000000003,0,0,0.0176879988684610287,2.80404916713566325e-11,-2.55291719775422389e-05,1.33309260321839681e-09,4.07727088477750495e-07
0.16,31.2221853515819241,131.010385756490507,3.40881389436676407,4.08854462484130732,0.000272210944932510383,34.4023069357135967,0.000465877824565354701,3.32404684464906053,391.12189082975641,6.44303061809316624,2.62971580822363071,69.9999405987561403,-2.27841984783363582e-10,113.700000909623355,25.4183784408083007,15.2880000000000003,0,0,0.0189344747787753703,3.81042963600432359e-11,-3.19913711614788564e-05,1.77662362644707755e-09,5.46937370926295155e-07
0.17,31.2221852554099399,131.010386016990765,3.46923909377793649,4.13347468842419552,0.00029684158695823977,43.4155809381403728,0.000495744973995866601,3.3205135250562221,471.78125980632376,6.83404379119085981,2.79420112365087148,69.9999206448319882,1.67575894446247236e-09,113.700001047478835,28.5969980778046526,15.2880000000000003,0,0,0.0200835795555658371,5.05622819343119236e-11,-3.94162603380559734e-05,2.32482468580976756e-09,7.14768170397066036e-07
0.18,31.2221851530022434,131.010386294375877,3.53351204963262022,4.16207877285686756,0.000320492787063832857,36.2151660219171347,0.000526966735016640565,3.31665933612355879,407.101567211914528,7.2444022294323478,2.96528531587496236,69.9998961790314524,4.45070668055043651e-09,113.700001195059045,32.1341903991183955,15.2880000000000003,0,0,0.0212895378539265934,6.5741708189353534e-11,-4.79243856484647045e-05,2.99669991322666987e-09,9.21230820748327094e-07
0.19,31.2221850444828668,131.010386588308563,3.60153760019172342,4.17456309251139679,0.000342914278589344943,40.9041800427263027,0.00055982867240863632,3.31244583927210501,448.953132831826849,7.67810673790947895,3.14433961722118216,69.9998665624008964,8.30674092292676784e-09,113.700001352409558,36.0967170721845179,15.2880000000000003,0,0,0.0225641073333706747,8.40032927522686365e-11,-5.75836346763551867e-05,3.80911503044151526e-09,1.17316671380156179e-06
0.2,31.2221849296486234,131.01038689934137,3.67347464118590317,4.20078915399145636,0.000366573034254704516,37.5214898208491761,0.000590466919182690893,3.30812712915434881,418.515630199161365,8.08216006412957277,3.31318683933006453,69.9998311045104487,1.34800080829191884e-08,113.700001520067786,39.9955165273270055,15.2880000000000003,0,0,0.0237515420632470921,1.05728805481567758e-10,-6.85028882131185225e-05,4.78351733027568889e-09,1.4690610466811608e-06
0.21,31.2221848088436893,131.01038722653837,3.74905730552401684,4.22722562033261262,0.000390310433246848657,36.0064697775761644,0.000620601272787201603,3.30359776763142721,404.818761014464428,8.48018829437500621,3.47992805775657654,69.9997890742529592,2.02433263776548733e-08,113.700001697833756,44.0315784885794201,15.2880000000000003,0,0,0.0249212734096428447,1.31320595517854955e-10,-8.07208291683553139e-05,5.93661589182972911e-09,1.81631626331753899e-06
0.22,31.2221846819136672,131.010387570319409,3.82840670130281646,4.2176244726165093,0.000410696285369717819,43.5935627685881499,0.000655758920494764063,3.29841875767922987,472.542185872136486,8.94831461811120121,3.67066782999472752,69.9997397083127737,2.88926538075102191e-08,113.700001886238866,49.0266756129506618,15.2880000000000003,0,0,0.0262970098082033268,1.61186003536399267e-10,-9.43348117723774896e-05,7.29106197993283208e-09,2.23980539128825791e-06
0.23,31.2221845484548304,131.01038793178239,3.91183756115468473,4.25320537954326383,0.0004356497720089569,36.207459360748949,0.000683686922722525747,3.29355466128287455,406.340642146102141,9.31799902525197865,3.82760028360492655,69.9996821549030983,3.9766623706965518e-08,113.70000208621326,53.1608354775167555,15.2880000000000003,0,0,0.0273834518362109196,1.95767624418301473e-10,-0.000109505708778552874,8.87784718088286285e-09,2.70740355927931971e-06
0.24,31.2221844093456014,131.010388308538637,3.99866964940866776,4.27135264557773553,0.00045883378920767232,37.3286080087975947,0.000713911697673520317,3.2882529474867046,416.232824001711379,9.7203332459195213,3.9956861712714935,69.9996155408946805,5.32509871046438109e-08,113.700002296918697,57.8502398901668755,15.2880000000000003,0,0,0.0285658473732890855,2.35534745143307651e-10,-0.00012617657385590063,1.07071802425012536e-08,3.25424194465518317e-06
0.25,31.2221842644570167,131.010388700938847,4.08900446593793809,4.29698686981540234,0.000482848983334858658,38.3649566400252979,0.000742483922667206905,3.28284626589867479,425.364080791506922,10.1009615935159527,4.1562806652626314,69.9995389781877293,6.97479781374676735e-08,113.700002518962805,62.4689963611702623,15.2880000000000003,0,0,0.0296844577155840929,2.80933085873043406e-10,-0.000144451636124542286,1.28055329635332884e-08,3.87142965072796435e-06
0.26,31.2221841140756986,131.010389108203611,4.18262110402873155,4.32755423691547136,0.000507438991606541483,41.7865661614553829,0.000769736419800412888,3.27732087646770287,455.80158342417883,10.4644497354123782,4.31094871887776954,69.9994515368878751,8.97024502886333285e-08,113.700002752408935,67.0452443356678742,15.2880000000000003,0,0,0.0307527002093570291,3.32431765373287754e-10,-0.00016436315770221847,1.51925047864838523e-08,4.56355359993810651e-06
0.27,31.2221839578137299,131.010389531387915,4.27982215321117465,4.33742811840656994,0.000529702335486379188,38.2242911032538473,0.000800211178185602123,3.27123004841987974,423.842199659872563,10.8736118498261902,4.48123226393084195,69.9993522521519935,1.13587393208351198e-07,113.700002998306658,72.3900346549699947,15.2880000000000003,0,0,0.0319551720828357214,3.90484337603431509e-10,-0.000186059811616844751,1.79019946498730075e-08,5.36790267753501075e-06
0.28,31.2221837957695953,131.010389970223883,4.38053283172365671,4.35979025650862262,0.000553527510562852902,44.1207307275094038,0.000828072271385077072,3.26514386100193477,476.346873201222195,11.2478718916014184,4.63949182586423614,69.9992400702920463,1.41938296327408329e-07,113.700003257081931,77.4582454645660761,15.2880000000000003,0,0,0.0330550782151640757,4.55595825375374429e-10,-0.000209619220926101062,2.09616181379585756e-08,6.25569396794615011e-06
0.29,31.2221836278828384,131.010390424876022,4.48480177698289584,4.38135974025744623,0.00057737648726709299,35.3536197607625553,0.000855659611391794222,3.2588361863853601,397.970310422111766,11.6195889013503368,4.79682445966682813,69.9991139044831527,1.7532937395312496e-07,113.700003529427192,82.6616578528940948,15.2880000000000003,0,0,0.0341475147840558241,5.28268525040872464e-10,-0.000235137545717689308,2.44023887909330158e-08,7.24907222782668121e-06
0.3,31.2221834544381096,131.010390894570321,4.59240982688131272,4.39617507281761988,0.000600356665334356751,33.1490797613948018,0.000884158719714270942,3.25217107922164672,378.185945710871067,12.0052186882677852,4.95887519756831807,69.998972627127344,2.14383684192303281e-07,113.700003815596887,88.2385269149682756,15.2880000000000003,0,0,0.0352808420099011907,6.09029939588318471e-10,-0.000262641159892275291,2.82471356422800846e-08,8.36561857411674722e-06
0.31,31.2221832755909574,131.01039137888381,4.7032380575360353,4.42235615181669761,0.000624899913490765827,34.9528590290802086,0.000910025197609511073,3.24555398289468222,394.16562209302117,12.3556398803864607,5.10879227158949156,69.9988150759387651,2.59766173767152649e-07,113.700004116072961,93.4639131761651498,15.2880000000000003,0,0,0.0363107024397255479,6.98403788157463991e-10,-0.000292187019282257228,3.25229566712151178e-08,9.57826248689966157e-06
0.32,31.2221830914257232,131.010391877587324,4.81722282885169673,4.45155794779377789,0.000649944303128982049,38.0379859115142835,0.000934821026682707218,3.23882361682650144,421.559393462426954,12.6924793110791878,5.25399282922068878,69.9986400687318024,3.12179641788393281e-07,113.700004431478234,98.6283237403037703,15.2880000000000003,0,0,0.0373006526995305274,7.96905013945712519e-10,-0.000323836613651358495,3.72580440687311147e-08,1.09050644159405278e-05
0.33,31.22218290196043,131.01039239063175,4.9343519698327194,4.48019701204722054,0.000675004219851668761,37.7093551175013246,0.000959261610436717115,3.23189933669563656,418.515630199168186,13.0256844327599097,5.39788776638052958,69.9984463826819052,3.72372687880250348e-07,113.700004762578004,103.87354288045799,15.2880000000000003,0,0,0.0382799263433428877,9.05047894999210997e-10,-0.000357667290238851605,4.24836225249657193e-08,1.23603484615852587e-05
0.34,31.222182707020778,131.010392918491164,5.05476263450916541,4.49049305198152204,0.000697378143373914754,29.5227085089536203,0.000987142430045659337,3.22427911658814059,345.465636880756449,13.4081741031825317,5.55863100914667463,69.9982327456812641,4.41143957445642244e-07,113.700005110463266,110.062177258613033,15.2880000000000003,0,0,0.0394040418267209702,1.02333461745717641e-09,-0.000393806243978271305,4.82396483202145133e-08,1.40087103268591529e-05
0.35,31.2221825067937928,131.010393460657156,5.17831168393457641,4.50711781535187139,0.000720712543856854714,32.3530371383660977,0.00101333646443235357,3.21661305844837253,370.576570052703289,13.7686530554979374,5.71176159517965232,69.9979978091806316,5.19362042776584697e-07,113.700005475786654,116.058400304168075,15.2880000000000003,0,0,0.0404634764462946869,1.15232390415689195e-09,-0.000432299813734132244,5.45552399130644805e-08,1.57912776608867467e-05
0.36,31.2221823012122108,131.010394017312592,5.30505329869157727,4.52767240178778962,0.000744729708600240731,36.5526511043957356,0.00103828652712813154,3.20885713174522058,407.862523277719447,14.1132764952183631,5.85938873702120233,69.9977401961163537,6.07939829707116331e-07,113.700005859608282,121.939407863977465,15.2880000000000003,0,0,0.0414763190843316643,1.29254043868676357e-09,-0.000473255972436325862,6.14699225552327593e-08,1.77198251922661022e-05
0.37,31.222182090341061,131.010394588280832,5.43493909097431604,4.55039311415752579,0.00076918150115683735,34.6835787828593496,0.00106234372950533948,3.20097384516078431,391.121890829766642,14.446930470491731,6.00318739776240751,69.9974584775585669,7.0785096329375243e-07,113.700006262864989,127.771540530283914,15.2880000000000003,0,0,0.042456928843506235,1.4445318520011827e-09,-0.000516746496826029863,6.90186481791334769e-08,1.98053803654614999e-05
0.38,31.2221818741223878,131.010395173719473,5.56801609611825477,4.56315131642791805,0.000792019287104061913,36.2353933787001239,0.00108827974821363053,3.19255015153205646,404.818761014460279,14.8084413239345949,6.1564787166299757,69.9971511865591651,8.20121521966083772e-07,113.700006686723384,134.244380272309172,15.2880000000000003,0,0,0.0435194095147296359,1.60882660749176723e-09,-0.000562873331420229127,7.72423853301427293e-08,2.21128406351508731e-05
0.39,31.2221816525004634,131.010395773780147,5.704329739781131,4.57922628245169783,0.000815489716137310881,30.9425419640016202,0.00111309493143926189,3.18402316666385765,357.640624933827439,15.1559126959619999,6.30488433186772657,69.9968167722787769,9.45855271408966431e-07,113.700007132429306,140.616382889747683,15.2880000000000003,0,0,0.0445406353688629561,1.78596578656278109e-09,-0.000611756345505213715,8.61868943159197994e-08,2.45968452142520012e-05
0.4,31.2221814256617982,131.010396387955836,5.84373750626454935,4.59349479979191955,0.000838670682925170751,29.5834243852937959,0.00113797512888990423,3.17521289611434332,345.465636880754005,15.505969085398343,6.45410901523083158,69.9964536498379317,1.08621525395706341e-06,113.700007600947828,147.185065961143067,15.2880000000000003,0,0,0.045569462889951777,1.97653506559195414e-09,-0.000663427505461186432,9.58835144134294998e-08,2.72901174189528038e-05
0.41,31.2221811937141673,131.010397015953487,5.98615797249314241,4.60939449845229365,0.000862163931524819621,33.360545626359837,0.00116210409424792778,3.16624854525325983,378.946870776686467,15.8471768437686258,6.60022848408685459,69.9960602026584695,1.24241947051318175e-06,113.700008093413757,153.73182724817184,15.2880000000000003,0,0,0.0465722905345462151,2.18109996727848554e-09,-0.000717942131686907965,1.06367950505874699e-07,3.01820283711074823e-05
0.42,31.2221809567080335,131.010397657635991,6.13155423418529733,4.63387609959193458,0.000887317919769279608,37.5676427387571721,0.001183742077125155,3.15743374731593907,416.232824001711379,16.155026338188506,6.73482947265292431,69.9956347739890248,1.41574639558456e-06,113.700008611107208,159.760443802515937,15.2880000000000003,0,0,0.0474770882933877245,2.400206535531791e-09,-0.00077537935552726017,1.17680930846389008e-07,3.32294321368729263e-05
0.43,31.222180714655078,131.010398312971745,6.27991949833728835,4.65367427313455995,0.000911660169575580258,33.0386483003103493,0.00120612360190941372,3.14823214930187856,375.903139513433644,16.4750454055619109,6.87353555569934649,69.9951756835756242,1.60752723178871754e-06,113.700009155418982,166.15023929888028,15.2880000000000003,0,0,0.0484176551665520677,2.63438237315801404e-09,-0.000835821567166909188,1.29864614855892046e-07,3.65287677570896608e-05
0.44,31.2221804673911407,131.010398982407111,6.43138341412837455,4.65757387742934892,0.000932929976641759203,30.4788052564327749,0.00123214974254881528,3.13809943757763454,353.075012538921555,16.8483715860516412,7.03046484016701978,69.9946811832270441,1.81916859536649675e-06,113.700009728069276,173.762989227436179,15.2880000000000003,0,0,0.0495148886868988364,2.88411342836306464e-09,-0.000899417740154189794,1.42975581697416844e-07,4.01983191819108926e-05
0.45,31.2221802146980103,131.010399666535704,6.58611776122768511,4.65827001030579346,0.000953562143933252499,35.4620561517945134,0.00125873275223327787,3.12754579585638304,397.209385356286873,17.2316459864824161,7.19073264961644831,69.9941493995125938,2.05218870761162579e-06,113.700010330973456,181.755888424112015,15.2880000000000003,0,0,0.0506413642318551335,3.14987863732273609e-09,-0.000966369542842942814,1.57083782729145849e-07,4.41725079750487196e-05
0.46,31.2221799565319174,131.010400365476642,6.74415901717088939,4.66907507286434065,0.00097630283571516251,41.3913707355688842,0.0012823814722795761,3.11722412848720953,449.71405889764344,17.5754687869478978,7.33738035579407555,69.9935783582983362,2.30821229426708146e-06,113.700010965912341,189.078525726536213,15.2880000000000003,0,0,0.0516519027755614896,3.43223060675433133e-09,-0.00103681314204437207,1.7224885851047691e-07,4.83373548649469587e-05
0.47,31.2221796928065203,131.010401079464799,6.90557672428163105,4.67806301106434042,0.000998761260684927557,28.0209900204918974,0.00130616618884544979,3.10657060381263461,331.007810630253402,17.9233234115620377,7.48533101007974988,69.9929660462147325,2.5889364060732201e-06,113.700011634803886,196.634049649816575,15.2880000000000003,0,0,0.0526742959306323727,3.73170463860384924e-09,-0.0011108841623615434,1.88532207060213475e-07,5.28148505664365441e-05
0.48,31.2221794239793269,131.010401807256216,7.07001851744381948,4.68642527483421745,0.00102109091231145262,27.6007969606275125,0.00132978852885184593,3.09563681785184297,327.203122301157407,18.2709832353803314,7.63313726727991071,69.9923104035261474,2.89614261094227829e-06,113.700012338884164,204.33305198470137,15.2880000000000003,0,0,0.0536961221459722679,4.04904859899578719e-09,-0.00118849531779471017,2.05948560519311644e-07,5.75998398329450787e-05
0.49,31.2221791502289392,131.010402548365278,7.23734841566291642,4.70156796398202914,0.00104489945272251677,34.6487244505178253,0.00135120419031512233,3.08484494341801163,389.60000969812296,18.589315545984995,7.7707981814672209,69.9916093757078812,3.23165731652504743e-06,113.700013079832303,211.511801733856089,15.2880000000000003,0,0,0.0546317638991248022,4.38486615800834454e-09,-0.00126967773493266863,2.2453662401782158e-07,6.26054017926546362e-05
0.5,31.2221788715876762,131.010403302704333,7.40754387012007864,4.72212438923579736,0.00106996435823571525,35.6033845714535389,0.00137072557486675028,3.0741588573465477,397.970310422105001,18.8826594549893159,7.8998011517407587,69.9908609011483378,3.5973597360057951e-06,113.700013859590555,218.236320199079358,15.2880000000000003,0,0,0.0554939729313439212,4.73968531279909998e-09,-0.00135450679800636423,2.44344941868023912e-07,6.78409867869358833e-05
0.51,31.2221785881337617,131.010404070060673,7.5805467220577798,4.73558879650721298,0.00109346949398930206,27.1956639286467201,0.00139183542187690463,3.06284319292573448,323.39843497208409,19.200774511812984,8.03722958125224807,69.9900628955037689,3.99519228958782199e-06,113.700014680103109,225.647740475438098,15.2880000000000003,0,0,0.0564289867670437692,5.11403675587933804e-09,-0.00144303978709531136,2.65418546512062939e-07,7.34915902759761199e-05
0.52,31.222178299889606,131.010404850469456,7.75636950764500988,-17.8811814991701432,-0.00282118610899623375,32.9571111159320509,0.000754180937085139648,4.11828896269629841,372.098451184341457,17.7451749916532115,8.17874146530806279,69.9892121681357224,1.13426793294983863e-05,113.700022903341917,192.728852272406328,15.2880000000000003,0,7.51932921174142965,0.052151241620853675,5.51097800155007206e-09,-0.00151596716093530589,4.42331993870297561e-05,7.13515382373633043e-05
0.53,31.2221780065014904,131.010405644989817,7.93511127893712231,-17.5312462612214368,-0.00274726353042317522,34.5979506487282364,0.000771639690556635057,4.13588684523590011,386.55624643486243,18.0400049474259028,8.32863162109282307,69.9884172818270258,8.08965538061553866e-05,113.700097337068186,199.182882548104715,15.2880000000000003,0,7.54792297935224177,0.0530178233976493773,5.89624057351005961e-09,-0.00123188951953003109,4.41866146965058613e-05,5.89432691380927407e-05
0.54,31.2221777076788349,131.010406454224579,8.11683621954756163,-17.1936418290919839,-0.00267516891370844431,30.3928366441638929,0.000789001954804756205,4.15358813533522575,349.270324209843579,18.3335968607376962,8.47798088779144088,69.9877868220580979,0.000150372351234429009,113.70017169553239,205.715248705412961,15.2880000000000003,0,7.57645350985482313,0.0538807719886480671,6.16545128070012521e-09,-0.000941394852783110207,4.41392259885796956e-05,4.57759878414698259e-05
0.55,31.2221774036638884,131.010407277485228,8.30134222982236025,-16.8726919805287956,-0.00260574156801571602,32.205533720444997,0.000806067861277359266,4.1711265396167061,365.250000591990727,18.6204455402481166,8.62482037533776946,69.9873243720507503,0.000219770516064872468,113.700245978838566,212.199117229933393,15.2880000000000003,0,7.6048737945809961,0.0547239080440448666,6.31929365721439502e-09,-0.00064487742481371727,4.40911160494528726e-05,3.18476782031753433e-05
0.56,31.2221770944530732,131.010408114781171,8.48862849713197321,-16.5710810598593099,-0.00253936068772723806,30.0613511636841828,0.000822677753178920339,4.18829652559862353,346.226561946578727,18.8962773416370773,8.76764380365773555,69.9870334049946479,0.000289091641238661021,113.700320187607019,218.528525297889473,15.2880000000000003,0,7.63318475336435931,0.0555346716147523817,6.35847426326671596e-09,-0.000342283056900000691,4.40422969532828349e-05,1.71539595034834819e-05
0.57,31.22217678010961,131.010408965940144,8.6786425552042914,-16.2709407587892407,-0.00247335616238561007,29.7231215950058818,0.000839538096363413476,4.2059932725020257,343.182829683302316,19.1799265938572496,8.91318738338285677,69.9869173574170418,0.000358336411490087561,113.700394322458678,225.134257056022619,15.2880000000000003,0,7.66138503575764407,0.0563684152673877767,6.28390895632128296e-09,-3.37044892338749638e-05,4.3992804256812835e-05,1.71446842373477776e-06
0.58,31.2221764606089565,131.010409831028426,8.87140005963658673,-15.9615013942991446,-0.00240616656778020301,39.113029261146032,0.000857137834736719203,4.22485719488303602,426.12500585731533,19.4845323630513434,9.06612150775587189,69.9869796715425139,0.000427505583957655405,113.700468384213721,232.337674295537738,15.2880000000000003,0,7.68947242783583196,0.0572637540846709023,6.09656166425292579e-09,0.000280920754410655786,4.39426500895774799e-05,-1.45164550871018202e-05
0.59,31.2221761355726528,131.010410711074854,9.06719092176878227,-15.6828411380847452,-0.00234364388493460852,31.7155674194126007,0.000873702770617199248,4.24263481579034352,360.68438819711065,19.7626223994988237,9.20956085567569893,69.9872240396347394,0.000496599890592828346,113.700542374165181,239.01251641455076,15.2880000000000003,0,7.7174886201164794,0.0580811706264103764,5.79708856246591276e-09,0.000602332696409618252,4.38917449955273357e-05,-3.15689115394875614e-05
0.6,31.2221758051929044,131.010411605556385,9.26586264560398121,-15.3816561937670979,-0.00227803133608495524,28.1903471960911283,0.000891633616332784362,4.26241256564610183,329.48595949860578,20.0786169969908279,9.36640835693458662,69.9876541791844602,0.000565620143940978896,113.700616292880085,246.712301604361244,15.2880000000000003,0,7.74540490449125585,0.059009992191419551,5.38669709605386036e-09,0.000930200993825162198,4.38401643090895009e-05,-4.95314345606357573e-05
0.61,31.2221754694201863,131.010412514607367,9.46745020187212738,-15.0846262784547864,-0.0022132538100288787,33.0214620655607121,0.000909750376312023828,4.28269521103758599,372.09845118432969,20.4009491588808061,9.52542449868087004,69.988273882832047,0.000634567210936789355,113.700690141323562,254.692146828259098,15.2880000000000003,0,7.77322435437869874,0.0599574457003835409,4.86646661629255156e-09,0.00126465952032090096,4.37879135599069963e-05,-6.84204452887639497e-05
0.62,31.2221751283556728,131.010413437952337,9.67187169291249127,-14.8411872234534741,-0.00215635311571682432,41.043772972244696,0.000925553728948830408,4.30021734174656345,442.86563930529212,20.6622122142942608,9.66274203285662736,69.9890870138061416,0.000703442022404651354,113.700763920312369,261.252176679026491,15.2880000000000003,0,7.80094533373396892,0.0607254257737600903,4.23760417025482094e-09,0.00160564139210102362,4.37350293343853039e-05,-8.79789456807376067e-05
0.63,31.2221747818254798,131.010414376063665,9.87925888455720624,-14.5903615682640559,-0.00209855063131061297,23.2902548650602199,0.00094198333608062478,4.31880012548250836,286.112512747078938,20.9416351721542284,9.80646460325957925,69.9900972198299058,0.00077224567637618354,113.700837631228495,268.360635884842964,15.2880000000000003,0,7.82857210305942619,0.0615467828080488027,3.50149367341095379e-09,0.00195341883978997558,4.36814991731306095e-05,-0.000108480253854006966
0.64,31.2221744303641557,131.010415327487635,10.0891942694184706,-14.3242160198446413,-0.00203885671092264792,22.8621486680217387,0.000959502959250643425,4.3390594937085627,282.307824417967538,21.2519190518018988,9.96103188363669467,69.9913081575201801,0.00084097936406150669,113.70091127454576,276.366363841971463,15.2880000000000003,0,7.85602634815718925,0.0624588449363907838,2.65987045509587716e-09,0.00230701841035019922,4.36274929246569846e-05,-0.000130012524067734834
0.65,31.2221740739498372,131.010416292283281,10.3016920286000371,-14.0969542946208062,-0.00198480505037232618,40.3787492185153525,0.0009752226370848394,4.35719457115403586,436.778144778747503,21.5147621503778836,10.0987912713846999,69.9927233345924265,0.000909644411678415458,113.700984851667883,283.239040913148642,15.2880000000000003,0,7.88337874909257774,0.0632314856443154522,1.71431872580133033e-09,0.0026665742156902119,4.35730175615979933e-05,-0.000152130866629374703
0.66,31.2221737121126779,131.010417271727988,10.5171139111506804,-13.8675520536852019,-0.00193062746040757803,34.3454415445971577,0.000991290387237329365,4.37604494463590399,383.512515171600171,21.7883950872322885,10.2403376759259519,69.9943462714869185,0.000978242223106522016,113.701058364713617,290.483531778527947,15.2880000000000003,0,7.91060735737513365,0.0640358433795056997,6.6648503499783956e-10,0.00303295460124527365,4.35179778419808052e-05,-0.000175230331320902721
0.67,31.2221733450185788,131.01041826537022,10.7353284139250995,-13.6255764869919744,-0.00187495572736964778,23.6468758560649341,0.00100833630709172366,4.39647118892443167,289.156244010342505,22.0900921520681095,10.3917332387469017,69.9961807712810753,0.00104677420293704075,113.701131814897934,298.577438331495557,15.2880000000000003,0,7.93771052726537008,0.06492268742098041,-4.8192351731097551e-10,0.00340586888503446265,4.34624461640190313e-05,-0.000199496133566638505
0.68,31.2221729728179724,131.010419272800732,10.9562161815624783,-13.3945561468457388,-0.00182100839327145928,29.5216719343035692,0.00102503085925941613,4.41671025719591981,340.899992485846269,22.3837018166569024,10.5402309378619403,69.9982305858050182,0.00111524186952433393,113.70120520357581,306.560745895111324,15.2880000000000003,0,7.96471270036283041,0.0657857689197109269,-1.72916257986269564e-09,0.00378509975892700338,4.34064841214137109e-05,-0.000224651364317864587
0.69,31.2221725955795115,131.010420293832453,11.1797214470245763,-13.1856412731538288,-0.0017702464216824644,36.3496861919757279,0.00104063359287892392,4.43573037410598836,401.014072685363431,22.6490024288669503,10.6787330867194239,70.0004993229572818,0.00118365456764327366,113.701278543344742,313.864036807224693,15.2880000000000003,0,7.9915613100038474,0.066565656086187433,-3.07338205011070719e-09,0.00417053681397952167,4.33501383303401736e-05,-0.000250456054617834156
0.7,31.2221722131733372,131.010421328818325,11.4059426873958483,-12.9801698953086078,-0.00172013686612831332,30.4799017461191255,0.00105622886994447538,4.45500310308595182,349.270324209852845,22.9156025996420638,10.8176662195865916,70.0029906110065241,0.00125199867894321679,113.701351814241093,321.289497550638771,15.2880000000000003,0,8.01827208441623895,0.0673493686756443943,-4.5125663837243177e-09,0.0045624414704730238,4.32934054028879907e-05,-0.000277210484146807345
0.71,31.2221718256441534,131.010422377636473,11.6348429886718066,-12.7682849083992842,-0.00166940543583936948,25.0389652308122876,0.00107245540776345033,4.47542727746682445,301.331264063405797,23.2010699516829462,10.9631875964488135,70.0057080503493268,0.00132028374136674664,113.701425029095674,329.336939921475903,15.2880000000000003,0,8.04487463824190208,0.0681885384538560291,-6.04472999695817117e-09,0.00496073294462028285,4.32363301281360951e-05,-0.000305158434531194807
0.72,31.2221714329890574,131.010423440294545,11.8664223796169441,-12.5482400093306659,-0.00161788409123893979,30.6614094789605076,0.00108947403730167282,4.49725170863872137,350.79220534145287,23.5099751480409225,11.1168787820302146,70.0086553429360521,0.00138851167767129304,113.701498189898757,338.157559906756205,15.2880000000000003,0,8.07135867751953562,0.0690965992574041066,-7.66787003735210602e-09,0.00536546594512628608,4.31789398496873529e-05,-0.000334442508095820958
0.73,31.2221710352002546,131.010424516813401,12.100684631934266,-12.3620516975749499,-0.00157090324568648766,38.794461805760676,0.00110444462591928537,4.51651396167947183,422.320318528233997,23.7642023888881901,11.2513803584324563,70.0118362928561595,0.00145669239468626467,113.701571310021563,345.502724076671484,15.2880000000000003,0,8.09767787919511584,0.0698439661698255082,-9.37999180222767281e-09,0.00577673917579837794,4.31212573739805696e-05,-0.000363963716208442947
0.74,31.2221706322148691,131.010425607363885,12.3376766913230682,-12.1700431574286227,-0.00152338471790240096,24.2669470964356151,0.00111999978084830767,4.53688171364712378,294.482813471059444,24.0362478358549652,11.3920956233547042,70.0152546035822354,0.00152481220196045851,113.701644369155304,353.450380832124665,15.2880000000000003,0,8.12389188520263339,0.070643707786374188,-1.11789033807203615e-08,0.00619462680668615099,4.30633105494789792e-05,-0.000394751715603452406
0.75,31.2221702243610437,131.010426711053384,12.5771419181756485,-11.9757862276082552,-0.0014758372165238657,28.3357765959657932,0.00113592031369127576,4.55806570628623486,330.246885564414924,24.3201585210524627,11.5369125598067139,70.018913833686554,0.00159288904942638844,113.701717391572018,361.841123352355737,15.2880000000000003,0,8.14997293750698404,0.0714783282830723649,-1.306284435038474e-08,0.00661848306062012403,4.30052193301100219e-05,-0.000426733837544014498
0.76,31.2221698115318205,131.010427828172539,12.8191616808720035,-11.7950975878314779,-0.00143017403476205346,30.5023302888021561,0.0011510532889845253,4.57842947366585928,349.270324209861712,24.5841005381557061,11.6747138455774326,70.0228176175961465,0.0016609097790571709,113.701790357698968,369.729133807301139,15.2880000000000003,0,8.17591830665965702,0.0722542661632896016,-1.50294784344494011e-08,0.00704858187967597784,4.29469862899648793e-05,-0.000459386466823253009
0.77,31.2221693936694926,131.010428958878094,13.0637792208980894,-11.6199933379266103,-0.00138539807789239775,28.5138786371748552,0.0011659329316886164,4.59872303558796158,331.76876669607077,24.8428547220417038,11.8106718166914053,70.0269694604245814,0.00172889262954085401,113.701863292677032,377.544218431965589,15.2880000000000003,0,8.20169771013009985,0.0730149630014230999,-1.7076473236627874e-08,0.0074850593305170578,4.28886337532567759e-05,-0.000492956581723485803
0.78,31.222168970829447,131.010430103019189,13.3109500766576456,-11.439680183186935,-0.00134023431278873701,23.4063802298048458,0.00118138170381665904,4.62014480162930763,286.873437812889904,25.1193579824166733,11.952781358638676,70.0313729649963079,0.00179683235868924708,113.701936187919785,385.986030064751162,15.2880000000000003,0,8.22735297177186986,0.0738278321407009885,-1.92017102785707356e-08,0.0079277828076367695,4.28302183718826305e-05,-0.000527912436180592685
0.79,31.2221685430887845,131.010431260385985,13.5606129188684434,-11.2580064969467912,-0.00129517148953396189,33.2837024832888417,0.00119713113756444349,4.642330643074839,373.620332315953419,25.4062634566296666,12.0984642171183303,70.0360317620287276,0.00186472337958639139,113.702009034280039,394.844141234908022,15.2880000000000003,0,8.25287881900760745,0.07467128094967454,-2.14031350886982824e-08,0.0083766174285081485,4.2771797122882398e-05,-0.000564157907784680135
0.8,31.2221681102383819,131.010432431546946,13.8129289437284761,-11.095383936339779,-0.00125249174205846817,33.7202618385473158,0.00121153080517857718,4.66287295086260301,377.42502064505743,25.6575341680460944,12.231706865713889,70.0409494693480781,0.00193258488776033377,113.702081858352557,402.683108319505322,15.2880000000000003,0,8.27829513908476322,0.0754100027176944632,-2.36779644782038692e-08,0.00883208343577698667,4.27133512718202413e-05,-0.000600701556786518509
0.81,31.2221676723689718,131.01043361625517,14.0678264776545809,-10.9256151564107515,-0.00120923867277810001,21.9345417654526678,0.00122666009076949031,4.68480423727518414,273.937492693991885,25.9313397455969721,12.3727498208094442,70.0461297564536096,0.00200041123010613131,113.702154650787364,411.313401411836935,15.2880000000000003,0,8.30356459368413979,0.0762149632764580198,-2.60242397047286481e-08,0.00929393772098881937,4.26549540941301259e-05,-0.000638843912234294013
0.82,31.2221672296508928,131.010434814047301,14.3251719624552774,-10.7547633927673765,-0.00116613346358489982,28.1776208215626944,0.00124204975636219798,4.70746064478771231,328.725004432770049,26.2146624752519131,12.5170432785700996,70.0515762190941729,0.00206820586697754405,113.702227415079932,420.340035999935026,15.2880000000000003,0,8.32867518858105704,0.0770479025956306712,-2.84401975325631066e-08,0.00976183284336927526,4.2596689622663828e-05,-0.000678320514168737694
0.83,31.2221667820645159,131.010436024976514,14.584979646076583,-10.6050351490606936,-0.00112551779569121531,35.8115257460811875,0.00125577167835198974,4.72795793895326888,395.68750322465047,26.4533344817072944,12.6457843838847719,70.0572924587348496,0.00213597177308160998,113.702300154255511,428.018190910810915,15.2880000000000003,0,8.35366072642894153,0.0777496149295413275,-3.09234607848251199e-08,0.0102358802189894335,4.25385902794807763e-05,-0.000717718427374147466
0.84,31.2221663295078748,131.010437249319921,14.8473282070555062,-10.4541293022938309,-0.00108496664943313328,22.1070445956400157,0.00126970237846476424,4.74908670938707544,275.459374825645227,26.7001414021262953,12.7773147779887211,70.0632818912840492,0.00220372038403396754,113.702372883468144,436.031195199990577,15.2880000000000003,0,8.37852300659349325,0.078475243213920548,-3.34714221076067128e-08,0.0107162565742110697,4.24806841064236768e-05,-0.00075839279973311934
0.85,31.2221658722511144,131.010438486342849,15.1120067795712174,-10.2912476152405112,-0.00104343574812682687,24.102587232112203,0.00128484114154004433,4.77238960381254262,292.960932339393764,26.9834547921365981,12.9214423981177386,70.069547999822376,0.00227143888679534568,113.702445582699369,445.322364065841896,15.2880000000000003,0,8.40324176005244539,0.0793081755345661638,-3.60828524888239964e-08,0.0112023390775598183,4.2423085275598381e-05,-0.000801184916809567858
0.86,31.2221654101289481,131.010439736494618,15.3791433945994509,-10.1416874127997847,-0.00100348686909197877,30.1788969892303243,0.00129890023690773428,4.79439997010942953,346.226561946558718,27.2387043970434348,13.0557902309882188,70.0760942453300117,0.00233914838104434114,113.702518280886238,453.775611755426326,15.2880000000000003,0,8.42783436631891725,0.0800586313861156307,-3.87547315750936107e-08,0.0116945812169701614,4.23657939319290616e-05,-0.00084427995175062262
0.87,31.2221649431604185,131.010440999723272,15.6487228145248434,-9.99941326526355923,-0.000964461696649868334,28.0961609811254363,0.00131237898959490418,4.81585833692654131,327.964078366998024,27.4799758533553131,13.1852509030700116,70.0829241850116063,0.00240683411648183031,113.702590955514751,461.838046598090273,15.2880000000000003,0,8.45229849790556109,0.0807680099924338452,-4.14848850252200457e-08,0.0121929387375560843,4.23088653550145695e-05,-0.000888032480064584085
0.88,31.2221644713754856,131.010442275947213,15.9207214509139074,-9.85236145755973247,-0.000925204765799815705,24.2751743397662239,0.00132640852762759076,4.83851394230244924,294.482813471041823,27.7395037507500284,13.3209710046954992,70.0900411421602314,0.00247451828964437596,113.702663636693302,470.590379320175998,15.2880000000000003,0,8.47659728127979584,0.0815310538810380819,-4.4271307341242405e-08,0.0126972857809581827,4.22523637857961931e-05,-0.000933474264836907288
0.89,31.222163994846678,131.010443564969137,16.1950825725781407,-9.70098361316508928,-0.000885801651683935411,26.6203806715315139,0.00134098547166860613,4.86239606168848049,315.028134248086985,28.0174055750156015,13.4629728265824582,70.0974485748890288,0.00254219572802843238,113.702736315387241,480.053963806243019,15.2880000000000003,0,8.50076330711983275,0.0823481088673296419,-4.71120855266288078e-08,0.0132074907068409943,4.21963542161421902e-05,-0.000980685050132859473
0.9,31.2221635135011013,131.0104448669872,16.4718628404240519,-9.568608712412356,-0.000848341454270697842,29.4010471290625297,0.00135376163701113783,4.88381075070378401,339.378142354214447,28.2465698703651924,13.5880830838040172,70.1051500053759469,0.0026098701853350401,113.702808995451079,487.926173487906567,15.2880000000000003,0,8.524805997243595,0.0830219225206486749,-5.00045307083766904e-08,0.0137237686333330274,4.21408699182582641e-05,-0.00102732743058864327
0.91,31.2221630274015816,131.010446181830446,16.7510134535332682,-9.43160065339157683,-0.000810677153341982115,22.360435706873119,0.00136708010504714168,4.90644000202127462,277.742181023078899,28.4940835334093165,13.719468955617419,70.1131487155017794,0.0026775474961886884,113.702881683447785,496.501340113763717,15.2880000000000003,0,8.54871816143028695,0.0837496749961170878,-5.29468682343716096e-08,0.0142459267753056937,4.20859846498654555e-05,-0.00107573063702382735
0.92,31.2221625367320108,131.010447508998766,17.032391057213637,-9.29035428815232756,-0.000772900190553446804,26.6194094190232384,0.0013809313518095786,4.93029307502216874,315.028134248062145,28.7599010274677624,13.8570877637867085,70.121448012207523,0.00274522801547975913,113.702954377904462,505.794470209352426,15.2880000000000003,0,8.5724883619427743,0.0845312328834868509,-5.59381226451474884e-08,0.0147735017624118364,4.2031794927057425e-05,-0.00112594515399479862
0.93,31.2221620414062002,131.010448848726384,17.3160632111825024,-9.16575819888122467,-0.000736714606242146294,31.6631101324328839,0.00139308107711436655,4.95176979540124584,359.162507065472823,28.9796520045052652,13.978765750221827,70.1300511127666653,0.00281292866521949333,113.703027101284363,513.53943956389503,15.2880000000000003,0,8.59612911327579532,0.0851773985917855248,-5.8975301241350885e-08,0.0153067735516510869,4.1978332242704794e-05,-0.0011754695733643863
0.94,31.2221615413207765,131.010450201294503,17.6021113392439332,-9.0299557130391328,-0.000699844699250048844,22.964008334335837,0.00140650431100966251,4.97569359839794956,283.068750483778672,29.2393333113571607,14.1141255251212048,70.1389612458238503,0.00288063714929409458,113.703099834382527,522.769776992381821,15.2880000000000003,0,8.61964019832621453,0.0859409349010107765,-6.20558562317733776e-08,0.0158458794205692081,4.192564463219472e-05,-0.00122774012721292764
0.95,31.2221610367403635,131.010451565983374,17.8903290881872117,-8.89797221637151736,-0.000663522971843119266,29.7496841133122949,0.00141958290526590257,4.99944198411809637,342.421873617487279,29.4922999250701174,14.2470857307751118,70.1481816088758592,0.00294837668369950321,113.703172608012252,531.839759906430459,15.2880000000000003,0,8.64301207126939275,0.0866847422145472085,-6.51793639506060424e-08,0.0163902397338930896,4.18738382466062322e-05,-0.00128086855425701908
0.96,31.2221605273926315,131.010452943533494,18.1809301143860935,-8.77487576898077393,-0.000628070370303726046,29.1400538690180966,0.00143171028009737595,5.02201430617976285,337.095335156783449,29.7208907157427973,14.3715971462409655,70.1577154863962136,0.00301613538979201559,113.703245403696585,540.101071001815512,15.2880000000000003,0,8.66626345331544634,0.087356910258661602,-6.83416202995638315e-08,0.0169405203120381008,4.18229222638549195e-05,-0.00133409593474063319
0.97,31.2221600132941113,131.010454333899986,18.473902401093234,-8.6501316303406508,-0.000592702557386074434,18.6044058401358541,0.00144406505559948098,5.0453614024854252,245.021887192993233,29.9594904385154912,14.4994762535604238,70.1675660664322152,0.00308393430689117998,113.703318249373041,548.792315689480802,15.2880000000000003,0,8.68939209709382432,0.088058503844672717,-7.15407630977220115e-08,0.0174966517207542291,4.17729675617784386e-05,-0.00138891492328984453
0.98,31.2221594947079524,131.010455736367135,18.7690408788295677,-8.51548756882552382,-0.000556923682091616662,27.1357778909800622,0.00145764911298424294,5.07119619103224561,319.593746642958081,30.2377094766756152,14.6408512817356709,70.1777366163663601,0.00315176186646870006,113.703391126131805,559.016525062331425,15.2880000000000003,0,8.71238214702221647,0.0888765557949669216,-7.47771918238772501e-08,0.018057928675376738,4.17240896337877737e-05,-0.00144674099388656676
0.99,31.2221589714960466,131.010457151310504,19.0664545893537039,-8.40235826923209572,-0.000522768368672783877,29.660451641312271,0.0014686961741708427,5.09313280364643894,341.660948551705417,30.4450822638401277,14.7578475950850248,70.1882303520677908,0.00321963180206782506,113.703464051600008,566.694195617338778,15.2880000000000003,0,8.73525145025307914,0.0894863790927854369,-7.80471951489305506e-08,0.0186248013599306372,4.16763221121276123e-05,-0.00150234736648540953
1,31.2221584436560704,131.010458578736461,19.3661468327165167,-8.27965023516640741,-0.000488221496154531088,26.5226284017588156,0.00148092782789401175,5.11750588230308256,314.26720818227642,30.6910391883183244,14.8879819757521314,70.1990501816212884,0.0032875603393999254,113.703537046683053,575.870918863747306,15.2880000000000003,0,8.75799304442780446,0.0902096184606006601,-8.1349249207890472e-08,0.0191971328445232313,4.16297434803862215e-05,-0.00156097886137764627
1.01,31.222157911351637,131.010460018200092,19.6679905577594631,-8.16051792593834335,-0.000454120879028834662,27.7408804038186929,0.00149274444210299858,5.14157938979354245,324.920316103697928,30.9286272231956048,15.0151511412785688,70.2101993177819708,0.00335553284951197036,113.703610088079458,584.804435300217847,15.2880000000000003,0,8.78060372862595528,0.0909082663183196638,-8.46827167305385937e-08,0.0197745508657282652,4.15844457244153779e-05,-0.00162033099592855524
1.02,31.2221573745117595,131.010461469894381,19.9720429617784667,-8.04584093598392514,-0.000420482274291789874,23.1183586376273311,0.00150400804202588346,5.16510655810066766,284.590631615404163,31.1537700451450128,15.1379697217688491,70.2216806547881305,0.00342356928539234648,113.703683201966314,593.332184429070935,15.2880000000000003,0,8.80308921665313626,0.0915703409790833006,-8.80449432238283739e-08,0.0203572077865528736,4.15404898518706333e-05,-0.00168016759457527117
1.03,31.2221568331978681,131.010462933652377,20.2782575466370858,-7.9254338876179613,-0.000386779151072373705,18.8421013643931552,0.00151602786410372616,5.19039890092263256,247.30469339049705,31.4055735353642973,15.2697950513818217,70.2334970770319842,0.0034916723383922061,113.703756389703543,602.944547018764297,15.2880000000000003,0,8.82544543545435012,0.0923107864625997421,-9.14348035268720935e-08,0.0209448876777325599,4.14979604201690523e-05,-0.00174259224294892384
1.04,31.2221562874648164,131.010464409324953,20.5865928147890251,-7.81353832178407615,-0.000353723670373460642,30.0900641841905703,0.0015269381228820867,5.21416487925943706,345.465636880722968,31.6284694795225612,15.3916407142911194,70.2456515703926954,0.00355984841462347532,113.703829657876142,611.515409989569662,15.2880000000000003,0,8.84767570532063807,0.0929662706914909653,-9.48507153629711726e-08,0.0215374876508204645,4.14569353593075156e-05,-0.00180456017374844117
1.05,31.2221557370542513,131.010465897614722,20.8972539232892913,-7.69741663567062062,-0.00032069429819511834,18.047799068147409,0.00153841491592507525,5.2394017303822995,240.456258798199826,31.8727656654870373,15.5206902672679607,70.2581469887619932,0.00362810409711067068,113.703903013697811,620.979971551450262,15.2880000000000003,0,8.86979256329550836,0.0936846643717105937,-9.82881656238276187e-08,0.0221356166288212593,4.14174625310964042e-05,-0.00186894519336865258
1.06,31.2221551821798968,131.010467397940488,21.2100747000249434,-7.57809862145692215,-0.000287796309197767156,25.8102435415480294,0.00155034929502256857,5.26595787997434073,308.179683655939243,32.135517325980949,15.6559071083331958,70.2709863575288836,0.00369644617290063645,113.703976463924235,631.24163524959215,15.2880000000000003,0,8.89178651309210366,0.0944573123628347361,-1.01747911074619434e-07,0.022738685589147694,4.13796488278002551e-05,-0.00193563200839441218
1.07,31.2221546227364719,131.010468910588713,21.5251399360556732,-7.47131036408631921,-0.000255604810620516337,30.4338559080472528,0.00156053560071977475,5.28979997898414211,348.509368144030759,32.350139884110142,15.7746224662321382,70.284172754078142,0.00376488162933215397,113.704050015971603,639.682144164759166,15.2880000000000003,0,8.91367049231099351,0.0950884997720648634,-1.05226493060692168e-07,0.0233470387230959586,4.13435604663188363e-05,-0.00200063087505683405
1.08,31.2221540586332509,131.010470435806184,21.8425235752037068,-7.36358138887073821,-0.000223576515698363558,20.3901149757984079,0.00157082228719053517,5.31430259113592562,261.001578574662346,32.572542394067618,15.8958868431849414,70.2977090653951109,0.00383341764471069367,113.704123677434822,648.488052151018451,15.2880000000000003,0,8.93544597739803237,0.0957425622860102743,-1.08721477841841689e-07,0.0239608105701163837,4.13092792743516917e-05,-0.00206727819887171302
1.09,31.2221534901179218,131.01047197291939,22.1620327820292822,-7.24585152067863003,-0.000191505359140716424,18.7256139099001828,0.00158254806488506328,5.34198890220558553,246.543753324744074,32.8439426550287124,16.0336751046178208,70.3115981624355157,0.00390206160707110526,113.704197455647062,659.319476714528264,15.2880000000000003,0,8.95709994350861471,0.0965406545486936496,-1.1223471488173154e-07,0.0245792590919465641,4.12769175372483847e-05,-0.00213824027557469069
1.1,31.2221529172585619,131.010473521743194,22.483616109791015,-7.13550004577010899,-0.000159910352166968417,37.8536484948466097,0.00159319276517130284,5.36816980600885163,413.189061738584087,33.0876085151710058,16.1618991496384545,70.3258428952026406,0.00397082111368545279,113.704271358413621,669.117945202251803,15.2880000000000003,0,8.97863675525299421,0.0972572327535966424,-1.15764866336466946e-07,0.0252022571795855327,4.12465634945918531e-05,-0.0022086344190496046
1.11,31.2221523396948832,131.01047508325766,22.8075607412200618,-7.03799137461850499,-0.000128794796344270637,27.6281926358672614,0.00160186180634964482,5.3910960720824006,324.159391037639693,33.2757281596110488,16.271173353756101,70.3404461376944283,0.00403970397975391034,113.704345394373732,676.727059366980143,15.2880000000000003,0,9.00007738575496319,0.0978105464399786628,-1.19305169336405355e-07,0.0258307797417004527,4.12182829421440633e-05,-0.00227651538053710682
1.12,31.2221517574840632,131.01047665730735,23.1338247697372417,-6.92054487224487769,-9.75517339877365175e-05,10.2297422670040774,0.00161353575583753181,5.42034466515693225,172.73281794065943,33.5622876701401083,16.4136933283016795,70.3554105815719453,0.00410871822544183439,113.704419571788321,688.411168863468447,15.2880000000000003,0,9.02141237310912381,0.0986532215739357454,-1.22855820602709213e-07,0.0264645060810594322,4.11921834715348208e-05,-0.00235237872618855289
1.13,31.2221511711546214,131.010478242454951,23.4619924986614592,-6.81594957129073276,-6.67883684396637997e-05,32.6050625405126979,0.00162320317393392665,5.44624895015471377,367.532807790070478,33.7924795473144925,16.5369559246212994,70.3707392891755177,0.00417787216666293086,113.704493898556493,697.864692394010603,15.2880000000000003,0,9.04262736371937592,0.0993302170250599387,-1.26422132618640248e-07,0.0271020608969124478,4.11683817587380483e-05,-0.00242549610437367124
1.14,31.222150580115791,131.010479840307397,23.7925348569370669,-6.72044178479942467,-3.63006809601532231e-05,17.909842110618829,0.00163135851713577308,5.4697216876047916,239.695317731955441,33.9812257791327852,16.6460881425494271,70.3864347640503212,0.00424717425637380873,113.704568384308033,705.659836646794702,15.2880000000000003,0,9.06375102999016846,0.0998853936481849114,-1.29993624010660947e-07,0.0277450297022873993,4.11469533758345926e-05,-0.00249682814445610938
1.15,31.2221499848030355,131.010481449680441,24.1251104304421133,-6.60549999590812131,-5.97147702293656284e-06,17.6407331188925731,0.00164259067456323034,5.49984074352338581,237.412511535467729,34.2726032750135943,16.7897531458521527,70.4024994461403111,0.0043166331832603785,113.70464303746266,717.790377575262937,15.2880000000000003,0,9.08475735249769656,0.100742255144408807,-1.33576622554212795e-07,0.0283920001883814881,4.11280162657170616e-05,-0.00257687662175551261
1.16,31.2221493853391898,131.010483070240127,24.4596244576163002,-6.51406071904516004,2.40780114325503466e-05,46.6850157245357948,0.00164991973074717795,5.52270594598141962,490.043774384589426,34.4472796817417475,16.8938531286934221,70.4189360764865171,0.00438626618435605797,113.704717878878967,725.102415845083442,15.2880000000000003,0,9.10565547036621759,0.101256088171729694,-1.3716985360858719e-07,0.0290427838190379928,4.11116658236827687e-05,-0.00264929159138158239
1.17,31.222148780951521,131.010484704088441,24.7966944778064189,-6.41303445208738054,5.39229134973600883e-05,8.00023729964012809,0.00165873131314936721,5.5491292129717289,153.709379294867944,34.6752027754684988,17.0158109022757849,70.4357469981261346,0.00445606631062289617,113.704792896355471,734.705764300503802,15.2880000000000003,0,9.12644340634203921,0.101926444634220681,-1.40760313730941915e-07,0.0296994055196294453,4.10980132481180823e-05,-0.00272702608448542909
1.18,31.2221481726629122,131.010486348443322,25.1355115036235617,-6.29936253399046109,8.33324018828537314e-05,22.5231602516855816,0.0016696472809933124,5.58047005417328101,280.025018221967457,34.9771848933502483,17.162519313604534,70.4529346706830921,0.00452605088894288479,113.704868109429214,747.534084338031903,15.2880000000000003,0,9.14709991951676749,0.102814502748417039,-1.44364300667520763e-07,0.0303587872559910703,4.10871567682255387e-05,-0.00281175621275599977
1.19,31.2221475600146903,131.01048800455257,25.4764433042553371,-6.21695419763908586,0.000112925633326291185,39.5932290209262234,0.00167508481390142463,5.60107713578977773,428.407813052929214,35.1105453224967547,17.2523180342355396,70.4705016679743323,0.00459622966371148536,113.704943528884101,753.220654822385541,15.2880000000000003,0,9.16766571360252058,0.103206909263422256,-1.47970008613448098e-07,0.0310224831433686746,4.10792103131358888e-05,-0.00288408662942886418
1.2,31.2221469426159715,131.010489673479668,25.8198060537725027,-6.1114968540601966,0.000141921375998966214,3.76715787190245033,0.0016844305050221671,5.63045444291813446,117.184374136023607,35.3766986385206508,17.3866510775167242,70.4884499411880228,0.0046666124875608091,113.705019165520341,764.658201247783381,15.2880000000000003,0,9.18814339300394778,0.103989665807732459,-1.51571687676855404e-07,0.0316912863245327955,4.1074310893591558e-05,-0.00296849973201192144
1.21,31.2221463214877986,131.01049135244736,26.1647896931411204,-6.00845241630519045,0.000170634138775425443,31.7049538615407727,0.00169329185238795317,5.65944896495839878,359.923432132008998,35.6348753375076939,17.518080950179769,70.5067820018959708,0.00473720966357424247,113.705095028602642,775.834061416094187,15.2880000000000003,0,9.20849800789810402,0.104748983010925403,-1.55185656191755839e-07,0.0323622050516387746,4.10725153035437616e-05,-0.00305336555461848498
1.22,31.2221456958569874,131.010493043559165,26.5120148974158063,-5.92633100364997922,0.000199745330003216816,22.8497801821499955,0.00169823339286231663,5.68066740808179826,283.068750482576149,35.7726280141562185,17.6089664814164486,70.5254999204932034,0.00480803164157989592,113.705171130093177,781.817814773549003,15.2880000000000003,0,9.22877187409832977,0.105154320094309278,-1.58794444660844764e-07,0.033037624258029738,4.1073992152074674e-05,-0.00312903645715320545
1.23,31.2221450660368838,131.010494745962944,26.8612367121139535,-5.82351899185043553,0.00022794633188212904,8.64300094395274421,0.00170683919011656738,5.71042203026455564,159.796873822227951,36.0381299262667412,17.7425089038802639,70.54460534622811,0.0048790890321663942,113.70524748057899,793.439456617800488,15.2880000000000003,0,9.24894108535502113,0.10593518552077226,-1.62404974156354621e-07,0.0337162829653527216,4.10788356046341198e-05,-0.00321690573406859318
1.24,31.2221444324585455,131.010496458486301,27.2121143572734958,-5.72914151219084911,0.000256168228607325755,38.4436040719576511,0.00171376866320397184,5.73715254987471912,418.515630199805003,36.2565562944016762,17.8600696289030623,70.5641003132972742,0.00495039287090789145,113.705324090920797,803.059576400993706,15.2880000000000003,0,9.26897924893046365,0.106577678548386054,-1.66022892804569712e-07,0.0343969175443551711,4.10871144395960524e-05,-0.00330162570375534467
1.25,31.2221437944089928,131.010498183069046,27.5652231695645291,-5.64652932456195522,0.000284741336612930323,18.3578886821402811,0.00171829213470114559,5.75916980192434025,244.260946125734876,36.4029504605250338,17.9534014241422391,70.5839864741530789,0.0050219543539977117,113.70540097376842,809.530283491600471,15.2880000000000003,0,9.28890962456892666,0.107008436821978678,-1.69631495589477797e-07,0.0350816887030895169,4.10990396993170766e-05,-0.00338083599558313677
1.26,31.2221431523677388,131.010499918407021,27.9201845477241157,-5.54320742142837375,0.000312018620574615519,10.6301369438046773,0.00172665892495251459,5.79046732531482444,177.298446336408631,36.686426410947206,18.0923307617596549,70.60426524487373,0.00509378490251504324,113.705478140312039,822.159237728456105,15.2880000000000003,0,9.30873196735015895,0.107842161691617436,-1.73241564387409885e-07,0.0357688195067737136,4.11146683731195315e-05,-0.00347377940797844115
1.27,31.2221425064938565,131.01050166406776,28.2768748649166497,-5.45822904363425643,0.000340040607474869023,36.9426675387400891,0.00173130626233638694,5.81400465894024254,405.579686079964688,36.8535057424900714,18.1922112010441808,70.6249385844474347,0.00516589647192781075,113.705555602751289,829.636507583963407,15.2880000000000003,0,9.32845626388544957,0.108333738474566468,-1.76852238474032371e-07,0.036457996955544858,4.11341038405564771e-05,-0.00355671404498931251
