Time,Latitude,Longitude,Altitude,Angle of Attack,Angle of Sideslip,X-Acceleration,Y-Acceleration,Z-Acceleration,Thrust,True Velocity,Ground Velocity,Pitch,Roll,Yaw,Dynamic Pressure,cp,parachute_deploy_gain,Wind Speed,Mach,omega_x,omega_y,omega_z,Cmq,Angle of Attack(total),Angle of Attack(gust),True Velocity(gust),Acceleration
0.0,31.222186000000004,131.010384,3.000000003643237,0.0,0.0,0.0,0.0,0.0,2.2828121974499247,0.0,0.0,69.99999999623421,0.0,113.69999999388332,0.0,15.288,0.0,0.0,0.0,0.0,0.0,0.0,-0.0,0.0,90.0,0.0,0.0
0.01,31.22218600000153,131.01038399999584,2.99999882256592,0.0,0.0,0.0,0.0,0.0,34.24218696174923,7.502283530665459e-11,7.190531319924593e-11,69.99999999623329,-4.83564628150269e-13,113.69999999388072,3.446445726795683e-21,15.288,0.0,0.0,2.204725565824978e-13,-3.659182332138578e-19,7.589415207398531e-19,4.811147140404426e-19,-1.5108918610345807e-31,0.0,89.9999999995224,7.502283530665459e-11,0.0
0.02,31.22218600000288,131.01038399999217,2.999997775701936,0.0,0.0,0.0,0.0,0.0,25.871876237766408,1.5320717031631675e-10,1.4674636035870463e-10,69.99999999623222,-9.67129256300373e-13,113.69999999387804,1.4372842949972735e-20,15.288,0.0,0.0,4.5023593667086093e-13,-7.284483346386986e-19,1.5178830414797062e-18,9.757819552369542e-19,-6.170906918166791e-31,0.0,89.99999999902465,1.5320717031631675e-10,0.0
0.03,31.22218599928065,131.01038400193067,3.000201659671132,18.81500467334555,-0.00012974450181,11.96616230539064,-1.8916256735984712e-05,3.349833086198469,180.34219359854663,0.0882870268161719,0.0553390044312322,69.99999999799445,-4.212591857125379e-12,113.69999999488518,0.0047728553458352,15.288,0.0,0.0,0.0002594525584132,3.2187251995663407e-17,-7.20264389268894e-10,1.2365134327422308e-11,1.6874092354518158e-13,18.815004673776716,89.46786891739345,0.0882666465974854,12.426199017587786
0.04,31.22218599548236,131.0103840121632,3.001799604587872,9.46752327608497,-4.6177622759613696e-05,55.21900012092241,3.931876292165237e-06,3.349616504302861,548.6359724538078,0.3767519978512604,0.1853356633749705,70.00000000507204,-2.4624598767003407e-11,113.70000000019972,0.086915163246288,15.288,0.0,0.0,0.0011071759353184,1.6174128009138757e-15,-1.3693172015529268e-08,2.7753303060112748e-11,1.3689612277852356e-11,9.467523276196548,87.63554493451223,0.3767447442872393,55.32050167054111
0.05,31.222185984749512,131.01038404118162,3.00777936418888,5.376730308971262,-2.257790939128127e-06,80.28807156553681,5.266841443842784e-05,3.348887800834877,761.6984298824644,1.018787885905993,0.4366201147110198,70.00000000894464,-1.1355399380652658e-10,113.70000001523856,0.635552918586145,15.288,0.0,0.0,0.0029939522895272,1.6418815498809788e-14,-9.32122351075408e-08,4.303264669380585e-11,2.5199270302492604e-10,5.3767303089717045,83.57022052969386,1.0187875312530217,80.35788377762394
0.06,31.22218596447235,131.01038409608267,3.0201664202003013,4.296730121134882,2.4863835723705905e-05,60.21296515808257,0.0001057204249726,3.347700952379021,590.4875390737208,1.721098934225416,0.7081674028809783,69.99999995523842,-3.0560354507026086e-10,113.70000004366592,1.8138247671743823,15.288,0.0,0.0,0.0050578622752421,8.328976953118383e-14,-3.2824985336199985e-07,5.923438275930214e-11,1.4991363363716091e-09,4.296730121206683,79.20467073327266,1.7211028398275985,60.305955550063224
0.07,31.22218593493329,131.01038417609837,3.038741944736831,3.8204913578752526,4.8016684030909405e-05,91.4060317508128,0.0001597686613101,3.346072557365335,855.2937749779139,2.4375792548422868,0.9844712334613328,69.99999973536046,-5.939103491363046e-10,113.7000000850886,3.6383156301599167,15.288,0.0,0.0,0.007163413150771,2.709313825263564e-13,-7.906546256197275e-07,7.920022733617308e-11,5.114174483651565e-09,3.820491358176508,74.87999294483174,2.437586797285377,91.46725557277466
0.08,31.222185894468456,131.01038428575305,3.0647976109320942,3.588632851766762,7.220043782492885e-05,19.18449428359557,0.0002119618497595,3.3440615022685813,241.2171988638848,3.1292508166901074,1.2522236515868983,69.99999919480445,-9.914748373602156e-10,113.7000001418522,5.996012698481753,15.288,0.0,0.0,0.0091960591623389,6.80386533246681e-13,-1.5973238302190878e-06,1.0839624626357699e-10,1.3263625118823921e-08,3.58863285249208,70.86684630658345,3.1292621579083604,19.473766155861934
0.09,31.22218584634549,131.01038441616095,3.0957981580345013,3.551302481506045,9.685468678862004e-05,57.102946699906326,0.0002554087225869,3.341892818148368,563.0937377043176,3.701810007254615,1.479132491047967,69.99999812344194,-1.4359264356978275e-09,113.7000002093888,8.390904013834115,15.288,0.0,0.0,0.010878666406854,1.440096519545733e-12,-2.748643691533636e-06,1.5214952332699618e-10,2.6999776649034504e-08,3.5513024828250237,67.68737872952666,3.701825221153239,57.20065357568538
0.1,31.222185790329306,131.01038456796124,3.1319266121977414,3.608446747536112,0.0001234669721807,54.26147302645416,0.0002914860332524,3.3396271157106168,538.7437595981919,4.174070299823608,1.6716491241860567,69.9999963052332,-1.902380107712657e-09,113.70000028805804,10.668380938744466,15.288,0.0,0.0,0.0122665227999911,2.687800116751415e-12,-4.315796035622946e-06,2.1749089204950437e-10,4.7802076800548326e-08,3.608446749645647,65.17160335282355,4.174089693970246,54.36414778470795
0.11,31.222185727066616,131.0103847393952,3.172681775073216,3.633547373470009,0.0001485939126744,42.987553988990406,0.0003293995000288,3.337005588796181,442.8656393052949,4.672024955140527,1.8729475711242067,69.99999349387662,-2.3433348587116544e-09,113.70000037699285,13.365573690709628,15.288,0.0,0.0,0.0137298902182575,4.5789425819531184e-12,-6.340230783164189e-06,3.1157625832417107e-10,7.860218435507205e-08,3.6335473765043056,62.62546922225161,4.672048296217748,43.116880735560244
0.12,31.22218565692512,131.0103849294629,3.2177790417108385,3.650108937861461,0.0001727442530266,46.86777100765684,0.000367618259785,3.334068179146888,475.58594813540446,5.17479364099247,2.0758708919414386,69.99998941286465,-2.702771525550512e-09,113.70000047573096,16.396890189902592,15.288,0.0,0.0,0.0152074069417046,7.288473386564583e-12,-8.86736416607888e-06,4.42271554299792e-10,1.217615295152289e-07,3.6501089419435786,60.16906436414164,5.174820775596283,46.986210423745625
0.13,31.222185580265183,131.0103851371844,3.2669395832841857,3.7280113734654137,0.0001995014041665,51.64515456841877,0.0003986198234033,3.3311573548369657,515.9156326236895,5.579364582999854,2.2451120211463422,69.99998375846928,-2.9114380666036422e-09,113.70000058383452,19.060875702782603,15.288,0.0,0.0,0.0163963474924215,1.100846422415094e-11,-1.1941028436408576e-05,6.179653149059831e-10,1.7678562106638216e-07,3.728011378795934,58.279338776943774,5.579395920607139,51.75247433579817
0.14,31.22218549718016,131.01038536230575,3.320091807147376,3.768719651034081,0.0002242721760019,48.1660778383537,0.0004326225136175,3.32784677779744,486.2390860568404,6.025734265159953,2.428648685938864,69.99997621008868,-2.890941335368725e-09,113.70000070125378,22.232643351545065,15.288,0.0,0.0,0.0177081261985351,1.5941871344608664e-11,-1.560901486259027e-05,8.477542742712431e-10,2.495765160917323e-07,3.7687196576976176,56.27980129251342,6.025769493750979,48.280903250602165
0.15,31.22218540777004,131.01038560455507,3.377159065217065,3.821894709649632,0.000249725644238,46.56959330999435,0.0004643042952466,3.324387732286376,472.54218587214,6.441023336496372,2.6014999612196745,69.99996641132823,-2.546763407193136e-09,113.70000082794672,25.402620271850456,15.288,0.0,0.0,0.0189285691155931,2.2314099732464315e-11,-1.992367942778425e-05,1.1417519574710292e-09,3.4051816697623295e-07,3.821894717796148,54.501255563441134,6.441062563308839,46.68809885900716
0.16,31.22218531193176,131.01038586421257,3.4382223512025254,3.8463320955387794,0.0002733212404609,36.974247749122085,0.0004987816203583,3.3205066466509234,391.1218908297564,6.895451966878468,2.7877331692857847,69.99995397923414,-1.77088415515292e-09,113.70000096417354,29.113317717489338,15.288,0.0,0.0,0.0202640360420561,3.0367358387834494e-11,-2.4945905791363795e-05,1.5114297685186711e-09,4.5643121540033697e-07,3.846332105235269,52.641145594326446,6.895494900078523,37.12304892183151
0.17,31.222185210004127,131.010386140357,3.503019838429153,3.8860314262554336,0.000297865039677,46.520531453299206,0.0005306403365217,3.31650761597812,471.78125980632376,7.314788342774694,2.9619016331667103,69.99993849340957,-4.3039914767238207e-10,113.70000110959404,32.761746921137856,15.288,0.0,0.0,0.0214963781445172,4.0366633128431416e-11,-3.0713078585132897e-05,1.96747427715988e-09,5.961228045584824e-07,3.886031437653654,51.00464968745696,7.314835131305714,46.63860064094784
0.18,31.22218510147516,131.01038643438045,3.571950002194137,3.9107265153396016,0.0003214293682635,38.895647526122765,0.0005639254295027,3.312149448254175,407.10156721191447,7.754626295791602,3.1430587898572058,69.9999195084231,1.6149322372810674e-09,113.70000126508234,36.81988229018681,15.288,0.0,0.0,0.0227889722876034,5.2593391349219385e-11,-3.731786027786564e-05,2.525509173087448e-09,7.6786585232224e-07,3.9107265285284982,49.36615848311875,7.754676785798701,39.036415444581515
0.19,31.222184986476247,131.0103867459258,3.644912152926752,3.920599115663931,0.0003437679584038,43.86258669386953,0.0005989384366483,3.307389681300437,448.9531328318269,8.219206165926856,3.332657190859447,69.99989653019398,4.538529095696477e-09,113.70000143063515,41.36350714675367,15.288,0.0,0.0,0.02415428010977,6.735860419174937e-11,-4.481243905342629e-05,3.199401151670645e-09,9.773118416308382e-07,3.92059913071168,47.71893898797248,8.21926016487149,43.987104227715655
0.2,31.222184864792144,131.01038707557822,3.722074668489528,3.943376465171875,0.000367328732016,40.28070981710589,0.0006315894240138,3.30251450988504,418.51563019916136,8.65238089736321,3.511445117640573,69.99986902534273,8.534090245934178e-09,113.7000016067622,45.83799876721736,15.288,0.0,0.0,0.025427299120469,8.499785987217288e-11,-5.328041996372527e-05,4.006766070954748e-09,1.2232205148646746e-06,3.9433764822533854,46.2587826635041,8.652438597225508,40.41586552155969
0.21,31.22218473678744,131.01038742234647,3.803156063113743,3.9664546506877016,0.000390962054969,38.67679184347145,0.0006636984664108,3.297405915846789,404.8187610144644,9.079179692250786,3.688002035198235,69.99983642883521,1.3827831253856693e-08,113.70000179318536,50.47126980736161,15.288,0.0,0.0,0.0266815841422463,1.0586558589671407e-10,-6.275155280099118e-05,4.961340042512481e-09,1.5117124669161171e-06,3.9664546699249135,44.88773728276958,9.079241104426773,38.817098210937615
0.22,31.2221846022986,131.01038778667507,3.8882846911135607,3.956175711337521,0.0004112685792646,46.713636108302936,0.0007011135033803,3.291572407481395,472.5421858721365,9.580256326712124,3.889976788904857,69.99979815126248,2.0662823443484168e-08,113.70000199039316,56.195522894218605,15.288,0.0,0.0,0.0281541581291438,1.3033127211465288e-10,-7.330053770532661e-05,6.0817207473359025e-09,1.8632831045819008e-06,3.956175732680424,43.35679625546934,9.580320928629488,46.8294591882524
0.23,31.222184460898035,131.01038816972698,3.977794004014759,3.9879066397329104,0.0004360962274406,38.89105719050748,0.0007308686121188,3.286096544282012,406.3406421461021,9.977039034039262,4.056142701351626,69.99975353557706,2.9316661139418326e-08,113.70000219928508,60.9462612310605,15.288,0.0,0.0,0.0293202403623685,1.5880617816859538e-10,-8.505067486192354e-05,7.393319440773217e-09,2.2514912291167663e-06,3.987906663538912,42.20670487756048,9.97710753587448,39.0296395118868
0.24,31.222184313516166,131.01038856897196,4.070963590490852,4.003523997322975,0.000459165577055,40.0792299321398,0.0007630441688766,3.280134925833028,416.2328240017114,10.408422364424831,4.234121060914368,69.99970190737699,4.010976417051318e-08,113.70000241888,66.32994780718496,15.288,0.0,0.0,0.030588009649109,1.91711512587616e-10,-9.795845222523724e-05,8.904557280909524e-09,2.7052895870113487e-06,4.003524023611085,41.011349410369874,10.408494489985014,40.21323112692186
0.25,31.22218416001652,131.01038898478134,4.167901030441617,4.0261356185860135,0.0004830526730531,41.17760020658354,0.0007934613160587,3.2740610008587527,425.36408079150686,10.816813039390448,4.4041629376391525,69.99964258149416,5.3372865854010094e-08,113.70000264972064,71.63651430352668,15.288,0.0,0.0,0.0317882126436337,2.2947426169209347e-10,-0.0001121037688082,1.0637152702866709e-08,3.217380562698304e-06,4.026135647516394,39.93186687113378,10.816888917126896,41.30755663120434
0.26,31.222184000702686,131.0103894163294,4.26837241014618,4.053359329950934,0.000507503069958,44.80261175215926,0.0008224724146494,3.2678597736729302,455.8015834241788,11.207047269494833,4.567925492611352,69.99957484039399,6.947299261165984e-08,113.70000289176392,76.89781807056055,15.288,0.0,0.0,0.0329350617559806,2.7254099134167665e-10,-0.0001275114371842,1.260720913253598e-08,3.7915697709142366e-06,4.053359361668992,38.945390435244384,11.207126987890645,44.921630958721536
0.27,31.22218383516388,131.01038986473338,4.372698316214008,4.0614460923241,0.0005296455772492,41.029837477288126,0.0008548809954683,3.2610328932384265,423.84219965987256,11.645685385842508,4.748226940060522,69.99949794024376,8.879821051920497e-08,113.70000314600205,83.0342688744587,15.288,0.0,0.0,0.0342241635563461,3.2137296827284217e-10,-0.0001442952656441,1.4842505534226832e-08,4.458527942364847e-06,4.061446126801262,37.8838346421185,11.645768582375233,41.15922617924542
0.28,31.222183663504484,131.01039032970942,4.48079961904222,4.081133040992532,0.0005533279247169,47.27661484082626,0.0008845140695959,3.254218495915602,476.3468732012221,12.047344998676092,4.915789434712848,69.99941106884992,1.1178948978424788e-07,113.70000341275257,88.85982357848233,15.288,0.0,0.0,0.0354045979054623,3.764736350660473e-10,-0.0001625146963723,1.7365685655384934e-08,5.194620655212288e-06,4.081133078439725,36.956255322213885,12.047431915223257,47.38848224631549
0.29,31.22218348566054,131.0103908114315,4.592727908358551,4.1001100265020245,0.0005770279952742,37.989969791857405,0.0009138463939581,3.247164755122801,397.97031042211177,12.446314684600782,5.082367374004485,69.99931338876085,1.3891902435864665e-07,113.70000369260468,94.8417675268915,15.288,0.0,0.0,0.0365771315767517,4.3836067907166327e-10,-0.0001822432988888,2.0202163500922312e-08,6.018074062137429e-06,4.100110067036654,36.07377590258778,12.446405323946324,38.12849176886316
0.3,31.222183301933686,131.01039130907952,4.708251093558373,4.112858061667493,0.0005998635114143,35.655053282557844,0.000944131403186,3.2397207148238625,378.1859457108711,12.860033399289696,5.253940723820665,69.99920403105713,1.707002607527005e-07,113.7000039856728,101.2505662360602,15.288,0.0,0.0,0.03779301412572,5.075709863465428e-10,-0.0002035013069687,2.3370674033523645e-08,6.94335970778e-06,4.112858105337573,35.19685285507256,12.860127625629724,35.80193592228613
0.31,31.222183112488807,131.0103918222051,4.827243246502713,4.136140889545823,0.0006242383343011,37.56633644061071,0.0009716215464757,3.232339252743767,394.1656220930212,13.2364445751808,5.4126574282679245,69.99908210036875,2.0768081583188525e-07,113.7000042923011,107.26326115439352,15.288,0.0,0.0,0.0388992619788015,5.846561731689753e-10,-0.0002263323252403,2.6893437641668458e-08,7.948283231812338e-06,4.1361409365698805,34.43286455705216,13.236542630309057,37.70514091683033
0.32,31.22218291741533,131.01039235056504,4.949637017503345,4.1622282001352975,0.0006491019906456,40.83513712643371,0.0009979686925508,3.224840963348891,421.55939346242695,13.59846554462374,5.566374262777002,69.99894668612772,2.504388718903276e-07,113.70000461297312,113.2095365840355,15.288,0.0,0.0,0.0399632243410653,6.701756367872645e-10,-0.00025078340164,3.0793566854276295e-08,9.047716714467492e-06,4.16222825066026,33.72644865222576,13.598567505326,40.96227562489027
0.33,31.222182716732533,131.01039289410716,5.075419569102976,4.187801887681037,0.0006739743721461,40.48743503284469,0.0010239291638211,3.217136801802925,418.5156301991682,13.956637761217308,5.718704299733134,69.99879684673242,2.995902922462564e-07,113.70000494831164,119.25032483364384,15.288,0.0,0.0,0.0410158804634189,7.647061680070125e-10,-0.0002769136723495,3.509664608790402e-08,1.0253455741189656e-05,4.187801941818244,33.053267359159875,13.956743628864118,40.61505097607
0.34,31.222182510255863,131.01039345333336,5.204736257784645,4.19642921746386,0.0006961879027693,31.814592723444047,0.0010535137542081,3.208669900766693,345.46563688075645,14.367047160772364,5.88887983533068,69.99863160305904,3.557915789971256e-07,113.70000529927128,126.36523219087664,15.288,0.0,0.0,0.042222056531773,8.688448410811866e-10,-0.0003048202762282,3.9835373705550826e-08,1.1618525957862828e-05,4.196429275109305,32.30947868183619,14.367156517712404,31.97598901989736
0.35,31.222182298183583,131.0103940277045,5.337435501771672,4.210915783240843,0.0007193441544952,34.813487415034444,0.0010813034848195,3.200164272309822,370.5765700527033,14.754132934586384,6.050986755458457,69.99844991734221,4.1975736284587617e-07,113.70000566632532,133.26448209504355,15.288,0.0,0.0,0.0433596939127697,9.832256819293898e-10,-0.0003345386312107,4.503361101379695e-08,1.309465610343774e-05,4.210915844572415,31.63649055965014,14.75424592890194,34.96026256388454
0.36,31.222182080444604,131.0103946174141,5.4735747500461605,4.22903876037745,0.0007431682866607,39.2632255716727,0.0011077666085529,3.1915717453569297,407.8625232777193,15.124417129017054,6.2072589919251575,69.99825073022951,4.922382611919288e-07,113.70000605036684,140.03566173682628,15.288,0.0,0.0,0.0444479595865755,1.1084921261805627e-09,-0.0003661511460057,5.0723697896912267e-08,1.4691545926915382e-05,4.229038825557203,31.017264542603208,15.124533865618538,39.39272792946638
0.37,31.22218185710795,131.01039522227452,5.613102797925907,4.249164960780052,0.0007674149135003,37.28328237034959,0.001133274451316,3.1828514669894137,391.1218908297666,15.483077353331511,6.359470679857624,69.99803294268581,5.740349991123437e-07,113.70000645214331,146.75405277514704,15.288,0.0,0.0,0.0455020695186381,1.245311285088233e-09,-0.0003997125883071,5.6934243389647934e-08,1.641828325195534e-05,4.2491650299519,30.439178816713017,15.483197898584232,37.418894813348615
0.38,31.2221816281124,131.0103958424523,5.756069531572451,4.260095806433531,0.0007900626414612,38.9278000801764,0.0011607546399008,3.1735466295306622,404.8187610144602,15.87126705947922,6.521735074464384,69.99779542676283,6.659911329739736e-07,113.70000687263192,154.20298254405043,15.288,0.0,0.0,0.0466429667223463,1.3943646956867835e-09,-0.0004353006984059,6.369875435270817e-08,1.8328108041903096e-05,4.260095879559656,29.83470194713067,15.87139116222873,39.05694584372078
0.39,31.22218139339905,131.0103964781077,5.9025231349944285,4.274091258047817,0.0008133283308351,33.320076729592266,0.0011870382950339,3.164143363712209,357.64062493382744,16.24457853509073,6.678818328235205,69.9975369905506,7.690136753559805e-07,113.70000731287368,161.54010621938565,15.288,0.0,0.0,0.0477401448128051,1.5563705124515804e-09,-0.0004730068442167,7.105463478762673e-08,2.0383860516746246e-05,4.274091335289374,29.274934656826048,16.244706292406182,33.46997636540994
0.4,31.22218115316572,131.01039712870306,6.0523126585892895,4.286421841403391,0.0008363022448449,31.88018820767003,0.0012133780841982,3.1544430614236454,345.465636880754,16.62063299903514,6.836764518435374,69.99725641601981,8.840594270905819e-07,113.70000777359816,169.10340080049767,15.288,0.0,0.0,0.0488453895716005,1.7320643186450851e-09,-0.0005128553637434,7.9027539265021e-08,2.2612406375611563e-05,4.286421922834417,28.730746964325096,16.620764365084565,32.03586915718869
0.41,31.22218090752676,131.01039779392735,6.205351877049411,4.30025870409831,0.0008595777771371,35.882550741685804,0.0012389121673015,3.1445895889870297,378.94687077668647,16.987310563534386,6.99141560549392,69.9969524610574,1.0121301778427253e-06,113.70000825570062,176.64448930727934,15.288,0.0,0.0,0.0499230826371405,1.922193031274436e-09,-0.0005548883906878,8.764667734700782e-08,2.5005077415911235e-05,4.300258789847355,28.21875643368965,16.987445585695873,36.020076248499606
0.42,31.222180656535848,131.0103984736348,6.36160173428776,4.322008670726048,0.0008844838439129,40.34064925656127,0.001261804338223,3.134918999355981,416.2328240017114,17.318628721060172,7.133856886815013,69.99662385300175,1.154276942054023e-06,113.70000876021427,183.59942989625057,15.288,0.0,0.0,0.0508968652507098,2.1275184665783874e-09,-0.0005991661829955,9.694534598491077e-08,2.752657757470936e-05,4.322008761057615,27.772396468009568,17.318767655457478,40.462275036947325
0.43,31.222180400205527,131.0103991677914,6.521055075967404,4.339436441324956,0.0009085827200945,35.541853595187746,0.0012854696362701,3.124839917627212,375.9031395134336,17.662848429084132,7.280642039343927,69.99626930133451,1.3115939750280808e-06,113.70000928827632,190.96736675963504,15.288,0.0,0.0,0.0519085689713619,2.3488101247838237e-09,-0.0006457514522491,1.0695800287133593e-07,3.0255957891170616e-05,4.339436536261635,27.322335771349252,17.662991148924057,35.67895714766603
0.44,31.22218013836212,131.0103998768696,6.683849332059896,4.342209064313268,0.0009296474314902,32.82948243168077,0.0013129688908547,3.113754688841357,353.0750125389216,18.063580761318697,7.446730341918701,69.99588746395321,1.4852372182848018e-06,113.7000098413532,199.7278270846888,15.288,0.0,0.0,0.0530863610987301,2.586862292117705e-09,-0.0006947575786514,1.1773083546077225e-07,3.329010177793299e-05,4.342209163639375,26.81344244367223,18.06372678999575,32.9768158972058
0.45,31.22217987077456,131.0104006014978,6.850166573233225,4.3420317510315165,0.0009500780330031,38.11022602597878,0.001341042003417,3.1022288449712887,397.2093853562869,18.47486275310604,7.616350301328129,69.99547690348253,1.6764536248320808e-06,113.70001042108892,208.92306716049887,15.288,0.0,0.0,0.0542951637545535,2.842521175226318e-09,-0.0007463379956615,1.2932090054593452e-07,3.657529369088674e-05,4.342031854775571,26.30944884471334,18.47501199101448,38.23628058998621
0.46,31.22217959739673,131.01040134180155,7.020045503401754,4.351169003849846,0.0009725797783515,44.3937050866137,0.0013660055515545,3.09098240974522,449.7140588976434,18.844323061800488,7.771531995684422,69.99503610583268,1.8865779683531e-06,113.70001102895836,217.3591612614144,15.288,0.0,0.0,0.0553810645782081,3.1166808800591503e-09,-0.000800596194505,1.417768495237597e-07,4.001824400409673e-05,4.351169112337076,25.873596578896564,18.844475834274814,44.50118229261506
0.47,31.22217931813738,131.01040209802923,7.193559875579052,4.358630093683735,0.0009947969928181,30.22514089990685,0.0013910994973101,3.079396422776949,331.0078106302534,19.2180591098146,7.9280875671397615,69.99456352718363,2.1170044481277104e-06,113.70001166656292,226.0625808853568,15.288,0.0,0.0,0.0564795377574197,3.4102493884459798e-09,-0.0008576351980594,1.551487523304888e-07,4.3718862242359527e-05,4.35863020698899,25.44665981168229,19.218215372160817,30.381603425148434
0.48,31.22217903348153,131.01040286886197,7.370336324605091,4.365514409145237,0.001016880998596,29.779838936311712,0.001416009414045,3.067527859335786,327.2031223011574,19.5915905767454,8.084483592791102,69.99405758812365,2.369198154608765e-06,113.70001233476164,234.93171707892955,15.288,0.0,0.0,0.057577416115756,3.7241711041759195e-09,-0.0009173883913609,1.6944871263079066e-07,4.767297940601472e-05,4.365514527349481,25.03354780044292,19.59175030803913,29.937410312943754
0.49,31.22217874361868,131.01040365378466,7.5502307795521535,4.3786401372577615,0.0010404145545081,37.2489281064929,0.0014385799934191,3.0558405437943126,389.60000969812296,19.93403005898306,8.23012235628909,69.99351671352461,2.644660619562788e-06,113.700013034871,243.21198709852868,15.288,0.0,0.0,0.0585839249886784,4.059374595909599e-09,-0.0009798792959512,1.8470833984680338e-07,5.180951737438081e-05,4.378640260624215,24.667474291142685,19.934193486919103,37.37406598941686
0.5,31.22217844858332,131.0104044527036,7.733219389747018,6.6368470635191805,2.4583333509182417,38.290567906975205,-0.1636260169280116,2.885254508783251,397.97031042210494,20.6507139661758,8.3664649573212,69.99293932307316,2.9449363413826395e-06,113.70001376847225,261.0100742731405,15.288,0.0,1.2525784889493092,0.0606903055590316,4.416769394513709e-09,-0.0010472760810716,5.18679161945689e-06,5.736281844069549e-05,7.075597836980655,26.77904928995131,21.03674959667361,38.399466893337845
0.51,31.222178148583296,131.01040526535922,7.919245655214291,6.6156750930026895,2.423219052033194,29.380653735395946,-0.1675649983640114,2.8692170673281887,323.3984349720841,20.994291081633,8.510405843914034,69.99231287315429,3.886459451568217e-05,113.70005241611744,269.7626372787259,15.288,0.0,1.2575492032960045,0.0617001725306056,4.816925811399781e-09,-0.0011533386348623,4.457140762833884e-05,6.422210300805988e-05,7.043651438667678,26.407957164031608,21.374815975064354,29.52089596417019
0.52,31.22217784367175,131.01040609174848,8.108324134708772,6.592103638513412,2.388058176130437,35.21814205342943,-0.1716197573575782,2.852642558980649,372.0984511843415,21.346590598603115,8.657266813527146,69.99162467901529,0.000137440863207,113.70015775193384,278.8871647681557,15.288,0.0,1.262502499919324,0.0627356802416214,5.2777451496137885e-09,-0.0012632731350714,8.493868964460762e-05,7.152277639451123e-05,7.009526629850269,26.03739469831396,21.72159730209704,35.33390089709821
0.53,31.222177533713754,131.01040693225116,8.300566593004067,6.569955911684732,2.3543033401440456,36.95988220165027,-0.1756929565839178,2.835830368953948,386.5562464348624,21.69518700129485,8.802729079240091,69.99087246397706,0.0003002567119906,113.70033146135924,288.06484725894944,15.288,0.0,1.2674391736986248,0.0637603115082643,5.801035561135247e-09,-0.0013772560815269,0.0001263332079994,7.924806432181404e-05,6.9773023249114425,25.68118064193953,22.064896047544945,37.068931657876774
0.54,31.222177218617453,131.0104077871256,8.496050326070671,6.548646652852046,2.3216985289210608,32.505868243027926,-0.179799447961297,2.8187382483109578,349.2703242098436,22.04174792158421,8.947364379185004,69.9900538778158,0.0005289352053715,113.70057527254671,297.3359209276486,15.288,0.0,1.2723628181101354,0.0647789674652171,6.388654533787649e-09,-0.0014954376862291,0.0001687888504697,8.742120065261174e-05,6.946334437139917,25.33683582791534,22.40633967952622,32.62834784948618
0.55,31.222176898664443,131.01040865561467,8.694562954207598,6.529893214094988,2.2907908441973315,34.42992778770263,-0.1838883729183224,2.801517587910077,365.2500005919907,22.38025394634448,9.08910257805612,69.98916652791246,0.000825107259707,113.70089092159256,306.5328749370532,15.288,0.0,1.277267681262757,0.0657739574046546,7.0424998197053356e-09,-0.0016177515630202,0.0002122621259733,9.602205017367886e-05,6.9184164038396805,25.0099700296614,22.73999466903201,34.54420708592806
0.56,31.22217657386207,131.01040953770664,8.89610470707859,6.51488718415435,2.261931037979848,32.160266614050286,-0.1879189007298475,2.784296292485787,346.2265619465787,22.70607770735584,9.226347694246911,69.98820801812367,0.001190374871713,113.70128011432952,315.51707934162306,15.288,0.0,1.2821536881554465,0.0667316817363262,7.764431105304396e-09,-0.0017442943840321,0.0002567678898114,0.0001050382877998,6.894781784781028,24.70422950033213,23.06128871969556,32.28111472741298
0.57,31.22217624428825,131.01041043319773,9.100621048028096,6.497552136741787,2.2329693451029327,31.804738136181623,-0.192065047741532,2.766546365511754,343.1828296833023,23.039943257264685,9.366244240233936,69.98717592178359,0.0016263371194102,113.70174455351798,324.8575129231277,15.288,0.0,1.287018708108906,0.0677130470424888,8.556320285994913e-09,-0.0018751089458067,0.0003023018987895,0.0001145737462673,6.868983966432754,24.39816652877891,23.39060847696939,31.925413633752278
0.58,31.222175909927813,131.0104113421373,9.308129633286905,6.473995992414747,2.2025843854949887,41.76044384585306,-0.1964531214315959,2.7478692985254267,426.1250058573153,23.39621842142242,9.513743565046203,69.98606776589679,0.0021346053354013,113.70228595523582,334.9753005699852,15.288,0.0,1.291862744348808,0.0687602798973532,9.420052477670433e-09,-0.0020102971401366,0.0003488803737649,0.0001247310192134,6.836909835837932,24.078423914310196,23.74211435796049,41.85121324063791
0.59,31.22217557039101,131.01041226559343,9.518938857690443,6.45874209277667,2.1756851886613418,33.92276531928882,-0.2006402195392513,2.7296337558920727,360.68438819711065,23.72294497806373,9.650926229079989,69.98488093573964,0.0027168922781694,113.70290614419108,344.3894691379784,15.288,0.0,1.2966916851278167,0.0697206782141315,1.0357582769700968e-08,-0.0021502275185278,0.0003966096725981,0.0001352735149924,6.813874536870251,23.79446084144558,24.06461868241083,34.033001099617216
0.6,31.222175225892755,131.0104132029901,9.732888182981435,6.432413650646108,2.1457281706648423,30.18926016365517,-0.205233424327023,2.709943362387281,329.4859594986058,24.09058482417395,9.802084182903004,69.98361275779537,0.0033749308092367,113.70360696579613,355.13904599366407,15.288,0.0,1.3015014905067772,0.0708013262280906,1.1370957379692689e-08,-0.0022948575384,0.0004454548917885,0.000146606730613,6.779434590507922,23.480228164276763,24.427556236863506,30.311340171867442
0.61,31.22217487639184,131.01041415444763,9.950015781378644,6.40471999699164,2.1159876360713747,35.3133774995028,-0.2099402485526747,2.689698340326396,372.0984511843297,24.464581517647897,9.955304023782512,69.98226048024584,0.0041104923125525,113.70439030700432,366.2437863540616,15.288,0.0,1.3062935619274652,0.0719006646184021,1.2462242652740029e-08,-0.0024443249344202,0.0004954424444431,0.0001585763838135,6.743824988662909,23.168716243669124,24.796884528510528,35.416284142923686
0.62,31.22217452200696,131.01041511965187,10.170235944032108,6.394740773849343,2.092665301453177,43.820660833992136,-0.2141145063074562,2.670963456861233,442.86563930529206,24.771531185419484,10.085284575765598,69.98082127217496,0.0049253853523436,113.70525809430484,375.4837989035788,15.288,0.0,1.3110696583716783,0.0728029612728807,1.36335662683724e-08,-0.0025986869982346,0.0005465716474346,0.0001707023195681,6.727091298383268,22.923091937019773,25.100173203104653,43.90250797776218
0.63,31.222174162564286,131.01041609908313,10.393689393305888,6.379543938958573,2.068169470497919,25.00496035292868,-0.2185084624023979,2.6513488241385925,286.11251274707894,25.097862254712023,10.221813776032093,69.97929234141213,0.0058213494049231,113.70621218127496,385.4336634506052,15.288,0.0,1.3158214676636126,0.0737622267372142,1.4886962864577952e-08,-0.002758146773334,0.0005988888422331,0.0001835597183513,6.705088636898249,22.666397999429787,25.42265901253597,25.146081976859495
0.64,31.222173798641226,131.0104170911795,10.619934625643063,6.355944165429643,2.041513704383298,24.554468906626585,-0.2232512413916933,2.630420443509394,282.30782441796754,25.457318154698555,10.369641042810729,69.97767084138714,0.0068001378021207,113.70725443538907,396.54460462543,15.288,0.0,1.3205534159792565,0.0748188530024227,1.6224602350347266e-08,-0.0029223850568717,0.0006522707218114,0.0001972713113466,6.674480714413142,22.388275724405,25.777930527049516,24.695969228052313
0.65,31.22217343022469,131.0104180959839,10.8489876795699,6.345361361848454,2.019526922315654,43.12695749294278,-0.2275828143664797,2.610645176877744,436.7781447787475,25.764812503533115,10.499434988182909,69.97595393931904,0.0078634586864348,113.7083866770907,406.1731070361183,15.288,0.0,1.325257716451612,0.0757227720905555,1.7648521589694793e-08,-0.0030915381719278,0.0007067434501964,0.0002112058241259,6.657733139425038,22.1587415042408,26.08197336883457,43.20650095500726
0.66,31.22217305682609,131.010419114832,11.081233004569656,6.331754736926888,1.9970527109613687,36.73504333580451,-0.2320682615289647,2.5901900077846847,383.51251517160017,26.083667160906888,10.633011430452008,69.97413871254895,0.0090130424003173,113.70961075416628,416.2792912135511,15.288,0.0,1.3299422353781647,0.0766600866395039,1.916070504058795e-08,-0.0032660677796397,0.0007624351104089,0.0002258855490096,6.638003293077502,21.92501532112916,26.39729995375661,36.82697854614022
0.67,31.222172678631853,131.01042014722452,11.316532241239443,6.310769303179589,1.9727491436895657,25.397193247537576,-0.2368825307255449,2.5684638273976605,289.1562440103425,26.43257936527151,10.77682014253752,69.97222217429787,0.0102507128330268,113.71092860486918,427.4809675007564,15.288,0.0,1.3346112190457946,0.0776857483569609,2.076337262962796e-08,-0.0034459414477871,0.0008193154158067,0.0002415083943402,6.610733444765866,21.673121671179928,26.74239685332797,25.527838620196217
0.68,31.22217229581182,131.01042119270753,11.5547598997245,6.291993102591392,1.949599607324621,31.629027086724594,-0.2416703870499186,2.5466304785533853,340.8999924858462,26.772337940454,10.917348060560665,69.97020119725126,0.0115783081200721,113.71234219131308,438.5310566934816,15.288,0.0,1.3392491053092,0.078684515394671,2.2458756863708585e-08,-0.0036311531815768,0.0008773632968981,0.0002577541849163,6.585956509879752,21.433922271562203,27.07852123785317,31.732303506411757
0.69,31.22217190844867,131.0104222510634,11.795857848258334,6.2804216986000325,1.9291078040359604,38.87183358952809,-0.2462265498476485,2.5253916697398275,401.0140726853634,27.081102688204805,11.047064473597146,69.96807268554878,0.0129976281217738,113.71385343248627,448.6941339513112,15.288,0.0,1.34386618671007,0.0795921985642916,2.4249051210513807e-08,-0.0038217426696122,0.0009365722349413,0.0002744053579569,6.568883910237332,21.222885270146985,27.38406898441784,38.954559132550905
0.7,31.22217151641385,131.0104233226485,12.039931433674594,6.268369722163698,1.908875596871962,32.6531481667368,-0.2508461231681629,2.50376231133198,349.27032420985284,27.390964086550408,11.17702901012878,69.96583353163153,0.0145104482768026,113.71546422198617,459.0100153940888,15.288,0.0,1.3484657190811675,0.0805031124737072,2.61363805057514e-08,-0.0040179216292722,0.000996988368051,0.0002917852960535,6.551466595820756,21.01525611317782,27.690754097462317,32.74995930818879
0.71,31.22217111976417,131.01042440731533,12.286942487657797,6.251525284506852,1.8875816354072328,26.88894389954688,-0.255708343772513,2.481118357820396,301.33126406340574,27.720899943429124,11.31378887938396,69.96348050081453,0.0161185928467761,113.7171765082434,470.1234057989706,15.288,0.0,1.3530332437124863,0.0814730338799683,2.8122975698523304e-08,-0.004219748221955,0.0010586100909821,0.0003101260054317,6.529194560955731,20.79747852228119,28.017346942232003,27.004381849906647
0.72,31.222170718505968,131.01042550505366,12.536892003553202,6.2290110145642,1.8650002075160408,32.85405482496006,-0.2608678534774989,2.457260505632992,350.79220534145287,28.07580793594163,11.45903286601174,69.96101038420538,0.0178238977798765,113.71899224411474,482.2267795905676,15.288,0.0,1.3575810969820612,0.0825163579186477,3.021108132053845e-08,-0.0044273427457092,0.0011214546722734,0.0003295408853446,6.501160571988949,20.56693553406803,28.368709754137036,32.94685265197577
0.73,31.222170312640607,131.01042661586686,12.789784947276043,6.219609408156606,1.8467127880251528,41.481494106504165,-0.2655211736981832,2.434964532865577,422.320318528234,28.371395736414414,11.58368969351396,69.95841974111869,0.019628286227763,113.7209134840706,492.4222349134508,15.288,0.0,1.3621112670905182,0.0833853447825617,3.2403027187106164e-08,-0.004640846089901,0.0011855454077029,0.0003490609103369,6.486947075974988,20.381776343184075,28.66142648025881,41.55374720862049
0.74,31.222169902109936,131.01042773991935,13.045671999707627,6.205767941899917,1.8274560776584183,26.08346695697663,-0.2704089026725208,2.411670082264166,294.48281347105944,28.685928945688367,11.714749918035388,69.95570521249098,0.021533600314056,113.72294219398717,503.3886469441518,15.288,0.0,1.366614721588583,0.0843100213796739,3.470106930281368e-08,-0.0048603961698238,0.0012509035320278,0.0003696181305668,6.468236320645355,20.1873136922571,28.972936407260068,26.196116545320688
0.75,31.222169487271778,131.0104288762456,13.304282055977112,6.18905176392791,1.807704790238804,30.40203861374235,-0.2754760486013617,2.3875557666610336,330.24688556441487,29.01296008762363,11.84999999824031,69.95286334306667,0.0235417012423929,113.72508036268106,514.9189504820563,15.288,0.0,1.371090877688534,0.0852714383708744,3.710763003157229e-08,-0.0050857790235175,0.00131744662666,0.0003911572813634,6.446660985668909,19.988396606133616,29.296866585194657,30.496889373569726
0.76,31.2221690680208,131.01043002513802,13.565702255626288,6.176821884814693,1.789597352804726,32.703989092735085,-0.2803884473239152,2.363798920056506,349.27032420986166,29.31821021337373,11.977611089257149,69.94989076754946,0.0256544076744872,113.72732992628616,525.7978431424644,15.288,0.0,1.3755462225534298,0.086168847348445,3.9624931561551e-08,-0.0053172237988462,0.0013852234674404,0.0004132504962004,6.429880997203625,19.80737122206599,29.59927380272817,32.79050267369484
0.77,31.2221686443038,131.01043118674707,13.829979292975043,6.165565009678887,1.7720868388703537,30.6005870427064,-0.2853000778059858,2.339861981878585,331.7687666960708,29.617620599388072,12.103079574069294,69.94678394329341,0.0278735781165416,113.72969287218194,536.5784175888558,15.288,0.0,1.379981233580392,0.0870491008571269,4.2255264681981737e-08,-0.0055548992771951,0.0014542640287025,0.0004361203193576,6.414230445867897,19.633302829382004,29.89593497214968,30.691241056478763
0.78,31.22216821618777,131.01043236089689,14.09706691227168,6.150128306381079,1.753682418923658,25.18996576246853,-0.2904541844451291,2.3148661210372903,286.8734378128899,29.93586841638914,12.234923509877182,69.94353927715783,0.0302010740032211,113.73217119114749,548.1576158455827,15.288,0.0,1.3843846499671897,0.0879847276339072,4.5000992084598896e-08,-0.0057988424267519,0.0015245596872606,0.0004601527235434,6.394345856196676,19.450613061308754,30.21129319793494,25.29777349700808
0.79,31.22216778376289,131.0104335473484,14.366900969121376,6.132292600443016,1.7349120100147228,35.66824258341893,-0.2957794702027481,2.2890580488251886,373.6203323159534,30.265034634694807,12.370413581516589,69.94015321441336,0.032638752565095,113.7347668614812,560.2641404509147,15.288,0.0,1.3887647797089544,0.0889524532556963,4.7864499088351546e-08,-0.0060490860807318,0.0015961009744155,0.000485275665572,6.372082054820342,19.26468386473893,30.537512333553305,35.74284265745388
0.8,31.222167346814206,131.01043474669123,14.639653143917592,6.122077292202785,1.7185861169400427,36.13653046394913,-0.3007773743485146,2.2642440789927294,377.42502064505743,30.55567341745345,12.492477370163492,69.93662193933737,0.0351885524934185,113.73748196042848,571.0614180036738,15.288,0.0,1.3931260683183528,0.0898069507731169,5.08480942297871e-08,-0.0063060016007535,0.0016689742584144,0.0005107309003602,6.357839191467042,19.105230316905526,30.825587815553817,36.20864678844125
0.81,31.22216690544598,131.01043595864783,14.915248299763364,6.106776562834802,1.7011199631947655,23.6446372070693,-0.3060758376698158,2.238146582047482,273.9374926939919,30.87027976895139,12.622687409061692,69.93294175715944,0.0378523630219078,113.74031850133414,582.8660187895028,15.288,0.0,1.3974662911036777,0.0907319003637516,5.39542493613165e-08,-0.0065695740570185,0.0017431553784822,0.0005375420978252,6.338419539986925,18.93434091892218,31.13745181164271,23.75230201885834
0.82,31.222166459847447,131.01043718271004,15.193545726006985,6.089320625376064,1.6833380794901478,30.270058291696728,-0.3115395298476548,2.2112422299213845,328.72500443277005,31.194851817831847,12.756218707859812,69.92910877827569,0.0406321005018461,113.743278538262,595.1711243771166,15.288,0.0,1.4017797404469,0.0916861491176257,5.7185500969273764e-08,-0.0068397272584366,0.0018186038839882,0.0005655158839503,6.316864361025617,18.76073848603276,31.45923190694704,30.352315859926787
0.83,31.22216601000504,131.0104384189201,15.474561317060862,6.081038651548059,1.6683398749213338,38.3708535684335,-0.3165666079810631,2.185751245237271,395.68750322465047,31.471301666787728,12.873013233150596,69.92511916281009,0.0435296668299155,113.74636410201872,605.7503724091248,15.288,0.0,1.4060662462457902,0.0924989682016826,6.05442635048662e-08,-0.0071166254489374,0.0018953466068663,0.0005936086095516,6.304913129322898,18.6174502992407,31.7333268511132,38.43436127339066
0.84,31.222165555816343,131.01043966756075,15.758379194423696,6.070746543082365,1.6530339181242315,23.84410799578117,-0.3217368718794011,2.1595446159897103,275.4593748256452,31.756279038615546,12.992625649245255,69.92096908330778,0.0465469130996205,113.74957717031344,616.7535518072256,15.288,0.0,1.4103315736689503,0.0933368591652951,6.403288524818606e-08,-0.0074004776640863,0.0019734215433989,0.0006228577893089,6.290965830146727,18.471544761089323,32.01590097871119,23.94386421774172
0.85,31.222165097576628,131.0104409278358,16.04477666949358,6.052747182268161,1.6358884734288888,25.96592672039299,-0.3273761201123633,2.1313902154170847,292.96093233939376,32.080167022236125,13.125562209396488,69.91665456461348,0.0496857009797465,113.75291974071088,629.3811573137959,15.288,0.0,1.414572312605692,0.0942891232112325,6.765398588464337e-08,-0.0076910549179113,0.0020527468768288,0.0006538981766519,6.269124060712547,18.306574110647343,32.337096871389384,26.055313274324956
0.86,31.222164635115767,131.01044220021154,16.333890145844986,6.040263391351829,1.6204771490067376,32.415580530284124,-0.3327592445808431,2.1039947696293746,346.2265619465587,32.37377484831052,13.247919190110602,69.91217160685747,0.0529479322786578,113.75639384593656,640.9366713797103,15.288,0.0,1.4187913687477187,0.0951523974546988,7.140990560059856e-08,-0.0079887156816053,0.0021334014112207,0.0006854027482351,6.253078611873207,18.160753113364542,32.628284869667766,32.48549497577061
0.87,31.222164168460328,131.0104434846206,16.625704190195243,6.030297560018502,1.605964875521965,30.213079598967333,-0.3380400944833975,2.0767918419222005,327.964078366998,32.65222206281774,13.364916716652056,69.90751614393686,0.0563354939213369,113.76000150650992,651.9912211387025,15.288,0.0,1.4229885327329357,0.0959711203224336,7.530313978438427e-08,-0.0082935512984093,0.0022153902385235,0.0007176565284824,6.2397180307011055,18.025203935246594,32.90445340511556,30.28625949690204
0.88,31.22216369764815,131.01044478096455,16.92019449951426,6.016426533683632,1.5906351354599733,26.167140365374188,-0.3435872867805556,2.0483797948277367,294.4828134710418,32.95001373794183,13.4884805430029,69.90268407944876,0.0598502548494571,113.7637447243068,663.9191297272971,15.288,0.0,1.4271594321546115,0.0968467087606263,7.933621428598258e-08,-0.0086056083166841,0.0022987063197154,0.0007514295255964,6.222395175109415,17.88150326471882,33.19983802715404,26.24944088754446
0.89,31.22216322276272,131.01044608902131,17.21730165670614,5.99875637131205,1.574531634976254,28.660487536774383,-0.3494075877690981,2.0187162021681577,315.028134248087,33.26726173485753,13.618656040743431,69.89767124767,0.063494092301973,113.76762551071243,676.7460042424336,15.288,0.0,1.431304309923147,0.0977794921335178,8.35116859468914e-08,-0.0089249278956784,0.0023833413892067,0.00078679294901,6.20122264069987,17.730032475510175,33.51455745701099,28.733618752480282
0.9,31.22216274373165,131.01044740899138,17.51708635790743,5.990269774853089,1.5610427669029547,31.61608012454523,-0.3547222849900816,1.9907908704042712,339.37814235421445,33.53219384637783,13.7306275955927,69.89247334851008,0.0672689352866184,113.77164593355036,687.5479986874788,15.288,0.0,1.4354279457571903,0.0985585168127175,8.783204002782969e-08,-0.0092517511396682,0.002469339847529,0.0008220762365945,6.189612326156127,17.60740267928677,33.77737153526575,31.680681789235813
0.91,31.22216226062726,131.01044874068242,17.81949753678471,5.977935939031747,1.546752368608778,24.1558032332299,-0.3603080472938039,1.961623259109733,277.7421810230789,33.81657349581914,13.849206472659937,69.88708615577629,0.0711766205355387,113.77580796238644,699.239047572729,15.288,0.0,1.4395291242691015,0.0993947105073665,9.229984920963869e-08,-0.0095860899659795,0.0025566849578555,0.0008589832020761,6.17409694588583,17.47668518238723,34.059507279679025,24.237999454207127
0.92,31.22216177365212,131.0104500835492,18.1243839814288,5.961887396098217,1.5317078754186892,28.679406673156645,-0.3661688687771898,1.9311798389755992,315.02813424806214,34.120331314664526,13.974380814826196,69.88150537147925,0.0752189905113629,113.78011357381072,711.8364698141014,15.288,0.0,1.4436059186065056,0.1002878698151991,9.691783528314562e-08,-0.0099277875094282,0.0026453169722573,0.0008975663576994,6.154815705055559,17.338313928939943,34.3609027677806,28.746685066894745
0.93,31.2221612827184,131.01045143783324,18.43181784844036,5.954178153389601,1.5189880334949448,34.035830847605745,-0.3715397124322376,1.9024440130609808,359.1625070654728,34.37469850228876,14.082356859275352,69.87572662971004,0.0793978892170894,113.78456474770844,722.4681858138994,15.288,0.0,1.4476604181874182,0.1010358667159128,1.0168839569696725e-07,-0.0102771277110943,0.0027352904189884,0.0009360492103038,6.144204575878704,17.225825426619366,34.613272635320406,34.09098292023239
0.94,31.22216078771864,131.0104528038285,18.7418859159712,5.938730079446988,1.504486143517658,24.816678430490064,-0.3774457193610474,1.8714066482385887,283.0687504837787,34.67155208044786,14.204920002978987,69.86974554022626,0.0837151172942421,113.78916342126378,734.9783825221833,15.288,0.0,1.4516925774723235,0.1019087504351758,1.0661397229379789e-07,-0.0106343236058669,0.0028266400677944,0.0009769183159041,6.125673963541667,17.094448354577796,34.907849054794895,24.890001133718062
0.95,31.22216028894241,131.01045418075418,19.05437026662372,5.924272369999923,1.4904234423576537,32.02093737126258,-0.3833327791701324,1.8402287596375395,342.4218736174873,34.96106022566997,14.32483940760336,69.8635576719362,0.0881725142861779,113.79391156454923,747.2813674130864,15.288,0.0,1.455700787837111,0.10276005284314,1.1169742132093652e-07,-0.0109991403043278,0.0029192870545394,0.0010188386204601,6.108227470860976,16.968384088109918,35.195148990480135,32.07606297602161
0.96,31.22215978609987,131.01045556939783,19.3694976640496,5.913923465371907,1.4775682267465402,31.381891485991403,-0.3889854293408749,1.8097716417212395,337.09533515678345,35.22438996816105,14.43558232303031,69.85715841432523,0.0927719229779148,113.79881116485974,758.5579796776691,15.288,0.0,1.4596881790963567,0.1035344186354203,1.1694097701295325e-07,-0.0113721213085117,0.0030133493469787,0.0010612895365704,6.095075026754657,16.85611588377903,35.45646011770427,31.43643898882247
0.97,31.222159279212303,131.01045696970445,19.687255899734154,5.90142685644836,1.4643477415279091,20.214800219556448,-0.3948199549321996,1.7783834059134456,245.02188719299323,35.498248465015166,14.549858239373773,69.85054319985113,0.0975151835373528,113.80386419529307,770.3754166482177,15.288,0.0,1.4636543661114971,0.1043397401226259,1.223472885843444e-07,-0.011753360778037,0.0031088300979942,0.0011053623199295,6.079766824531808,16.740383335011085,35.72824262993591,20.296715947458605
0.98,31.22215876856749,131.0104583808979,20.00742839571034,5.88163940210165,1.44950324924533,29.27126851302197,-0.4012070300504119,1.7445600534841597,319.5937466429581,35.814204823177555,14.678620245588524,69.84370727204048,0.1024041409759965,113.8090726471358,784.1259682920002,15.288,0.0,1.4675966835536507,0.1052688086311242,1.2791938673635273e-07,-0.0121425408536683,0.0032056304387398,0.0011520920906684,6.057008833801103,16.607205406957142,36.041867974518645,29.325954668562897
0.99,31.22215825401972,131.01045980337503,20.330131094831767,5.874018502334169,1.4378129052567854,31.95718921431576,-0.4067760872556008,1.7138108930879323,341.6609485517054,36.05444912593407,14.781043141054,69.83664587817933,0.1074406480217148,113.8144385118651,794.6565707713221,15.288,0.0,1.471518114812677,0.1059753453852326,1.3365965754568633e-07,-0.0125400804042259,0.0033038349019293,0.0011977551130794,6.04682983829045,16.509429109991785,36.280276545216665,32.00569569689135
1.0,31.222157735568544,131.0104612371388,20.65536790462805,5.859304921785891,1.424545661951068,28.636909583935207,-0.412886707143113,1.6806596782558094,314.2672081822764,36.33568926280189,14.897569064662056,69.82935433836619,0.1126264406116492,113.8199636607406,807.077033832521,15.288,0.0,1.4754161943301185,0.106802390406296,1.3957074744703877e-07,-0.0129460352638132,0.0034034367108324,0.0012461360783674,6.029403375426231,16.394717153956645,36.55943331849995,28.689156190197203
1.01,31.22215721339414,131.01046268170407,20.98300482338844,5.845732591573098,1.4117134341266515,29.93730775676852,-0.4189530555157342,1.64746618736633,324.9203161036979,36.607857855133936,15.01085378900268,69.82182778089147,0.1179633284936571,113.82565004520085,819.1871846814067,15.288,0.0,1.4792918763183995,0.1076027801003754,1.456555372922612e-07,-0.0133602941224543,0.0035043890498125,0.0012956030157036,6.013202480682359,16.285328966718986,36.829586846588434,29.985530881155228
1.02,31.222156687421617,131.01046413727508,21.31310278627061,5.833943557846845,1.399460749138019,25.042369194505834,-0.4249212788363876,1.614454572826301,284.59063161540416,36.866622013321376,15.11938963292008,69.81406136355116,0.1234530552212141,113.8314995471738,830.7826909991246,15.288,0.0,1.4831463037260586,0.108363778447294,1.5191653038880404e-07,-0.0137830988483519,0.0036067308643109,0.0013460093049324,5.998884444354231,16.18291059557855,37.0864269366436,25.097953632415184
1.03,31.222156157719297,131.0104656036683,21.645612967086063,5.81732597828946,1.386204886335069,20.514607278491056,-0.431292297748599,1.579564643243668,247.30469339049705,37.15364636616986,15.2376361839295,69.80605020650323,0.129097329978393,113.83751401448914,843.7421846711105,15.288,0.0,1.486978795851932,0.1092078522529256,1.58356464537105e-07,-0.0142144479706119,0.0037104417231372,0.0013988959607705,5.979651981418439,16.06974251132927,37.37136967865504,20.57984813595574
1.04,31.222155624348886,131.01046708071874,21.9804918573588,5.805233218671765,1.37417063783678,32.45473652684058,-0.4373551893870237,1.5457173420612187,345.46563688072297,37.40973797795707,15.345055982978296,69.79778934305521,0.134897900756751,113.84369533161154,855.3862019567857,15.288,0.0,1.4907898954972871,0.1099610126052539,1.649780671226642e-07,-0.0146544103636502,0.0038155185783745,0.0014520882823692,5.965116191783521,15.970749095761525,37.62557150353918,32.494467909012954
1.05,31.22215508702985,131.01046856918478,22.31795680261421,5.789243471425631,1.3613616233492107,19.68912561225837,-0.4437575145739811,1.510236745965793,240.45625879819983,37.68848415170213,15.460240433551844,69.78927367495291,0.1408564880482456,113.85004536617096,868.1528017320046,15.288,0.0,1.4945816688613704,0.1107807722460281,1.717835558488587e-07,-0.0151035645584139,0.0039220782385324,0.001507696945966,5.94662373860042,15.863515416073394,37.90230621527325,19.751946818880786
1.06,31.22215454599649,131.0104700684348,22.65783236399312,5.769957049697453,1.3479303809043623,27.932261613251093,-0.4504711882444679,1.473218304544597,308.17968365593924,37.98673473610904,15.582114268267196,69.7804980613261,0.1469748564023123,113.85656602063546,881.9187600235244,15.288,0.0,1.4983525399607187,0.11165787226,1.7877611033178097e-07,-0.0155616503374868,0.0040300384132026,0.0015656668905033,5.92479318045844,15.749664730237829,38.198447614702495,27.97471242560653
1.07,31.22215400113521,131.01047157877656,23.00020856343441,5.758162331085848,1.3363842505457335,32.84624836033438,-0.4566163868118603,1.4383415277493568,348.5093681440308,38.23362157238508,15.686049344084392,69.77145706967644,0.1532548303556001,113.86325927588292,893.3903253952396,15.288,0.0,1.502104641856903,0.1123840034486956,1.859582757312401e-07,-0.0160290646986284,0.0041394717998039,0.0016231217138052,5.910697031907823,15.657612356045536,38.44352128665189,32.8808965240293
1.08,31.222153452346767,131.01047310047795,23.345163838982057,5.744719723251541,1.324585291594036,22.200699732648086,-0.4629274131002769,1.4025387497745967,261.00157857466235,38.48866545293271,15.79271984022156,69.76214544878688,0.159698121837469,113.87012698368824,905.3191064305538,15.288,0.0,1.505837088845322,0.1131341204717869,1.9333268232117804e-07,-0.0165060740562355,0.0042504185912012,0.0016825180058732,5.8949510063313415,15.56319975668195,38.69671229074079,22.2497749506286
1.09,31.222152899902472,131.0104746328074,23.69249453573952,5.723177807693243,1.3110634122714135,20.44395917626388,-0.4699602044852105,1.3634406656164884,246.54375332474407,38.79570728676921,15.917392756763824,69.75255774298918,0.1663064622852697,113.87717102710285,919.790329881462,15.288,0.0,1.5095479339025937,0.1140370904981842,2.009027321043005e-07,-0.0169923026805988,0.0043627704038169,0.0017458402380824,5.870939503432101,15.449557763058449,39.00163067453972,20.494762741812863
1.1,31.222152343877543,131.0104761755626,24.042146535954696,5.705753818296691,1.2986224107915727,40.74586333770112,-0.4766909815151167,1.3253664185111584,413.1890617385841,39.07310810515158,16.03168305780491,69.74268856092259,0.1730815450077621,113.88439323917234,932.9595687008592,15.288,0.0,1.51323841940889,0.1148529427159121,2.086712853321023e-07,-0.0174878110097318,0.0044765209165563,0.001809536774661,5.851193739059058,15.34864382204429,39.27707777173785,40.770200018761145
1.11,31.22215178387583,131.0104777298112,24.394423623303226,5.696588655616816,1.2881763116504008,29.90771397364947,-0.4827299985594777,1.2900035230962,324.1593910376397,39.29131617049934,16.125274463204587,69.73253227571017,0.1800251006330166,113.89179550422725,943.3771735263364,15.288,0.0,1.5169120497421211,0.1154948107356568,2.166403136339049e-07,-0.0179934995807041,0.0045918543140722,0.0018721969040657,5.839952817912231,15.271120895015338,39.49364538573858,29.939413696175446
1.12,31.22215121995817,131.01047929538808,24.74928159188315,5.6718649761094655,1.274352672736322,11.459019384256976,-0.4901858051152098,1.2483253551920752,172.73281794065943,39.61408172561666,16.255184033779557,69.72208329029142,0.1871387780616869,113.8993796212404,958.907228948689,15.288,0.0,1.520567235540652,0.1164440298579782,2.248129287985161e-07,-0.0185093214269367,0.0047087363202679,0.0019416215999443,5.812806435208901,15.155127013733344,39.81424007164655,11.53723205819875
1.13,31.222150652707512,131.01048087072374,25.106281404416222,5.655519568504992,1.2625379845945537,35.20739923188765,-0.4969361867235146,1.2094112453633794,367.5328077900705,39.87678445085257,16.364117164610704,69.71133576411613,0.1944243680291006,113.90714753021928,971.6341597151664,15.288,0.0,1.5242015714301185,0.1172167063928404,2.331933521953752e-07,-0.0190343807639692,0.0048269442142049,0.0020098724386437,5.794283678552442,15.062679237293883,40.07508740478309,35.23167015353671
1.14,31.222150081469955,131.01048245757738,25.46592074800977,5.645020596525208,1.2521371250973696,19.62692995377522,-0.5031743881043967,1.172466268021086,239.69531773195544,40.09532249535,16.457563091665165,69.70028400522078,0.2018834406801909,113.91510095328267,982.2791641650012,15.288,0.0,1.527819848452359,0.1178595712841913,2.417827976464973e-07,-0.019570090381827,0.0049467727645501,0.0020776919180271,5.781784190677128,14.987128591881206,40.291992079462446,19.668356337652888
1.15,31.222149506724,131.01048405465954,25.827838947603208,5.618811828817828,1.2383848417594332,19.35113540498689,-0.5109167800790664,1.1287310817483416,237.41251153546767,40.422819728397606,16.58893761718894,69.68892240497144,0.2095175068715662,113.92324153910276,998.3564345604242,15.288,0.0,1.5314177094505503,0.1188227295764515,2.50585437649672e-07,-0.0201155405503648,0.0050679961285078,0.0021529692255342,5.753235944148579,14.872940617613024,40.61732961907962,19.390758398608558
1.16,31.222148928605503,131.01048566160472,26.19193611035292,5.609602953917466,1.2284834585681632,50.17702373347239,-0.5170829529147452,1.091597721379837,490.0437743845894,40.6261848913924,16.67695154221339,69.67724490467367,0.2173282525936086,113.93157113077316,1008.3917959423096,15.288,0.0,1.5349966796177077,0.1194210114224681,2.596043269952543e-07,-0.0206707416802529,0.0051905965437699,0.0022234451517506,5.742124308577954,14.804131159612552,40.81913983681747,50.19155975973419
1.17,31.222148346253142,131.01048728072635,26.558864342829004,5.5920922046613,1.2168758143110157,9.14338373766712,-0.5240660694313088,1.0506418820042092,153.70937929486794,40.886018486455,16.784570918134758,69.66524576545088,0.2253171190665631,113.94009131234677,1021.295823828726,15.288,0.0,1.5385614518892072,0.120185292139105,2.6884013293433935e-07,-0.0212375420052335,0.0053149563437043,0.002298942368531,5.722549862555327,14.715831582937476,41.07715052252987,9.218457559895043
1.18,31.22214776080049,131.0104889089756,26.92776938243953,5.563575994115718,1.2030053474013065,24.562331162265167,-0.5321837268221274,1.0044071066160118,280.02501822196746,41.22440014566608,16.919592365805006,69.65291895282218,0.2334856533760566,113.94880377991292,1038.2339220661895,15.288,0.0,1.5421043977241513,0.1211804764970148,2.782990335715827e-07,-0.0218136270140362,0.0054405465534205,0.0023807612784087,5.691752640837087,14.601148798579626,41.41335389968796,24.588618612677237
1.19,31.222147171736008,131.01049054772622,27.299039636901625,5.558982495717496,1.1943976094838058,42.685360560821735,-0.5379386406840357,0.9683349050358868,428.4078130529292,41.38356791030712,16.99193010434967,69.6402582490158,0.241835440650778,113.95771027446278,1046.2293454618955,15.288,0.0,1.545631685762282,0.1216488650757221,2.879821458888539e-07,-0.0224004467023149,0.0055676618915658,0.0024541592654284,5.685454490861723,14.5490997782315,41.57116985991654,42.69973134197459
1.2,31.222146578617345,131.01049219816207,27.67300860644932,5.534944467040393,1.1817252076129696,4.683168214567144,-0.5456834456245117,0.9231813955553104,117.1843741360236,41.68367081051944,17.113447844234646,69.62725784266914,0.2503677667110633,113.96681221970437,1061.4202004736164,15.288,0.0,1.549143740679109,0.1225315482394757,2.9789136587400253e-07,-0.0229989099008851,0.0056964726025056,0.0025379072188327,5.659305422005376,14.449315691135135,41.86928261182501,4.804383294228313
1.21,31.2221459825828,131.01049385722595,28.048821353795528,5.511811521260428,1.1693587778623191,34.33748009488523,-0.5533842340235303,0.8779154759782181,359.92343213200894,41.97518122462038,17.23194932339727,69.61391133220108,0.2590841831350174,113.976111322704,1076.2791191428364,15.288,0.0,1.5526296465400908,0.123388983209965,3.0803310299522e-07,-0.0236066689865194,0.0058264532676055,0.0026230957460584,5.634114426159663,14.353464163812196,42.15885092052376,34.35315864604108
1.22,31.222145382763365,131.01049552724717,28.42713277497675,5.505098907759756,1.160559533797114,24.953163353273005,-0.5593709595442695,0.8400454972668226,283.0687504825761,42.13873530605154,17.305591077144406,69.60021256653894,0.2679860300454599,113.9856090699466,1084.6433703424063,15.288,0.0,1.5561000309513977,0.1238702907578674,3.184071929945387e-07,-0.024225963489534,0.0059580594837312,0.0027023003983805,5.625732396506681,14.30079331819706,42.32102310562156,24.973564696354156
1.23,31.22214477950336,131.01049720729776,28.807684120103087,5.4802090467722735,1.148034092492944,9.889502601417544,-0.5673149089850916,0.7931111112403316,159.79687382222795,42.43781473133748,17.4266404397202,69.5861556442361,0.2770744393092804,113.99530672621064,1100.0542924194403,15.288,0.0,1.5595520811277703,0.1247499952078233,3.2901790542081845e-07,-0.024855942735834,0.0060910857567096,0.0027921480674881,5.598808063727945,14.20379089699099,42.6181354384542,9.93746110151753
