Time,Latitude,Longitude,Altitude,Angle of Attack,Angle of Sideslip,X-Acceleration,Y-Acceleration,Z-Acceleration,Thrust,True Velocity,Ground Velocity,Pitch,Roll,Yaw,Dynamic Pressure,cp,cg,parachute_deploy_gain,Wind Speed,Wind Direction,Mach,omega_x,omega_y,omega_z,Cmq,Angle of Attack(total),Angle of Attack(gust),True Velocity(gust),Acceleration
0.0,31.222216000000007,131.010392,3.000000004412624,0.0,0.0,0.0,0.0,0.0,2.2828121974499247,0.0,0.0,69.99999999623412,0.0,119.9999999935444,0.0,1.274,1.0271675151847728,0.0,0.0,0.0,0.0,0.0,0.0,0.0,-0.0,0.0,90.0,0.0,0.0
0.01,31.22221599999084,131.01039200000497,3.000002745347096,0.0,0.0,0.0,0.0,0.0,34.242186961749226,3.465174813755316e-14,2.8705476994166025e-14,69.9999999962611,-2.1713911667908447e-11,119.99999999352175,7.352495975525499e-28,1.274,1.0271659134330349,0.0,0.0,0.0,1.0183245502395064e-16,-3.3305335486039093e-18,7.169286865560398e-18,5.624298769768554e-18,-7.715917190115602e-34,0.0,89.99999999999979,3.465174813755316e-14,0.0
0.02,31.222215999994315,131.0103920000094,3.0000030495639742,0.0,0.0,0.0,0.0,0.0,25.871876237766216,3.8197434737535036e-11,2.4171837235633357e-11,69.99999999628672,-1.1921727947863515e-11,119.99999999353136,8.93414285188691e-22,1.274,1.027164492361118,0.0,0.0,0.0,1.1225230367947217e-13,-6.657678965418802e-18,1.4338573731120796e-17,1.1241821275959074e-17,-1.7010872994127372e-30,0.0,89.99999999975682,3.8197434737535036e-11,0.0
0.03,31.222215999994315,131.0103920000094,3.0000030495639742,0.0,0.0,9.81877837424427,-2.5122800045972096e-05,3.3498614629347925,180.34219359854663,1.2659015405517447e-10,1.1364406173918436e-10,69.99999999631459,-1.6431898037347223e-11,119.99999999352724,9.812605835254651e-21,1.274,1.0271551940870716,0.0,0.0,0.0,3.720154642239108e-13,-9.991600645811728e-18,2.150108433310316e-17,1.6859343782149594e-17,-8.453698244545225e-30,0.0,89.99999999919412,1.2659015405517447e-10,10.374487003414373
0.04,31.222215999994315,131.0103920000094,3.0000030495639742,18.83801224594347,-0.0001111777826462,48.68248476615645,-1.016330065874988e-05,3.3497854396877287,548.635972453808,0.1556173050466994,0.0975908358443652,69.99999999633813,-2.0932768807056278e-11,119.99999999352085,0.0148286043323172,1.274,1.027133720825283,0.0,0.0,0.0,0.0004573186944143,-1.3322134194415637e-17,-1.04744143520903e-11,1.336824254131964e-11,5.0626055458604615e-15,18.83801224625964,89.06236267790787,0.1555998412814392,48.79759610369246
0.05,31.22221599164764,131.01039201704114,3.002326315126219,5.772385609593056,-4.395076213712875e-06,71.20344550265034,4.905512691849684e-05,3.349217396035405,761.6984298824663,0.8326471944351852,0.3620326097059287,70.00000001316391,-1.0866255162484559e-10,120.00000000231074,0.4245281043148827,1.274,1.027093426565204,0.0,0.0,0.0,0.0024469331205246,-5.0245994431125096e-18,-7.32924164976824e-07,2.217344936947165e-11,1.895424184525467e-09,5.772385609594774,84.74112356985832,0.8326465040582279,71.28217104309611
0.06,31.22221596664444,131.01039206837547,3.015081730143309,4.056581213689704,3.169093567502233e-05,53.16249142470188,0.0001203825427859,3.3481235983850643,590.4875390737236,1.657216205300742,0.6755452977614796,69.99999964391398,-3.9285905645317736e-10,120.0000000287861,1.6816755551786196,1.274,1.027050317124926,0.0,0.0,0.0,0.0048701272653724,3.095757869075056e-13,-7.483541766772344e-06,3.074135420506017e-11,3.8518749565858254e-08,4.056581213813337,79.59316473687034,1.657221183301277,53.26781792157489
0.07,31.22221592883117,131.0103921460222,3.034593611434361,4.115662018628709,6.450869598349036e-05,81.18203554989698,0.0001593212642178,3.347059402768047,855.2937749779172,2.099899704220947,0.8579771146174259,69.99999543281565,-8.233801910783518e-10,120.00000006883089,2.700101932075157,1.274,1.027003201295312,0.0,0.0,0.0,0.006171060252819,3.4704292086287e-12,-2.6327204536316785e-05,1.9541142932033486e-10,1.7170712165327165e-07,4.115662019133419,76.90111966094352,2.099909837223217,81.2510043180746
0.08,31.22221588914193,131.01039222747755,3.0542761843835606,3.459696193892355,8.037433511260004e-05,16.298214211652088,0.0002413456836072,3.344878926597744,241.2171988638792,3.051964775152957,1.2149999716613011,69.99998042886442,-1.0128995578004475e-09,120.00000011111383,5.703497661025892,1.274,1.0269597189470347,0.0,0.0,0.0,0.0089689344021769,1.458982438104473e-11,-5.702803872814215e-05,7.043261397829576e-10,5.405702492731987e-07,3.459696194824858,71.30331929508368,3.051977400323993,16.63790856991177
0.09,31.2222158241468,131.01039236098703,3.0886872184095737,4.313676956300389,0.0001337561018991,50.35975918308536,0.0002293282821279,3.344215841840564,563.0937377043203,2.893161298572128,1.191209213966114,69.99994788602814,-7.098432023887522e-10,120.00000018106356,5.125380275808925,1.274,1.026918932011013,0.0,0.0,0.0,0.0085022553945842,3.8672912027154325e-11,-0.0001115933708951,2.016054215232918e-09,1.0027525988343615e-06,4.313676958370176,72.2316578138625,2.893182308931483,50.47067588835877
0.1,31.2222157788302,131.01039245392113,3.109877853389092,4.035124630954496,0.0001457499816535,47.804664812504015,0.0002878217657545,3.341734392237128,538.7437595981891,3.5677148583138303,1.4531247507621967,69.99988403958329,1.9248461973355822e-09,120.0000002323013,7.7939962029572305,1.274,1.0268846934974103,0.0,0.0,0.0,0.0104845969583028,8.579678749070606e-11,-0.0001726817043215,3.984565639703107e-09,1.913455350430327e-06,4.0351246335824245,68.43243098813296,3.567737752667411,47.92132267234452
0.11,31.222215703308,131.01039260899836,3.148841432727305,4.043401107254707,0.0001752764476999,37.67622367577205,0.0003286462930162,3.3392563999062723,442.86563930529127,4.034183355956686,1.6436552022667772,69.99978525353545,7.302513231814865e-09,120.00000031883242,9.96528118825134,1.274,1.026848594915519,0.0,0.0,0.0,0.0118554331868328,1.5870341853361987e-10,-0.0002596204409236,7.232030302688121e-09,3.252930323390323e-06,4.04340111104746,65.92012987243639,4.034210888316708,37.82391391539392
0.12,31.222215627491828,131.01039276462643,3.186995101203875,4.17874459224363,0.0002066711490009,41.15991989399172,0.0003576945202315,3.336766085769504,475.58594813540793,4.361857560629481,1.7865750500940407,69.99963665601238,1.781774420198147e-08,120.00000041104812,11.649831899889556,1.274,1.0268114448194128,0.0,0.0,0.0,0.0128183893919737,2.682972478760441e-10,-0.0003710216542429,1.2215991071490164e-08,5.026311388647148e-06,4.178744597345269,64.21681651392016,4.361890024457652,41.29495143136631
0.13,31.22221554594398,131.01039293200228,3.2277173449026786,4.202734874672792,0.0002327160860324,45.44886120763352,0.0003953741266062,3.333578629398489,515.9156326236897,4.792165672014363,1.9646716520715424,69.99942424225341,3.613383418913551e-08,120.00000051758742,14.061726603124043,1.274,1.026779572895131,0.0,0.0,0.0,0.0140829618979635,4.248908088871395e-10,-0.0005056103199642,1.908859219307828e-08,7.5253154423526356e-06,4.202734881104192,62.048594618540655,4.792202226971676,45.570952718869485
0.14,31.222215454191247,131.01039312033683,3.2737880595608355,4.184830647080848,0.000257138757548,42.32232525579263,0.0004369426767266,3.329727443445437,486.2390860568421,5.269261304374574,2.158791628597544,69.99913473613935,6.515851355725497e-08,120.00000064630268,17.000925061330125,1.274,1.0267449573927567,0.0,0.0,0.0,0.0154850332441425,6.382432869666793e-10,-0.0006690086306358,2.8426433029675884e-08,1.0948547100483978e-05,4.184830654966803,59.74181173116622,5.269301695636157,42.45310707234106
0.15,31.222215353826755,131.0103933263496,3.3242182719560263,4.21963947489699,0.0002846467688673,40.886944113003565,0.0004726792395108,3.325585650885676,472.5421858721398,5.6781946837482895,2.329510773545807,69.99875162806286,1.0876776246115984e-07,120.00000079954532,19.742017654108928,1.274,1.0267115958081523,0.0,0.0,0.0,0.0166867950518804,9.204756288136623e-10,-0.000865746478554,4.08948221429571e-08,1.526771148078443e-05,4.219639484480408,57.84996018384879,5.678239395958187,41.02196629910223
0.16,31.222215247130432,131.01039354534575,3.3775922280208457,4.253495568077899,0.0003118339050386,32.26872905470846,0.0005078415214353,3.32090791922544,391.1218908297597,6.081244877834229,2.4981889727471702,69.99825581174558,1.7187028096464329e-07,120.0000009800088,22.644030778355887,1.274,1.026675762255412,0.0,0.0,0.0,0.0178712695992133,1.2856146928958252e-09,-0.0010961187242953,5.6923362293832417e-08,2.0702404729358337e-05,4.253495579487569,56.06022383757386,6.081293860589489,32.43916312841722
0.17,31.22221513260033,131.01039378041813,3.4348437275053194,4.364838523348639,0.0003448792023946,40.840448242802736,0.0005326487904353,3.3162727284953744,471.78125980632416,6.362544479165355,2.6250789114832647,69.99762801982864,2.5997588617291615e-07,120.00000119506798,24.78723182122683,1.274,1.0266409836796937,0.0,0.0,0.0,0.0186979513961862,1.747791994374917e-09,-0.0013624931601664,7.706724512977917e-08,2.6923621797558364e-05,4.364838536947241,54.85936171416122,6.362598652663785,40.97486885600156
0.18,31.222215014088988,131.01039402363364,3.4935801365785646,4.353948305387995,0.0003681615230806,33.992183768165326,0.0005718025428208,3.310131992647221,407.1015672119096,6.81502088160835,2.810667639293692,69.99684761766231,3.794979223522764e-07,120.00000144728236,28.437950785509614,1.274,1.0266048342046536,0.0,0.0,0.0,0.020027681385988,2.3221419748804155e-09,-0.0016616990447559,1.0147209890543081e-07,3.517105786247627e-05,4.353948320923495,52.99157233768714,6.815078712285162,34.152972512863755
0.19,31.22221488419521,131.01039429023237,3.558399965607869,4.432620772533925,0.0003996774584738,38.45149959021069,0.0005986099513107,3.304145139297767,448.95313283182486,7.1223367465208405,2.946425726785696,69.99589577323147,5.440084577183829e-07,120.00000176148238,31.060341085698347,1.274,1.026566130444714,0.0,0.0,0.0,0.0209308229359413,3.022391489754689e-09,-0.0020041563310821,1.3135864879722746e-07,4.433199397898183e-05,4.432620790516937,51.77883352025967,7.122399527709208,38.59320142454953
0.2,31.222214751373183,131.01039456280608,3.624052454705669,4.443889400961181,0.0004246617145652,35.23432408779927,0.0006337972852267,3.2968110145188256,418.5156301991588,7.530482904611057,3.1167566004785483,69.99474776398331,7.478025600151903e-07,120.00000211715036,34.72195181863731,1.274,1.026529240027363,0.0,0.0,0.0,0.0221302820454282,3.866698391504749e-09,-0.0023849544920781,1.668144671071589e-07,5.57780533277244e-05,4.443889421210987,50.22448880200342,7.530549610317194,35.38822625098952
0.21,31.222214608673173,131.01039485566503,3.6948551453492566,4.493351735844891,0.0004538195602194,33.79371564104691,0.0006629296043866,3.2891790438445727,404.8187610144608,7.868284042829251,3.2629204975089228,69.99338155599101,1.0150082652278477e-06,120.00000255293388,37.906665490338085,1.274,1.0264923657015164,0.0,0.0,0.0,0.0231230169900677,4.871073773182836e-09,-0.0028117605859743,2.089322918608601e-07,6.870935089180403e-05,4.493351758715364,48.992529909481824,7.868355328639073,33.95340801819282
0.22,31.22221446109996,131.01039515850383,3.767700382407304,4.5412639153933885,0.000482649303782,41.008966751568416,0.0006914639179131,3.2808061382386606,472.5421858721387,8.20057841132235,3.4071691679735228,69.9917708347139,1.3454961520984431e-06,120.00000305929996,41.175744234065135,1.274,1.0264494137127138,0.0,0.0,0.0,0.0240995709751246,6.054779813287368e-09,-0.0032829112061357,2.580881224843564e-07,8.3609968899004e-05,4.54126394098788,47.82515604752711,8.2006542256977,41.13999323561041
0.23,31.22221430675399,131.0103954752338,3.843768625625224,4.52371495179584,0.0005047555656171,33.98493478127787,0.0007294889663961,3.2705214710765107,406.340642146096,8.647938096586296,3.5908865300848416,69.98989017772566,1.7539876018835507e-06,120.00000365514876,45.79040229326471,1.274,1.0264133390858623,0.0,0.0,0.0,0.0254142776666487,7.436335125872812e-09,-0.0038001790077148,3.1489825108822685e-07,0.0001020628978177,4.523714979897577,46.31461705147579,8.648017383405135,34.14194053232237
0.24,31.222214142622448,131.0103958120587,3.92493179063287,4.57837522350066,0.0005351929930195,35.051650311058864,0.0007555049947555,3.26053011385611,416.2328240017099,8.954297884844461,3.72617527247482,69.98771316795013,2.25257161141768e-06,120.0000043564586,49.09180568115741,1.274,1.0263750048312463,0.0,0.0,0.0,0.0263146218848643,9.034877387788232e-09,-0.0043732521010013,3.809642748985157e-07,0.00012161410144,4.578375254714954,45.32798984252032,8.954381952763216,35.20297212911011
0.25,31.22221397517227,131.0103961556623,4.0071748888306855,4.6034117733065,0.0005618935542827,36.03738579534623,0.000785606492708,3.249069743648399,425.3640807915084,9.311611941121669,3.8789349536029696,69.98520781816889,2.8559738498748624e-06,120.00000517181904,53.08749562138344,1.274,1.0263373768840591,0.0,0.0,0.0,0.0273647110956883,1.0873791100894836e-08,-0.0049950711786164,4.5609738277273444e-07,0.0001444478241125,4.603411807525074,44.2165428352526,9.311700203154778,36.183554686886296
0.26,31.22221379934012,131.01039651647062,4.09364247475714,4.621386912291471,0.0005881033207375,39.29107511182762,0.0008162761165496,3.236407051295005,455.80158342417656,9.67833954512075,4.034902068846398,69.98234620927953,3.5784678110229355e-06,120.00000612171208,57.350948423913096,1.274,1.0263006300381676,0.0,0.0,0.0,0.0284424679130479,1.2973286442992724e-08,-0.0056712051373577,5.414206381221602e-07,0.0001704578711045,4.621386949630312,43.12063533194282,9.678431924174348,39.42414126789902
0.27,31.222213616776543,131.01039689108487,4.183310605341074,4.617158109135719,0.0006115457810536,35.90419462403674,0.0008503454714941,3.221982799915672,423.8421996598744,10.088790784535757,4.205862468567124,69.97909721779352,4.436165972465058e-06,120.000007221354,62.31798301949865,1.274,1.026260090595354,0.0,0.0,0.0,0.0296487219805601,1.5355910600537293e-08,-0.0064045199323113,6.379142666348734e-07,0.0002006609239367,4.617158149547818,41.94410287616451,10.08888684592241,36.048472443180565
0.28,31.22221342607797,131.0103972823952,4.277051150896916,4.642105655370123,0.0006389739579882,41.51133203546672,0.0008785747638736,3.2071101123224945,476.3468732012228,10.432377224420517,4.35383399240675,69.97542808435722,5.446665372087172e-06,120.00000849080963,66.63429581008447,1.274,1.0262212716723291,0.0,0.0,0.0,0.0306584788590473,1.8045308789081613e-08,-0.0072006835403936,7.469524967369969e-07,0.0002332868227611,4.642105699250441,41.0023231023774,10.432477594215127,41.63503624837164
0.29,31.22221323001776,131.01039768469093,4.373143569786686,4.62134615173668,0.0006600657405645,33.17552944492765,0.0009148746278066,3.1894209319791806,397.9703104221098,10.876662296046485,4.536381530986506,69.9713027936179,6.629751536885327e-06,120.00000994797426,72.43000748232016,1.274,1.026183007522519,0.0,0.0,0.0,0.0319641703260467,2.1067646517035105e-08,-0.0080566154554079,8.688043379161898e-07,0.000272130659453,4.621346198772975,39.83162628795024,10.876765978930557,33.32848872465723
0.3,31.22221302403368,131.01039810736614,4.4744193758467325,4.664362353358112,0.0006905183788532,31.08096762732793,0.0009381960428197,3.172549142946348,378.1859457108735,11.168362145070317,4.66647911311536,69.96668711012893,8.005507138509574e-06,120.00001161892672,76.36634300732833,1.274,1.0261430389738484,0.0,0.0,0.0,0.0328214509167604,2.4447409007156216e-08,-0.0089829108229115,1.0056222251461646e-06,0.0003115527202986,4.664362404357781,39.09908960432563,11.168470611443622,31.242464973103964
0.31,31.22221281503337,131.01039853619727,4.576593712520673,4.700143580504286,0.0007196683316923,32.79732593144512,0.0009620705970519,3.154230688182399,394.1656220930229,11.470279728974068,4.800072153432283,69.96154070456518,9.597499105113692e-06,120.00001352112182,80.55022837857167,1.274,1.0261054058068628,0.0,0.0,0.0,0.0337087616009043,2.8214060606649844e-08,-0.0099686353219717,1.1565909895184251e-06,0.0003550834484269,4.700143635477137,38.36463422765983,11.47039277421126,32.94865339301887
0.32,31.222212598991007,131.01039897947376,4.68216432480395,4.718667719113184,0.0007464384342556,35.7316568886908,0.0009885845337584,3.133859770838664,421.5593934624264,11.808280530415894,4.946054328851105,69.95582953472353,1.14278227255889e-05,120.00001568218067,85.36654007972253,1.274,1.026068246703101,0.0,0.0,0.0,0.0347021168382987,3.2392058795580455e-08,-0.0110163301561155,1.3226102501723267e-06,0.0004039614423012,4.718667778018562,37.5686120062341,11.808397780690962,35.8688218659563
0.33,31.222212376029034,131.0103994369436,4.791055524254013,4.72141404831576,0.0007708346814671,35.42013590291081,0.0010176135371143,3.1111955852784385,418.5156301991632,12.181577273013426,5.104163223586657,69.94951809396906,1.351997394754887e-05,120.00001812674968,90.84831229869296,1.274,1.0260310883392356,0.0,0.0,0.0,0.0357992034445943,3.700677535501642e-08,-0.0121310534481307,1.5051409581878843e-06,0.0004588955105349,4.721414111097893,36.7208578211118,12.181698355442045,35.55651229220977
0.34,31.222212145785647,131.0103999093516,4.903491659547144,4.73024573449122,0.0007962944975467,27.63851074646407,0.0010446307681611,3.0871492806781062,345.4656368807584,12.53557620048282,5.2556261014174765,69.94256797855994,1.5899658158227497e-05,120.000020882338,96.20413272674828,1.274,1.0259901535019136,0.0,0.0,0.0,0.0368395817555172,4.208561016221623e-08,-0.0133180771902383,1.7057647550599631e-06,0.0005184333231541,4.730245801363397,35.94841996438923,12.535701282129995,27.810389570354005
0.35,31.222211909310875,131.01040039453565,5.018822212845608,4.780248518778662,0.0008286678570753,30.332092807652543,0.0010618579815451,3.063967690608957,370.5765700527057,12.774786382148209,5.367579971644358,69.93493776125636,1.8594985713558667e-05,120.00002397748868,99.9096898192772,1.274,1.025950003202184,0.0,0.0,0.0,0.0375426220587071,4.7658312175989686e-08,-0.0145774693288123,1.9252724355785177e-06,0.0005782798420984,4.780248590437683,35.44790728185619,12.774916548990808,30.486451961956565
0.36,31.22221166933814,131.0104008868675,5.135354490370708,4.798132156899578,0.0008554457330409,34.32674769697476,0.0010851169437774,3.0374319611165923,407.8625232777224,13.09301701329486,5.506730645516068,69.92658597246795,2.163521613217148e-05,120.0000274401514,104.94818266210537,1.274,1.0259105142325406,0.0,0.0,0.0,0.0384778908056978,5.3755109608570216e-08,-0.0158991451700967,2.162609490834569e-06,0.0006464142451675,4.798132232978766,34.796094028187134,13.09315138639638,34.46087058603792
0.37,31.222211421355144,131.01040139563804,5.255882891363927,4.797392186816851,0.0008791822061288,32.551601855236584,0.00111162791192,3.0078619428913056,391.1218908297639,13.457513730739372,5.661815946371007,69.91747693543164,2.5047738471809164e-05,120.0000313040604,110.87154396328836,1.274,1.025872170958032,0.0,0.0,0.0,0.0395491312153729,6.040098808671168e-08,-0.0172926678053148,2.420031948898497e-06,0.0007226353721561,4.797392267189059,34.07332166419882,13.457651832357364,32.69027405888565
0.38,31.22221116634284,131.01040191882743,5.379799334000849,4.811698494594017,0.0009057112478668,34.02947987649063,0.0011338447913587,2.9774881690446744,404.81876101445977,13.77554886562956,5.800899861213392,69.90756948297444,2.886339581486796e-05,120.00003560072224,116.17243393848278,1.274,1.02583050512925,0.0,0.0,0.0,0.0404838339452728,6.762496638941508e-08,-0.0187646375218858,2.69955777313946e-06,0.0008026686661094,4.8116985796350695,33.46655348088405,13.775691134419684,34.15949264475229
0.39,31.222210906095896,131.01040245274032,5.505993307722699,4.813508003664984,0.000929862892873,29.00025983045028,0.0011579891265804,2.9442136901860865,357.6406249338268,14.124492165837273,5.950648592462506,69.8968186645841,3.311602501056718e-05,120.00004036395212,122.13093644173792,1.274,1.02579027384009,0.0,0.0,0.0,0.0415093739609825,7.545934774906889e-08,-0.020311592409804,3.0013532510753577e-06,0.0008908380763632,4.813508093268025,32.821616487639595,14.124638228358922,29.149330452482886
0.4,31.222210638473225,131.0104030017851,5.635788650457906,4.841647069358873,0.0009592124397379,27.71178845184976,0.0011749448424961,2.91135549588368,345.4656368807565,14.390874239274588,6.07193451174791,69.8851815212744,3.783947407715338e-05,120.00004563180136,126.77947425345651,1.274,1.0257493418632293,0.0,0.0,0.0,0.0422922854866381,8.39343718693383e-08,-0.021938519432511,3.3271332720311508e-06,0.0009803271643914,4.841647164150728,32.348088166612904,14.391024912012275,27.864299944624147
0.41,31.22221036681104,131.01040355909262,5.767123077463226,4.86553909860892,0.0009876699832274,31.306062598221665,0.0011918093836199,2.876450850006428,378.9468707766882,14.663028799871563,6.195223154320929,69.87261222561014,4.307011032901644e-05,120.0000514391194,131.6183642808765,1.274,1.025708445186429,0.0,0.0,0.0,0.0430921644173401,9.308325447883581e-08,-0.0236371933433427,3.6760977501392174e-06,0.0010761942383903,4.865539198612839,31.87689439156756,14.663183942709727,31.437931330109585
0.42,31.22221008906472,131.01040412887247,5.901259531771367,4.867510642114694,0.0010118258958528,35.308283402190774,0.0012128114559048,2.8374461227958245,416.23282400171047,14.9952917972178,6.33928625560071,69.85906967380902,4.884273094936628e-05,120.00005782486392,137.64909586091787,1.274,1.0256701057426505,0.0,0.0,0.0,0.0440686959134695,1.0293499639582845e-07,-0.0254093547296826,4.049238334851429e-06,0.0011830797791891,4.867510747027452,31.315270489291198,14.995450734457847,35.422111438762386
0.43,31.222209804115888,131.01040471342728,6.038886819939341,4.854590670645608,0.0010330089741511,31.00586934514032,0.0012363751872706,2.794478603999558,375.90313951343126,15.369430568701889,6.497852263156962,69.8445117629242,5.519340856908871e-05,120.00006482835984,144.60167924299955,1.274,1.0256308158337524,0.0,0.0,0.0,0.0451682983415116,1.135186446762958e-07,-0.0272634397889413,4.449073329427772e-06,0.0013010625065656,4.854590780289497,30.70250814963406,15.369592833372094,31.13154422839874
0.44,31.22220951192321,131.01040531284193,6.180028459770617,4.866912332640401,0.0010595850174406,28.57707721036899,0.0012525768202179,2.752165534925872,353.07501253892326,15.659290812546615,6.627318538707029,69.82889155423543,6.216182865383864e-05,120.00007249162944,150.1053167542629,1.274,1.025586171750536,0.0,0.0,0.0,0.0460202245100907,1.2486676023179565e-07,-0.0292060158163984,4.8779154055816594e-06,0.001420032405556,4.866912447705031,30.24619499837236,15.659457251771938,28.709297424144207
0.45,31.222209215425703,131.01040592106523,6.322872201489905,4.881836476567178,0.0010866574689855,33.31904824532484,0.0012669045761511,2.7082028218433374,397.2093853562887,15.934249290371609,6.751662050993672,69.81215834018458,6.97909417564726e-05,120.00008085697964,155.42080512416243,1.274,1.0255397023523487,0.0,0.0,0.0,0.0468283602442113,1.3701614206272197e-07,-0.0312276295846745,5.334643585560923e-06,0.0015449645531859,4.8818365972149325,29.82567893138932,15.934419982127675,33.428929688274074
0.46,31.22220891307435,131.0104065412864,6.468371919199588,4.869610441729251,0.0011078049156487,38.95909776354321,0.0012868374716666,2.6582856015412624,449.7140588976424,16.292139278621757,6.904766425053949,69.79426683863348,7.812149592850748e-05,120.00008996920153,162.4785746623087,1.274,1.02549635315424,0.0,0.0,0.0,0.0478802236363867,1.499987870203256e-07,-0.0333272350234362,5.819761874615242e-06,0.0016858511402973,4.869610567434908,29.29014635640275,16.292313292210977,39.04968351401366
0.47,31.22220860266524,131.01040717804253,6.6178810515614845,4.838450928223533,0.0011247917292402,26.253747818137555,0.0013104398935566,2.6026193242279367,331.0078106302504,16.710658191447514,7.078951441335346,69.77517236812905,8.719457259907165e-05,120.0000998741591,170.9309671061642,1.274,1.025453319323251,0.0,0.0,0.0,0.0491102725711187,1.6384464803343264e-07,-0.0355167087264168,6.3368207228363735e-06,0.0018427306558807,4.838451058652396,28.68386015667837,16.710834873319172,26.382435512333956
0.48,31.222208284201663,131.0104078313267,6.771393590864176,4.869339340099417,0.0011561785713505,25.860860976019296,0.0013165328518772,2.5543454292827983,327.20312230115803,16.911139899671,7.177575416403102,69.75482343794755,9.70562828082882e-05,120.00011062072316,175.0543877818846,1.274,1.0254092882449153,0.0,0.0,0.0,0.0496995461609974,1.7858865391586845e-07,-0.0378054080201581,6.88909442277235e-06,0.0019849793891693,4.869339477030596,28.40887970825325,16.911321511776286,25.986704537635287
0.49,31.22220796480208,131.01040848648364,6.924537656029012,4.881367714530694,0.0011829003785372,32.565703383222065,0.0013261973190012,2.5011623511055703,389.6000096981238,17.169005224738054,7.296160258358563,69.73316318155707,0.0001077573203115,120.000122255028,180.4309832312717,1.274,1.025367445590036,0.0,0.0,0.0,0.05045746454003,1.942747077649401e-07,-0.0401641298712614,7.47069711110948e-06,0.002140948887153,4.881367857509675,28.058569663954906,17.169191034294997,32.66161128464712
0.5,31.222207637929923,131.01040915697027,7.081324512896956,4.862566137860805,0.001202418260511,33.47759680712428,0.0013425340759632,2.4399894027711366,397.970310422106,17.52898693231981,7.450304424940405,69.71015149227495,0.0001193385310595,120.0001348274002,188.0736471953394,1.274,1.0253278572281015,0.0,0.0,0.0,0.0515154948878309,2.109295159784217e-07,-0.0426011733481599,8.084173008518589e-06,0.0023184335011768,4.862566286171007,27.57768313050809,17.529175807738486,33.56639745442473
0.51,31.22220730314019,131.01040984370235,7.24202048914867,4.8479762258125,0.001223054804074,25.49162310288008,0.0013562860883156,2.3767006597692686,323.39843497208153,17.86914397471067,7.597652147346554,69.68574349602717,0.0001318441288964,120.00014838524436,195.4407439266201,1.274,1.025286455263166,0.0,0.0,0.0,0.0525152689856776,2.2858192086249162e-07,-0.0451315948093539,8.734206149830708e-06,0.002503767471626,4.847976379721193,27.13799345359824,17.86933609171003,25.602178740977283
0.52,31.222206962738102,131.01041054193402,7.405210501673173,4.865306299521403,0.0012516517170965,30.733671928447727,0.0013599291289974,2.317711624364424,372.098451184342,18.08534843773428,7.701914987606457,69.65988568649581,0.0001453248538387,120.00016298000436,200.19561780583155,1.274,1.0252426840672306,0.0,0.0,0.0,0.0531507657929359,2.4726951523704535e-07,-0.0477531686556663,9.421346966092632e-06,0.0026812161964639,4.865306460134566,26.8699055233151,18.085545046726228,30.820940596104087
0.53,31.222206619320115,131.01041124632013,7.569307468221277,4.848802699234936,0.0012715119568563,32.301199055744725,0.0013711327835325,2.2490252325653923,386.55624643486095,18.41963113311156,7.8474319110539055,69.6325258319474,0.0001598315062727,120.0001786629144,207.6614205945027,1.274,1.0251993415311351,0.0,0.0,0.0,0.0541332845214831,2.67031759303889e-07,-0.0504479325599339,1.0141887756417996e-05,0.0028848299490111,4.848802865552398,26.45837260670532,18.419830861742675,32.37940050117613
0.54,31.22220626697288,131.01041196903336,7.737918664599091,4.831496690588052,0.0012913635058467,28.31291960103712,0.0013809098107221,2.177242866245296,349.2703242098436,18.75116898748492,7.992112829440902,69.60362200959217,0.0001754082864028,120.00019548734956,215.20067397992847,1.274,1.0251561018460285,0.0,0.0,0.0,0.0551077428911958,2.878941684235108e-07,-0.0532336286085667,1.090122304443916e-05,0.003098869611663,4.831496862756785,26.061835558272342,18.751371834390056,28.396510432451375
0.55,31.222205908994248,131.01041270328463,7.909026079894722,6.513254524653416,3.221351441463697,30.068444254434496,-0.1684980275329739,2.0122048554421923,365.2500005919912,19.321439881558085,8.113323699629928,69.57312211246325,0.0001921068626005,120.00021350480982,228.48556729167785,1.274,1.025112921033824,0.0,1.2532017829729258,0.0,0.0567838195707577,3.0989272306468813e-07,-0.0561100530405476,1.1700476995263424e-05,0.0033655954893797,7.263252841114067,28.864298325220624,19.8271820386331,30.136169296172707
0.56,31.222205546564343,131.01041344664463,8.081909946161325,4.810348713512078,-3.73001434268429,28.030510470683808,0.1595294236807738,2.008426639596729,346.22656194657776,19.3662373703884,8.249440985479161,69.54097415464405,0.0002099796112633,120.00023276987916,229.54248985915217,1.274,1.0250709539098009,0.0,1.2577738927225492,210.00008998959544,0.0569155860048029,3.33055098311298e-07,-0.0602110325869796,0.0020678997594897,0.0036198941056479,6.084385564205339,21.649830862946075,18.78074186120616,28.102824492402473
0.57,31.22220517743276,131.01041420478916,8.258244915209472,4.8037708992253565,-3.6818347061882593,27.719358254168835,0.2088913636896991,1.93140495841714,343.1828296833045,19.6365660919039,8.373691905806412,69.50647648621381,0.0033802394768671,120.00361702871795,235.9914782497372,1.274,1.0250279191823897,0.0,1.2623102824056371,210.00008998959544,0.0577101719906615,3.5902411567128694e-07,-0.0632520980865486,-0.0003241049221291,0.0038557393370035,6.049821042879075,21.4029161819212,19.058622796878733,27.787349329113425
0.58,31.222204802698705,131.01041497212742,8.436460749562052,4.7924360534409125,-3.637774887225445,36.65402060792076,0.2603165994088131,1.851070002885019,426.12500585731766,19.912416848237296,8.499549618690335,69.47023647254296,0.0028788020704627,120.00308182150545,242.66422346117187,1.274,1.024981594484354,0.0,1.2668518344190975,210.00008998959544,0.0585209911954257,3.849385580008578e-07,-0.0663744376952591,-0.0027512050121855,0.0041028400392252,6.014147089460846,21.151770405549534,19.341380339045475,36.70165461683422
0.59,31.22220442226357,131.01041575162725,8.617342090211359,4.746957473509879,-3.569487534592932,29.632648583202368,0.3156509671464249,1.7564462988294327,360.68438819710633,20.323044092954422,8.673080499286433,69.43220751307804,-0.0013274901951767,119.99858987635272,252.7713088744444,1.274,1.0249386802161349,0.0,1.2713620464449231,210.00008998959544,0.0597279135098094,4.10813760142517e-07,-0.0695776145820089,-0.005216737521697,0.0043894540441638,5.936806643573306,20.78690739185816,19.76271292628924,29.686336944616414
0.6,31.222204032001112,131.01041655069588,8.803093244513077,4.735275141236756,-3.5277600753760368,26.294303910562665,0.3711187912717434,1.670390096083873,329.4859594986072,20.584435008439588,8.794141259721638,69.3923429901612,-0.0092746245551798,119.99010072967567,259.31068633983205,1.274,1.024891335813742,0.0,1.2758603397423165,210.00008998959544,0.0604962487177264,4.366574116426687e-07,-0.0728829126601255,-0.0077364165238512,0.0046570310890006,5.9025051314425205,20.563970292605998,20.03064580813231,26.34992125930097
0.61,31.22220363919892,131.01041735448706,8.98934986913664,4.724900952716806,-3.4881871661489154,30.897901753562493,0.4280032699312747,1.582723739986803,372.0984511843332,20.830877009138387,8.910063133997332,69.35058378162671,-0.0210200714183681,119.97755076745696,265.5521698697523,1.274,1.0248423929069768,0.0,1.280399008817552,210.00008998959544,0.061220653563354,4.6249026670617933e-07,-0.0762654386411567,-0.0102906913390075,0.0049314203797168,5.870650548364057,20.359265327211546,20.28329225960607,30.941372529495034
0.62,31.222203240321296,131.0104181702844,9.178243894396092,4.693065699329305,-3.43387971519922,38.53228595392292,0.4884531743424377,1.4842083594825093,442.86563930529206,21.162547564794,9.0563568058932,69.30688475207273,-0.0365889246143917,119.9609107786408,274.0707966302872,1.274,1.0247996097896497,0.0,1.2848708664254032,210.00008998959544,0.062195545259107,4.883276922842161e-07,-0.0797218302449214,-0.0128767257072402,0.0052368969608329,5.812917256775889,20.08847698432607,20.62347785032245,38.563953658731215
0.63,31.22220283345776,131.0104190020224,9.370913191524254,4.6396469064872345,-3.36528515556338,21.6709827942898,0.5535151797547238,1.3730244432193464,286.11251274707456,21.585191800729955,9.235197432672452,69.2612023841121,-0.05599944066657,119.94015866690025,285.1219528853717,1.274,1.024756158874558,0.0,1.2893256901512011,210.00008998959544,0.0634378109465992,5.141801526274372e-07,-0.0832651638115276,-0.0155037126900113,0.0055787903264703,5.729458698913133,19.75198790725191,21.05687793298767,21.721488679330918
0.64,31.22220241773769,131.01041985150124,9.567867999610096,4.647568892080297,-3.341803770338132,21.27919730128496,0.6132719548006494,1.2864670636957751,282.3078244179702,21.718155170571467,9.3112577735033,69.21348534575918,-0.079281145078124,119.915260087172,288.6399780313586,1.274,1.024708534665538,0.0,1.2937921666686627,210.00008998959544,0.0638287255342533,5.400578026791215e-07,-0.0869096995373499,-0.0181815984600612,0.0058587336293869,5.722153393646129,19.656184090574776,21.193523434018758,21.326868916545912
0.65,31.222202003223,131.01042069797433,9.76308128166313,4.636172155341385,-3.3052645302610704,37.93812847100693,0.6761243624994991,1.190075077304357,436.7781447787504,21.92908586486636,9.415209937017211,69.16367377134185,-0.106475667406733,119.88616751571396,294.2683367472805,1.274,1.0246641738210605,0.0,1.2982800242469827,210.00008998959544,0.064448783721179,5.659933232012692e-07,-0.0906051726049384,-0.0208730812531579,0.0061670568507669,5.691661176050816,19.50078391735962,21.410184045174265,37.96281094341952
0.66,31.22220158090435,131.01042156003584,9.961944448154544,4.569869922928532,-3.230746679993122,32.214770391954225,0.748735460874637,1.0638147196802334,383.5125151715984,22.39054909460448,9.608898327472756,69.11173633165075,-0.1375656785304346,119.85289630457568,306.77761975239684,1.274,1.0246195561629028,0.0,1.302652885741441,210.00008998959544,0.0658051549567128,5.919980468856166e-07,-0.0943632329497954,-0.0235864825930183,0.0065578834589867,5.594576641911251,19.15680194046191,21.88333347564148,32.24102569637805
0.67,31.22220114673273,131.01042244607575,10.166854443021716,4.537200847991414,-3.1809938855720903,22.0616799087646,0.8184341264131046,0.9512465790642254,289.15624401033847,22.683632427544943,9.74268645747485,69.05763468320433,-0.1725438088810432,119.8154509565002,314.85517969664494,1.274,1.024572383541697,0.0,1.307033483085214,210.00008998959544,0.0666666722291066,6.180721106926341e-07,-0.0982253205595003,-0.0263509669983531,0.0069155010136206,5.539291402132266,18.9501602182116,22.18421972860874,22.097339769081856
0.68,31.222200710537926,131.01042333578303,10.371946201749743,4.527199008777116,-3.147888425393873,27.6593426879665,0.8851554433125159,0.8496808561506618,340.89999248584934,22.853552875389138,9.832504605099034,69.00130632272015,-0.2114433517317707,119.77379220937388,319.58364025339813,1.274,1.0245245285832842,0.0,1.3114710263934513,210.00008998959544,0.0671662199088854,6.442439246864857e-07,-0.1021606819600404,-0.0291439857377634,0.0072463040010485,5.512177214502395,18.83912282327345,22.35933244073215,27.686543584320894
0.69,31.222200270865045,131.01042423216364,10.578092498851518,4.488098935741284,-3.0952818035929366,34.16026480192972,0.9583619858222956,0.7298937500674667,401.0140726853658,23.157500817044287,9.970730519661815,68.94270606975617,-0.2542608641193722,119.7279199088165,328.13447842585333,1.274,1.024479631064582,0.0,1.3158365335172488,210.00008998959544,0.0680596762444813,6.70539385490603e-07,-0.1061459709950526,-0.0319488166246422,0.0076289654044042,5.450155416526153,18.63360232240163,22.67153154986797,34.181499293041774
0.7,31.22219982215907,131.0104251467595,10.788584294828144,4.433795013882738,-3.03313044687634,28.594644283425424,1.0365852635715809,0.5978791658131989,349.270324209851,23.530596357938883,10.134239535498498,68.88180183084148,-0.300965350117926,119.67786321381558,338.78609699811153,1.274,1.0244351749185203,0.0,1.3201562207609292,210.00008998959544,0.0691563647404055,6.969658545766781e-07,-0.1102023715029488,-0.0347799107235598,0.0080479550005602,5.370292709584025,18.385072045916477,23.054375844424406,28.61967243350632
0.71,31.22219936594657,131.01042607644095,11.002503661136664,4.399741026777115,-2.9856449764078024,23.43895078243043,1.1117331221310165,0.4764409160341561,301.3312640634036,23.788159700249714,10.256349192516074,68.81854899295442,-0.3515444638670061,119.62363108697951,346.23620671943064,1.274,1.0243880468141104,0.0,1.3244986218975512,210.00008998959544,0.0699135114953589,7.235359113153617e-07,-0.1143396701183433,-0.0376435304348477,0.0084413231066606,5.315474180111662,18.223538311331893,23.319387900418874,23.470137627685755
0.72,31.222198906308943,131.01042701272976,11.21743305982648,4.372607181980161,-2.9434454224479807,28.79677661841204,1.1858199812958912,0.3586540661453755,350.7922053414578,23.99636077867469,10.360829356457309,68.75289696119091,-0.4059920696576266,119.5652256008267,352.31618317565005,1.274,1.024337302174265,0.0,1.328831839016531,210.00008998959544,0.0705255864366694,7.502771203426286e-07,-0.1185351312279677,-0.040523578317181,0.0088274699501758,5.269415054475913,18.099559809551224,23.534208798146643,28.823413145877183
0.73,31.222198441848608,131.01042795854545,11.43419911194788,4.323822847531954,-2.887376140254979,36.537429860755125,1.266525263013907,0.2239953948058095,422.3203185282354,24.31018503803563,10.50399588987527,68.68480789368729,-0.4642755365496617,119.50267702698916,361.584092311502,1.274,1.024292465384646,0.0,1.3331181277207824,210.00008998959544,0.0714480943503568,7.772117414648154e-07,-0.1227775306531743,-0.0434120538800888,0.0092627917262759,5.197744715457854,17.907901623096333,23.856829000180674,36.56006073584051
0.74,31.22219796906233,131.01042892124767,11.654860518749787,4.257489014429031,-2.820513007623981,22.74590386565385,1.3540587890483589,0.0730864333293004,294.4828134710563,24.71290526118564,10.680011760528792,68.61425010400569,-0.5263479925989686,119.43603072523956,373.6553394721494,1.274,1.0242470321640116,0.0,1.3373750285385904,210.00008998959544,0.0726318775289174,8.043490872645724e-07,-0.1270825553781689,-0.0463192126824056,0.0097461991388315,5.105571143433577,17.663721448198608,24.270039032402988,22.786288848702473
0.75,31.2221974877952,131.0104299012203,11.879497405320471,4.232019195745608,-2.78120990710643,26.628083216246555,1.4296162168645687,-0.0466017083919555,330.24688556441737,24.870984119730352,10.766995315287916,68.54118255402481,-0.5921748516842352,119.3653186672866,378.44272071136055,1.274,1.0241984712898409,0.0,1.341642520173152,210.00008998959544,0.0730966606954916,8.317003281909461e-07,-0.1314627506757763,-0.0492530040280901,0.0101463970774064,5.062710821546706,17.583193444224513,24.434284232314457,26.66647314547049
0.76,31.22219700669393,131.01043088031437,12.103026338740584,4.182337057563063,-2.7266858075304685,28.700267442448727,1.5134065705409712,-0.1869040829619252,349.2703242098581,25.15568266493592,10.900676915868416,68.46555663056876,-0.6617301360021943,119.29056334932436,387.1480788115095,1.274,1.0241522053390697,0.0,1.3459103460597528,210.00008998959544,0.0739335857645957,8.593074685168909e-07,-0.1358717720798745,-0.0521820512679121,0.0106065023860715,4.991347209870319,17.424367542716475,24.72753751125868,28.740749535321218
0.77,31.22219651611072,131.01043187885486,12.331111286472291,4.128702551312413,-2.6700753845574288,26.82438942616165,1.5993156707053755,-0.3320605929787313,331.76876669606884,25.451949249456067,11.039042082126455,68.38735020510599,-0.7349403694135161,119.21183813530214,396.3122332843743,1.274,1.0241065975906936,0.0,1.3500933479190826,210.00008998959544,0.0748045179293397,8.871770324201059e-07,-0.1403286133552908,-0.0551187543988083,0.0110831858771525,4.91560184198555,17.26272010429291,25.03268658008558,26.874075666678213
0.78,31.222196019995906,131.01043288857758,12.5614251278407,4.07931332464915,-2.616862140224315,21.98608254962568,1.6840335358692071,-0.4742065142509176,286.8734378128874,25.70980826235932,11.163657994548586,68.30652990106559,-0.8117476475318252,119.12919947481927,404.3742116385692,1.274,1.0240588105546735,0.0,1.3542977835233552,210.00008998959544,0.0755625744637039,9.153272173823916e-07,-0.1448317086374228,-0.0580615099453197,0.0115544751057465,4.845326426989766,17.128698588307664,25.298895414772648,22.05558130376629
0.79,31.22219551892805,131.01043390828394,12.79362769166245,4.037770416218966,-2.5690969813462714,31.38580894033157,1.7653002966664224,-0.6085303491176905,373.6203323159581,25.904644563260184,11.265299916617172,68.223062997238,-0.892089542194335,119.04270851567016,410.5172084841337,1.274,1.0240083170932772,0.0,1.3584799353870465,210.00008998959544,0.0761354087790917,9.437814531796632e-07,-0.1493706034760061,-0.0610032027373044,0.0120066214537625,4.784654400802573,17.035982805520987,25.501226966968808,31.441303999074293
0.8,31.22219501394116,131.01043493579957,13.027113535150113,3.968170355959992,-2.504149778658414,31.8122734636312,1.859035883771292,-0.7722945024195264,377.42502064505805,26.264031934367527,11.428516796144164,68.13692258234704,-0.9758915698971063,118.95243922508584,421.97735872400807,1.274,1.0239625010683884,0.0,1.3626316853627607,210.00008998959544,0.0771918746107658,9.725655564257169e-07,-0.1539305620775936,-0.0639339566730858,0.0125445347905492,4.691173780926019,16.848203391058117,25.87080622381505,31.875903063920724
0.81,31.222194498900183,131.0104359842704,13.265454447840968,3.903121993790139,-2.442651202817701,20.627893292647297,1.9513652976958007,-0.9327482871810718,273.9374926939922,26.5829200773552,11.577224137294431,68.04809009408399,-1.0630637785726316,118.8584821137434,432.2766575223064,1.274,1.0239149950770308,0.0,1.366739010571498,210.00008998959544,0.0781293198372331,1.001680916013626e-06,-0.1585360883704711,-0.0668691389146403,0.0130764299326125,4.6034413942544585,16.689430758837048,26.199345540278934,20.740969784104454
0.82,31.22219397896977,131.01043704273138,13.505633431758197,3.8611646362765697,-2.396034022806595,26.57490404149401,2.0315523950010945,-1.066091777746568,328.725004432774,26.732427778445967,11.662966606450254,67.95653256807029,-1.1535359082504173,118.76090633674684,437.1426704874313,1.274,1.0238644186635044,0.0,1.370870334176478,210.00008998959544,0.0785689477841112,1.031152247249124e-06,-0.1631755956041084,-0.0698008207114253,0.0135344919732539,4.543223196755533,16.63149342832953,26.35616932357205,26.6737564213747
0.83,31.22219345739049,131.01043810421567,13.745769323781802,3.7956761121099145,-2.3353191555826487,33.83936640220527,2.123300537907435,-1.2265229926847627,395.6875032246518,27.02654959616001,11.803409019280611,67.86222357635833,-1.2472250267781184,118.65979458269494,446.80455258902623,1.274,1.0238188483711983,0.0,1.3749728063630926,210.00008998959544,0.0794336127884531,1.0610186133979343e-06,-0.1678155259894766,-0.0727075687316105,0.0140721701435545,4.455658346463168,16.493496596124228,26.659820081788084,33.92809281890984
0.84,31.222192926369924,131.01043918556883,13.990383305027407,3.717241424219108,-2.267206739745589,20.8303190012372,2.2225534811320102,-1.4042370419696968,275.45937482564227,27.39963212605169,11.974265084415157,67.76515606251371,-1.3440178031542496,118.55526227636337,459.21455338162895,1.274,1.0237739661568126,0.0,1.3790152693407138,210.00008998959544,0.0805303602571988,1.0912814743736588e-06,-0.1724761519426214,-0.0756017888948907,0.0146622938473565,4.353262616022447,16.31581211039166,27.04359305561809,20.995566563916185
0.85,31.22219238769525,131.0104402830538,14.238426888807131,3.668747486995069,-2.2177487107416467,22.74130645509168,2.303023081653134,-1.5411091139226678,292.9609323393965,27.54191830606064,12.058288683871492,67.66531109458441,-1.4438170192175814,118.44740738963336,463.9852832720823,1.274,1.0237227741398531,0.0,1.3830740550675935,210.00008998959544,0.0809487806337062,1.1219508894974231e-06,-0.1771657422441691,-0.0784880477044231,0.0151388094119592,4.286186303843567,16.268654208149847,27.19364213489051,22.909516623011434
0.86,31.222191849191788,131.01044137967244,14.485371657027247,3.605180421596037,-2.159610921148424,28.52627487142332,2.3912645958125096,-1.6964789373335707,346.2265619465616,27.777610064418774,12.178173007055108,67.56266482765935,-1.5465306145236903,118.33632224621483,471.949237834189,1.274,1.023674789281455,0.0,1.3871307183162536,210.00008998959544,0.0816417325584492,1.1530753812314496e-06,-0.1818404653765535,-0.0813390556454618,0.0156708624850059,4.201795788335783,16.172516096489304,27.438459493335426,28.67655044094391
0.87,31.22219130251604,131.01044249364531,14.736041321007928,3.529502396496381,-2.094596922721345,26.558110753732304,2.486639018798181,-1.8685895007084936,327.9640783669946,28.090288307157497,12.32803140673414,67.45721890978808,-1.6520296566795525,118.22213903500096,482.62239822354405,1.274,1.0236288969245204,0.0,1.3911068680124223,210.00008998959544,0.082560964970381,1.18466070204875e-06,-0.186511147529699,-0.0841612273074434,0.0162539164990044,4.103556011677517,16.038232013239124,27.761343073656697,26.73963812656183
0.88,31.22219074883576,131.01044362255047,14.98975070078428,3.459440724935796,-2.0334045796971982,22.93978080254549,2.576956810251176,-2.030873804988847,294.4828134710421,28.344665921933263,12.45618497863966,67.3489686885307,-1.760193925825123,118.10498054528992,491.3909839481336,1.274,1.0235805388426191,0.0,1.3950857770757108,210.00008998959544,0.083308851921938,1.216715101048082e-06,-0.1911851551114763,-0.0869584528194719,0.016811712803961,4.01216128423519,15.938154781593846,28.025326522621366,23.173232361552937
0.89,31.222190190972647,131.0104447602332,15.24487070796582,3.3927821830205205,-1.974600262009416,25.17985894543327,2.662839784642389,-2.1850460067082,315.02813424808807,28.55471073308573,12.5678006673404,67.23790524330293,-1.8709084090190304,117.98496395574932,498.68853983601167,1.274,1.0235293752791452,0.0,1.3990565684941063,210.00008998959544,0.0839264439421145,1.2492651958384789e-06,-0.1958473844334494,-0.0897213191046973,0.0173488763732376,3.924978783344015,15.863732632307338,28.24460264454272,25.41437463881458
0.9,31.222189628528568,131.0104459076022,15.501630145752417,3.317796827972855,-1.9113286390514987,27.83114381296868,2.7533196268307742,-2.350679795526857,339.3781423542166,28.81631694902087,12.699897610985404,67.12402852466427,-1.9840462029191648,117.86221938569068,507.8554221587834,1.274,1.0234837388140003,0.0,1.4029939567390628,210.00008998959544,0.0846955879819612,1.2823348257009331e-06,-0.2004852878615175,-0.0924420695803852,0.0179219839147712,3.8284289875651294,15.76519825698363,28.5161418292474,28.06562007878562
0.91,31.222189059349702,131.01044706952644,15.76126169244802,3.2376315000403606,-1.8455037888424763,21.152183902949645,2.8464158138890605,-2.523466046288681,277.7421810230785,29.10643315024212,12.843737684363164,67.00734592161034,-2.099471301394417,117.73688693076114,518.1199277998924,1.274,1.023436404813438,0.0,1.4069020333759867,210.00008998959544,0.0855485347259826,1.3159337000442425e-06,-0.2051013542505236,-0.0951217770427686,0.0185187551531429,3.726193212535944,15.655189487104549,28.81659221697464,21.49150640919644
0.92,31.222188483958288,131.01044824494454,16.023459302751405,3.16839922174264,-1.78624984207792,25.20906853647097,2.927342066992016,-2.6720940223488845,315.0281342480675,29.283368493245884,12.944026037385552,66.88786350863147,-2.21705025876422,117.60910403587164,524.4250755672801,1.274,1.0233859136578225,0.0,1.410799689808592,210.00008998959544,0.086068831059362,1.3500746736289397e-06,-0.2096940583428426,-0.0977590990182117,0.0190480488112014,3.636782767741416,15.604478115276043,29.00283047365304,25.518749078235484
0.93,31.22218790611987,131.01044942543794,16.28606535411126,3.08673051882004,-1.7203773915941625,30.00790168643239,3.01717024259222,-2.841512401734037,359.16250706547066,29.55436727714949,13.081741103784118,66.76558841156248,-2.3366492576949893,117.47900869194,534.1629522073723,1.274,1.0233407575091376,0.0,1.4146822062360784,210.00008998959544,0.0868656002393557,1.3847913178621233e-06,-0.214240136802319,-0.1003403034622411,0.0196406061930363,3.5333750951758263,15.509254786540916,29.284171632982314,30.292766011452045
0.94,31.22218732030008,131.01045062356684,16.552241930085383,2.9979424162155,-1.6509544947010155,21.75165195973745,3.1119760025781145,-3.023302356572803,283.06875048378083,29.87699191542172,13.240572403410347,66.64054160799857,-2.4581191324165927,117.3467557840137,545.8748285340591,1.274,1.0232914783978162,0.0,1.4185181762022578,210.00008998959544,0.0878141157989994,1.4200842815637805e-06,-0.2187478366216344,-0.1028697415287964,0.0202722483965698,3.4221077505323576,15.391976241097598,29.617696474632726,22.180151369128
0.95,31.222186727683344,131.010451836795,16.821303413945472,2.922601565515613,-1.5893065965044375,28.206482343105133,3.189714891226521,-3.171120872256945,342.421873617488,30.052089411663303,13.341722469605925,66.51273948467094,-2.581318296670285,117.21249217311411,552.277628847839,1.274,1.0232418269359267,0.0,1.4223541970825824,210.00008998959544,0.0883290285269403,1.4559607754643094e-06,-0.2232182664442564,-0.1053474584586897,0.0208072393856881,3.3264551928357675,15.348514635016748,29.80247372851528,28.562841855208973
0.96,31.222186133317315,131.01045305363462,17.090372050657848,2.831657882218252,-1.519600010265756,27.632646014859983,3.281554396877547,-3.3507552487191967,337.09533515678265,30.365082725334403,13.498344624390311,66.38219803720085,-2.706107401171105,117.07636251537268,563.8269382270271,1.274,1.0231951201821403,0.0,1.4261799809595532,210.00008998959544,0.0892492486728588,1.4924597706061648e-06,-0.2276234970122389,-0.1077575708403184,0.0214383026421351,3.2133456226376675,15.241547999744672,30.126412497010246,28.02783055784095
0.97,31.222185529405376,131.01045429205556,17.363882291650075,2.7431499715762064,-1.451565072445098,17.631058802330447,3.367703366923529,-3.520629631548866,245.0218871929888,30.637314475567948,13.639523843900484,66.24894998993905,-2.8323305901707982,116.93852976991263,573.9669226253076,1.274,1.0231476260761452,0.0,1.42995507878401,210.00008998959544,0.09004967190385,1.5295713508900565e-06,-0.2319766007565418,-0.1101068520314488,0.0220435889606728,3.103272899105032,15.156862919050852,30.409327557579616,18.291814930765124
0.98,31.222184921174048,131.01045554014874,17.638855232611853,2.6663630347913205,-1.3900541195712564,25.74349279688933,3.435076501761395,-3.653518626822384,319.593746642963,30.762670872039912,13.722314017620816,66.1130207132449,-2.9598431608270426,116.79914503525356,578.658164451557,1.274,1.0230935628253934,0.0,1.433742148666774,210.00008998959544,0.0904184019085928,1.5673159159626e-06,-0.2362648155933196,-0.1123877646642186,0.0225423428680109,3.0067170064628783,15.14244239797636,30.544343100854476,26.227378258472278
0.99,31.222184311372786,131.01045679151798,17.91373400253817,2.572486294547774,-1.3199571934279184,28.144681756177167,3.520671186708358,-3.8270336020360816,341.66094855170127,31.05952727677736,13.874948676390469,65.97444345371564,-3.088494644775197,116.65836605571032,589.8644526403766,1.274,1.0230490803133316,0.0,1.437499568564926,210.00008998959544,0.0912912127286687,1.6057307599075372e-06,-0.240462156495217,-0.1145861811472868,0.0231636009386963,2.891159247157377,15.050797799337545,30.85220722534521,28.621048599807164
1.0,31.222183691786803,131.01045806545503,18.19316666170931,2.4777389955091897,-1.2497861948745992,25.167696581298607,3.6041326624771512,-3.998596772216164,314.2672081822764,31.351922462080875,14.02670643325845,65.83326718479363,-3.2181219262137346,116.51636483580992,601.0065972218345,1.274,1.022999484445133,0.0,1.4412069756332553,210.00008998959544,0.0921509210911599,1.6447950806062317e-06,-0.2445846714458333,-0.1167100738634112,0.023781883748794,2.7749202206458894,14.96411884034825,31.15562207320957,25.736967568146444
1.01,31.22218306724475,131.0104593508054,18.47441195088748,2.3862020610762844,-1.1816752609694063,26.328559880198515,3.678774547468551,-4.154327560003348,324.92031610370094,31.58780904063457,14.156240972718551,65.6895318632636,-3.3485751191938062,116.37329932432388,610.0678845175412,1.274,1.0229507481225095,0.0,1.444927570505811,210.00008998959544,0.0928445437198206,1.684519991085126e-06,-0.2486245542161433,-0.1187546978211291,0.0243559251237798,2.6626132398880737,14.905292726837676,31.40220508326083,26.90696722063088
1.02,31.22218243824976,131.01046064641784,18.757185511317527,2.290683444585993,-1.111956819463402,21.94027667887056,3.755171892431141,-4.316456736338517,284.59063161543185,31.856040226465648,14.29982429283209,65.54328251461587,-3.47970293487126,116.22932946223122,620.4559345541244,1.274,1.0229039803623294,0.0,1.4486243815542823,210.00008998959544,0.0936332416328483,1.7249253259593415e-06,-0.2525675444609308,-0.1207123516340036,0.024951614220732,2.546177477378262,14.834368832014942,31.681385421959423,22.67396867431413
1.03,31.222181802606386,131.0104619576086,19.042720643618928,2.199107451772824,-1.0444762683836424,17.882475017342966,3.820139681896352,-4.457512400861963,247.3046933904342,32.05281095623474,14.414720681412534,65.39457306102537,-3.6113498561594968,116.08462032915034,628.1273369300577,1.274,1.022853416101322,0.0,1.4522941459031056,210.00008998959544,0.0942119058577682,1.7660123421893328e-06,-0.2564102990828243,-0.1225807813264528,0.0254870159916176,2.4344339163030155,14.79696985825196,31.88875409447356,18.82141856340623
1.04,31.22218116361736,131.0104632765685,19.329155002607752,2.108768358752617,-0.9778611740907786,28.568691669154333,3.8772624363908808,-4.585040726285855,345.4656368807608,32.21078840807906,14.514155369689844,65.24345990621362,-3.7433625550597713,115.93933512784342,634.316798525479,1.274,1.0228049544826707,0.0,1.4559532038516143,210.00008998959544,0.0946765504390519,1.8078013076022231e-06,-0.2601377373970274,-0.1243520664763071,0.0259842490378425,2.324367581962191,14.778050033108263,32.05719379077525,29.192908490754323
1.05,31.222180520727104,131.0104646046728,19.61680035575296,2.004944397796909,-0.9053326483004104,17.130552026390404,3.9547055436030703,-4.75812013905204,240.4562587980608,32.54929366156631,14.689681965598153,65.09000890173505,-3.875584063538792,115.79364164376388,647.7011108083137,1.274,1.022755494436122,0.0,1.4595779867197258,210.00008998959544,0.095671822940077,1.8503043157301748e-06,-0.2637393787799036,-0.126020806373159,0.0266201198014529,2.199794232304465,14.683107144444278,32.40709025927604,18.213599751919606
1.06,31.22217986796107,131.0104659565801,19.90899729657733,1.9145848502975884,-0.8392265909586281,24.506861762974754,4.000007364615504,-4.866925051416797,308.1796836557233,32.66309476941299,14.771899897503827,64.93429266664508,-4.007856993750268,115.64770875386372,652.2197993776663,1.274,1.0227013895379469,0.0,1.4631732459262738,210.00008998959544,0.0960066339757046,1.893487032878352e-06,-0.2672274148844244,-0.1275919009251436,0.0270657216658969,2.090376581367916,14.686343324730316,32.531274078410355,25.303622109149526
1.07,31.22217921648588,131.01046730513892,20.19949247101965,1.8126392932239863,-0.7683821035359821,28.896508735181783,4.063907028401547,-5.017876600385038,348.5093681440431,32.94472415368276,14.925529933257137,64.77637718168118,-4.140034393090824,115.50169443969878,663.4969799225598,1.274,1.0226540159946436,0.0,1.4667808076679076,210.00008998959544,0.0968347446375849,1.9373995013618204e-06,-0.2705724036626931,-0.1290514487140335,0.0276400311445914,1.968724275777088,14.61979674939336,32.82403059295703,29.609164847976047
1.08,31.22217855498799,131.0104686781564,20.49460661903242,1.7083388479072614,-0.6969205050126173,19.35522999383325,4.128450238930739,-5.173553012925017,261.0015785751465,33.25543000155156,15.092576673871733,64.61634644132077,-4.271960477415512,115.3557671269329,676.0518799253617,1.274,1.0226061614050743,0.0,1.470323793353978,210.00008998959544,0.0977483308335248,1.982005314001347e-06,-0.2737840471101476,-0.1304031292928092,0.0282310836903023,1.844986685786275,14.543565497491803,33.14596068403374,20.45567599144685
1.09,31.222177887716825,131.0104700653888,20.791955745721843,1.6120976961920384,-0.6292030448237269,17.776356630706736,4.167466044797167,-5.278800146639052,246.54375332456465,33.40129960957884,15.190227660690844,64.45427930165567,-4.403488937143725,115.21008544986304,681.9761960333033,1.274,1.0225512795791307,0.0,1.473880100606473,210.00008998959544,0.0981774176187767,2.0272976903915595e-06,-0.2768572954134292,-0.1316436765337017,0.0286723821588826,1.730505988383246,14.537645911959313,33.30246661293825,19.006113734395182
1.1,31.222177219307746,131.01047145531103,21.0889616146722,1.5134828876828688,-0.5608200929641737,35.94222846632759,4.205748020406944,-5.385792131266507,413.1890617384087,33.57131165326279,15.29882687350085,64.29025822827037,-4.53447576122041,115.0648062024252,688.9167060119503,1.274,1.0224981043155532,0.0,1.477420604683708,210.00008998959544,0.0986774697082408,2.073311545927188e-06,-0.279771202020009,-0.1327640035231443,0.029120804505901,1.6140249287173976,14.522995792094257,33.483219645729896,36.58604734619549
1.11,31.22217654523716,131.0104728592764,21.388137543030307,1.4010248694797804,-0.4876913094557119,26.22310632809839,4.278066834069167,-5.5685326797261485,324.1593910379213,34.02172716073017,15.529464299825875,64.12437867725406,-4.664774038511242,114.92009014939576,707.5063335719443,1.274,1.0224548851875197,0.0,1.4809153812715363,210.00008998959544,0.100001731232659,2.120036240681771e-06,-0.2825220530683044,-0.1337620747802253,0.0298008246193621,1.4834642200192354,14.395975341569022,33.94512171401207,27.147038835510113
1.12,31.222175858391967,131.01047429551028,21.693410311097825,1.298881361470699,-0.418831460183866,9.699788965962028,4.314374856617431,-5.678726206838599,172.7328179403806,34.235777920017846,15.658908629965469,63.95673893930789,-4.794241031291545,114.77609420695464,716.4160125766205,1.274,1.0223979224661404,0.0,1.484394829504086,210.00008998959544,0.1006312477806017,2.167400046652093e-06,-0.2851230321264691,-0.134641077574665,0.0302635128788153,1.364728006463058,14.367110061777652,34.169988614019935,12.03942140303457
1.13,31.222175172077588,131.01047573040475,21.99740975902178,1.2038610485807046,-0.3526510432689363,30.951161371369835,4.3190508159443,-5.724943732041156,367.5328077894322,34.25078738509316,15.701992453762372,63.787430178731,-4.92274255475894,114.6329665332316,717.0233879245014,1.274,1.0223460397860296,0.0,1.4879039522619193,210.00008998959544,0.1006757113514554,2.2154533911892825e-06,-0.28754944198609,-0.1353913508090007,0.0305335460458607,1.2544424582061284,14.418936009523364,34.195393438502705,31.771112207826825
1.14,31.222174485480377,131.01047716586177,22.300598709865568,1.0930323921135772,-0.2819619605910286,16.987699994537802,4.374063204564122,-5.882467687654418,239.6953177322812,34.66722100311982,15.921981032153743,63.61655875486925,-5.050141658675593,114.49085917538024,734.5436570931715,1.274,1.0223022138470996,0.0,1.4913583526179963,210.00008998959544,0.101900112157108,2.2642353203991504e-06,-0.2897835737581572,-0.1360072004789381,0.0311439935872535,1.12881030853775,14.312096824738626,34.622930700690496,18.50183250703129
1.15,31.22217378332685,131.01047864140142,22.61137974976137,0.9931551350572544,-0.2148311884627705,16.73361967002337,4.381203920377966,-5.941329566632449,237.4125115347709,34.76818654615695,16.00394150915422,63.444242061447646,-5.17630295343476,114.34992329757516,738.8064339553086,1.274,1.0222426194541194,0.0,1.494764926477946,210.00008998959544,0.1021972465925262,2.313632434680349e-06,-0.2918427069858923,-0.1364915397720171,0.0314557053532486,1.01612250215446,14.331647221694418,34.73444102105572,18.28957003519408
1.16,31.222173085566872,131.01048010561945,22.91876871064865,0.8905627773644577,-0.1474642651497149,44.31152466230272,4.392566594802697,-6.012867426447106,490.043774385954,34.935303237039335,16.11580582670283,63.27058799499182,-5.301098923268924,114.2103020660648,745.903770290948,1.274,1.02219674531104,0.0,1.4982173493232809,210.00008998959544,0.1026888238616869,2.36371286407534e-06,-0.2937040099009653,-0.1368378623287356,0.0318075423777531,0.9026882178759198,14.325963509552926,34.91213963000938,44.932843598816085
