Time,Latitude,Longitude,Altitude,Angle of Attack,Angle of Sideslip,X-Acceleration,Y-Acceleration,Z-Acceleration,Thrust,True Velocity,Ground Velocity,Pitch,Roll,Yaw,Dynamic Pressure,cp,parachute_deploy_gain,Wind Speed,Mach,omega_x,omega_y,omega_z,Cmq,Angle of Attack(total),Angle of Attack(gust),True Velocity(gust),Acceleration
0.0,31.222186000000004,131.010384,3.000000003643237,0.0,0.0,0.0,0.0,0.0,2.2828121974499247,0.0,0.0,69.99999999623421,0.0,113.69999999388332,0.0,15.288,0,0.0,0.0,0.0,0.0,0.0,-0.0,0.0,90.0,0.0,0.0
0.01,31.22218600000153,131.01038399999584,2.99999882256592,0.0,0.0,0.0,0.0,0.0,34.24218696174923,7.502283530665459e-11,7.190531319924593e-11,69.99999999623329,-4.83564628150269e-13,113.69999999388072,3.446445726795683e-21,15.288,0,0.0,2.204725565824978e-13,-3.659182332138578e-19,7.589415207398531e-19,4.811147140404426e-19,-1.5108918610345807e-31,0.0,89.9999999995224,7.502283530665459e-11,0.0
0.02,31.22218600000288,131.01038399999217,2.999997775701936,0.0,0.0,0.0,0.0,0.0,25.871876237766408,1.5320717031631675e-10,1.4674636035870463e-10,69.99999999623222,-9.67129256300373e-13,113.69999999387804,1.4372842949972735e-20,15.288,0,0.0,4.5023593667086093e-13,-7.284483346386986e-19,1.5178830414797062e-18,9.757819552369542e-19,-6.170906918166791e-31,0.0,89.99999999902465,1.5320717031631675e-10,0.0
0.03,31.22218599928065,131.01038400193067,3.000201659671132,18.81500467334555,-0.00012974450181,11.96616230539064,-1.8916256735984712e-05,3.349833086198469,180.34219359854663,0.0882870268161719,0.0553390044312322,69.99999999799445,-4.212591857125379e-12,113.69999999488518,0.0047728553458352,15.288,0,0.0,0.0002594525584132,3.2187251995663407e-17,-7.20264389268894e-10,1.2365134327422308e-11,1.6874092354518158e-13,18.815004673776716,89.46786891739345,0.0882666465974854,12.426199017587786
0.04,31.22218599548236,131.0103840121632,3.001799604587872,9.46752327608497,-4.6177622759613696e-05,55.21900012092241,3.931876292165237e-06,3.349616504302861,548.6359724538078,0.3767519978512604,0.1853356633749705,70.00000000507204,-2.4624598767003407e-11,113.70000000019972,0.086915163246288,15.288,0,0.0,0.0011071759353184,1.6174128009138757e-15,-1.3693172015529268e-08,2.7753303060112748e-11,1.3689612277852356e-11,9.467523276196548,87.63554493451223,0.3767447442872393,55.32050167054111
0.05,31.222185984749512,131.01038404118162,3.00777936418888,5.376730308971262,-2.257790939128127e-06,80.28807156553681,5.266841443842784e-05,3.348887800834877,761.6984298824644,1.018787885905993,0.4366201147110198,70.00000000894464,-1.1355399380652658e-10,113.70000001523856,0.635552918586145,15.288,0,0.0,0.0029939522895272,1.6418815498809788e-14,-9.32122351075408e-08,4.303264669380585e-11,2.5199270302492604e-10,5.3767303089717045,83.57022052969386,1.0187875312530217,80.35788377762394
0.06,31.22218596447235,131.01038409608267,3.0201664202003013,4.296730121134882,2.4863835723705905e-05,60.21296515808257,0.0001057204249726,3.347700952379021,590.4875390737208,1.721098934225416,0.7081674028809783,69.99999995523842,-3.0560354507026086e-10,113.70000004366592,1.8138247671743823,15.288,0,0.0,0.0050578622752421,8.328976953118383e-14,-3.2824985336199985e-07,5.923438275930214e-11,1.4991363363716091e-09,4.296730121206683,79.20467073327266,1.7211028398275985,60.305955550063224
0.07,31.22218593493329,131.01038417609837,3.038741944736831,3.8204913578752526,4.8016684030909405e-05,91.4060317508128,0.0001597686613101,3.346072557365335,855.2937749779139,2.4375792548422868,0.9844712334613328,69.99999973536046,-5.939103491363046e-10,113.7000000850886,3.6383156301599167,15.288,0,0.0,0.007163413150771,2.709313825263564e-13,-7.906546256197275e-07,7.920022733617308e-11,5.114174483651565e-09,3.820491358176508,74.87999294483174,2.437586797285377,91.46725557277466
0.08,31.222185894468456,131.01038428575305,3.0647976109320942,3.588632851766762,7.220043782492885e-05,19.18449428359557,0.0002119618497595,3.3440615022685813,241.2171988638848,3.1292508166901074,1.2522236515868983,69.99999919480445,-9.914748373602156e-10,113.7000001418522,5.996012698481753,15.288,0,0.0,0.0091960591623389,6.80386533246681e-13,-1.5973238302190878e-06,1.0839624626357699e-10,1.3263625118823921e-08,3.58863285249208,70.86684630658345,3.1292621579083604,19.473766155861934
0.09,31.22218584634549,131.01038441616095,3.0957981580345013,3.551302481506045,9.685468678862004e-05,57.102946699906326,0.0002554087225869,3.341892818148368,563.0937377043176,3.701810007254615,1.479132491047967,69.99999812344194,-1.4359264356978275e-09,113.7000002093888,8.390904013834115,15.288,0,0.0,0.010878666406854,1.440096519545733e-12,-2.748643691533636e-06,1.5214952332699618e-10,2.6999776649034504e-08,3.5513024828250237,67.68737872952666,3.701825221153239,57.20065357568538
0.1,31.222185790329306,131.01038456796124,3.1319266121977414,3.608446747536112,0.0001234669721807,54.26147302645416,0.0002914860332524,3.3396271157106168,538.7437595981919,4.174070299823608,1.6716491241860567,69.9999963052332,-1.902380107712657e-09,113.70000028805804,10.668380938744466,15.288,0,0.0,0.0122665227999911,2.687800116751415e-12,-4.315796035622946e-06,2.1749089204950437e-10,4.7802076800548326e-08,3.608446749645647,65.17160335282355,4.174089693970246,54.36414778470795
0.11,31.222185727066616,131.0103847393952,3.172681775073216,3.633547373470009,0.0001485939126744,42.987553988990406,0.0003293995000288,3.337005588796181,442.8656393052949,4.672024955140527,1.8729475711242067,69.99999349387662,-2.3433348587116544e-09,113.70000037699285,13.365573690709628,15.288,0,0.0,0.0137298902182575,4.5789425819531184e-12,-6.340230783164189e-06,3.1157625832417107e-10,7.860218435507205e-08,3.6335473765043056,62.62546922225161,4.672048296217748,43.116880735560244
0.12,31.22218565692512,131.0103849294629,3.2177790417108385,3.650108937861461,0.0001727442530266,46.86777100765684,0.000367618259785,3.334068179146888,475.58594813540446,5.17479364099247,2.0758708919414386,69.99998941286465,-2.702771525550512e-09,113.70000047573096,16.396890189902592,15.288,0,0.0,0.0152074069417046,7.288473386564583e-12,-8.86736416607888e-06,4.42271554299792e-10,1.217615295152289e-07,3.6501089419435786,60.16906436414164,5.174820775596283,46.986210423745625
0.13,31.222185580265183,131.0103851371844,3.2669395832841857,3.7280113734654137,0.0001995014041665,51.64515456841877,0.0003986198234033,3.3311573548369657,515.9156326236895,5.579364582999854,2.2451120211463422,69.99998375846928,-2.9114380666036422e-09,113.70000058383452,19.060875702782603,15.288,0,0.0,0.0163963474924215,1.100846422415094e-11,-1.1941028436408576e-05,6.179653149059831e-10,1.7678562106638216e-07,3.728011378795934,58.279338776943774,5.579395920607139,51.75247433579817
0.14,31.22218549718016,131.01038536230575,3.320091807147376,3.768719651034081,0.0002242721760019,48.1660778383537,0.0004326225136175,3.32784677779744,486.2390860568404,6.025734265159953,2.428648685938864,69.99997621008868,-2.890941335368725e-09,113.70000070125378,22.232643351545065,15.288,0,0.0,0.0177081261985351,1.5941871344608664e-11,-1.560901486259027e-05,8.477542742712431e-10,2.495765160917323e-07,3.7687196576976176,56.27980129251342,6.025769493750979,48.280903250602165
0.15,31.22218540777004,131.01038560455507,3.377159065217065,3.821894709649632,0.000249725644238,46.56959330999435,0.0004643042952466,3.324387732286376,472.54218587214,6.441023336496372,2.6014999612196745,69.99996641132823,-2.546763407193136e-09,113.70000082794672,25.402620271850456,15.288,0,0.0,0.0189285691155931,2.2314099732464315e-11,-1.992367942778425e-05,1.1417519574710292e-09,3.4051816697623295e-07,3.821894717796148,54.501255563441134,6.441062563308839,46.68809885900716
0.16,31.22218531193176,131.01038586421257,3.4382223512025254,3.8463320955387794,0.0002733212404609,36.974247749122085,0.0004987816203583,3.3205066466509234,391.1218908297564,6.895451966878468,2.7877331692857847,69.99995397923414,-1.77088415515292e-09,113.70000096417354,29.113317717489338,15.288,0,0.0,0.0202640360420561,3.0367358387834494e-11,-2.4945905791363795e-05,1.5114297685186711e-09,4.5643121540033697e-07,3.846332105235269,52.641145594326446,6.895494900078523,37.12304892183151
0.17,31.222185210004127,131.010386140357,3.503019838429153,3.8860314262554336,0.000297865039677,46.520531453299206,0.0005306403365217,3.31650761597812,471.78125980632376,7.314788342774694,2.9619016331667103,69.99993849340957,-4.3039914767238207e-10,113.70000110959404,32.761746921137856,15.288,0,0.0,0.0214963781445172,4.0366633128431416e-11,-3.0713078585132897e-05,1.96747427715988e-09,5.961228045584824e-07,3.886031437653654,51.00464968745696,7.314835131305714,46.63860064094784
0.18,31.22218510147516,131.01038643438045,3.571950002194137,3.9107265153396016,0.0003214293682635,38.895647526122765,0.0005639254295027,3.312149448254175,407.10156721191447,7.754626295791602,3.1430587898572058,69.9999195084231,1.6149322372810674e-09,113.70000126508234,36.81988229018681,15.288,0,0.0,0.0227889722876034,5.2593391349219385e-11,-3.731786027786564e-05,2.525509173087448e-09,7.6786585232224e-07,3.9107265285284982,49.36615848311875,7.754676785798701,39.036415444581515
0.19,31.222184986476247,131.0103867459258,3.644912152926752,3.920599115663931,0.0003437679584038,43.86258669386953,0.0005989384366483,3.307389681300437,448.9531328318269,8.219206165926856,3.332657190859447,69.99989653019398,4.538529095696477e-09,113.70000143063515,41.36350714675367,15.288,0,0.0,0.02415428010977,6.735860419174937e-11,-4.481243905342629e-05,3.199401151670645e-09,9.773118416308382e-07,3.92059913071168,47.71893898797248,8.21926016487149,43.987104227715655
0.2,31.222184864792144,131.01038707557822,3.722074668489528,3.943376465171875,0.000367328732016,40.28070981710589,0.0006315894240138,3.30251450988504,418.51563019916136,8.65238089736321,3.511445117640573,69.99986902534273,8.534090245934178e-09,113.7000016067622,45.83799876721736,15.288,0,0.0,0.025427299120469,8.499785987217288e-11,-5.328041996372527e-05,4.006766070954748e-09,1.2232205148646746e-06,3.9433764822533854,46.2587826635041,8.652438597225508,40.41586552155969
0.21,31.22218473678744,131.01038742234647,3.803156063113743,3.9664546506877016,0.000390962054969,38.67679184347145,0.0006636984664108,3.297405915846789,404.8187610144644,9.079179692250786,3.688002035198235,69.99983642883521,1.3827831253856693e-08,113.70000179318536,50.47126980736161,15.288,0,0.0,0.0266815841422463,1.0586558589671407e-10,-6.275155280099118e-05,4.961340042512481e-09,1.5117124669161171e-06,3.9664546699249135,44.88773728276958,9.079241104426773,38.817098210937615
0.22,31.2221846022986,131.01038778667507,3.8882846911135607,3.956175711337521,0.0004112685792646,46.713636108302936,0.0007011135033803,3.291572407481395,472.5421858721365,9.580256326712124,3.889976788904857,69.99979815126248,2.0662823443484168e-08,113.70000199039316,56.195522894218605,15.288,0,0.0,0.0281541581291438,1.3033127211465288e-10,-7.330053770532661e-05,6.0817207473359025e-09,1.8632831045819008e-06,3.956175732680424,43.35679625546934,9.580320928629488,46.8294591882524
0.23,31.222184460898035,131.01038816972698,3.977794004014759,3.9879066397329104,0.0004360962274406,38.89105719050748,0.0007308686121188,3.286096544282012,406.3406421461021,9.977039034039262,4.056142701351626,69.99975353557706,2.9316661139418326e-08,113.70000219928508,60.9462612310605,15.288,0,0.0,0.0293202403623685,1.5880617816859538e-10,-8.505067486192354e-05,7.393319440773217e-09,2.2514912291167663e-06,3.987906663538912,42.20670487756048,9.97710753587448,39.0296395118868
0.24,31.222184313516166,131.01038856897196,4.070963590490852,4.003523997322975,0.000459165577055,40.0792299321398,0.0007630441688766,3.280134925833028,416.2328240017114,10.408422364424831,4.234121060914368,69.99970190737699,4.010976417051318e-08,113.70000241888,66.32994780718496,15.288,0,0.0,0.030588009649109,1.91711512587616e-10,-9.795845222523724e-05,8.904557280909524e-09,2.7052895870113487e-06,4.003524023611085,41.011349410369874,10.408494489985014,40.21323112692186
0.25,31.22218416001652,131.01038898478134,4.167901030441617,4.0261356185860135,0.0004830526730531,41.17760020658354,0.0007934613160587,3.2740610008587527,425.36408079150686,10.816813039390448,4.4041629376391525,69.99964258149416,5.3372865854010094e-08,113.70000264972064,71.63651430352668,15.288,0,0.0,0.0317882126436337,2.2947426169209347e-10,-0.0001121037688082,1.0637152702866709e-08,3.217380562698304e-06,4.026135647516394,39.93186687113378,10.816888917126896,41.30755663120434
0.26,31.222184000702686,131.0103894163294,4.26837241014618,4.053359329950934,0.000507503069958,44.80261175215926,0.0008224724146494,3.2678597736729302,455.8015834241788,11.207047269494833,4.567925492611352,69.99957484039399,6.947299261165984e-08,113.70000289176392,76.89781807056055,15.288,0,0.0,0.0329350617559806,2.7254099134167665e-10,-0.0001275114371842,1.260720913253598e-08,3.7915697709142366e-06,4.053359361668992,38.945390435244384,11.207126987890645,44.921630958721536
0.27,31.22218383516388,131.01038986473338,4.372698316214008,4.0614460923241,0.0005296455772492,41.029837477288126,0.0008548809954683,3.2610328932384265,423.84219965987256,11.645685385842508,4.748226940060522,69.99949794024376,8.879821051920497e-08,113.70000314600205,83.0342688744587,15.288,0,0.0,0.0342241635563461,3.2137296827284217e-10,-0.0001442952656441,1.4842505534226832e-08,4.458527942364847e-06,4.061446126801262,37.8838346421185,11.645768582375233,41.15922617924542
0.28,31.222183663504484,131.01039032970942,4.48079961904222,4.081133040992532,0.0005533279247169,47.27661484082626,0.0008845140695959,3.254218495915602,476.3468732012221,12.047344998676092,4.915789434712848,69.99941106884992,1.1178948978424788e-07,113.70000341275257,88.85982357848233,15.288,0,0.0,0.0354045979054623,3.764736350660473e-10,-0.0001625146963723,1.7365685655384934e-08,5.194620655212288e-06,4.081133078439725,36.956255322213885,12.047431915223257,47.38848224631549
0.29,31.22218348566054,131.0103908114315,4.592727908358551,4.1001100265020245,0.0005770279952742,37.989969791857405,0.0009138463939581,3.247164755122801,397.97031042211177,12.446314684600782,5.082367374004485,69.99931338876085,1.3891902435864665e-07,113.70000369260468,94.8417675268915,15.288,0,0.0,0.0365771315767517,4.3836067907166327e-10,-0.0001822432988888,2.0202163500922312e-08,6.018074062137429e-06,4.100110067036654,36.07377590258778,12.446405323946324,38.12849176886316
0.3,31.222183301933686,131.01039130907952,4.708251093558373,4.112858061667493,0.0005998635114143,35.655053282557844,0.000944131403186,3.2397207148238625,378.1859457108711,12.860033399289696,5.253940723820665,69.99920403105713,1.707002607527005e-07,113.7000039856728,101.2505662360602,15.288,0,0.0,0.03779301412572,5.075709863465428e-10,-0.0002035013069687,2.3370674033523645e-08,6.94335970778e-06,4.112858105337573,35.19685285507256,12.860127625629724,35.80193592228613
0.31,31.222183112488807,131.0103918222051,4.827243246502713,4.136140889545823,0.0006242383343011,37.56633644061071,0.0009716215464757,3.232339252743767,394.1656220930212,13.2364445751808,5.4126574282679245,69.99908210036875,2.0768081583188525e-07,113.7000042923011,107.26326115439352,15.288,0,0.0,0.0388992619788015,5.846561731689753e-10,-0.0002263323252403,2.6893437641668458e-08,7.948283231812338e-06,4.1361409365698805,34.43286455705216,13.236542630309057,37.70514091683033
0.32,31.22218291741533,131.01039235056504,4.949637017503345,4.1622282001352975,0.0006491019906456,40.83513712643371,0.0009979686925508,3.224840963348891,421.55939346242695,13.59846554462374,5.566374262777002,69.99894668612772,2.504388718903276e-07,113.70000461297312,113.2095365840355,15.288,0,0.0,0.0399632243410653,6.701756367872645e-10,-0.00025078340164,3.0793566854276295e-08,9.047716714467492e-06,4.16222825066026,33.72644865222576,13.598567505326,40.96227562489027
0.33,31.222182716732533,131.01039289410716,5.075419569102976,4.187801887681037,0.0006739743721461,40.48743503284469,0.0010239291638211,3.217136801802925,418.5156301991682,13.956637761217308,5.718704299733134,69.99879684673242,2.995902922462564e-07,113.70000494831164,119.25032483364384,15.288,0,0.0,0.0410158804634189,7.647061680070125e-10,-0.0002769136723495,3.509664608790402e-08,1.0253455741189656e-05,4.187801941818244,33.053267359159875,13.956743628864118,40.61505097607
0.34,31.222182510255863,131.01039345333336,5.204736257784645,4.19642921746386,0.0006961879027693,31.814592723444047,0.0010535137542081,3.208669900766693,345.46563688075645,14.367047160772364,5.88887983533068,69.99863160305904,3.557915789971256e-07,113.70000529927128,126.36523219087664,15.288,0,0.0,0.042222056531773,8.688448410811866e-10,-0.0003048202762282,3.9835373705550826e-08,1.1618525957862828e-05,4.196429275109305,32.30947868183619,14.367156517712404,31.97598901989736
0.35,31.222182298183583,131.0103940277045,5.337435501771672,4.210915783240843,0.0007193441544952,34.813487415034444,0.0010813034848195,3.200164272309822,370.5765700527033,14.754132934586384,6.050986755458457,69.99844991734221,4.1975736284587617e-07,113.70000566632532,133.26448209504355,15.288,0,0.0,0.0433596939127697,9.832256819293898e-10,-0.0003345386312107,4.503361101379695e-08,1.309465610343774e-05,4.210915844572415,31.63649055965014,14.75424592890194,34.96026256388454
0.36,31.222182080444604,131.0103946174141,5.4735747500461605,4.22903876037745,0.0007431682866607,39.2632255716727,0.0011077666085529,3.1915717453569297,407.8625232777193,15.124417129017054,6.2072589919251575,69.99825073022951,4.922382611919288e-07,113.70000605036684,140.03566173682628,15.288,0,0.0,0.0444479595865755,1.1084921261805627e-09,-0.0003661511460057,5.0723697896912267e-08,1.4691545926915382e-05,4.229038825557203,31.017264542603208,15.124533865618538,39.39272792946638
0.37,31.22218185710795,131.01039522227452,5.613102797925907,4.249164960780052,0.0007674149135003,37.28328237034959,0.001133274451316,3.1828514669894137,391.1218908297666,15.483077353331511,6.359470679857624,69.99803294268581,5.740349991123437e-07,113.70000645214331,146.75405277514704,15.288,0,0.0,0.0455020695186381,1.245311285088233e-09,-0.0003997125883071,5.6934243389647934e-08,1.641828325195534e-05,4.2491650299519,30.439178816713017,15.483197898584232,37.418894813348615
0.38,31.2221816281124,131.0103958424523,5.756069531572451,4.260095806433531,0.0007900626414612,38.9278000801764,0.0011607546399008,3.1735466295306622,404.8187610144602,15.87126705947922,6.521735074464384,69.99779542676283,6.659911329739736e-07,113.70000687263192,154.20298254405043,15.288,0,0.0,0.0466429667223463,1.3943646956867835e-09,-0.0004353006984059,6.369875435270817e-08,1.8328108041903096e-05,4.260095879559656,29.83470194713067,15.87139116222873,39.05694584372078
0.39,31.22218139339905,131.0103964781077,5.9025231349944285,4.274091258047817,0.0008133283308351,33.320076729592266,0.0011870382950339,3.164143363712209,357.64062493382744,16.24457853509073,6.678818328235205,69.9975369905506,7.690136753559805e-07,113.70000731287368,161.54010621938565,15.288,0,0.0,0.0477401448128051,1.5563705124515804e-09,-0.0004730068442167,7.105463478762673e-08,2.0383860516746246e-05,4.274091335289374,29.274934656826048,16.244706292406182,33.46997636540994
0.4,31.22218115316572,131.01039712870306,6.0523126585892895,4.286421841403391,0.0008363022448449,31.88018820767003,0.0012133780841982,3.1544430614236454,345.465636880754,16.62063299903514,6.836764518435374,69.99725641601981,8.840594270905819e-07,113.70000777359816,169.10340080049767,15.288,0,0.0,0.0488453895716005,1.7320643186450851e-09,-0.0005128553637434,7.9027539265021e-08,2.2612406375611563e-05,4.286421922834417,28.730746964325096,16.620764365084565,32.03586915718869
0.41,31.22218090752676,131.01039779392735,6.205351877049411,4.30025870409831,0.0008595777771371,35.882550741685804,0.0012389121673015,3.1445895889870297,378.94687077668647,16.987310563534386,6.99141560549392,69.9969524610574,1.0121301778427253e-06,113.70000825570062,176.64448930727934,15.288,0,0.0,0.0499230826371405,1.922193031274436e-09,-0.0005548883906878,8.764667734700782e-08,2.5005077415911235e-05,4.300258789847355,28.21875643368965,16.987445585695873,36.020076248499606
0.42,31.222180656535848,131.0103984736348,6.36160173428776,4.322008670726048,0.0008844838439129,40.34064925656127,0.001261804338223,3.134918999355981,416.2328240017114,17.318628721060172,7.133856886815013,69.99662385300175,1.154276942054023e-06,113.70000876021427,183.59942989625057,15.288,0,0.0,0.0508968652507098,2.1275184665783874e-09,-0.0005991661829955,9.694534598491077e-08,2.752657757470936e-05,4.322008761057615,27.772396468009568,17.318767655457478,40.462275036947325
0.43,31.222180400205527,131.0103991677914,6.521055075967404,4.339436441324956,0.0009085827200945,35.541853595187746,0.0012854696362701,3.124839917627212,375.9031395134336,17.662848429084132,7.280642039343927,69.99626930133451,1.3115939750280808e-06,113.70000928827632,190.96736675963504,15.288,0,0.0,0.0519085689713619,2.3488101247838237e-09,-0.0006457514522491,1.0695800287133593e-07,3.0255957891170616e-05,4.339436536261635,27.322335771349252,17.662991148924057,35.67895714766603
0.44,31.22218013836212,131.0103998768696,6.683849332059896,4.342209064313268,0.0009296474314902,32.82948243168077,0.0013129688908547,3.113754688841357,353.0750125389216,18.063580761318697,7.446730341918701,69.99588746395321,1.4852372182848018e-06,113.7000098413532,199.7278270846888,15.288,0,0.0,0.0530863610987301,2.586862292117705e-09,-0.0006947575786514,1.1773083546077225e-07,3.329010177793299e-05,4.342209163639375,26.81344244367223,18.06372678999575,32.9768158972058
0.45,31.22217987077456,131.0104006014978,6.850166573233225,4.3420317510315165,0.0009500780330031,38.11022602597878,0.001341042003417,3.1022288449712887,397.2093853562869,18.47486275310604,7.616350301328129,69.99547690348253,1.6764536248320808e-06,113.70001042108892,208.92306716049887,15.288,0,0.0,0.0542951637545535,2.842521175226318e-09,-0.0007463379956615,1.2932090054593452e-07,3.657529369088674e-05,4.342031854775571,26.30944884471334,18.47501199101448,38.23628058998621
0.46,31.22217959739673,131.01040134180155,7.020045503401754,4.351169003849846,0.0009725797783515,44.3937050866137,0.0013660055515545,3.09098240974522,449.7140588976434,18.844323061800488,7.771531995684422,69.99503610583268,1.8865779683531e-06,113.70001102895836,217.3591612614144,15.288,0,0.0,0.0553810645782081,3.1166808800591503e-09,-0.000800596194505,1.417768495237597e-07,4.001824400409673e-05,4.351169112337076,25.873596578896564,18.844475834274814,44.50118229261506
0.47,31.22217931813738,131.01040209802923,7.193559875579052,4.358630093683735,0.0009947969928181,30.22514089990685,0.0013910994973101,3.079396422776949,331.0078106302534,19.2180591098146,7.9280875671397615,69.99456352718363,2.1170044481277104e-06,113.70001166656292,226.0625808853568,15.288,0,0.0,0.0564795377574197,3.4102493884459798e-09,-0.0008576351980594,1.551487523304888e-07,4.3718862242359527e-05,4.35863020698899,25.44665981168229,19.218215372160817,30.381603425148434
0.48,31.22217903348153,131.01040286886197,7.370336324605091,4.365514409145237,0.001016880998596,29.779838936311712,0.001416009414045,3.067527859335786,327.2031223011574,19.5915905767454,8.084483592791102,69.99405758812365,2.369198154608765e-06,113.70001233476164,234.93171707892955,15.288,0,0.0,0.057577416115756,3.7241711041759195e-09,-0.0009173883913609,1.6944871263079066e-07,4.767297940601472e-05,4.365514527349481,25.03354780044292,19.59175030803913,29.937410312943754
0.49,31.22217874361868,131.01040365378466,7.5502307795521535,4.3786401372577615,0.0010404145545081,37.2489281064929,0.0014385799934191,3.0558405437943126,389.60000969812296,19.93403005898306,8.23012235628909,69.99351671352461,2.644660619562788e-06,113.700013034871,243.21198709852868,15.288,0,0.0,0.0585839249886784,4.059374595909599e-09,-0.0009798792959512,1.8470833984680338e-07,5.180951737438081e-05,4.378640260624215,24.667474291142685,19.934193486919103,37.37406598941686
0.5,31.22217844858332,131.0104044527036,7.733219389747018,4.395120142280574,-13.899506273777236,38.47604469801497,0.927166257240448,3.0440510062145325,397.97031042210494,20.86115716474209,8.366189013561664,69.99293932307316,2.9449363413826395e-06,113.70001376847225,266.35687909697714,15.288,0,5.010313955797237,0.0613087762833236,4.416703151082342e-09,-0.0010538516203957,2.098572043595796e-05,5.831121467169733e-05,14.564778429139572,9.75840990415512,18.69918006579694,38.60740731259542
0.51,31.222178148115432,131.0104052652298,7.919255608765593,4.4067650066988975,-13.701100438976365,29.566441499401726,0.9492706393902804,3.0317685551008378,323.3984349720841,21.19786630260224,8.512475854755891,69.99231883596997,-0.0001197579470619,113.69988360560647,275.0196132958409,15.288,0,5.030197704767829,0.0622984602439079,4.7555196916308244e-09,-0.0011220021834307,-0.0001999470402551,6.308299706701737e-05,14.379430180790647,9.667019407362451,19.0661550497756,29.736630580078355
0.52,31.22217784173353,131.01040609122555,8.108355694373278,4.415327392703,-13.50502875168808,35.4042876097434,0.9722293310372344,3.019101761363669,372.0984511843415,21.543509000850847,8.661523921163884,69.99165856565834,-0.0005939462709514,113.69937938732905,284.0562628293538,15.288,0,5.050013014472153,0.0633144054643314,4.9913563282916954e-09,-0.0011930828239623,-0.0004263969972364,6.81719344856633e-05,14.195717519647165,9.57226257810625,19.441732645172632,35.5460797623455
0.53,31.22217752929376,131.01040693106648,8.300631616126003,4.424031771913325,-13.316630746282652,37.14635581593885,0.9952945261137238,3.006213694536238,386.5562464348624,21.885727571904454,8.809213386597666,69.99095678782967,-0.0014285189016935,113.69849164012824,293.1469929805926,15.288,0,5.069762951949431,0.0643202941053215,5.122333387730788e-09,-0.001267227005578,-0.0006586201791716,7.355733262130477e-05,14.019660433719542,9.480536205125455,19.812737739161616,37.281090144673385
0.54,31.22217721068585,131.01040778500504,8.49616060535822,4.432520855057519,-13.13450047413408,32.69264060732401,1.0185503636853632,2.9930761409099165,349.2703242098436,22.226138341748257,8.956116477207571,69.99021171641299,-0.0026326050020006,113.69721064490744,302.33145790032984,15.288,0,5.089461827315019,0.0653208765217208,5.146545557922738e-09,-0.0013445530431422,-0.0008968080306824,7.925822884572547e-05,13.84979547206279,9.391319472961271,20.180998655746635,32.845162497821484
0.55,31.222176886173248,131.0104086522781,8.694730213755854,4.442032926382196,-12.961712796388582,34.61696788665788,1.0417079834699716,2.979792240757136,365.2500005919907,22.55883680871152,9.100161230064954,69.98942152337963,-0.004215382189742,113.69552663000172,311.44433544945525,15.288,0,5.109086566584881,0.0662987997237103,5.062132343141965e-09,-0.0014250358565625,-0.001140716935573,8.525829118050344e-05,13.689403254722466,9.306314109431046,20.540137769069844,34.76059238544137
0.56,31.22217655574573,131.0104095328682,8.896340613305084,4.453453106707936,-12.800251982613762,32.347540782993285,1.064535405885822,2.9664511200655883,346.2265619465787,22.879269782750644,9.23975167760949,69.98858436480101,-0.0061858700066231,113.693429991861,320.3486826217087,15.288,0,5.128636808345416,0.0672406821311376,4.867301723801955e-09,-0.0015087582549955,-0.0013904312777695,9.154772161276911e-05,13.540623998781635,9.22673074584193,20.88529470648008,32.50071480114763
0.57,31.22217621946401,131.01041042656598,9.100937196748257,4.462599942608638,-12.638117786767022,31.992214938920377,1.0880208775401197,2.952689721052343,343.1828296833023,23.20771557024013,9.382031460599634,69.98769836262174,-0.0085530762310817,113.69091113881366,329.6058247742273,15.288,0,5.148103973383697,0.0682061203108877,4.560307895169019e-09,-0.0015957672316939,-0.0016459280200893,9.82152950173273e-05,13.390767660916604,9.146779198362797,21.2385835036938,32.14660141783034
0.58,31.222175877295925,131.0104113334151,9.30853755667292,4.4667466248330925,-12.467915372546484,41.94809460020024,1.112881799668416,2.9382292690716234,426.1250058573153,23.558268300236367,9.53195139401034,69.98676159390641,-0.0113260824196631,113.68796040022212,339.6316548720335,15.288,0,5.167488022837288,0.0692365364563557,4.1394171444502845e-09,-0.0016861495332186,-0.001907299199726,0.0001053435579134,13.231957201950994,9.0626016779344,21.61523245708479,42.06559565399034
0.59,31.22217552883396,131.01041225447804,9.519450021288064,4.476096137635309,-12.317126591120354,34.110550426577284,1.136602276435681,2.9240183991305617,360.68438819711065,23.879990607572545,9.67159566489122,69.98577202596019,-0.0145145458045118,113.68456749268483,348.9642534612201,15.288,0,5.186812062167964,0.0701822287261361,3.602755961777317e-09,-0.0017801733483333,-0.0021751439547073,0.0001127343286521,13.093407702018697,8.988305553541956,21.96008873103192,34.25450917379089
0.6,31.222175174275407,131.01041318917277,9.733513978750956,4.477034845722309,-12.149119697071743,30.37715163241031,1.1626309325579252,2.908736330332635,329.4859594986058,24.24198561161735,9.8252526100909,69.98472757102,-0.0181282420966255,113.68072200517317,359.61689730055343,15.288,0,5.206060612286045,0.071246287973039,2.948489264516988e-09,-0.0018778293343035,-0.0024492667754622,0.0001207188577946,12.93613241915478,8.904902148912802,22.347874953681583,30.53823503451347
0.61,31.22217481356132,131.01041413761396,9.950767526700094,4.476391087684285,-11.982226252585212,35.50134204887109,1.1893062151335383,2.8930059231303407,372.0984511843297,24.610378489358364,9.981009510352685,69.98362607290419,-0.0221771694772254,113.6764132895252,370.6220356526686,15.288,0,5.225238907511424,0.0723291581188695,2.174748000569249e-09,-0.0019792305034247,-0.0027298171193636,0.0001291684409679,12.779621579202258,8.821806679546453,22.74190424612732,35.63887231402763
0.62,31.222174446792447,131.01041509948135,10.171124878722772,4.487784268921012,-11.85124355100519,44.00865131446715,1.212956852434383,2.8782791431615222,442.86563930529206,24.91305490750968,10.113568049053477,69.98246530551354,-0.0266715413423224,113.67163046752208,379.7864204211916,15.288,0,5.244353430351925,0.0732188969762694,1.2796484221580071e-09,-0.0020844351061503,-0.0030167920088032,0.0001377044337995,12.661122192184925,8.75806925581712,23.06471196301593,44.11935114742937
0.63,31.22217407377864,131.01041607525,10.394726689561152,4.494969496718428,-11.71361910155614,25.192938412178897,1.2378569649895983,2.862879309788596,286.11251274707894,25.234865147700088,10.252713550128531,69.98124301736884,-0.0316211808165169,113.66636307868522,389.6530798596542,15.288,0,5.26337214408424,0.0741648769763475,2.6145976038388766e-10,-0.0021936025614668,-0.0033104530293131,0.0001467851657544,12.535199522971643,8.690975433823379,23.407684705898177,25.385281437242877
0.64,31.222173695080063,131.01041706335224,10.62113137710162,4.495630956836385,-11.56380400428744,24.74240458681723,1.2647399814110205,2.8464949156622943,282.30782441796754,25.58935157156457,10.403189430543415,69.97995701294774,-0.0370360184470564,113.6606005378768,400.6685525480968,15.288,0,5.282312034536641,0.0752068991664733,-8.81546452548569e-10,-0.0023065306035138,-0.0036101070067079,0.0001565064697191,12.395845292756976,8.61708467555789,23.785220167654455,24.93769606966981
0.65,31.22217331066784,131.01041806382582,10.850354914236837,4.505176216044033,-11.440144099890352,43.31480279155844,1.289287386048118,2.8308720465610904,436.7781447787475,25.89284412748499,10.535670384261316,69.97860498111953,-0.0429257140642124,113.6543325563742,410.2198290106489,15.288,0,5.301140502411175,0.0760990581482273,-2.1509858797615876e-09,-0.0024233311696838,-0.0039159019629823,0.0001663783291896,12.284256407673269,8.558082612989118,24.10774708718451,43.426354203172785
0.66,31.22217292003885,131.01041907800143,11.082781678849896,4.512106527165498,-11.31370086164107,36.92275829611756,1.314710347101024,2.814713417357284,383.51251517160017,26.20759513364109,10.671971192999,69.977184594574,-0.049300023823949,113.64754873982704,420.2442541550728,15.288,0,5.319891643014625,0.0770243131943875,-3.548446855865624e-09,-0.0025443450091595,-0.0042285596067854,0.0001768062902322,12.1693683622224,8.497736948156584,24.441969479287657,37.05322057678851
0.67,31.222172523362925,131.01042010537452,11.318273235962316,4.513249587632268,-11.176924676830009,25.58474338575431,1.3420025573281236,2.797593802713588,289.1562440103425,26.55202578518117,10.81853748182682,69.9756933508728,-0.0561693598912706,113.64023799645936,431.35311993131967,15.288,0,5.338581153542187,0.0780368047145596,-5.0756613037272475e-09,-0.0026695686534368,-0.0045479102484344,0.0001879418400565,12.043003124891182,8.431468470024047,24.807472398015054,25.7722058827675
0.68,31.22217212079356,131.01042114548557,11.556704014178631,4.515567678732305,-11.04658052599918,31.81636771547681,1.369145220921268,2.780340133554177,340.8999924858462,26.88754213230088,10.961858369156284,69.97412881841045,-0.063544115642437,113.63238924500044,442.3131849854586,15.288,0,5.3571448356913125,0.0790231048906478,-6.734330071125454e-09,-0.0027990164179561,-0.0048738360476014,0.000199540623744,11.923250969105474,8.369136004257633,25.163079321478893,31.966953319023986
0.69,31.22217171239794,131.01042219811185,11.798015809138716,4.522732048814371,-10.931145340681995,39.05891667175989,1.3949728283611151,2.7634593837628136,401.0140726853634,27.19261737711169,11.094405580598888,69.97248839841583,-0.0714344892807487,113.62399162202809,452.39691792866506,15.288,0,5.375627478256943,0.0799199456304531,-8.526047701171483e-09,-0.0029327345424393,-0.005206301086865,0.000211440646531,11.819312883111584,8.31576844419367,25.485954606571266,39.181393907428244
0.7,31.222171298033395,131.0104232636049,12.04231389309329,4.529170437470054,-10.817134640033876,32.83993055815045,1.4211616867610777,2.746246246053357,349.27032420985284,27.49884548601236,11.22723590830036,69.97076961320894,-0.0798505804791106,113.61503435681696,462.6327217407752,15.288,0,5.394040337116679,0.0808201822894985,-1.045233731350505e-08,-0.0030708914424498,-0.0055455658970726,0.0002238893566169,11.716628455304336,8.263456727593688,25.8097699011473,32.98518770672714
0.71,31.22217087774192,131.01042434181247,12.289560024138432,4.531736392791905,-10.697106616843092,27.07538251344395,1.4487296726443863,2.7282465892400927,301.33126406340574,27.82493021485596,11.366892482841228,69.96896975581987,-0.088802698101344,113.60550646565348,473.6584413837956,15.288,0,5.412323092980503,0.0817787861748795,-1.2514738069387436e-08,-0.0032135471713138,-0.0058916221743365,0.0002370625627487,11.60712952228683,8.207829126070136,26.154377267742436,27.251027235049452
0.72,31.22217045151521,131.01042543271925,12.539755113083157,4.5297519732079525,-10.569794450300565,33.040111723831664,1.4779882056164175,2.7093129072104034,350.79220534145287,28.17572646670892,11.515061763630849,69.96708618900095,-0.0983013869539267,113.59539670101924,485.66513167348194,15.288,0,5.430529777678428,0.0828100267016297,-1.4714818547005632e-08,-0.0033608060839205,-0.0062445679263502,0.0002510454500663,11.489378471056645,8.147774934530101,26.524828251440997,33.18393901103961
0.73,31.22217001933967,131.0104265363236,12.792904053247872,4.537082755843011,-10.4666323432365,41.66711190545691,1.5043714895774791,2.691458921314233,422.320318528234,28.46809234050418,11.64268824785428,69.9651160192226,-0.1083575308188562,113.58469346458126,495.78439547932345,15.288,0,5.448666054504097,0.0836695452244863,-1.7054174567643587e-08,-0.0035127875218996,-0.0066045351896189,0.0002651144912127,11.39762802540032,8.102783591855488,26.833126500803463,41.78103994930769
0.74,31.222169581143856,131.01042765278558,13.049057441982574,4.540814479260364,-10.357976453680656,26.268598518865986,1.5320870093353762,2.6728265097946124,294.48281347105944,28.77920706657625,11.776748194839431,69.96305651962658,-0.1189816421291393,113.57338554002617,506.6675455736852,15.288,0,5.4666927468323765,0.0845841757588824,-1.953427379327484e-08,-0.0036696096912372,-0.0069716442690986,0.000279969830707,11.29962241199104,8.054685102493355,27.16102779352206,26.44864004634271
0.75,31.222169137269976,131.01042878113427,13.307944091881708,4.542094662286157,-10.246510088978724,30.586640574757787,1.5608235860526032,2.653542161232292,330.24688556441487,29.10272418672632,11.915025189325206,69.96090474712686,-0.1301842747625444,113.56146167644432,518.1099447869805,15.288,0,5.484613333577566,0.0855352658587423,-2.21566188316639e-08,-0.0038311370593268,-0.0073454316990212,0.0002955718515326,11.198262998385792,8.005005594792152,27.50177172558069,30.74117821290581
0.76,31.22216868760019,131.01042992165787,13.56965106193788,4.546400344591992,-10.144283251215212,32.888008681240024,1.5886819198719242,2.6344662113511426,349.27032420986166,29.404804030145435,12.04569930352196,69.95865783906292,-0.1419759079383877,113.54891069251404,528.908206373058,15.288,0,5.502450921714374,0.086423358186876,-2.492257139339704e-08,-0.0039975531266227,-0.0077261730182287,0.0003116042397889,11.106741956181402,7.961386704627327,27.81965576639983,33.03158242468257
0.77,31.222168232068903,131.0104310745027,13.834224981828296,4.551141298919897,-10.045399434270015,30.78397384996172,1.6165368767808883,2.615207060165156,331.7687666960708,29.70117255038761,12.174263743937225,69.95631282403735,-0.1543671168358771,113.53572130592828,539.6098664949403,15.288,0,5.520207398112089,0.0872946724428737,-2.7833481702951564e-08,-0.0041689987878729,-0.0081140378264802,0.0003282352006721,11.018628819532283,7.920140270521352,28.13131645714625,30.93712244919778
0.78,31.2221677707302,131.0104322394884,14.101619502328704,4.5524795880910816,-9.941444828316286,25.37267063931904,1.645769571142481,2.59511647906973,286.8734378128899,30.01620077088832,12.30922818237404,69.95386667588194,-0.1673685047411693,113.521882202151,551.1032640663121,15.288,0,5.537833882781728,0.0882208375701201,-3.0890702628259093e-08,-0.0043455196494417,-0.0085089782604371,0.0003457530960482,10.924692518967392,7.875904583355684,28.462426075687908,25.558082917006907
0.79,31.222167303661152,131.01043341637157,14.371770403466636,4.551731132122308,-9.8354089568555,35.85021912051088,1.6759766588340173,2.574373550376285,373.6203323159534,30.34208120021628,12.447863369352838,69.9513162949274,-0.180990792947031,113.5073819389491,563.120068979483,15.288,0,5.555371000166284,0.0891789069631639,-3.4095584349886754e-08,-0.004527158020136,-0.0089109417227106,0.0003641064655411,10.828182498531891,7.830412525550611,28.804715136316183,35.981585678322695
0.8,31.22216683063635,131.01043460573814,14.644849293037618,4.556438296988642,-9.743145710090683,36.31771753694624,1.7043247906523091,2.554311664423099,377.42502064505743,30.62994049772219,12.573115557787906,69.94865843340651,-0.1952449905985169,113.4922087692526,573.8404914563054,15.288,0,5.572832910931548,0.0900252363005797,-3.7449386400517885e-08,-0.0047142041448889,-0.0093204156757121,0.0003827370630651,10.746600904259042,7.794231627970895,29.10685609197756,36.44730220694602
0.81,31.22216635174748,131.01043580730632,14.920780953595942,4.55705574623729,-9.64442929040627,23.824986282490148,1.7343815640409692,2.5332486325931702,273.9374926939919,30.941542897489445,12.706534366150178,69.94588992330011,-0.2101420404777691,113.47635100459088,585.5598717350679,15.288,0,5.5902106956358,0.0909413579511725,-4.095345461636898e-08,-0.0049066664460808,-0.0097372647160333,0.0004024046353373,10.657635035494016,7.753909933716797,29.43374342514015,24.02197742495534
0.82,31.22216586717036,131.0104370205633,15.199424579029852,4.5557876256286205,-9.543902968560005,30.449518908908225,1.765376620932552,2.511532774665009,328.72500443277005,31.263055019687265,12.843296539453547,69.94300742618343,-0.2256928506624094,113.45979699965793,597.7761495618164,15.288,0,5.607476880663159,0.0918866142167419,-4.4609106626449646e-08,-0.0051045075708245,-0.0101612616909386,0.0004229685911008,10.566403714468242,7.712535820110768,29.77082531959724,30.60388134331839
0.83,31.22216537688021,131.0104382455475,15.480795985190268,4.561230611980978,-9.459085290068586,38.549359440694495,1.7938937382912914,2.4908134709245533,395.68750322465047,31.537018967087207,12.963368845328718,69.9400075258094,-0.2419083937711341,113.44253503878886,608.2824641265563,15.288,0,5.6246397963892685,0.0926921279171481,-4.8417540288131726e-08,-0.0053078670280677,-0.0105925585836839,0.0004436615475079,10.492362964880236,7.6821338644541,30.057929619521342,38.67137597473203
0.84,31.22216488076573,131.01043948253854,15.764979220978168,4.564926564715037,-9.372516812802964,24.02160362735763,1.8232255609064056,2.4695114585649645,275.4593748256452,31.81945623250081,13.086283437713696,69.93688687433144,-0.2587993815997773,113.4245536753897,619.2095880293108,15.288,0,5.64171807992512,0.093522554158184,-5.23798360186786e-08,-0.0055169184724246,-0.0110313703166859,0.0004652523580112,10.416157804491975,7.65077117428095,30.353781821582103,24.216937855967824
0.85,31.222164379108523,131.01044073073547,16.051751503327036,4.562529671987795,-9.275544021924944,26.142367493185205,1.855222489299812,2.446703585686881,292.96093233939376,32.14044255306756,13.222527069499634,69.9336420740105,-0.2763764678181298,113.405841521388,631.7480486617188,15.288,0,5.658698072375306,0.0944662907876597,-5.6497228560091126e-08,-0.0057315108780944,-0.0114772365251441,0.0004882118041384,10.328123958619562,7.612314966748995,30.68979933732751,26.322074140723853
0.86,31.222163871730487,131.01044199060186,16.341249169177534,4.564111690511444,-9.188352944681446,32.590902499395376,1.885765635117436,2.424408839878951,346.2265619465587,32.43150871131476,13.348230786389928,69.93026948936817,-0.2946506606997703,113.38638681729708,643.2242876362686,15.288,0,5.675591381937411,0.0953220956667815,-6.07707068546653e-08,-0.0059519288894655,-0.0119306022040993,0.0005115641642869,10.250755481469536,7.580862692956124,30.99438403257897,32.735314203144114
0.87,31.222163358648366,131.01044326206684,16.633456694755665,4.567411610017305,-9.106230038507311,30.38722072009492,1.9157290940587148,2.4022066136444624,327.964078366998,32.70760477896824,13.468608195767814,69.926765538979,-0.31363286945157,113.36617789838976,654.2043455907484,15.288,0,5.692397155103095,0.096133909117598,-6.520133376770862e-08,-0.0061782596855138,-0.0123914967961775,0.0005355227681932,10.178833556175796,7.553209964754831,31.283215886935977,30.542164259728324
0.88,31.22216283989057,131.01044454502863,16.928349702446543,4.567520829220097,-9.019466479405864,26.340044895887864,1.947204885663403,2.3790447583806764,294.4828134710418,33.002890251878505,13.595564441040644,69.92312652706079,-0.3333339056743503,113.34520320564482,666.0511654145007,15.288,0,5.709092018468627,0.0970021323817178,-6.979013488257674e-08,-0.0064105571082025,-0.0128598814322028,0.0005606586006837,10.101501663727085,7.522479179251406,31.59196000683689,26.518850388855817
0.89,31.22216231553045,131.01044583926165,17.22586868764619,4.5645074069645455,-8.928327257983305,28.832100631305742,1.9802347680755024,2.3548872009209294,315.028134248087,33.31748947782565,13.72914143793866,69.91934880845236,-0.3537646701944383,113.32345107184636,678.7905244891623,15.288,0,5.725688447794012,0.0979271315198166,-7.453813828405247e-08,-0.0066488708160729,-0.0133357102377213,0.0005870275650197,10.01902043308431,7.4887132251844815,31.920700110411744,28.995807460381187
0.9,31.222161785487994,131.0104471449636,17.526074275881225,4.568364714599181,-8.851957668709924,31.78632925198536,2.010394194817965,2.3319852756499646,339.37814235421445,33.58030596280845,13.844570484248324,69.91542842647742,-0.3749363272382731,113.30090956039456,689.5218117653563,15.288,0,5.742199898648919,0.0986999389486506,-7.94462459138888e-08,-0.0068934007263598,-0.0138192344306428,0.000613400299314,9.952925590058271,7.465872602620438,32.19536858593872,31.93509930249202
0.91,31.222161249826726,131.01044846193912,17.828915310327385,4.569076197429296,-8.771048052061964,24.32463083238084,2.042094517116543,2.3080948378858737,277.7421810230789,33.86242095652717,13.96661561598062,69.9113616261741,-0.3968595825113402,113.27756720544394,701.1357118677929,15.288,0,5.758621496108866,0.0995294773471696,-8.451538697299553e-08,-0.0071441752371283,-0.014310360414906,0.0006410372704976,9.881515056323572,7.439900487246325,32.49004283239703,24.519076592097132
0.92,31.222160708737626,131.01044978963873,18.13424048063391,4.566733009670166,-8.685864983227798,28.84677317668296,2.075355649745964,2.2831874907605383,315.02813424806214,34.163776717271794,14.095259971812345,69.907144412822,-0.4195451516928367,113.25341253893468,713.6497104555644,15.288,0,5.774945518904169,0.1004155774827449,-8.974655783423806e-08,-0.0074010945599488,-0.0148087519142126,0.0006699806658331,9.8050613021091,7.410890676158159,32.804624152403775,29.01131449793155
0.93,31.222160162127366,131.01045112830204,18.44212187477952,4.570672374154106,-8.613820123744473,34.201644047442194,2.105838251970108,2.2595184193717888,359.1625070654728,34.41621410159954,14.206762943071372,69.90277285185535,-0.4430037976943413,113.22843402864572,724.2136262127742,15.288,0,5.791180313749604,0.1011579032436248,-9.514043038986265e-08,-0.0076643917725749,-0.0153147169401403,0.0006989214851779,9.743266697312007,7.39189132597003,33.068249598138095,34.3408275057384
0.94,31.222159609885008,131.01045247822157,18.752646218199622,4.568440797441983,-8.531688904974253,24.98088284039722,2.1393614260439264,2.2340517650122265,283.0687504837787,34.71079738212905,14.332838528132324,69.89824286331617,-0.4672459897824062,113.20262046053902,736.6424312204055,15.288,0,5.807325687384268,0.1020241150179586,-1.006976287682733e-07,-0.0079342480328993,-0.0158284528090362,0.0007297011174499,9.669840647975503,7.36545721668704,33.375589879656715,25.171657912931586
0.95,31.22215905228651,131.01045383861168,19.06559546821504,4.566807352562799,-8.452033865092343,32.18346821643273,2.1727782941634004,2.208423159132783,342.4218736174873,34.99813504492367,14.456291157186469,69.89355036535977,-0.4922826029670031,113.17596017243704,748.866324989457,15.288,0,5.8233751928685855,0.1028690388375086,-1.0641916444069768e-07,-0.0082105038224571,-0.016349515726231,0.0007613358924534,9.59901256144387,7.341021098611198,33.6753025528943,32.332239712143625
0.96,31.22215848904348,131.01045521026026,19.38119635265785,4.568212380233909,-8.379203242486586,31.54267648248913,2.204865424318387,2.1832894980999966,337.09533515678345,35.25954341712758,14.5706088344966,69.88869110653626,-0.518124337589206,113.14844169394568,760.0719416929014,15.288,0,5.839341341057177,0.1036377582191661,-1.1230536680582474e-07,-0.0084935920234054,-0.0168785716976344,0.0007934444212465,9.535751696066072,7.321994644418822,33.94802794905965,31.69493057652661
0.97,31.222157920171355,131.01045659311006,19.69943658743353,4.56778799518958,-8.304300044884755,20.37377400588373,2.2379867340281114,2.157393503849016,245.02188719299323,35.531420954306405,14.688467607897776,69.88366070643364,-0.5447820785969982,113.12005335394292,771.8149910096076,15.288,0,5.855222581016437,0.1044372581303237,-1.1835692353131681e-07,-0.0087836046255404,-0.0174156393890323,0.0008268381573269,9.469937660190558,7.301543924985909,34.231546774286386,20.609551149769356
0.98,31.222157345944744,131.0104579863802,20.02009947327065,4.561502909943936,-8.220200256814278,29.428375248633703,2.2742466873676905,2.129582589342017,319.5937466429581,35.84509379452149,14.820782703713922,69.87845488303982,-0.5722665986305354,113.09078358416136,785.4781787689826,15.288,0,5.8710082395500125,0.1053596157492437,-1.245748344058351e-07,-0.0090803179855188,-0.0179601620060583,0.0008622884298054,9.393400988671052,7.273984870603654,34.55829286261502,29.592846935944305
0.99,31.22215676621672,131.01045939046702,20.343300894340214,4.564595378145919,-8.153933150594883,32.11234136786047,2.305861140874068,2.104066604912333,341.6609485517054,36.08367998096512,14.926850669624963,69.8730690596952,-0.6005888459869322,113.06062063776612,795.9446091574224,15.288,0,5.886702929107159,0.1060612798068487,-1.309594220878175e-07,-0.0093840721409631,-0.0185126173218231,0.0008970372111532,9.337089836817368,7.260657197552659,34.80718217466755,32.263703445278935
1.0,31.222156180983635,131.0104608053719,20.66904469153912,4.56198429009828,-8.078746425181158,28.790047256472608,2.3405539207805823,2.076658162504687,314.2672081822764,36.36296985307818,15.04699214392678,69.86749880306522,-0.6297590940761743,113.0295534748124,808.2883229663901,15.288,0,5.902310380173458,0.1068825934154192,-1.3751120080726978e-07,-0.0096949301007951,-0.0190729677604596,0.0009338964812366,9.270365831800069,7.240411025496615,35.098164050480015,28.95958429967365
1.01,31.22215559041565,131.01046223060635,20.99719675179181,4.5601269463510645,-8.006018142579443,30.088359232147184,2.3749970859124288,2.0491616373328805,324.9203161036979,36.63328632203852,15.163913060085402,69.86173948670485,-0.6597880391297773,112.99757060077272,820.3245056142257,15.288,0,5.917828933355662,0.1076775401425071,-1.4423086096639848e-07,-0.0100128257374137,-0.0196409502960788,0.0009716582911544,9.206275716737329,7.22226101762457,35.379792292546846,30.251430310924903
1.02,31.222154994437208,131.01046366637385,21.327817949586475,4.559537822350026,-7.936566170299223,25.191259892797515,2.408884711060593,2.0217500618197835,284.59063161540416,36.89032330938789,15.276112395627212,69.85578646877244,-0.6906860299046406,112.964660886023,831.8500675320363,15.288,0,5.933262333865667,0.1084334627755917,-1.511186668906237e-07,-0.0103379650876278,-0.0202167854397221,0.001010217189239,9.145779104446468,7.206919058525125,35.647633358506226,25.386803143564933
1.03,31.22215439311183,131.0104651124891,21.66085937719169,4.555003500466633,-7.861430301922123,20.66127225736565,2.4450604039884456,1.992838029020024,247.30469339049705,37.17544245248515,15.397996433171327,69.8496350596874,-0.7224632165645952,112.93081340654253,844.7311961592835,15.288,0,5.948607850681733,0.1092719375443115,-1.581750543930165e-07,-0.0106703668775215,-0.0208003587741961,0.0010507244468244,9.078530936430544,7.187052194767379,35.944442833431175,20.90066733580648
1.04,31.222153786495912,131.01046656878484,21.99627743564123,4.553911922832044,-7.793206938043308,32.59909781385598,2.4794883070012603,1.9646725744465807,345.46563688072297,37.42987658329624,15.509101180927685,69.8432804058359,-0.7551300801308853,112.8960168799522,856.3061034248683,15.288,0,5.963867648266999,0.1100202269893186,-1.6540040346760032e-07,-0.0110101038962647,-0.0213916540716263,0.0010915638880095,9.019095680113296,7.173006826689206,36.20949361911437,32.75223624222762
1.05,31.222153174318485,131.0104680360225,22.334289463468213,4.549605484395158,-7.720592754887082,19.831111772902883,2.5158445172827326,1.9351914115656808,240.45625879819983,37.706831716838174,15.627950179070783,69.83671762421933,-0.7886968018095852,112.86026033753411,868.9969151523569,15.288,0,5.9790499870300975,0.1108347231374463,-1.727945076017999e-07,-0.0113576453640324,-0.0219913310163584,0.0011343147879233,8.954383171450827,7.155441731998409,36.49775059031974,20.083511485392847
1.06,31.222152556802524,131.0104695135663,22.674719894544754,4.542550101618402,-7.644450605187808,28.0718044855477,2.5539691600582284,1.9044633726796687,308.17968365593924,38.00318909624125,15.753465102282464,69.82994163100847,-0.8231740275548887,112.82353230833074,882.6815187862622,15.288,0,5.9941485543884045,0.1117062593484395,-1.8035807873525737e-07,-0.0117128097554289,-0.0225989263287548,0.0011789412901413,8.885367136656582,7.1349723250362125,36.805960993696615,28.2520078274664
1.07,31.22215193383724,131.01047100172454,23.017658706044607,4.541318067127065,-7.57898114512144,32.98325937902589,2.588868540356424,1.875333999136172,348.5093681440308,38.248553041676765,15.861122884464072,69.82294720304837,-0.8585725709628428,112.7858211365414,894.0867588365572,15.288,0,6.009171878908777,0.1124279151863153,-1.8809110567676005e-07,-0.0120759266044911,-0.0232148510738536,0.0012232978590507,8.828592589881316,7.123655688066511,37.06151824031629,33.13781098973894
1.08,31.222151305327763,131.01047250076627,23.36318428925808,4.538659614643403,-7.512083704146151,22.335102285231685,2.6247121968680807,1.8454314942463403,261.00157857466235,38.50204056192796,15.971512614627963,69.81572911522625,-0.8949027889616794,112.74711564586624,905.9468584148448,15.288,0,6.024120906639912,0.1131734584684181,-1.959936245856971e-07,-0.0124472254286215,-0.0238393328380291,0.001269225032933,8.769983653610334,7.111292192150962,37.325422992819504,22.56438622272066
1.09,31.22215067153276,131.01047400995532,23.711092852080487,4.529423401055599,-7.435425254646431,20.57568777719617,2.6646539786875,1.8129133847867127,246.54375332474407,38.807219896093216,16.099822981489588,69.80828203920034,-0.9321750241273882,112.70740466756908,920.3346615110448,15.288,0,6.038984467815931,0.1140709548964875,-2.0406636868005253e-07,-0.0128264337824148,-0.0244717611105699,0.0013182150588132,8.699763211215295,7.090581008025777,37.64254150935385,20.826568686932895
1.1,31.222150032523125,131.0104755290876,24.06133018925284,4.523347885186018,-7.364878190617526,40.87483424367548,2.70288092801148,1.7811285860956656,413.1890617385841,39.08297562762464,16.217797358552755,69.800600506871,-0.9703995865272792,112.66667706314747,933.4291273905352,15.288,0,6.053760976965421,0.1148819725477119,-2.123094796075436e-07,-0.013213619269995,-0.0251121012701143,0.0013676110907492,8.636506586924465,7.075238460293519,37.92928644724434,41.00280549912605
1.11,31.222149387923167,131.01047705923713,24.414200117217884,4.523765397520236,-7.305630587180355,30.0338297786013,2.7371836352668755,1.7513951646392372,324.1593910376397,39.29992197641679,16.315181771039033,69.7926790242779,-1.0095869003551636,112.62492155719023,943.7886735064131,15.288,0,6.068469878528261,0.1155201328427973,-2.2072212705605642e-07,-0.0136095099200446,-0.0257613933830194,0.0014163567523267,8.586362490145149,7.070008066930922,38.15546322292686,30.209112705372412
1.12,31.22214873779349,131.0104786002384,24.76965835548884,4.511610526745321,-7.227244831017126,11.582221536036148,2.7795275715562204,1.7166844109992343,172.73281794065943,39.620817881478565,16.44869944507097,69.78451198387158,-1.0497469126322705,112.58212738214334,959.231492908746,15.288,0,6.083104808364503,0.1164638573036359,-2.293045618545101e-07,-0.0140140920798742,-0.0264194448480976,0.0014703206514945,8.51349419025914,7.047907023782098,38.488573045025845,12.034144531200734
1.13,31.22214808268454,131.0104801505106,25.127265622225966,4.5060557007267,-7.160238762884027,35.32759643666403,2.817869537869152,1.6840649216953625,367.5328077900705,39.8820378137215,16.561343123928232,69.77609345749497,-1.0908905740336312,112.53828268921576,971.8882234925444,15.288,0,6.0976561362209125,0.1172321762697723,-2.380580887457921e-07,-0.0144266813219837,-0.0270850002491934,0.00152353527953,8.45385721508293,7.036008609177509,38.76023541422476,35.47979049240191
1.14,31.22214742198224,131.01048171182592,25.487519736706084,4.5050952895336,-7.10124251149656,19.74402497623826,2.853306659854072,1.652924689205626,239.69531773195544,40.099364992860046,16.658589822005545,69.76741773987543,-1.1330273931115773,112.4933771595288,982.4752067887146,15.288,0,6.112143030160972,0.117871482873474,-2.46980911238717e-07,-0.0148484137912547,-0.0277597236707548,0.0015765627608972,8.403538351854658,7.031545858250511,38.98675802580832,20.017493379183954
1.15,31.222146756141093,131.0104832828864,25.850059823045864,4.491389735657909,-7.023252642776498,19.46507085976548,2.8972798842732974,1.6164147559743307,237.41251153546767,40.42505876910784,16.79354015902299,69.75847904224058,-1.1761667208500144,112.44740063176644,998.464905336306,15.288,0,6.126548050388989,0.1188293410273343,-2.560741962962109e-07,-0.0152785936558458,-0.0284423415624049,0.00163535718493,8.33051510194753,7.009832358027316,39.3246094776043,19.74578463791291
1.16,31.22214608528908,131.01048486332354,26.21478585914468,4.491275180307639,-6.967084221677873,50.28769068498508,2.932310815562196,1.585008933329085,490.0437743845894,40.62733373957103,16.885379096899072,69.749271222289,-1.2203188419723074,112.4003419407902,1008.4466149136452,15.288,0,6.140877296098208,0.119424419267343,-2.653378549981641e-07,-0.0157172495845327,-0.0291327550008712,0.001690667633233,8.28325155069874,7.008305021351402,39.53564168864164,50.398040978459974
1.17,31.222145408625515,131.01048645547058,26.58235020103813,4.4843682836385375,-6.901244920241552,9.250699268465288,2.971978389847433,1.5505496586603151,153.70937929486794,40.88578297153055,16.99670817260911,69.73978834138909,-1.265492690852606,112.35219135266192,1021.2817538862794,15.288,0,6.155149544697088,0.1201846316932285,-2.7476935640563784e-07,-0.0161658706850696,-0.0298331221899378,0.0017499250671751,8.224314940657592,6.998017893666661,39.80435728697319,9.839323998592382
1.18,31.222144727213824,131.0104880562548,26.951898118913668,4.468458666415934,-6.822578333289391,24.66623360264741,3.0180834160606054,1.511881563119858,280.02501822196746,41.22239485008432,17.135244131711637,69.73002417444917,-1.3116978236601546,112.30293845816524,1038.130511819024,15.288,0,6.169334264243552,0.121174614861782,-2.843716750147223e-07,-0.0166226420202383,-0.030540459077157,0.0018141194803419,8.149858761262252,6.975663607178782,40.1532375703606,24.896138124367283
1.19,31.222144040579,131.0104896670618,27.32381813874317,4.471811767496779,-6.773740006781733,42.78572243878884,3.050785051381773,1.481133461957162,428.4078130529292,41.380745080162185,17.211503712809332,69.71997230033992,-1.3589440330048843,112.2525725882342,1046.084130874024,15.288,0,6.1834561380270205,0.1216406012552234,-2.941425447757141e-07,-0.0170887376359987,-0.0312564301875975,0.0018720842428443,8.110940972417474,6.9817227524376255,40.31920537062646,42.91991484580255
1.2,31.22214334831903,131.0104912890884,27.69844388498024,4.459319127318197,-6.701861319744918,4.779924084793048,3.094776742024272,1.4431837854415188,117.1843741360236,41.679324481444105,17.336606997184553,69.70962658726619,-1.4072394285114795,112.20108485748716,1061.196271921839,15.288,0,6.197516863255056,0.1225188071252206,-3.0408050458657093e-07,-0.0175649070532978,-0.0319819968371915,0.0019380634804478,8.044231624001263,6.965965809665566,40.62899746941663,5.874359265308884
1.21,31.222142651492792,131.01049291925037,28.07491990938142,4.447460612604195,-6.63173199655556,34.43054735324791,3.138524072061926,1.4050754384387671,359.92343213200894,41.96938685527779,17.458688981374294,69.69898036986564,-1.4565936511213595,112.14846473513737,1075.9792969857242,15.288,0,6.211485087159228,0.1233719865945376,-3.141885200388985e-07,-0.0180492988553916,-0.0327141946908063,0.0020052970942869,7.979431689003404,6.9518847181205325,40.93000124249645,34.6018375434436
1.22,31.222141949302223,131.0104945599003,28.453901396214867,4.448862693910526,-6.581807754036657,25.042417305955325,3.172544721830977,1.372735053391141,283.0687504825761,42.13212966179229,17.536234224431404,69.68802714282948,-1.507015157320884,112.09470294499184,1084.3005525413705,15.288,0,6.225378836788365,0.1238509103381173,-3.244628582121214e-07,-0.0185437252682344,-0.0334555964437259,0.0020681419764412,7.938853842045651,6.95777877539874,41.1005340525733,25.279875515208477
1.23,31.2221412420748,131.0104962101042,28.83512941464953,4.435388093547088,-6.510758642725603,9.974881342832948,3.217668486810743,1.3331788451733904,159.79687382222795,42.42976506586992,17.66081699751763,69.67676056164716,-1.5585112358956563,112.03979144308433,1099.6341130208264,15.288,0,6.239199017724597,0.1247263710842476,-3.349042846707381e-07,-0.019047530108391,-0.0342050429787406,0.0021392588817506,7.872602046118373,6.94305205836896,41.40925705961282,10.565463270857062
