Time,Latitude,Longitude,Altitude,Angle of Attack,Angle of Sideslip,X-Acceleration,Y-Acceleration,Z-Acceleration,Thrust,True Velocity,Ground Velocity,Pitch,Roll,Yaw,Dynamic Pressure,cp,cg,parachute_deploy_gain,Wind Speed,Wind Direction,Mach,omega_x,omega_y,omega_z,Cmq,Angle of Attack(total),Angle of Attack(gust),True Velocity(gust),Acceleration
0.0,31.222216000000007,131.010392,3.000000004412624,0.0,0.0,0.0,0.0,0.0,2.2828121974499247,0.0,0.0,69.99999999623412,0.0,119.9999999935444,0.0,1.274,1.0271675151847728,0.0,0.0,0.0,0.0,0.0,0.0,0.0,-0.0,0.0,90.0,0.0,0.0
0.01,31.22221599999084,131.01039200000497,3.000002745347096,0.0,0.0,0.0,0.0,0.0,34.242186961749226,3.465174813755316e-14,2.8705476994166025e-14,69.9999999962611,-2.1713911667908447e-11,119.99999999352175,7.352495975525499e-28,1.274,1.0271659134330349,0.0,0.0,0.0,1.0183245502395064e-16,-3.3305335486039093e-18,7.169286865560398e-18,5.624298769768554e-18,-7.715917190115602e-34,0.0,89.99999999999979,3.465174813755316e-14,0.0
0.02,31.222215999994315,131.0103920000094,3.0000030495639742,0.0,0.0,0.0,0.0,0.0,25.871876237766216,3.8197434737535036e-11,2.4171837235633357e-11,69.99999999628672,-1.1921727947863515e-11,119.99999999353136,8.93414285188691e-22,1.274,1.027164492361118,0.0,0.0,0.0,1.1225230367947217e-13,-6.657678965418802e-18,1.4338573731120796e-17,1.1241821275959074e-17,-1.7010872994127372e-30,0.0,89.99999999975682,3.8197434737535036e-11,0.0
0.03,31.222215999994315,131.0103920000094,3.0000030495639742,0.0,0.0,9.81877837424427,-2.5122800045972096e-05,3.3498614629347925,180.34219359854663,1.2659015405517447e-10,1.1364406173918436e-10,69.99999999631459,-1.6431898037347223e-11,119.99999999352724,9.812605835254651e-21,1.274,1.0271551940870716,0.0,0.0,0.0,3.720154642239108e-13,-9.991600645811728e-18,2.150108433310316e-17,1.6859343782149594e-17,-8.453698244545225e-30,0.0,89.99999999919412,1.2659015405517447e-10,10.374487003414373
0.04,31.222215999994315,131.0103920000094,3.0000030495639742,18.83801224594347,-0.0001111777826462,48.68248476615645,-1.016330065874988e-05,3.3497854396877287,548.635972453808,0.1556173050466994,0.0975908358443652,69.99999999633813,-2.0932768807056278e-11,119.99999999352085,0.0148286043323172,1.274,1.027133720825283,0.0,0.0,0.0,0.0004573186944143,-1.3322134194415637e-17,-1.04744143520903e-11,1.336824254131964e-11,5.0626055458604615e-15,18.83801224625964,89.06236267790787,0.1555998412814392,48.79759610369246
0.05,31.22221599164764,131.01039201704114,3.002326315126219,5.772385609593056,-4.395076213712875e-06,71.20344550265034,4.905512691849684e-05,3.349217396035405,761.6984298824663,0.8326471944351852,0.3620326097059287,70.00000001316391,-1.0866255162484559e-10,120.00000000231074,0.4245281043148827,1.274,1.027093426565204,0.0,0.0,0.0,0.0024469331205246,-5.0245994431125096e-18,-7.32924164976824e-07,2.217344936947165e-11,1.895424184525467e-09,5.772385609594774,84.74112356985832,0.8326465040582279,71.28217104309611
0.06,31.22221596664444,131.01039206837547,3.015081730143309,4.056581213689704,3.169093567502233e-05,53.16249142470188,0.0001203825427859,3.3481235983850643,590.4875390737236,1.657216205300742,0.6755452977614796,69.99999964391398,-3.9285905645317736e-10,120.0000000287861,1.6816755551786196,1.274,1.027050317124926,0.0,0.0,0.0,0.0048701272653724,3.095757869075056e-13,-7.483541766772344e-06,3.074135420506017e-11,3.8518749565858254e-08,4.056581213813337,79.59316473687034,1.657221183301277,53.26781792157489
0.07,31.22221592883117,131.0103921460222,3.034593611434361,4.115662018628709,6.450869598349036e-05,81.18203554989698,0.0001593212642178,3.347059402768047,855.2937749779172,2.099899704220947,0.8579771146174259,69.99999543281565,-8.233801910783518e-10,120.00000006883089,2.700101932075157,1.274,1.027003201295312,0.0,0.0,0.0,0.006171060252819,3.4704292086287e-12,-2.6327204536316785e-05,1.9541142932033486e-10,1.7170712165327165e-07,4.115662019133419,76.90111966094352,2.099909837223217,81.2510043180746
0.08,31.22221588914193,131.01039222747755,3.0542761843835606,3.459696193892355,8.037433511260004e-05,16.298214211652088,0.0002413456836072,3.344878926597744,241.2171988638792,3.051964775152957,1.2149999716613011,69.99998042886442,-1.0128995578004475e-09,120.00000011111383,5.703497661025892,1.274,1.0269597189470347,0.0,0.0,0.0,0.0089689344021769,1.458982438104473e-11,-5.702803872814215e-05,7.043261397829576e-10,5.405702492731987e-07,3.459696194824858,71.30331929508368,3.051977400323993,16.63790856991177
0.09,31.2222158241468,131.01039236098703,3.0886872184095737,4.313676956300389,0.0001337561018991,50.35975918308536,0.0002293282821279,3.344215841840564,563.0937377043203,2.893161298572128,1.191209213966114,69.99994788602814,-7.098432023887522e-10,120.00000018106356,5.125380275808925,1.274,1.026918932011013,0.0,0.0,0.0,0.0085022553945842,3.8672912027154325e-11,-0.0001115933708951,2.016054215232918e-09,1.0027525988343615e-06,4.313676958370176,72.2316578138625,2.893182308931483,50.47067588835877
0.1,31.2222157788302,131.01039245392113,3.109877853389092,4.035124630954496,0.0001457499816535,47.804664812504015,0.0002878217657545,3.341734392237128,538.7437595981891,3.5677148583138303,1.4531247507621967,69.99988403958329,1.9248461973355822e-09,120.0000002323013,7.7939962029572305,1.274,1.0268846934974103,0.0,0.0,0.0,0.0104845969583028,8.579678749070606e-11,-0.0001726817043215,3.984565639703107e-09,1.913455350430327e-06,4.0351246335824245,68.43243098813296,3.567737752667411,47.92132267234452
0.11,31.222215703308,131.01039260899836,3.148841432727305,4.043401107254707,0.0001752764476999,37.67622367577205,0.0003286462930162,3.3392563999062723,442.86563930529127,4.034183355956686,1.6436552022667772,69.99978525353545,7.302513231814865e-09,120.00000031883242,9.96528118825134,1.274,1.026848594915519,0.0,0.0,0.0,0.0118554331868328,1.5870341853361987e-10,-0.0002596204409236,7.232030302688121e-09,3.252930323390323e-06,4.04340111104746,65.92012987243639,4.034210888316708,37.82391391539392
0.12,31.222215627491828,131.01039276462643,3.186995101203875,4.17874459224363,0.0002066711490009,41.15991989399172,0.0003576945202315,3.336766085769504,475.58594813540793,4.361857560629481,1.7865750500940407,69.99963665601238,1.781774420198147e-08,120.00000041104812,11.649831899889556,1.274,1.0268114448194128,0.0,0.0,0.0,0.0128183893919737,2.682972478760441e-10,-0.0003710216542429,1.2215991071490164e-08,5.026311388647148e-06,4.178744597345269,64.21681651392016,4.361890024457652,41.29495143136631
0.13,31.22221554594398,131.01039293200228,3.2277173449026786,4.202734874672792,0.0002327160860324,45.44886120763352,0.0003953741266062,3.333578629398489,515.9156326236897,4.792165672014363,1.9646716520715424,69.99942424225341,3.613383418913551e-08,120.00000051758742,14.061726603124043,1.274,1.026779572895131,0.0,0.0,0.0,0.0140829618979635,4.248908088871395e-10,-0.0005056103199642,1.908859219307828e-08,7.5253154423526356e-06,4.202734881104192,62.048594618540655,4.792202226971676,45.570952718869485
0.14,31.222215454191247,131.01039312033683,3.2737880595608355,4.184830647080848,0.000257138757548,42.32232525579263,0.0004369426767266,3.329727443445437,486.2390860568421,5.269261304374574,2.158791628597544,69.99913473613935,6.515851355725497e-08,120.00000064630268,17.000925061330125,1.274,1.0267449573927567,0.0,0.0,0.0,0.0154850332441425,6.382432869666793e-10,-0.0006690086306358,2.8426433029675884e-08,1.0948547100483978e-05,4.184830654966803,59.74181173116622,5.269301695636157,42.45310707234106
0.15,31.222215353826755,131.0103933263496,3.3242182719560263,4.21963947489699,0.0002846467688673,40.886944113003565,0.0004726792395108,3.325585650885676,472.5421858721398,5.6781946837482895,2.329510773545807,69.99875162806286,1.0876776246115984e-07,120.00000079954532,19.742017654108928,1.274,1.0267115958081523,0.0,0.0,0.0,0.0166867950518804,9.204756288136623e-10,-0.000865746478554,4.08948221429571e-08,1.526771148078443e-05,4.219639484480408,57.84996018384879,5.678239395958187,41.02196629910223
0.16,31.222215247130432,131.01039354534575,3.3775922280208457,4.253495568077899,0.0003118339050386,32.26872905470846,0.0005078415214353,3.32090791922544,391.1218908297597,6.081244877834229,2.4981889727471702,69.99825581174558,1.7187028096464329e-07,120.0000009800088,22.644030778355887,1.274,1.026675762255412,0.0,0.0,0.0,0.0178712695992133,1.2856146928958252e-09,-0.0010961187242953,5.6923362293832417e-08,2.0702404729358337e-05,4.253495579487569,56.06022383757386,6.081293860589489,32.43916312841722
0.17,31.22221513260033,131.01039378041813,3.4348437275053194,4.364838523348639,0.0003448792023946,40.840448242802736,0.0005326487904353,3.3162727284953744,471.78125980632416,6.362544479165355,2.6250789114832647,69.99762801982864,2.5997588617291615e-07,120.00000119506798,24.78723182122683,1.274,1.0266409836796937,0.0,0.0,0.0,0.0186979513961862,1.747791994374917e-09,-0.0013624931601664,7.706724512977917e-08,2.6923621797558364e-05,4.364838536947241,54.85936171416122,6.362598652663785,40.97486885600156
0.18,31.222215014088988,131.01039402363364,3.4935801365785646,4.353948305387995,0.0003681615230806,33.992183768165326,0.0005718025428208,3.310131992647221,407.1015672119096,6.81502088160835,2.810667639293692,69.99684761766231,3.794979223522764e-07,120.00000144728236,28.437950785509614,1.274,1.0266048342046536,0.0,0.0,0.0,0.020027681385988,2.3221419748804155e-09,-0.0016616990447559,1.0147209890543081e-07,3.517105786247627e-05,4.353948320923495,52.99157233768714,6.815078712285162,34.152972512863755
0.19,31.22221488419521,131.01039429023237,3.558399965607869,4.432620772533925,0.0003996774584738,38.45149959021069,0.0005986099513107,3.304145139297767,448.95313283182486,7.1223367465208405,2.946425726785696,69.99589577323147,5.440084577183829e-07,120.00000176148238,31.060341085698347,1.274,1.026566130444714,0.0,0.0,0.0,0.0209308229359413,3.022391489754689e-09,-0.0020041563310821,1.3135864879722746e-07,4.433199397898183e-05,4.432620790516937,51.77883352025967,7.122399527709208,38.59320142454953
0.2,31.222214751373183,131.01039456280608,3.624052454705669,4.443889400961181,0.0004246617145652,35.23432408779927,0.0006337972852267,3.2968110145188256,418.5156301991588,7.530482904611057,3.1167566004785483,69.99474776398331,7.478025600151903e-07,120.00000211715036,34.72195181863731,1.274,1.026529240027363,0.0,0.0,0.0,0.0221302820454282,3.866698391504749e-09,-0.0023849544920781,1.668144671071589e-07,5.57780533277244e-05,4.443889421210987,50.22448880200342,7.530549610317194,35.38822625098952
0.21,31.222214608673173,131.01039485566503,3.6948551453492566,4.493351735844891,0.0004538195602194,33.79371564104691,0.0006629296043866,3.2891790438445727,404.8187610144608,7.868284042829251,3.2629204975089228,69.99338155599101,1.0150082652278477e-06,120.00000255293388,37.906665490338085,1.274,1.0264923657015164,0.0,0.0,0.0,0.0231230169900677,4.871073773182836e-09,-0.0028117605859743,2.089322918608601e-07,6.870935089180403e-05,4.493351758715364,48.992529909481824,7.868355328639073,33.95340801819282
0.22,31.22221446109996,131.01039515850383,3.767700382407304,4.5412639153933885,0.000482649303782,41.008966751568416,0.0006914639179131,3.2808061382386606,472.5421858721387,8.20057841132235,3.4071691679735228,69.9917708347139,1.3454961520984431e-06,120.00000305929996,41.175744234065135,1.274,1.0264494137127138,0.0,0.0,0.0,0.0240995709751246,6.054779813287368e-09,-0.0032829112061357,2.580881224843564e-07,8.3609968899004e-05,4.54126394098788,47.82515604752711,8.2006542256977,41.13999323561041
0.23,31.22221430675399,131.0103954752338,3.843768625625224,4.52371495179584,0.0005047555656171,33.98493478127787,0.0007294889663961,3.2705214710765107,406.340642146096,8.647938096586296,3.5908865300848416,69.98989017772566,1.7539876018835507e-06,120.00000365514876,45.79040229326471,1.274,1.0264133390858623,0.0,0.0,0.0,0.0254142776666487,7.436335125872812e-09,-0.0038001790077148,3.1489825108822685e-07,0.0001020628978177,4.523714979897577,46.31461705147579,8.648017383405135,34.14194053232237
0.24,31.222214142622448,131.0103958120587,3.92493179063287,4.57837522350066,0.0005351929930195,35.051650311058864,0.0007555049947555,3.26053011385611,416.2328240017099,8.954297884844461,3.72617527247482,69.98771316795013,2.25257161141768e-06,120.0000043564586,49.09180568115741,1.274,1.0263750048312463,0.0,0.0,0.0,0.0263146218848643,9.034877387788232e-09,-0.0043732521010013,3.809642748985157e-07,0.00012161410144,4.578375254714954,45.32798984252032,8.954381952763216,35.20297212911011
0.25,31.22221397517227,131.0103961556623,4.0071748888306855,4.6034117733065,0.0005618935542827,36.03738579534623,0.000785606492708,3.249069743648399,425.3640807915084,9.311611941121669,3.8789349536029696,69.98520781816889,2.8559738498748624e-06,120.00000517181904,53.08749562138344,1.274,1.0263373768840591,0.0,0.0,0.0,0.0273647110956883,1.0873791100894836e-08,-0.0049950711786164,4.5609738277273444e-07,0.0001444478241125,4.603411807525074,44.2165428352526,9.311700203154778,36.183554686886296
0.26,31.22221379934012,131.01039651647062,4.09364247475714,4.621386912291471,0.0005881033207375,39.29107511182762,0.0008162761165496,3.236407051295005,455.80158342417656,9.67833954512075,4.034902068846398,69.98234620927953,3.5784678110229355e-06,120.00000612171208,57.350948423913096,1.274,1.0263006300381676,0.0,0.0,0.0,0.0284424679130479,1.2973286442992724e-08,-0.0056712051373577,5.414206381221602e-07,0.0001704578711045,4.621386949630312,43.12063533194282,9.678431924174348,39.42414126789902
0.27,31.222213616776543,131.01039689108487,4.183310605341074,4.617158109135719,0.0006115457810536,35.90419462403674,0.0008503454714941,3.221982799915672,423.8421996598744,10.088790784535757,4.205862468567124,69.97909721779352,4.436165972465058e-06,120.000007221354,62.31798301949865,1.274,1.026260090595354,0.0,0.0,0.0,0.0296487219805601,1.5355910600537293e-08,-0.0064045199323113,6.379142666348734e-07,0.0002006609239367,4.617158149547818,41.94410287616451,10.08888684592241,36.048472443180565
0.28,31.22221342607797,131.0103972823952,4.277051150896916,4.642105655370123,0.0006389739579882,41.51133203546672,0.0008785747638736,3.2071101123224945,476.3468732012228,10.432377224420517,4.35383399240675,69.97542808435722,5.446665372087172e-06,120.00000849080963,66.63429581008447,1.274,1.0262212716723291,0.0,0.0,0.0,0.0306584788590473,1.8045308789081613e-08,-0.0072006835403936,7.469524967369969e-07,0.0002332868227611,4.642105699250441,41.0023231023774,10.432477594215127,41.63503624837164
0.29,31.22221323001776,131.01039768469093,4.373143569786686,4.62134615173668,0.0006600657405645,33.17552944492765,0.0009148746278066,3.1894209319791806,397.9703104221098,10.876662296046485,4.536381530986506,69.9713027936179,6.629751536885327e-06,120.00000994797426,72.43000748232016,1.274,1.026183007522519,0.0,0.0,0.0,0.0319641703260467,2.1067646517035105e-08,-0.0080566154554079,8.688043379161898e-07,0.000272130659453,4.621346198772975,39.83162628795024,10.876765978930557,33.32848872465723
0.3,31.22221302403368,131.01039810736614,4.4744193758467325,4.664362353358112,0.0006905183788532,31.08096762732793,0.0009381960428197,3.172549142946348,378.1859457108735,11.168362145070317,4.66647911311536,69.96668711012893,8.005507138509574e-06,120.00001161892672,76.36634300732833,1.274,1.0261430389738484,0.0,0.0,0.0,0.0328214509167604,2.4447409007156216e-08,-0.0089829108229115,1.0056222251461646e-06,0.0003115527202986,4.664362404357781,39.09908960432563,11.168470611443622,31.242464973103964
0.31,31.22221281503337,131.01039853619727,4.576593712520673,4.700143580504286,0.0007196683316923,32.79732593144512,0.0009620705970519,3.154230688182399,394.1656220930229,11.470279728974068,4.800072153432283,69.96154070456518,9.597499105113692e-06,120.00001352112182,80.55022837857167,1.274,1.0261054058068628,0.0,0.0,0.0,0.0337087616009043,2.8214060606649844e-08,-0.0099686353219717,1.1565909895184251e-06,0.0003550834484269,4.700143635477137,38.36463422765983,11.47039277421126,32.94865339301887
0.32,31.222212598991007,131.01039897947376,4.68216432480395,4.718667719113184,0.0007464384342556,35.7316568886908,0.0009885845337584,3.133859770838664,421.5593934624264,11.808280530415894,4.946054328851105,69.95582953472353,1.14278227255889e-05,120.00001568218067,85.36654007972253,1.274,1.026068246703101,0.0,0.0,0.0,0.0347021168382987,3.2392058795580455e-08,-0.0110163301561155,1.3226102501723267e-06,0.0004039614423012,4.718667778018562,37.5686120062341,11.808397780690962,35.8688218659563
0.33,31.222212376029034,131.0103994369436,4.791055524254013,4.72141404831576,0.0007708346814671,35.42013590291081,0.0010176135371143,3.1111955852784385,418.5156301991632,12.181577273013426,5.104163223586657,69.94951809396906,1.351997394754887e-05,120.00001812674968,90.84831229869296,1.274,1.0260310883392356,0.0,0.0,0.0,0.0357992034445943,3.700677535501642e-08,-0.0121310534481307,1.5051409581878843e-06,0.0004588955105349,4.721414111097893,36.7208578211118,12.181698355442045,35.55651229220977
0.34,31.222212145785647,131.0103999093516,4.903491659547144,4.73024573449122,0.0007962944975467,27.63851074646407,0.0010446307681611,3.0871492806781062,345.4656368807584,12.53557620048282,5.2556261014174765,69.94256797855994,1.5899658158227497e-05,120.000020882338,96.20413272674828,1.274,1.0259901535019136,0.0,0.0,0.0,0.0368395817555172,4.208561016221623e-08,-0.0133180771902383,1.7057647550599631e-06,0.0005184333231541,4.730245801363397,35.94841996438923,12.535701282129995,27.810389570354005
0.35,31.222211909310875,131.01040039453565,5.018822212845608,4.780248518778662,0.0008286678570753,30.332092807652543,0.0010618579815451,3.063967690608957,370.5765700527057,12.774786382148209,5.367579971644358,69.93493776125636,1.8594985713558667e-05,120.00002397748868,99.9096898192772,1.274,1.025950003202184,0.0,0.0,0.0,0.0375426220587071,4.7658312175989686e-08,-0.0145774693288123,1.9252724355785177e-06,0.0005782798420984,4.780248590437683,35.44790728185619,12.774916548990808,30.486451961956565
0.36,31.22221166933814,131.0104008868675,5.135354490370708,4.798132156899578,0.0008554457330409,34.32674769697476,0.0010851169437774,3.0374319611165923,407.8625232777224,13.09301701329486,5.506730645516068,69.92658597246795,2.163521613217148e-05,120.0000274401514,104.94818266210537,1.274,1.0259105142325406,0.0,0.0,0.0,0.0384778908056978,5.3755109608570216e-08,-0.0158991451700967,2.162609490834569e-06,0.0006464142451675,4.798132232978766,34.796094028187134,13.09315138639638,34.46087058603792
0.37,31.222211421355144,131.01040139563804,5.255882891363927,4.797392186816851,0.0008791822061288,32.551601855236584,0.00111162791192,3.0078619428913056,391.1218908297639,13.457513730739372,5.661815946371007,69.91747693543164,2.5047738471809164e-05,120.0000313040604,110.87154396328836,1.274,1.025872170958032,0.0,0.0,0.0,0.0395491312153729,6.040098808671168e-08,-0.0172926678053148,2.420031948898497e-06,0.0007226353721561,4.797392267189059,34.07332166419882,13.457651832357364,32.69027405888565
0.38,31.22221116634284,131.01040191882743,5.379799334000849,4.811698494594017,0.0009057112478668,34.02947987649063,0.0011338447913587,2.9774881690446744,404.81876101445977,13.77554886562956,5.800899861213392,69.90756948297444,2.886339581486796e-05,120.00003560072224,116.17243393848278,1.274,1.02583050512925,0.0,0.0,0.0,0.0404838339452728,6.762496638941508e-08,-0.0187646375218858,2.69955777313946e-06,0.0008026686661094,4.8116985796350695,33.46655348088405,13.775691134419684,34.15949264475229
0.39,31.222210906095896,131.01040245274032,5.505993307722699,4.813508003664984,0.000929862892873,29.00025983045028,0.0011579891265804,2.9442136901860865,357.6406249338268,14.124492165837273,5.950648592462506,69.8968186645841,3.311602501056718e-05,120.00004036395212,122.13093644173792,1.274,1.02579027384009,0.0,0.0,0.0,0.0415093739609825,7.545934774906889e-08,-0.020311592409804,3.0013532510753577e-06,0.0008908380763632,4.813508093268025,32.821616487639595,14.124638228358922,29.149330452482886
0.4,31.222210638473225,131.0104030017851,5.635788650457906,4.841647069358873,0.0009592124397379,27.71178845184976,0.0011749448424961,2.91135549588368,345.4656368807565,14.390874239274588,6.07193451174791,69.8851815212744,3.783947407715338e-05,120.00004563180136,126.77947425345651,1.274,1.0257493418632293,0.0,0.0,0.0,0.0422922854866381,8.39343718693383e-08,-0.021938519432511,3.3271332720311508e-06,0.0009803271643914,4.841647164150728,32.348088166612904,14.391024912012275,27.864299944624147
0.41,31.22221036681104,131.01040355909262,5.767123077463226,4.86553909860892,0.0009876699832274,31.306062598221665,0.0011918093836199,2.876450850006428,378.9468707766882,14.663028799871563,6.195223154320929,69.87261222561014,4.307011032901644e-05,120.0000514391194,131.6183642808765,1.274,1.025708445186429,0.0,0.0,0.0,0.0430921644173401,9.308325447883581e-08,-0.0236371933433427,3.6760977501392174e-06,0.0010761942383903,4.865539198612839,31.87689439156756,14.663183942709727,31.437931330109585
0.42,31.22221008906472,131.01040412887247,5.901259531771367,4.867510642114694,0.0010118258958528,35.308283402190774,0.0012128114559048,2.8374461227958245,416.23282400171047,14.9952917972178,6.33928625560071,69.85906967380902,4.884273094936628e-05,120.00005782486392,137.64909586091787,1.274,1.0256701057426505,0.0,0.0,0.0,0.0440686959134695,1.0293499639582845e-07,-0.0254093547296826,4.049238334851429e-06,0.0011830797791891,4.867510747027452,31.315270489291198,14.995450734457847,35.422111438762386
0.43,31.222209804115888,131.01040471342728,6.038886819939341,4.854590670645608,0.0010330089741511,31.00586934514032,0.0012363751872706,2.794478603999558,375.90313951343126,15.369430568701889,6.497852263156962,69.8445117629242,5.519340856908871e-05,120.00006482835984,144.60167924299955,1.274,1.0256308158337524,0.0,0.0,0.0,0.0451682983415116,1.135186446762958e-07,-0.0272634397889413,4.449073329427772e-06,0.0013010625065656,4.854590780289497,30.70250814963406,15.369592833372094,31.13154422839874
0.44,31.22220951192321,131.01040531284193,6.180028459770617,4.866912332640401,0.0010595850174406,28.57707721036899,0.0012525768202179,2.752165534925872,353.07501253892326,15.659290812546615,6.627318538707029,69.82889155423543,6.216182865383864e-05,120.00007249162944,150.1053167542629,1.274,1.025586171750536,0.0,0.0,0.0,0.0460202245100907,1.2486676023179565e-07,-0.0292060158163984,4.8779154055816594e-06,0.001420032405556,4.866912447705031,30.24619499837236,15.659457251771938,28.709297424144207
0.45,31.222209215425703,131.01040592106523,6.322872201489905,4.881836476567178,0.0010866574689855,33.31904824532484,0.0012669045761511,2.7082028218433374,397.2093853562887,15.934249290371609,6.751662050993672,69.81215834018458,6.97909417564726e-05,120.00008085697964,155.42080512416243,1.274,1.0255397023523487,0.0,0.0,0.0,0.0468283602442113,1.3701614206272197e-07,-0.0312276295846745,5.334643585560923e-06,0.0015449645531859,4.8818365972149325,29.82567893138932,15.934419982127675,33.428929688274074
0.46,31.22220891307435,131.0104065412864,6.468371919199588,4.869610441729251,0.0011078049156487,38.95909776354321,0.0012868374716666,2.6582856015412624,449.7140588976424,16.292139278621757,6.904766425053949,69.79426683863348,7.812149592850748e-05,120.00008996920153,162.4785746623087,1.274,1.02549635315424,0.0,0.0,0.0,0.0478802236363867,1.499987870203256e-07,-0.0333272350234362,5.819761874615242e-06,0.0016858511402973,4.869610567434908,29.29014635640275,16.292313292210977,39.04968351401366
0.47,31.22220860266524,131.01040717804253,6.6178810515614845,4.838450928223533,0.0011247917292402,26.253747818137555,0.0013104398935566,2.6026193242279367,331.0078106302504,16.710658191447514,7.078951441335346,69.77517236812905,8.719457259907165e-05,120.0000998741591,170.9309671061642,1.274,1.025453319323251,0.0,0.0,0.0,0.0491102725711187,1.6384464803343264e-07,-0.0355167087264168,6.3368207228363735e-06,0.0018427306558807,4.838451058652396,28.68386015667837,16.710834873319172,26.382435512333956
0.48,31.222208284201663,131.0104078313267,6.771393590864176,4.869339340099417,0.0011561785713505,25.860860976019296,0.0013165328518772,2.5543454292827983,327.20312230115803,16.911139899671,7.177575416403102,69.75482343794755,9.70562828082882e-05,120.00011062072316,175.0543877818846,1.274,1.0254092882449153,0.0,0.0,0.0,0.0496995461609974,1.7858865391586845e-07,-0.0378054080201581,6.88909442277235e-06,0.0019849793891693,4.869339477030596,28.40887970825325,16.911321511776286,25.986704537635287
0.49,31.22220796480208,131.01040848648364,6.924537656029012,4.881367714530694,0.0011829003785372,32.565703383222065,0.0013261973190012,2.5011623511055703,389.6000096981238,17.169005224738054,7.296160258358563,69.73316318155707,0.0001077573203115,120.000122255028,180.4309832312717,1.274,1.025367445590036,0.0,0.0,0.0,0.05045746454003,1.942747077649401e-07,-0.0401641298712614,7.47069711110948e-06,0.002140948887153,4.881367857509675,28.058569663954906,17.169191034294997,32.66161128464712
0.5,31.222207637929923,131.01040915697027,7.081324512896956,4.862566137860805,0.001202418260511,33.47759680712428,0.0013425340759632,2.4399894027711366,397.970310422106,17.52898693231981,7.450304424940405,69.71015149227495,0.0001193385310595,120.0001348274002,188.0736471953394,1.274,1.0253278572281015,0.0,0.0,0.0,0.0515154948878309,2.109295159784217e-07,-0.0426011733481599,8.084173008518589e-06,0.0023184335011768,4.862566286171007,27.57768313050809,17.529175807738486,33.56639745442473
0.51,31.22220730314019,131.01040984370235,7.24202048914867,4.8479762258125,0.001223054804074,25.49162310288008,0.0013562860883156,2.3767006597692686,323.39843497208153,17.86914397471067,7.597652147346554,69.68574349602717,0.0001318441288964,120.00014838524436,195.4407439266201,1.274,1.025286455263166,0.0,0.0,0.0,0.0525152689856776,2.2858192086249162e-07,-0.0451315948093539,8.734206149830708e-06,0.002503767471626,4.847976379721193,27.13799345359824,17.86933609171003,25.602178740977283
0.52,31.222206962738102,131.01041054193402,7.405210501673173,4.865306299521403,0.0012516517170965,30.733671928447727,0.0013599291289974,2.317711624364424,372.098451184342,18.08534843773428,7.701914987606457,69.65988568649581,0.0001453248538387,120.00016298000436,200.19561780583155,1.274,1.0252426840672306,0.0,0.0,0.0,0.0531507657929359,2.4726951523704535e-07,-0.0477531686556663,9.421346966092632e-06,0.0026812161964639,4.865306460134566,26.8699055233151,18.085545046726228,30.820940596104087
0.53,31.222206619320115,131.01041124632013,7.569307468221277,4.848802699234936,0.0012715119568563,32.301199055744725,0.0013711327835325,2.2490252325653923,386.55624643486095,18.41963113311156,7.8474319110539055,69.6325258319474,0.0001598315062727,120.0001786629144,207.6614205945027,1.274,1.0251993415311351,0.0,0.0,0.0,0.0541332845214831,2.67031759303889e-07,-0.0504479325599339,1.0141887756417996e-05,0.0028848299490111,4.848802865552398,26.45837260670532,18.419830861742675,32.37940050117613
0.54,31.22220626697288,131.01041196903336,7.737918664599091,4.831496690588052,0.0012913635058467,28.31291960103712,0.0013809098107221,2.177242866245296,349.2703242098436,18.75116898748492,7.992112829440902,69.60362200959217,0.0001754082864028,120.00019548734956,215.20067397992847,1.274,1.0251561018460285,0.0,0.0,0.0,0.0551077428911958,2.878941684235108e-07,-0.0532336286085667,1.090122304443916e-05,0.003098869611663,4.831496862756785,26.061835558272342,18.751371834390056,28.396510432451375
0.55,31.222205908994248,131.01041270328463,7.909026079894722,16.926145910542473,21.867809829269504,30.9209585032238,-1.5629167197966192,1.284649892361431,365.2500005919912,23.311818853880887,8.113323699629928,69.57312211246325,0.0001921068626005,120.00021350480982,332.60755958266367,1.274,1.025112921033824,0.0,10.025614263783408,0.0,0.068511152573491,3.0989272306468813e-07,-0.0561100530405476,1.1700476995263424e-05,0.0040606783378885,27.39650053572576,44.75010101150643,26.664016837543148,30.987073252842908
0.56,31.222205546564343,131.01041344664463,8.081909946161325,-26.39439337306268,-0.0749890256359764,28.535632692444704,-0.3599583417323831,3.1301870844570536,346.22656194657776,17.586085139118673,8.24370876953435,69.54097415464405,0.0002099796112633,120.00023276987916,189.28270317604432,1.274,1.0250709539098009,0.0,10.062191141780394,120.00005142262596,0.051683882732623,3.3292051977349045e-07,-0.0690085882480278,0.0189385669121715,0.0037674444241247,26.394492254130157,37.060954427038496,17.5743058938797,28.70905735738468
0.57,31.22220518105916,131.01041420589075,8.258547605517315,-26.001541657532943,-0.0584244447731047,28.199354142184603,-0.3631120992748412,3.378140252714061,343.1828296833045,17.80961246885044,8.390600863231663,69.50143310747288,0.0292380856677736,120.03121933929825,194.121732970582,1.274,1.0250279191823897,0.0,10.098482259245095,120.00005142262596,0.0523409132413274,3.717841041374577e-07,-0.0564172771151381,0.0188915577452826,0.0031191320808823,26.001602727068228,36.61777452257087,17.80043518011638,28.403296569236304
0.58,31.222204804868248,131.01041497711012,8.436757366423974,-25.63144882686536,-0.0671185010774463,37.10744249857204,-0.3654034483399845,3.6366039849940415,426.12500585731766,18.04498760428421,8.530620831317487,69.46910091075908,0.058100064307733,120.06203578462888,199.28332710103064,1.274,1.024981594484354,0.0,10.134876624800247,120.00005142262596,0.0530327670565471,4.052038326538301e-07,-0.0436566003359781,0.0188524432580266,0.0024454919839691,25.631530763033645,36.16357998435464,18.03444465720026,37.28700439843034
0.59,31.22220442460957,131.01041576092751,8.617765437570828,-25.082591091729867,-0.0752027365397102,30.057475438518544,-0.3700521558217536,3.908738054073096,360.68438819710633,18.40369689822219,8.718489413018531,69.44407465249387,0.0868396094284367,120.092727245747,207.28142458907016,1.274,1.0249386802161349,0.0,10.170955878180834,120.00005142262596,0.0540870952609142,4.3311496094644347e-07,-0.0307057880963979,0.018807536597433,0.0017541935697789,25.08269653253678,35.49219222609851,18.391884083381797,30.31281909540142
0.6,31.22220403365176,131.01041656591585,8.803620218977118,-24.73837815421813,-0.0835962895651063,26.688017036960414,-0.3717417464673263,4.189521211337035,329.4859594986072,18.62752649714892,8.854124006868505,69.42646332823358,0.1154795897081141,120.12331664370738,212.35029564815247,1.274,1.024891335813742,0.0,10.206966009306443,120.00005142262596,0.054745028571576,4.554328713774534e-07,-0.017467753629541,0.0187562878420622,0.0010100356235642,24.73851051065682,35.07375123428375,18.614395227349576,27.01741166861472
0.61,31.222203639637616,131.01041737706507,8.989977435451017,-24.41461400589738,-0.091906756855958,31.258212220850584,-0.3729858950942933,4.478577774592272,372.0984511843332,18.83830431019537,8.984618610604409,69.41643153073854,0.1440427100340543,120.15382670402828,217.17925302208968,1.274,1.0248423929069768,0.0,10.243293793723044,120.00005142262596,0.0553646065671882,4.720450428229074e-07,-0.0040578936510021,0.0186988888103373,0.0002372898387764,24.41477639396706,34.68251388499306,18.82386763677874,31.579623313218036
0.62,31.22220323903008,131.01041820162834,9.178969772867706,-23.9838320372911,-0.099707539811966,38.85676458400111,-0.3756229289652431,4.782052302234109,442.86563930529206,19.12782188834627,9.145370204315473,69.41407775225967,0.1725521046980403,120.18428061137656,223.9019498531682,1.274,1.0247996097896497,0.0,10.279086912340158,120.00005142262596,0.0562156006059407,4.828847007398825e-07,0.0095093929524669,0.0186352182231282,-0.0005646080994163,23.984027043467133,34.16142548206604,19.112159872522327,39.15172117215985
0.63,31.222202829905736,131.01041904351692,9.37173540170095,-23.449936219122456,-0.1069164487094578,21.957014410684856,-0.379717175185345,5.105345897016978,286.11251274707456,19.50211188241631,9.338442117489294,69.41949222679699,0.201031036329038,120.21470167691292,232.74592496189024,1.274,1.024756158874558,0.0,10.314741800508102,120.00005142262596,0.0573157426421283,4.878882594556885e-07,0.0232923999669844,0.0185648087977106,-0.0014099919549479,23.450166189011743,33.51244832227462,19.48531749567232,22.54593585754074
0.64,31.22220241138796,131.01041990449266,9.5687854388809,-23.259517538859736,-0.1153346262868414,21.523455123833017,-0.3783028301819225,5.416136038349594,282.3078244179702,19.6100866094238,9.429319069020677,69.4327985816235,0.2295028449250881,120.24511327666896,235.325832981425,1.274,1.024708534665538,0.0,10.35048894192264,120.00005142262596,0.0576332031436412,4.869685217463523e-07,0.0373539917051666,0.0184870789923392,-0.0022736785482552,23.25978760295199,33.2981542815666,19.591969900926397,22.197674722476826
0.65,31.22220199354749,131.01042076398224,9.7640874948822,-22.974866322468728,-0.1232524777110105,38.13804500069252,-0.3781315641879986,5.739125449810638,436.7781447787504,19.79035373972697,9.547606879436854,69.45415643640968,0.2579911204042714,120.27553901299022,239.6677233613295,1.274,1.0246641738210605,0.0,10.38640640396586,120.00005142262596,0.0581631286536727,4.80032108863886e-07,0.051473195367995,0.0184029851663332,-0.003161834080268,22.975179012259535,32.96831156252118,19.77099330073302,38.56930153481324
0.66,31.222201567379035,131.01042164036434,9.963039442197102,-22.40864095564476,-0.1296432929293549,32.3675994041826,-0.3822609532389227,6.100599787175128,383.5125151715984,20.203432747732585,9.754220409058943,69.4835988348594,0.2865202071737298,120.30600328863608,249.77241455391464,1.274,1.0246195561629028,0.0,10.421402257728229,120.00005142262596,0.0593772860785129,4.6706418608965467e-07,0.0657034080336615,0.0183121023714405,-0.0041201132747355,22.408996653706907,32.28455229219127,20.183068444276827,32.93971664099882
0.67,31.22220112884538,131.01042254181604,10.168044907478953,-22.03281237709946,-0.1367913554781875,22.163646736960565,-0.3830947686431146,6.456135902132852,289.15624401033847,20.461263397647304,9.901480188828922,69.52118940029888,0.3151146478629763,120.33653069053068,256.18310337112024,1.274,1.024572383541697,0.0,10.456459573260252,120.00005142262596,0.0601351817439892,4.4802087453627763e-07,0.0802233444318219,0.0182130935745062,-0.0050947250720593,22.033215869617752,31.84557934761561,20.4397762821877,23.087998810406962
0.68,31.22220068775857,131.01042344834568,10.373228340845984,-21.786156290048936,-0.144534361272097,27.70690916278068,-0.3815034662644125,6.802773032577868,340.89999248584934,20.604885404017097,10.005248490629064,69.56709412142094,0.3437992543144203,120.36714603687672,259.78701530685805,1.274,1.0245245285832842,0.0,10.491971805131596,120.00005142262596,0.0605574236884682,4.228041907455311e-07,0.0949014480721238,0.018106524167616,-0.006069068363612,21.78661239041871,31.575539004254324,20.58218202371781,28.53236900753459
0.69,31.222200242668816,131.0104243629142,10.579463677988066,-21.39683328311981,-0.151308039719844,34.15019002540438,-0.3820583531783287,7.176729476866856,401.0140726853658,20.87402532918245,10.1558310432327,69.62140362727354,0.3725997287475992,120.3978750576206,266.61270724491584,1.274,1.024479631064582,0.0,10.526908744246004,120.00005142262596,0.0613485642955967,3.913719162339009e-07,0.1096412138888585,0.017992882809622,-0.0071031408635995,21.39734316120137,31.12582260326685,20.850257945507245,34.898236249710266
0.7,31.222199788071418,131.01042529667663,10.790054677166228,-20.93986774749841,-0.1574597317805234,28.52319887981357,-0.3835466961641333,7.57396781940905,349.270324209851,21.208713777002536,10.330333872899836,69.6841532553668,0.4015425230207437,120.4287442422997,275.225273757551,1.274,1.0244351749185203,0.0,10.561478322591608,120.00005142262596,0.0623323585877896,3.5371396878732173e-07,0.1245334773131223,0.0178713134102879,-0.0081971342835803,20.940433162112303,30.59130910301218,21.183980091306413,29.51414865678799
0.71,31.22219932550564,131.01042624647684,11.004084250879302,-20.59709994898664,-0.1642133806907422,23.30189140431973,-0.3827301576407922,7.961707052768093,301.3312640634036,21.43582148375324,10.464152302423416,69.75543037017619,0.4306546818215218,120.4597806539829,281.14540347458166,1.274,1.0243880468141104,0.0,10.596230942201109,120.00005142262596,0.0629999797094277,3.0978721347318656e-07,0.1396201835747157,0.0177412194153447,-0.0092884022291183,20.597726102494654,30.20888112078985,21.41002694154744,24.627492860345622
0.72,31.22219885901441,131.01042720411715,11.21912499418072,-20.29786142394152,-0.1711647666089326,28.59000143132688,-0.3807999743644588,8.346900508778731,350.7922053414578,21.61698335516517,10.580431485795035,69.83534635985714,0.4599641296388465,120.49101222486416,285.9117030958399,1.274,1.024337302174265,0.0,10.63090822298443,120.00005142262596,0.0635325694290329,2.595397589606839e-07,0.1548090951988392,0.0176031068448622,-0.0103856879636694,20.29855265144805,29.88800282297041,21.59009689648994,29.78596882035566
0.73,31.22219838722613,131.01042817237104,11.436008240407023,-19.89828851568157,-0.1772076569732359,36.25694760870041,-0.3804012020984168,8.761846107922407,422.3203185282354,21.89817246319449,10.732895039640791,69.92395976835958,0.4894999108995395,120.52246801496248,293.3921264684608,1.274,1.024292465384646,0.0,10.665212930595752,120.00005142262596,0.0643591450141634,2.0295828388181125e-07,0.1700565739662344,0.0174571624407602,-0.0115567564732553,19.8990455962376,29.438769886112063,21.87033679390744,37.30255892286103
0.74,31.222197906733328,131.01042915810143,11.65680977432919,-19.421660489555023,-0.1824265869884778,22.38731317661905,-0.3811702043322073,9.20882277397869,294.4828134710563,22.264210880331184,10.91544206118405,70.02130413424752,0.5192921556530493,120.5541781706857,303.2760510454746,1.274,1.0242470321640116,0.0,10.69928304042756,120.00005142262596,0.0654351018793314,1.4004639136096965e-07,0.1854290502279691,0.01730255739869,-0.0128118114017761,19.422484164837662,28.889866292883656,22.23555542747191,24.210318025074354
0.75,31.222197417430102,131.01043016149097,11.88161665124163,-19.15577033814075,-0.1893132360498089,26.186132721461423,-0.377516044014844,9.606390279189888,330.24688556441737,22.399332033137767,11.013319579055008,70.12745104704433,0.5493721254323207,120.58617395733869,306.96175010690257,1.274,1.0241984712898409,0.0,10.733437587639637,120.00005142262596,0.0658323934709027,7.078377889895823e-08,0.2009794813226104,0.0171384707976115,-0.0139702079036141,19.15667067476469,28.627843914505696,22.36959483366627,27.895139351965877
0.76,31.22219692773191,131.01043116557244,12.105303461089372,-18.779392263950484,-0.1950824865522325,28.170677349933463,-0.375678552187008,10.041172820104888,349.2703242098581,22.654924959733645,11.153956670025188,70.24250241737761,0.5797724662012944,120.61848800585088,314.0002937915368,1.274,1.0241522053390697,0.0,10.767601546057914,120.00005142262596,0.0665837577473478,-4.865497181636303e-09,0.2165237832137868,0.0169665300625818,-0.0152221145771045,18.780368961087724,28.22108856554814,22.624281533611487,29.90908471237194
0.77,31.222196428311875,131.01043218912298,12.3335884361391,-18.39080381308249,-0.2005868708083626,26.2021452614362,-0.3736949382032886,10.48727713152676,331.76876669606884,22.92215069432928,11.297808474349615,70.36645470731658,0.6105274991632607,120.6511546460138,321.4445038157572,1.274,1.0241065975906936,0.0,10.801084940452691,120.00005142262596,0.0673693186996328,-8.686142420695875e-08,0.2321418305415927,0.0167856870558627,-0.0165122402635942,18.39185984654021,27.80295038683832,22.89064264670453,28.225432606812006
0.78,31.22219592303441,131.01043322433733,12.564128016364403,-18.03152850081521,-0.2062300002538742,21.26601260121032,-0.3707503249483319,10.929935498292036,286.8734378128874,23.153382696271727,11.42789152355998,70.49935011291174,0.6416730836124229,120.68420972242302,327.9552316907687,1.274,1.0240588105546735,0.0,10.834745438464632,120.00005142262596,0.0680490978217618,-1.7519376195349414e-07,0.2478292607453692,0.0165957218335408,-0.0178055194476316,18.03266861600071,27.428981635196862,23.12098823353289,23.913264891166783
0.79,31.222195412475976,131.01043427004947,12.796580418028077,-17.71678942347343,-0.212227274431538,30.56262304545349,-0.3664836252082121,11.358424445487008,373.6203323159581,23.324919742836663,11.53607091017658,70.64122833008138,0.6732469288765889,120.71769092629432,332.8252635820715,1.274,1.0240083170932772,0.0,10.868230694836086,120.00005142262596,0.0685534346623695,-2.698484236878081e-07,0.2635484116641156,0.0163968301148559,-0.0190747336831947,17.718019729837355,27.121958901135265,23.29158323675452,32.60708578744607
0.8,31.22219489763872,131.01043532424168,13.0303341707702,-17.276108704829003,-0.2166731598483737,30.88100392793784,-0.3644593455734832,11.844860665782798,377.42502064505805,23.654297369581048,11.69827689631762,70.79210746594204,0.7052888292675225,120.75163802964217,342.2837835968636,1.274,1.0239625010683884,0.0,10.90147002509106,120.00005142262596,0.0695216799715868,-3.70794476626761e-07,0.2792446878790718,0.0161894721464837,-0.0204957183982699,17.2774259589234,26.64436292921091,23.620262510342517,33.07672835096749
0.81,31.2221943727828,131.01043639839372,13.269020230929844,-16.864875010560837,-0.2212836567392476,19.582650572365047,-0.361395800673567,12.32711603064618,273.9374926939922,23.94567293976976,11.845917174974415,70.95197434931369,0.7378408323790697,120.7860930619002,350.76023935447614,1.274,1.0239149950770308,0.0,10.934360626313431,120.00005142262596,0.0703782432347365,-4.779684692546573e-07,0.2950171691137541,0.0159721097973971,-0.0219195965408775,16.86628451027125,26.21259783330797,23.910913870662583,23.142355109130698
0.82,31.222193842825195,131.01043748263777,13.509581949751457,-16.569547148946842,-0.2271857592472727,25.409679501404696,-0.3553960240626911,12.75501619354242,328.725004432774,24.07493608317982,11.936960060732838,71.1208725520427,0.7709473882892653,120.82110043145975,354.5492063427283,1.274,1.0238644186635044,0.0,10.967452950884292,120.00005142262596,0.0707583499698186,-5.913515216621322e-07,0.3108236713613551,0.0157449695937491,-0.0232181393872756,16.571060893838652,25.95032947744501,24.03924992107903,28.43358149786191
0.83,31.222193310775967,131.01043857096158,13.750103312176233,-16.17096723448828,-0.2316489463463196,32.54890414755604,-0.3512367990413047,13.237216694312426,395.6875032246518,24.343602761899845,12.074245108921495,71.2988214689682,0.8046557860428347,120.85670738015132,362.4982429693552,1.274,1.0238188483711983,0.0,11.0003184287984,120.00005142262596,0.0715481790725014,-7.109134252808932e-07,0.3265390373191719,0.0155095793086659,-0.0246636935044414,16.172582047005275,25.546359550584395,24.307215529629204,35.13941425675697
0.84,31.2221927694805,131.0104396776362,13.995197305926451,-15.719497151496205,-0.235224738367716,19.4086701503738,-0.3478127938678227,13.756169749248542,275.45937482564227,24.689050978706085,12.235670044769996,71.48576878757486,0.8390164476441797,120.89296429365956,372.85053574897233,1.274,1.0237739661568126,0.0,11.032702954381843,120.00005142262596,0.072563685109492,-8.365511603265562e-07,0.3422449994196991,0.0152645106353958,-0.0262161817842976,15.721212614680564,25.07104234404491,24.65210206700009,23.791798101777214
0.85,31.22219222069058,131.01044079913228,14.243807503897724,-15.412853814370427,-0.2406881554643007,21.18187525611148,-0.3406513568205173,14.188836132627433,292.9609323393965,24.812306139440448,12.32202101102276,71.68170899999149,0.8740830164802998,120.92992475757056,376.57360134123536,1.274,1.0237227741398531,0.0,11.065229339919805,120.00005142262596,0.0729261493810639,-9.681943565102914e-07,0.3579760555510677,0.0150088750984916,-0.0275574274400738,15.414687455130156,24.81258584713789,24.77449904358529,25.497273452487526
0.86,31.222191671513727,131.01044192129467,14.49130276957872,-15.043463790368488,-0.2451263899131487,26.82350746902803,-0.3344948670195506,14.658575895683883,346.2265619465616,25.026120360985967,12.437028848947069,71.88665634402965,0.9099128544035856,120.967646056834,383.0825285965959,1.274,1.023674789281455,0.0,11.0977437938228,120.00005142262596,0.0735547787399312,-1.1058130697479093e-06,0.3735701505429512,0.014744991490706,-0.0290050045083435,15.045414671529242,24.46815177523514,24.98761611515922,30.569368443698497
0.87,31.222191114460514,131.0104430590191,14.742625429924594,-14.624451351812985,-0.2486602928952936,24.70598160189363,-0.3290091441572484,15.16321833513024,327.9640783669946,25.31500940593161,12.574782546547924,72.1005322101986,0.9465676458969252,121.0061898166186,391.9683418014711,1.274,1.0236288969245204,0.0,11.12960999845591,120.00005142262596,0.074404069377787,-1.2492783381645396e-06,0.3890727464589765,0.0144718955933317,-0.0305566445778822,14.626519087962334,24.05639761389071,25.27595006107627,28.989945915935674
0.88,31.22219055069464,131.01044420996016,14.997086862065906,-14.237630504150427,-0.2525410875517688,20.93187228074005,-0.3223048132493069,15.645259871599675,294.4828134710421,25.54790669550337,12.692941453946863,72.32328400722065,0.98411351282662,121.04562207995497,399.20395499815737,1.274,1.0235805388426191,0.0,11.16151371059892,120.00005142262596,0.0750888000529286,-1.3984765134178584e-06,0.404514319501504,0.0141887330979041,-0.032060874733059,14.239823777465087,23.698687297737823,25.508237762679816,26.134676466712655
0.89,31.2221899827543,131.0104453690697,15.253017515716488,-13.872052832810851,-0.2566453727833894,23.00993449526151,-0.3146290008973096,16.107072382906257,315.02813424808807,25.73814463892496,12.796193842156512,72.55487658872083,1.0226215790804372,121.08601387639992,405.16133405149566,1.274,1.0235293752791452,0.0,11.19336280157872,120.00005142262596,0.0756481538880867,-1.5533211042713126e-06,0.4198427452549521,0.0138961278315386,-0.0335227286657902,13.87438015100066,23.380125686034532,25.69783101284961,28.089034473128702
0.9,31.22218941031791,131.01044653698014,15.51065531922662,-13.474879447300898,-0.2600646920922614,25.493169441578534,-0.3072435699896205,16.591711798909486,339.3781423542166,25.978945528591428,12.913651005119272,72.79524492563885,1.0621687244042295,121.12744198820162,412.76780056164847,1.274,1.0234837388140003,0.0,11.22494959954454,120.00005142262596,0.076356124713746,-1.7137019615394548e-06,0.435015705653485,0.013594602490346,-0.0350583265720621,13.477342401156706,23.019721795790858,25.93809480255541,30.418431701953438
0.91,31.22218883160677,131.01044771719438,15.771280905316203,-13.06060555762994,-0.263010777058996,18.6399267022141,-0.2997946503213673,17.090054601874037,277.7421810230785,26.248022920751136,13.03793854081406,73.04429971995546,1.1028381658970343,121.16998953024832,421.3520348169968,1.274,1.023436404813438,0.0,11.256307709405618,120.00005142262596,0.0771472114970125,-1.8794741501682184e-06,0.4500463443994121,0.0132836001078254,-0.0366444063846208,13.063207488556678,22.638960680462837,26.206709429591985,25.290447022370156
0.92,31.22218824716292,131.0104489086198,16.034588340812228,-12.699837163926986,-0.2668366090907502,22.516146105807632,-0.2905530788521885,17.530450412621306,315.0281342480675,26.407063533758183,13.12734195323101,73.30195917784879,1.1447200631336445,121.2137465446579,426.4627870567728,1.274,1.0233859136578225,0.0,11.287593721312907,120.00005142262596,0.0776148883274615,-2.050498326263435e-06,0.4649329064533371,0.0129628019608481,-0.0380849394242615,12.702594060587815,22.350774565654422,26.365149088732988,28.53730800582075
0.93,31.222187660179504,131.01045010494852,16.29834390925122,-12.290124117673736,-0.2695500483545941,27.12854025221776,-0.2820708311084684,18.014604303260832,359.16250706547066,26.65835781470707,13.242547632304882,73.56814046888054,1.187912412385621,121.2588108943632,434.6069879351141,1.274,1.0233407575091376,0.0,11.31876941054684,120.00005142262596,0.0783537184899927,-2.2266622316652047e-06,0.4795944469536479,0.0126336446886929,-0.0396587855996155,12.293034217116794,21.99079588323981,26.61601714830844,32.56628975448424
0.94,31.22218706614065,131.01045131506794,16.56583926865702,-11.854843897053955,-0.2715564893598824,18.67972266157592,-0.2737370245036273,18.524150349128387,283.06875048378083,26.96069835095613,13.370491113531193,73.8427143598173,1.2325222073287303,121.30528944614676,444.50948959343583,1.274,1.0232914783978162,0.0,11.349574205195744,120.00005142262596,0.0792425909857418,-2.4077752721205206e-06,0.4940653384716676,0.0122950508770503,-0.0413177096781135,11.857909234718182,21.595569724045337,26.9180425170552,26.308765019078535
0.95,31.22218646615704,131.01045253676318,16.836376020303113,-11.482919616452724,-0.2747818853828713,24.93569970524368,-0.2633186594843687,18.95111733024196,342.421873617488,27.118870661839026,13.455104378628809,74.12557127185785,1.2786661526328864,121.353298754614,449.7287770998912,1.274,1.0232418269359267,0.0,11.380395653771227,120.00005142262596,0.0797077326261323,-2.5936652960747622e-06,0.508353084843284,0.011946413719342,-0.0427608662839672,11.4861627347552,21.31401138195613,27.075708189673875,31.32097228010522
0.96,31.222185864311765,131.01045376200642,17.106953008098618,-11.049576063859863,-0.2764558647573313,24.15752628485465,-0.2540189028393221,19.447926206469628,337.09533515678265,27.41269419965929,13.576112779098636,74.41660588484032,1.3264720040296771,121.4029664038905,459.5149394024954,1.274,1.0231951201821403,0.0,11.411149322628608,120.00005142262596,0.080571584186567,-2.7842147203988564e-06,0.5223614377864655,0.0115897349512024,-0.0444141112500794,11.052990960976112,20.93507034197645,27.369268782471263,31.014068348714446
0.97,31.22218525451689,131.01045500272963,17.3822165258158,-10.631309451855907,-0.2783129500376849,13.945630582239108,-0.2438299023209639,19.91777445903496,245.0218871929888,27.6669584350322,13.683813702565343,74.71565769414931,1.3760804658310728,121.45443293942968,468.0664864252545,1.274,1.0231476260761452,0.0,11.441497194009536,120.00005142262596,0.081319171986659,-2.979188239661485e-06,0.5361418030255757,0.0112233195563184,-0.0460074065941681,10.634909861770018,20.590142830851885,27.623241310989023,24.315793319538926
0.98,31.22218464098438,131.0104562506535,17.659058304225027,-10.267313468706304,-0.2813794215384787,21.842233000003983,-0.2317901097334043,20.295144829458447,319.593746642963,27.7769858218292,13.750651852644571,75.02259558993934,1.427646121537118,121.50785274914992,471.7842068855795,1.274,1.0230935628253934,0.0,11.471963886491768,120.00005142262596,0.0816428212889066,-3.1784200533398886e-06,0.5496520103516859,0.010847817206636,-0.047353060755218,10.271127052946792,20.350829039458706,27.732787023314533,29.816602300230777
0.99,31.222184025799823,131.01045750170277,17.935839289582926,-9.835914187501496,-0.2825459077846828,24.022882187802946,-0.2210911440969827,20.763250992054207,341.66094855170127,28.056200744169,13.860637014561297,75.33726424338391,1.4813398391527863,121.56339649624364,481.3038551783509,1.274,1.0230490803133316,0.0,11.502201349080304,120.00005142262596,0.0824637544065917,-3.381765093014724e-06,0.5628043518481768,0.0104653806326658,-0.0489722299887408,9.839931621815008,19.997680094723503,28.011818716642,31.753115463873748
1.0,31.222183402909376,131.01045876768154,18.217467720114904,-9.405176862382254,-0.2835337051664657,20.820174186014185,-0.2098984783457923,21.2217503900106,314.2672081822764,28.331474555876472,13.966964810392495,75.65945800576979,1.5373514125158907,121.62125378510947,490.78155254472927,1.274,1.022999484445133,0.0,11.532037432862516,120.00005142262596,0.0832731133226937,-3.5889355605408965e-06,0.5756594657010156,0.0100738468198628,-0.0505809119489136,9.409411235948928,19.653596923183205,28.286937367392824,29.73022704459383
1.01,31.2221827760532,131.01046004126528,18.50106670774709,-8.992780177576394,-0.284847632931937,21.75044991610033,-0.1977837104337324,21.636967069414364,324.92031610370094,28.551287466292106,14.05682075527614,75.9890058948403,1.5958910246651778,121.68163456558916,498.4130868787056,1.274,1.0229507481225095,0.0,11.562005374871497,120.00005142262596,0.0839194656164818,-3.799725363255592e-06,0.5881929941973217,0.0096734301288419,-0.05208174673061,8.997253254957409,19.3523426928842,28.50654388905653,30.680279234580368
1.02,31.222182145631123,131.01046132167107,18.786337898933944,-8.56834844776533,-0.2856224118836823,17.127220437902952,-0.1855600315904349,22.06167559415537,284.59063161543185,28.803376271824806,14.152421158795466,76.32572289213729,1.6571929944652128,121.74477291064714,507.2393535359881,1.274,1.0229039803623294,0.0,11.591794059946544,120.00005142262596,0.0846606909796787,-4.013940717757507e-06,0.600359731865655,0.0092651238226622,-0.0536269442598367,8.573072157787895,19.0361870010784,28.75851099410417,27.930156506464392
1.03,31.222181510188207,131.01046261171035,19.07459951215906,-8.163767426060701,-0.286855526688482,12.830419123468433,-0.1723906127213868,22.42938057045988,247.3046933904342,28.98504820507592,14.228693496167889,76.6693979743246,1.7215197246901863,121.81093097332447,513.6439473593905,1.274,1.022853416101322,0.0,11.621375409515512,120.00005142262596,0.0851949496343535,-4.2313350004270735e-06,0.6121519420167805,0.0088486799600333,-0.0550236420119878,8.168771454151301,18.770208565231684,28.93998923255186,25.840404141223143
1.04,31.22218087209948,131.01046390676223,19.36387776311,-7.767688660103592,-0.2882225147713408,23.274339058496327,-0.1586439289100758,22.757547926899687,345.4656368807608,29.12848087595208,14.294071721980156,77.0198155658999,1.7891655145879333,121.88040277860476,518.7256528489265,1.274,1.0228049544826707,0.0,11.650888381406812,120.00005142262596,0.085616816776893,-4.451704682804712e-06,0.6235209681311663,0.0084253678737778,-0.0563213305961091,7.773001335735487,18.532984278411167,29.08320718014606,32.55189724349663
1.05,31.222180231026744,131.01046520747653,19.65450810428908,-7.321264419385199,-0.2876123526461857,11.591039191788484,-0.1458699931723776,23.189495606530368,240.4562587980608,29.45113601636055,14.398247515588908,77.37673207262206,1.8604623149484976,121.95352000281532,530.2663091415202,1.274,1.022755494436122,0.0,11.68013239021854,120.00005142262596,0.0865654750763984,-4.674817318607453e-06,0.6344345225405273,0.0079960419777177,-0.0579403005556372,7.3268808408874,18.194626112942995,29.40595816338692,25.925396314922093
1.06,31.22217958321965,131.01046652106845,19.95008230000759,-6.931409261565412,-0.2889149818644489,18.71934309575484,-0.1312175191578268,23.458399063678783,308.1796836557233,29.551118735926384,14.450028752314513,77.73988524134462,1.9357858006459256,122.03065804544563,533.8576330530833,1.274,1.0227013895379469,0.0,11.709147486176338,120.00005142262596,0.0868596431342613,-4.900319731748043e-06,0.6449374640475866,0.0075583026676896,-0.0590977693541269,6.93739854780942,17.994798894626317,29.5057362690233,30.0121227274034
1.07,31.22217893593404,131.0104678335373,20.24389868972825,-6.499857629309414,-0.2883700561668975,22.85926503871261,-0.1173878250745538,23.822741669879367,348.5093681440431,29.81788507597092,14.536066255476031,78.109038343956,2.015561078598856,122.1122416773594,543.5243684918179,1.274,1.0226540159946436,0.0,11.738292609289935,120.00005142262596,0.0876440403724049,-5.128082965394882e-06,0.6549326275279966,0.0071157954427738,-0.0605537109895027,6.506223901159392,17.705603372975293,29.772588204710065,33.016401964499266
1.08,31.222178282130724,131.01046915841977,20.54275897216001,-6.062174416760415,-0.2873193553785341,13.066433529581143,-0.1033415655560851,24.191672124197023,261.0015785751465,30.11387852163464,14.62513235761744,78.48389875024931,2.100275033830808,122.19875749231272,554.3528300387577,1.274,1.0226061614050743,0.0,11.76690780400756,120.00005142262596,0.0885143556911417,-5.357738022017183e-06,0.6644569739924504,0.0066663344289844,-0.0620423718513097,6.068954011304222,17.409273140548887,30.068746691984916,27.495078920177427
1.09,31.222177624662187,131.0104704901979,20.8441161923233,-5.659181129241436,-0.2875760059824701,11.234867682529485,-0.0880880003256001,24.430032217546145,246.54375332456465,30.246103888281056,14.678156674692504,78.86419475796319,2.190483866992581,122.2907613425878,559.2154856045988,1.274,1.0225512795791307,0.0,11.795662779747556,120.00005142262596,0.088903310807813,-5.589002404556755e-06,0.6734955921063818,0.0062097969031551,-0.0631606311045176,5.666459379815372,17.21193939624564,30.200931744556083,26.889709657973057
1.1,31.2221769662675,131.0104718236286,21.145181127670096,-5.249801274619672,-0.2873542401205698,29.14801508033264,-0.0727882355340842,24.664912648498746,413.1890617384087,30.40244984715692,14.7341196338049,79.249645820904,2.2868275333944847,122.38889280845888,564.9954016389465,1.274,1.0224981043155532,0.0,11.8243076848609,120.00005142262596,0.0893631669216686,-5.8217070004903614e-06,0.681982645479737,0.0057490299814094,-0.0642852902609067,5.257637746812919,17.009106628914445,30.35731253789364,38.183373308399624
1.11,31.222176304384213,131.0104731636024,21.448681002408744,-4.791652197838755,-0.2843066135288753,19.17629287816388,-0.0584254509972648,25.078100214823333,324.1593910379213,30.838297997115934,14.840233042763105,79.63993327596589,2.390049059175101,122.49389457141042,581.2940709773842,1.274,1.0224548851875197,0.0,11.852582602589312,120.00005142262596,0.0906445836887451,-6.055552035654987e-06,0.689908933415095,0.0052840489912527,-0.0659628200641675,4.800059635587713,16.66890873431763,30.793639401961237,31.569680588614847
1.12,31.22217563539109,131.0104745169652,21.75891373193153,-4.375270945183754,-0.2831991994356025,2.4006146222224074,-0.0426786346008015,25.30591207925604,172.7328179403806,31.038856973306967,14.899213612387516,80.0347327451474,2.5010131149514607,122.60663094083468,588.8620819231504,1.274,1.0223979224661404,0.0,11.880750476505712,120.00005142262596,0.0912344163164039,-6.290066749885873e-06,0.6973196444005274,0.004810947467404,-0.0671029670991592,4.384408931218276,16.46230412676858,30.994372328218045,25.419558575894197
1.13,31.222174966575896,131.0104758698496,22.067856616315133,-3.9875623714475936,-0.2836329925064379,23.401652825167133,-0.026135569716592,25.36869623161536,367.5328077894322,31.040946437938285,14.921499239853068,80.43374524904014,2.6207274113212806,122.7281091614188,588.9238902356476,1.274,1.0223460397860296,0.0,11.909204409461037,120.00005142262596,0.0912408760945798,-6.5251374083751566e-06,0.7041375892490191,0.004333734841066,-0.0677616075217209,3.9976207189485895,16.364800219015113,30.99639365362677,34.51389265947312
1.14,31.22217429732186,131.01047722345783,22.375997655969392,-3.545398090013581,-0.2802146948201464,9.190294295047485,-0.0107113188489599,25.6970772292921,239.6953177322812,31.44359907237973,15.009743377012542,80.83662687660777,2.750384367994956,122.85952123866744,604.2837416197424,1.274,1.0223022138470996,0.0,11.937208449377026,120.00005142262596,0.092424743188763,-6.760616972424684e-06,0.7103101749058046,0.0038559324041612,-0.0692402534293188,3.556440305728745,16.077317440939936,31.39958322651303,27.291049853205287
1.15,31.22217362030193,131.01047859157475,22.692571025100143,-3.143688660221467,-0.2793521435230147,8.691468358877188,0.0058170731675993,25.77517084835964,237.4125115347709,31.531584240918928,15.043075123474583,81.24300270990997,2.8914047553978848,123.00228758551044,607.6517972731803,1.274,1.0222426194541194,0.0,11.964820267493208,120.00005142262596,0.0926836962945467,-6.995910772585967e-06,0.715893120711861,0.0033717944325508,-0.0699776151880544,3.156063637947026,15.95514981173276,31.487703882677778,27.201122924133706
1.16,31.22217294531315,131.01047995572856,23.005523644277183,-2.73554311206046,-0.2776483974022583,36.02887321980819,0.022217375778921,25.87666966471032,490.043774385954,31.68557823618828,15.085042892689565,81.65252881880755,3.0454782343625504,123.15809735039106,613.5831475856324,1.274,1.02219674531104,0.0,11.99286240529895,120.00005142262596,0.093136673977123,-7.230972888616825e-06,0.7208163980721177,0.0028866293817947,-0.0708008378831377,2.749586544684236,15.811059482909792,31.6419654986004,44.358564359516166
