Time,Latitude,Longitude,Altitude,Angle of Attack,Angle of Sideslip,X-Acceleration,Y-Acceleration,Z-Acceleration,Thrust,True Velocity,Ground Velocity,Pitch,Roll,Yaw,Dynamic Pressure,cp,cg,parachute_deploy_gain,Wind Speed,Wind Direction,Mach,omega_x,omega_y,omega_z,Cmq,Angle of Attack(total),Angle of Attack(gust),True Velocity(gust),Acceleration
0.0,31.222216000000007,131.010392,3.000000004412624,0.0,0.0,0.0,0.0,0.0,2.2828121974499247,0.0,0.0,69.99999999623412,0.0,119.9999999935444,0.0,1.274,1.0271675151847728,0.0,0.0,0.0,0.0,0.0,0.0,0.0,-0.0,0.0,90.0,0.0,0.0
0.01,31.22221599999084,131.01039200000497,3.000002745347096,0.0,0.0,0.0,0.0,0.0,34.242186961749226,3.465174813755316e-14,2.8705476994166025e-14,69.9999999962611,-2.1713911667908447e-11,119.99999999352175,7.352495975525499e-28,1.274,1.0271659134330349,0.0,0.0,0.0,1.0183245502395064e-16,-3.3305335486039093e-18,7.169286865560398e-18,5.624298769768554e-18,-7.715917190115602e-34,0.0,89.99999999999979,3.465174813755316e-14,0.0
0.02,31.222215999994315,131.0103920000094,3.0000030495639742,0.0,0.0,0.0,0.0,0.0,25.871876237766216,3.8197434737535036e-11,2.4171837235633357e-11,69.99999999628672,-1.1921727947863515e-11,119.99999999353136,8.93414285188691e-22,1.274,1.027164492361118,0.0,0.0,0.0,1.1225230367947217e-13,-6.657678965418802e-18,1.4338573731120796e-17,1.1241821275959074e-17,-1.7010872994127372e-30,0.0,89.99999999975682,3.8197434737535036e-11,0.0
0.03,31.222215999994315,131.0103920000094,3.0000030495639742,0.0,0.0,9.81877837424427,-2.5122800045972096e-05,3.3498614629347925,180.34219359854663,1.2659015405517447e-10,1.1364406173918436e-10,69.99999999631459,-1.6431898037347223e-11,119.99999999352724,9.812605835254651e-21,1.274,1.0271551940870716,0.0,0.0,0.0,3.720154642239108e-13,-9.991600645811728e-18,2.150108433310316e-17,1.6859343782149594e-17,-8.453698244545225e-30,0.0,89.99999999919412,1.2659015405517447e-10,10.374487003414373
0.04,31.222215999994315,131.0103920000094,3.0000030495639742,18.83801224594347,-0.0001111777826462,48.68248476615645,-1.016330065874988e-05,3.3497854396877287,548.635972453808,0.1556173050466994,0.0975908358443652,69.99999999633813,-2.0932768807056278e-11,119.99999999352085,0.0148286043323172,1.274,1.027133720825283,0.0,0.0,0.0,0.0004573186944143,-1.3322134194415637e-17,-1.04744143520903e-11,1.336824254131964e-11,5.0626055458604615e-15,18.83801224625964,89.06236267790787,0.1555998412814392,48.79759610369246
0.05,31.22221599164764,131.01039201704114,3.002326315126219,5.772385609593056,-4.395076213712875e-06,71.20344550265034,4.905512691849684e-05,3.349217396035405,761.6984298824663,0.8326471944351852,0.3620326097059287,70.00000001316391,-1.0866255162484559e-10,120.00000000231074,0.4245281043148827,1.274,1.027093426565204,0.0,0.0,0.0,0.0024469331205246,-5.0245994431125096e-18,-7.32924164976824e-07,2.217344936947165e-11,1.895424184525467e-09,5.772385609594774,84.74112356985832,0.8326465040582279,71.28217104309611
0.06,31.22221596664444,131.01039206837547,3.015081730143309,4.056581213689704,3.169093567502233e-05,53.16249142470188,0.0001203825427859,3.3481235983850643,590.4875390737236,1.657216205300742,0.6755452977614796,69.99999964391398,-3.9285905645317736e-10,120.0000000287861,1.6816755551786196,1.274,1.027050317124926,0.0,0.0,0.0,0.0048701272653724,3.095757869075056e-13,-7.483541766772344e-06,3.074135420506017e-11,3.8518749565858254e-08,4.056581213813337,79.59316473687034,1.657221183301277,53.26781792157489
0.07,31.22221592883117,131.0103921460222,3.034593611434361,4.115662018628709,6.450869598349036e-05,81.18203554989698,0.0001593212642178,3.347059402768047,855.2937749779172,2.099899704220947,0.8579771146174259,69.99999543281565,-8.233801910783518e-10,120.00000006883089,2.700101932075157,1.274,1.027003201295312,0.0,0.0,0.0,0.006171060252819,3.4704292086287e-12,-2.6327204536316785e-05,1.9541142932033486e-10,1.7170712165327165e-07,4.115662019133419,76.90111966094352,2.099909837223217,81.2510043180746
0.08,31.22221588914193,131.01039222747755,3.0542761843835606,3.459696193892355,8.037433511260004e-05,16.298214211652088,0.0002413456836072,3.344878926597744,241.2171988638792,3.051964775152957,1.2149999716613011,69.99998042886442,-1.0128995578004475e-09,120.00000011111383,5.703497661025892,1.274,1.0269597189470347,0.0,0.0,0.0,0.0089689344021769,1.458982438104473e-11,-5.702803872814215e-05,7.043261397829576e-10,5.405702492731987e-07,3.459696194824858,71.30331929508368,3.051977400323993,16.63790856991177
0.09,31.2222158241468,131.01039236098703,3.0886872184095737,4.313676956300389,0.0001337561018991,50.35975918308536,0.0002293282821279,3.344215841840564,563.0937377043203,2.893161298572128,1.191209213966114,69.99994788602814,-7.098432023887522e-10,120.00000018106356,5.125380275808925,1.274,1.026918932011013,0.0,0.0,0.0,0.0085022553945842,3.8672912027154325e-11,-0.0001115933708951,2.016054215232918e-09,1.0027525988343615e-06,4.313676958370176,72.2316578138625,2.893182308931483,50.47067588835877
0.1,31.2222157788302,131.01039245392113,3.109877853389092,4.035124630954496,0.0001457499816535,47.804664812504015,0.0002878217657545,3.341734392237128,538.7437595981891,3.5677148583138303,1.4531247507621967,69.99988403958329,1.9248461973355822e-09,120.0000002323013,7.7939962029572305,1.274,1.0268846934974103,0.0,0.0,0.0,0.0104845969583028,8.579678749070606e-11,-0.0001726817043215,3.984565639703107e-09,1.913455350430327e-06,4.0351246335824245,68.43243098813296,3.567737752667411,47.92132267234452
0.11,31.222215703308,131.01039260899836,3.148841432727305,4.043401107254707,0.0001752764476999,37.67622367577205,0.0003286462930162,3.3392563999062723,442.86563930529127,4.034183355956686,1.6436552022667772,69.99978525353545,7.302513231814865e-09,120.00000031883242,9.96528118825134,1.274,1.026848594915519,0.0,0.0,0.0,0.0118554331868328,1.5870341853361987e-10,-0.0002596204409236,7.232030302688121e-09,3.252930323390323e-06,4.04340111104746,65.92012987243639,4.034210888316708,37.82391391539392
0.12,31.222215627491828,131.01039276462643,3.186995101203875,4.17874459224363,0.0002066711490009,41.15991989399172,0.0003576945202315,3.336766085769504,475.58594813540793,4.361857560629481,1.7865750500940407,69.99963665601238,1.781774420198147e-08,120.00000041104812,11.649831899889556,1.274,1.0268114448194128,0.0,0.0,0.0,0.0128183893919737,2.682972478760441e-10,-0.0003710216542429,1.2215991071490164e-08,5.026311388647148e-06,4.178744597345269,64.21681651392016,4.361890024457652,41.29495143136631
0.13,31.22221554594398,131.01039293200228,3.2277173449026786,4.202734874672792,0.0002327160860324,45.44886120763352,0.0003953741266062,3.333578629398489,515.9156326236897,4.792165672014363,1.9646716520715424,69.99942424225341,3.613383418913551e-08,120.00000051758742,14.061726603124043,1.274,1.026779572895131,0.0,0.0,0.0,0.0140829618979635,4.248908088871395e-10,-0.0005056103199642,1.908859219307828e-08,7.5253154423526356e-06,4.202734881104192,62.048594618540655,4.792202226971676,45.570952718869485
0.14,31.222215454191247,131.01039312033683,3.2737880595608355,4.184830647080848,0.000257138757548,42.32232525579263,0.0004369426767266,3.329727443445437,486.2390860568421,5.269261304374574,2.158791628597544,69.99913473613935,6.515851355725497e-08,120.00000064630268,17.000925061330125,1.274,1.0267449573927567,0.0,0.0,0.0,0.0154850332441425,6.382432869666793e-10,-0.0006690086306358,2.8426433029675884e-08,1.0948547100483978e-05,4.184830654966803,59.74181173116622,5.269301695636157,42.45310707234106
0.15,31.222215353826755,131.0103933263496,3.3242182719560263,4.21963947489699,0.0002846467688673,40.886944113003565,0.0004726792395108,3.325585650885676,472.5421858721398,5.6781946837482895,2.329510773545807,69.99875162806286,1.0876776246115984e-07,120.00000079954532,19.742017654108928,1.274,1.0267115958081523,0.0,0.0,0.0,0.0166867950518804,9.204756288136623e-10,-0.000865746478554,4.08948221429571e-08,1.526771148078443e-05,4.219639484480408,57.84996018384879,5.678239395958187,41.02196629910223
0.16,31.222215247130432,131.01039354534575,3.3775922280208457,4.253495568077899,0.0003118339050386,32.26872905470846,0.0005078415214353,3.32090791922544,391.1218908297597,6.081244877834229,2.4981889727471702,69.99825581174558,1.7187028096464329e-07,120.0000009800088,22.644030778355887,1.274,1.026675762255412,0.0,0.0,0.0,0.0178712695992133,1.2856146928958252e-09,-0.0010961187242953,5.6923362293832417e-08,2.0702404729358337e-05,4.253495579487569,56.06022383757386,6.081293860589489,32.43916312841722
0.17,31.22221513260033,131.01039378041813,3.4348437275053194,4.364838523348639,0.0003448792023946,40.840448242802736,0.0005326487904353,3.3162727284953744,471.78125980632416,6.362544479165355,2.6250789114832647,69.99762801982864,2.5997588617291615e-07,120.00000119506798,24.78723182122683,1.274,1.0266409836796937,0.0,0.0,0.0,0.0186979513961862,1.747791994374917e-09,-0.0013624931601664,7.706724512977917e-08,2.6923621797558364e-05,4.364838536947241,54.85936171416122,6.362598652663785,40.97486885600156
0.18,31.222215014088988,131.01039402363364,3.4935801365785646,4.353948305387995,0.0003681615230806,33.992183768165326,0.0005718025428208,3.310131992647221,407.1015672119096,6.81502088160835,2.810667639293692,69.99684761766231,3.794979223522764e-07,120.00000144728236,28.437950785509614,1.274,1.0266048342046536,0.0,0.0,0.0,0.020027681385988,2.3221419748804155e-09,-0.0016616990447559,1.0147209890543081e-07,3.517105786247627e-05,4.353948320923495,52.99157233768714,6.815078712285162,34.152972512863755
0.19,31.22221488419521,131.01039429023237,3.558399965607869,4.432620772533925,0.0003996774584738,38.45149959021069,0.0005986099513107,3.304145139297767,448.95313283182486,7.1223367465208405,2.946425726785696,69.99589577323147,5.440084577183829e-07,120.00000176148238,31.060341085698347,1.274,1.026566130444714,0.0,0.0,0.0,0.0209308229359413,3.022391489754689e-09,-0.0020041563310821,1.3135864879722746e-07,4.433199397898183e-05,4.432620790516937,51.77883352025967,7.122399527709208,38.59320142454953
0.2,31.222214751373183,131.01039456280608,3.624052454705669,4.443889400961181,0.0004246617145652,35.23432408779927,0.0006337972852267,3.2968110145188256,418.5156301991588,7.530482904611057,3.1167566004785483,69.99474776398331,7.478025600151903e-07,120.00000211715036,34.72195181863731,1.274,1.026529240027363,0.0,0.0,0.0,0.0221302820454282,3.866698391504749e-09,-0.0023849544920781,1.668144671071589e-07,5.57780533277244e-05,4.443889421210987,50.22448880200342,7.530549610317194,35.38822625098952
0.21,31.222214608673173,131.01039485566503,3.6948551453492566,4.493351735844891,0.0004538195602194,33.79371564104691,0.0006629296043866,3.2891790438445727,404.8187610144608,7.868284042829251,3.2629204975089228,69.99338155599101,1.0150082652278477e-06,120.00000255293388,37.906665490338085,1.274,1.0264923657015164,0.0,0.0,0.0,0.0231230169900677,4.871073773182836e-09,-0.0028117605859743,2.089322918608601e-07,6.870935089180403e-05,4.493351758715364,48.992529909481824,7.868355328639073,33.95340801819282
0.22,31.22221446109996,131.01039515850383,3.767700382407304,4.5412639153933885,0.000482649303782,41.008966751568416,0.0006914639179131,3.2808061382386606,472.5421858721387,8.20057841132235,3.4071691679735228,69.9917708347139,1.3454961520984431e-06,120.00000305929996,41.175744234065135,1.274,1.0264494137127138,0.0,0.0,0.0,0.0240995709751246,6.054779813287368e-09,-0.0032829112061357,2.580881224843564e-07,8.3609968899004e-05,4.54126394098788,47.82515604752711,8.2006542256977,41.13999323561041
0.23,31.22221430675399,131.0103954752338,3.843768625625224,4.52371495179584,0.0005047555656171,33.98493478127787,0.0007294889663961,3.2705214710765107,406.340642146096,8.647938096586296,3.5908865300848416,69.98989017772566,1.7539876018835507e-06,120.00000365514876,45.79040229326471,1.274,1.0264133390858623,0.0,0.0,0.0,0.0254142776666487,7.436335125872812e-09,-0.0038001790077148,3.1489825108822685e-07,0.0001020628978177,4.523714979897577,46.31461705147579,8.648017383405135,34.14194053232237
0.24,31.222214142622448,131.0103958120587,3.92493179063287,4.57837522350066,0.0005351929930195,35.051650311058864,0.0007555049947555,3.26053011385611,416.2328240017099,8.954297884844461,3.72617527247482,69.98771316795013,2.25257161141768e-06,120.0000043564586,49.09180568115741,1.274,1.0263750048312463,0.0,0.0,0.0,0.0263146218848643,9.034877387788232e-09,-0.0043732521010013,3.809642748985157e-07,0.00012161410144,4.578375254714954,45.32798984252032,8.954381952763216,35.20297212911011
0.25,31.22221397517227,131.0103961556623,4.0071748888306855,4.6034117733065,0.0005618935542827,36.03738579534623,0.000785606492708,3.249069743648399,425.3640807915084,9.311611941121669,3.8789349536029696,69.98520781816889,2.8559738498748624e-06,120.00000517181904,53.08749562138344,1.274,1.0263373768840591,0.0,0.0,0.0,0.0273647110956883,1.0873791100894836e-08,-0.0049950711786164,4.5609738277273444e-07,0.0001444478241125,4.603411807525074,44.2165428352526,9.311700203154778,36.183554686886296
0.26,31.22221379934012,131.01039651647062,4.09364247475714,4.621386912291471,0.0005881033207375,39.29107511182762,0.0008162761165496,3.236407051295005,455.80158342417656,9.67833954512075,4.034902068846398,69.98234620927953,3.5784678110229355e-06,120.00000612171208,57.350948423913096,1.274,1.0263006300381676,0.0,0.0,0.0,0.0284424679130479,1.2973286442992724e-08,-0.0056712051373577,5.414206381221602e-07,0.0001704578711045,4.621386949630312,43.12063533194282,9.678431924174348,39.42414126789902
0.27,31.222213616776543,131.01039689108487,4.183310605341074,4.617158109135719,0.0006115457810536,35.90419462403674,0.0008503454714941,3.221982799915672,423.8421996598744,10.088790784535757,4.205862468567124,69.97909721779352,4.436165972465058e-06,120.000007221354,62.31798301949865,1.274,1.026260090595354,0.0,0.0,0.0,0.0296487219805601,1.5355910600537293e-08,-0.0064045199323113,6.379142666348734e-07,0.0002006609239367,4.617158149547818,41.94410287616451,10.08888684592241,36.048472443180565
0.28,31.22221342607797,131.0103972823952,4.277051150896916,4.642105655370123,0.0006389739579882,41.51133203546672,0.0008785747638736,3.2071101123224945,476.3468732012228,10.432377224420517,4.35383399240675,69.97542808435722,5.446665372087172e-06,120.00000849080963,66.63429581008447,1.274,1.0262212716723291,0.0,0.0,0.0,0.0306584788590473,1.8045308789081613e-08,-0.0072006835403936,7.469524967369969e-07,0.0002332868227611,4.642105699250441,41.0023231023774,10.432477594215127,41.63503624837164
0.29,31.22221323001776,131.01039768469093,4.373143569786686,4.62134615173668,0.0006600657405645,33.17552944492765,0.0009148746278066,3.1894209319791806,397.9703104221098,10.876662296046485,4.536381530986506,69.9713027936179,6.629751536885327e-06,120.00000994797426,72.43000748232016,1.274,1.026183007522519,0.0,0.0,0.0,0.0319641703260467,2.1067646517035105e-08,-0.0080566154554079,8.688043379161898e-07,0.000272130659453,4.621346198772975,39.83162628795024,10.876765978930557,33.32848872465723
0.3,31.22221302403368,131.01039810736614,4.4744193758467325,4.664362353358112,0.0006905183788532,31.08096762732793,0.0009381960428197,3.172549142946348,378.1859457108735,11.168362145070317,4.66647911311536,69.96668711012893,8.005507138509574e-06,120.00001161892672,76.36634300732833,1.274,1.0261430389738484,0.0,0.0,0.0,0.0328214509167604,2.4447409007156216e-08,-0.0089829108229115,1.0056222251461646e-06,0.0003115527202986,4.664362404357781,39.09908960432563,11.168470611443622,31.242464973103964
0.31,31.22221281503337,131.01039853619727,4.576593712520673,4.700143580504286,0.0007196683316923,32.79732593144512,0.0009620705970519,3.154230688182399,394.1656220930229,11.470279728974068,4.800072153432283,69.96154070456518,9.597499105113692e-06,120.00001352112182,80.55022837857167,1.274,1.0261054058068628,0.0,0.0,0.0,0.0337087616009043,2.8214060606649844e-08,-0.0099686353219717,1.1565909895184251e-06,0.0003550834484269,4.700143635477137,38.36463422765983,11.47039277421126,32.94865339301887
0.32,31.222212598991007,131.01039897947376,4.68216432480395,4.718667719113184,0.0007464384342556,35.7316568886908,0.0009885845337584,3.133859770838664,421.5593934624264,11.808280530415894,4.946054328851105,69.95582953472353,1.14278227255889e-05,120.00001568218067,85.36654007972253,1.274,1.026068246703101,0.0,0.0,0.0,0.0347021168382987,3.2392058795580455e-08,-0.0110163301561155,1.3226102501723267e-06,0.0004039614423012,4.718667778018562,37.5686120062341,11.808397780690962,35.8688218659563
0.33,31.222212376029034,131.0103994369436,4.791055524254013,4.72141404831576,0.0007708346814671,35.42013590291081,0.0010176135371143,3.1111955852784385,418.5156301991632,12.181577273013426,5.104163223586657,69.94951809396906,1.351997394754887e-05,120.00001812674968,90.84831229869296,1.274,1.0260310883392356,0.0,0.0,0.0,0.0357992034445943,3.700677535501642e-08,-0.0121310534481307,1.5051409581878843e-06,0.0004588955105349,4.721414111097893,36.7208578211118,12.181698355442045,35.55651229220977
0.34,31.222212145785647,131.0103999093516,4.903491659547144,4.73024573449122,0.0007962944975467,27.63851074646407,0.0010446307681611,3.0871492806781062,345.4656368807584,12.53557620048282,5.2556261014174765,69.94256797855994,1.5899658158227497e-05,120.000020882338,96.20413272674828,1.274,1.0259901535019136,0.0,0.0,0.0,0.0368395817555172,4.208561016221623e-08,-0.0133180771902383,1.7057647550599631e-06,0.0005184333231541,4.730245801363397,35.94841996438923,12.535701282129995,27.810389570354005
0.35,31.222211909310875,131.01040039453565,5.018822212845608,4.780248518778662,0.0008286678570753,30.332092807652543,0.0010618579815451,3.063967690608957,370.5765700527057,12.774786382148209,5.367579971644358,69.93493776125636,1.8594985713558667e-05,120.00002397748868,99.9096898192772,1.274,1.025950003202184,0.0,0.0,0.0,0.0375426220587071,4.7658312175989686e-08,-0.0145774693288123,1.9252724355785177e-06,0.0005782798420984,4.780248590437683,35.44790728185619,12.774916548990808,30.486451961956565
0.36,31.22221166933814,131.0104008868675,5.135354490370708,4.798132156899578,0.0008554457330409,34.32674769697476,0.0010851169437774,3.0374319611165923,407.8625232777224,13.09301701329486,5.506730645516068,69.92658597246795,2.163521613217148e-05,120.0000274401514,104.94818266210537,1.274,1.0259105142325406,0.0,0.0,0.0,0.0384778908056978,5.3755109608570216e-08,-0.0158991451700967,2.162609490834569e-06,0.0006464142451675,4.798132232978766,34.796094028187134,13.09315138639638,34.46087058603792
0.37,31.222211421355144,131.01040139563804,5.255882891363927,4.797392186816851,0.0008791822061288,32.551601855236584,0.00111162791192,3.0078619428913056,391.1218908297639,13.457513730739372,5.661815946371007,69.91747693543164,2.5047738471809164e-05,120.0000313040604,110.87154396328836,1.274,1.025872170958032,0.0,0.0,0.0,0.0395491312153729,6.040098808671168e-08,-0.0172926678053148,2.420031948898497e-06,0.0007226353721561,4.797392267189059,34.07332166419882,13.457651832357364,32.69027405888565
0.38,31.22221116634284,131.01040191882743,5.379799334000849,4.811698494594017,0.0009057112478668,34.02947987649063,0.0011338447913587,2.9774881690446744,404.81876101445977,13.77554886562956,5.800899861213392,69.90756948297444,2.886339581486796e-05,120.00003560072224,116.17243393848278,1.274,1.02583050512925,0.0,0.0,0.0,0.0404838339452728,6.762496638941508e-08,-0.0187646375218858,2.69955777313946e-06,0.0008026686661094,4.8116985796350695,33.46655348088405,13.775691134419684,34.15949264475229
0.39,31.222210906095896,131.01040245274032,5.505993307722699,4.813508003664984,0.000929862892873,29.00025983045028,0.0011579891265804,2.9442136901860865,357.6406249338268,14.124492165837273,5.950648592462506,69.8968186645841,3.311602501056718e-05,120.00004036395212,122.13093644173792,1.274,1.02579027384009,0.0,0.0,0.0,0.0415093739609825,7.545934774906889e-08,-0.020311592409804,3.0013532510753577e-06,0.0008908380763632,4.813508093268025,32.821616487639595,14.124638228358922,29.149330452482886
0.4,31.222210638473225,131.0104030017851,5.635788650457906,4.841647069358873,0.0009592124397379,27.71178845184976,0.0011749448424961,2.91135549588368,345.4656368807565,14.390874239274588,6.07193451174791,69.8851815212744,3.783947407715338e-05,120.00004563180136,126.77947425345651,1.274,1.0257493418632293,0.0,0.0,0.0,0.0422922854866381,8.39343718693383e-08,-0.021938519432511,3.3271332720311508e-06,0.0009803271643914,4.841647164150728,32.348088166612904,14.391024912012275,27.864299944624147
0.41,31.22221036681104,131.01040355909262,5.767123077463226,4.86553909860892,0.0009876699832274,31.306062598221665,0.0011918093836199,2.876450850006428,378.9468707766882,14.663028799871563,6.195223154320929,69.87261222561014,4.307011032901644e-05,120.0000514391194,131.6183642808765,1.274,1.025708445186429,0.0,0.0,0.0,0.0430921644173401,9.308325447883581e-08,-0.0236371933433427,3.6760977501392174e-06,0.0010761942383903,4.865539198612839,31.87689439156756,14.663183942709727,31.437931330109585
0.42,31.22221008906472,131.01040412887247,5.901259531771367,4.867510642114694,0.0010118258958528,35.308283402190774,0.0012128114559048,2.8374461227958245,416.23282400171047,14.9952917972178,6.33928625560071,69.85906967380902,4.884273094936628e-05,120.00005782486392,137.64909586091787,1.274,1.0256701057426505,0.0,0.0,0.0,0.0440686959134695,1.0293499639582845e-07,-0.0254093547296826,4.049238334851429e-06,0.0011830797791891,4.867510747027452,31.315270489291198,14.995450734457847,35.422111438762386
0.43,31.222209804115888,131.01040471342728,6.038886819939341,4.854590670645608,0.0010330089741511,31.00586934514032,0.0012363751872706,2.794478603999558,375.90313951343126,15.369430568701889,6.497852263156962,69.8445117629242,5.519340856908871e-05,120.00006482835984,144.60167924299955,1.274,1.0256308158337524,0.0,0.0,0.0,0.0451682983415116,1.135186446762958e-07,-0.0272634397889413,4.449073329427772e-06,0.0013010625065656,4.854590780289497,30.70250814963406,15.369592833372094,31.13154422839874
0.44,31.22220951192321,131.01040531284193,6.180028459770617,4.866912332640401,0.0010595850174406,28.57707721036899,0.0012525768202179,2.752165534925872,353.07501253892326,15.659290812546615,6.627318538707029,69.82889155423543,6.216182865383864e-05,120.00007249162944,150.1053167542629,1.274,1.025586171750536,0.0,0.0,0.0,0.0460202245100907,1.2486676023179565e-07,-0.0292060158163984,4.8779154055816594e-06,0.001420032405556,4.866912447705031,30.24619499837236,15.659457251771938,28.709297424144207
0.45,31.222209215425703,131.01040592106523,6.322872201489905,4.881836476567178,0.0010866574689855,33.31904824532484,0.0012669045761511,2.7082028218433374,397.2093853562887,15.934249290371609,6.751662050993672,69.81215834018458,6.97909417564726e-05,120.00008085697964,155.42080512416243,1.274,1.0255397023523487,0.0,0.0,0.0,0.0468283602442113,1.3701614206272197e-07,-0.0312276295846745,5.334643585560923e-06,0.0015449645531859,4.8818365972149325,29.82567893138932,15.934419982127675,33.428929688274074
0.46,31.22220891307435,131.0104065412864,6.468371919199588,4.869610441729251,0.0011078049156487,38.95909776354321,0.0012868374716666,2.6582856015412624,449.7140588976424,16.292139278621757,6.904766425053949,69.79426683863348,7.812149592850748e-05,120.00008996920153,162.4785746623087,1.274,1.02549635315424,0.0,0.0,0.0,0.0478802236363867,1.499987870203256e-07,-0.0333272350234362,5.819761874615242e-06,0.0016858511402973,4.869610567434908,29.29014635640275,16.292313292210977,39.04968351401366
0.47,31.22220860266524,131.01040717804253,6.6178810515614845,4.838450928223533,0.0011247917292402,26.253747818137555,0.0013104398935566,2.6026193242279367,331.0078106302504,16.710658191447514,7.078951441335346,69.77517236812905,8.719457259907165e-05,120.0000998741591,170.9309671061642,1.274,1.025453319323251,0.0,0.0,0.0,0.0491102725711187,1.6384464803343264e-07,-0.0355167087264168,6.3368207228363735e-06,0.0018427306558807,4.838451058652396,28.68386015667837,16.710834873319172,26.382435512333956
0.48,31.222208284201663,131.0104078313267,6.771393590864176,4.869339340099417,0.0011561785713505,25.860860976019296,0.0013165328518772,2.5543454292827983,327.20312230115803,16.911139899671,7.177575416403102,69.75482343794755,9.70562828082882e-05,120.00011062072316,175.0543877818846,1.274,1.0254092882449153,0.0,0.0,0.0,0.0496995461609974,1.7858865391586845e-07,-0.0378054080201581,6.88909442277235e-06,0.0019849793891693,4.869339477030596,28.40887970825325,16.911321511776286,25.986704537635287
0.49,31.22220796480208,131.01040848648364,6.924537656029012,4.881367714530694,0.0011829003785372,32.565703383222065,0.0013261973190012,2.5011623511055703,389.6000096981238,17.169005224738054,7.296160258358563,69.73316318155707,0.0001077573203115,120.000122255028,180.4309832312717,1.274,1.025367445590036,0.0,0.0,0.0,0.05045746454003,1.942747077649401e-07,-0.0401641298712614,7.47069711110948e-06,0.002140948887153,4.881367857509675,28.058569663954906,17.169191034294997,32.66161128464712
0.5,31.222207637929923,131.01040915697027,7.081324512896956,4.862566137860805,0.001202418260511,33.47759680712428,0.0013425340759632,2.4399894027711366,397.970310422106,17.52898693231981,7.450304424940405,69.71015149227495,0.0001193385310595,120.0001348274002,188.0736471953394,1.274,1.0253278572281015,0.0,0.0,0.0,0.0515154948878309,2.109295159784217e-07,-0.0426011733481599,8.084173008518589e-06,0.0023184335011768,4.862566286171007,27.57768313050809,17.529175807738486,33.56639745442473
0.51,31.22220730314019,131.01040984370235,7.24202048914867,4.8479762258125,0.001223054804074,25.49162310288008,0.0013562860883156,2.3767006597692686,323.39843497208153,17.86914397471067,7.597652147346554,69.68574349602717,0.0001318441288964,120.00014838524436,195.4407439266201,1.274,1.025286455263166,0.0,0.0,0.0,0.0525152689856776,2.2858192086249162e-07,-0.0451315948093539,8.734206149830708e-06,0.002503767471626,4.847976379721193,27.13799345359824,17.86933609171003,25.602178740977283
0.52,31.222206962738102,131.01041054193402,7.405210501673173,4.865306299521403,0.0012516517170965,30.733671928447727,0.0013599291289974,2.317711624364424,372.098451184342,18.08534843773428,7.701914987606457,69.65988568649581,0.0001453248538387,120.00016298000436,200.19561780583155,1.274,1.0252426840672306,0.0,0.0,0.0,0.0531507657929359,2.4726951523704535e-07,-0.0477531686556663,9.421346966092632e-06,0.0026812161964639,4.865306460134566,26.8699055233151,18.085545046726228,30.820940596104087
0.53,31.222206619320115,131.01041124632013,7.569307468221277,4.848802699234936,0.0012715119568563,32.301199055744725,0.0013711327835325,2.2490252325653923,386.55624643486095,18.41963113311156,7.8474319110539055,69.6325258319474,0.0001598315062727,120.0001786629144,207.6614205945027,1.274,1.0251993415311351,0.0,0.0,0.0,0.0541332845214831,2.67031759303889e-07,-0.0504479325599339,1.0141887756417996e-05,0.0028848299490111,4.848802865552398,26.45837260670532,18.419830861742675,32.37940050117613
0.54,31.22220626697288,131.01041196903336,7.737918664599091,4.831496690588052,0.0012913635058467,28.31291960103712,0.0013809098107221,2.177242866245296,349.2703242098436,18.75116898748492,7.992112829440902,69.60362200959217,0.0001754082864028,120.00019548734956,215.20067397992847,1.274,1.0251561018460285,0.0,0.0,0.0,0.0551077428911958,2.878941684235108e-07,-0.0532336286085667,1.090122304443916e-05,0.003098869611663,4.831496862756785,26.061835558272342,18.751371834390056,28.396510432451375
0.55,31.222205908994248,131.01041270328463,7.909026079894722,16.926145910542473,21.867809829269504,30.9209585032238,-1.5629167197966192,1.284649892361431,365.2500005919912,23.311818853880887,8.113323699629928,69.57312211246325,0.0001921068626005,120.00021350480982,332.60755958266367,1.274,1.025112921033824,0.0,10.025614263783408,0.0,0.068511152573491,3.0989272306468813e-07,-0.0561100530405476,1.1700476995263424e-05,0.0040606783378885,27.39650053572576,44.75010101150643,26.664016837543148,30.987073252842908
0.56,31.222205546564343,131.01041344664463,8.081909946161325,-16.767198972104097,-22.15782277445476,28.65331814828266,0.6797344613268511,2.787035660369342,346.22656194657776,18.925863203186434,8.24370876953435,69.54097415464405,0.0002099796112633,120.00023276987916,219.2219215512253,1.274,1.0250709539098009,0.0,10.062191141780394,165.0000707061107,0.0556213669312517,3.3292051977349045e-07,-0.0690085882480278,0.0189385669121715,0.0040544633573953,27.52948519714196,15.513164052414249,15.531431104779667,28.796566594245053
0.57,31.22220518105916,131.01041420589075,8.258547605517315,-16.48111519279938,-21.89616139160253,28.324120558401045,0.9380554415067304,2.948235034717399,343.1828296833045,19.15520884326037,8.38638171539952,69.50143310747288,0.0292380856677736,120.03121933929825,224.5634146419104,1.274,1.0250279191823897,0.0,10.098482259245095,165.0000707061107,0.0562955047976579,3.717355486945474e-07,-0.0605666903210877,0.0063127979432158,0.003601537223342,27.159597295946,15.283213383687096,15.798878262436752,28.49259277844177
0.58,31.222204802904884,131.01041497480475,8.436823551697174,-16.218335676272822,-21.65903373591888,37.240479932184485,1.2079985874574255,3.1163508022282262,426.12500585731766,19.398297163391543,8.523530273848174,69.46672956902279,0.0388490333902146,120.04148130868296,230.29526166955563,1.274,1.024981594484354,0.0,10.134876624800247,165.0000707061107,0.0570100350350843,4.000812887218945e-07,-0.052020982880775,-0.0064884430203509,0.0031325780559164,26.822237244173337,15.068898944720504,16.07655613425728,37.390162456042944
0.59,31.222204420711183,131.01041575634673,8.617896502731814,-15.840881031115575,-21.281296643799497,30.19872092416939,1.4978468958496551,3.2903517920433982,360.68438819710633,19.763339325895604,8.708516621488398,69.43692671598772,0.0288845169070748,120.03083990648028,239.04017052668496,1.274,1.0249386802161349,0.0,10.170969155887176,165.0000707061107,0.0580829832335067,4.178341575454697e-07,-0.0433555191986598,-0.0194928890355184,0.0026598485415187,26.308219572178874,14.765233397699506,16.496815656640706,30.414350325046822
0.6,31.222204026973607,131.0104165580664,8.803844664556376,-15.595756618728052,-21.0564207180438,26.837922901778217,1.7899340200363736,3.473413319042851,329.4859594986072,19.99479866152221,8.84122475516486,69.41208935396332,-0.000883635290293,119.9990436189889,244.66765054739767,1.274,1.024891335813742,0.0,10.20699179580818,165.0000707061107,0.0587633482602783,4.248466456308154e-07,-0.0345057810979151,-0.0327865768052361,0.0021416738432803,25.99033597816024,14.5640949296136,16.761214781561712,27.120888067369396
0.61,31.222203629458527,131.0104173650948,8.99031930413207,-15.364009379468325,-20.8439357323282,31.416882921941376,2.089998041828565,3.6621940316889625,372.0984511843332,20.21333818280108,8.968816980215852,69.3923113145026,-0.0508430278622172,119.94567252939368,250.04074760803147,1.274,1.0248423929069768,0.0,10.243337119403304,165.0000707061107,0.0594057459625319,4.209119101356226e-07,-0.0255492798872674,-0.0462669429596456,0.001603073238198,25.689819439303875,14.373452823952825,17.01092484734958,31.698584975855898
0.62,31.222203224643906,131.01041818470597,9.179452976072875,-15.064183158273464,-20.545276474095424,39.02403638505083,2.408682697655157,3.8584470526811616,442.86563930529206,20.509688847977703,9.126728993675233,69.37763366540058,-0.1212542302872264,119.87044442978296,257.42158542611173,1.274,1.0247996097896497,0.0,10.279151686878905,165.0000707061107,0.0602768307779694,4.059092910062264e-07,-0.0164958469708718,-0.0599207823038643,0.0010501769008056,25.282074778107237,14.12952482914097,17.351161777657378,39.288227012402814
0.63,31.22220281061976,131.0104190208273,9.372383699706605,-14.699623923579264,-20.16205625463881,22.132692816303205,2.751582513105298,4.065601798537975,286.11251274707456,20.889868808708567,9.317054769621937,69.36808314197376,-0.2123883515516213,119.77306796062568,267.0485330738908,1.274,1.024756158874558,0.0,10.314832519285709,165.0000707061107,0.0613942920871047,3.797284875206437e-07,-0.0073071984800816,-0.0737998381023712,0.0004738134028103,24.77005341926186,13.8344434243811,17.7877792951141,22.670606864650573
0.64,31.222202386531567,131.01041987524735,9.569622259879136,-14.553143172705628,-20.04419636050092,21.70796618169604,3.069125461544409,4.271000430296292,282.3078244179702,21.006471264295328,9.405012839314658,69.36369915369374,-0.3246271089676975,119.65313576142226,270.032946217952,1.274,1.024708534665538,0.0,10.350608482177456,165.0000707061107,0.061737118313066,3.422185541700564e-07,0.0020576823288224,-0.0879604467995973,-0.0001341664510022,24.59300231192281,13.711870250835238,17.92176721753752,22.33599721346576
0.65,31.222201962359435,131.01042072727677,9.765138000855178,-14.34692598472184,-19.84979966904385,38.3310089086103,3.4029567979676134,4.482539511865086,436.7781447787504,21.19463934985892,9.520538896429349,69.36453452497777,-0.4584714327791944,119.51011535251986,274.887160122418,1.274,1.0246641738210605,0.0,10.386558009216088,165.0000707061107,0.0622902736401758,2.9319841369144413e-07,0.0114523710907516,-0.1022031630036985,-0.0007534003004486,24.32104800854716,13.542673147211053,18.13863916740611,38.74196070665794
0.66,31.2222015292112,131.01042159543996,9.96432683162024,-13.963832521946284,-19.43014392254299,32.56826815833105,3.787211239401743,4.713599650541167,383.5125151715984,21.61309577518511,9.724818330983888,69.37054870343138,-0.614151419894922,119.34376602315484,285.8433163061157,1.274,1.0246195561629028,0.0,10.421589316424104,165.0000707061107,0.0635202445816036,2.3264589221850081e-07,0.0209118711406743,-0.1165752926713628,-0.0014028327991246,23.76883177980279,13.233645189672156,18.619179846389315,33.12481066316294
0.67,31.22220108316717,131.01042248806016,10.169590282105876,-13.701009049536708,-19.157284952647807,22.372001692293527,4.158010890583372,4.944415282928774,289.15624401033847,21.87788758117108,9.869584255984874,69.38171071820932,-0.7920033609523992,119.15373595213909,292.88443925041247,1.274,1.024572383541697,0.0,10.456684966522047,165.0000707061107,0.0642986087045028,1.6049866736484244e-07,0.030553006631967,-0.1312381990859428,-0.0020746594563229,23.40181609576252,13.020887290099385,18.924425030546065,23.286106518184916
0.68,31.22220063387058,131.01042338492897,10.37505593301478,-13.519062444025984,-18.98419849739667,27.92272200749373,4.514598545638316,5.172005402069059,340.89999248584934,22.02968261539665,9.97072316933583,69.39804406066303,-0.9926471340486664,118.93937278001914,296.95691147178377,1.274,1.0245245285832842,0.0,10.49223609592645,165.0000707061107,0.0647448808964807,7.657350982867835e-08,0.0402887276658926,-0.1460720231491356,-0.0027546771288731,23.160369829606413,12.873760431150908,19.10191620287932,28.75429783902027
0.69,31.222200179894408,131.01042428903776,10.581597379998106,-13.2482827034783,-18.694678623241504,34.37265179662539,4.905286291475205,5.414357954582641,401.0140726853658,22.305682132858955,10.1191286502878,69.41951102625534,-1.2165559314889804,118.70018347718334,304.43835148929827,1.274,1.024479631064582,0.0,10.52721731413172,165.0000707061107,0.0655561917667939,-1.921113387665221e-08,0.0500555035819887,-0.1609879526201458,-0.0034652744860878,22.775270017409483,12.65689225586024,19.42095698407024,35.140522153117494
0.7,31.222199715943944,131.0104252118064,10.792514551776044,-12.936077258343408,-18.347658982591607,28.751556636450136,5.322917940871922,5.670250962136798,349.270324209851,22.646562360009444,10.291828562058496,69.44602626539287,-1.464102366344234,118.43578501063912,313.8080806641431,1.274,1.0244351749185203,0.0,10.561833981739776,165.0000707061107,0.0665581939490217,-1.268612072706262e-07,0.0599120419911043,-0.1760679509509647,-0.0042109289187013,22.320394359631997,12.40816082575055,19.81352359307145,29.784848671730217
0.71,31.22219924357572,131.01042615009743,11.006890044674412,-12.694937580148457,-18.089231722176432,23.535633487236872,5.725922694109192,5.9222816374263525,301.3312640634036,22.88094994154437,10.423636761147977,69.4775243061008,-1.735822877708623,118.14562191286684,320.330808011432,1.274,1.0243880468141104,0.0,10.596631461716497,165.0000707061107,0.0672472211420273,-2.464446523808071e-07,0.0698848106467648,-0.1913496594498906,-0.0049626015226669,21.976666326262777,12.218301832559524,20.08646989985736,24.93563021336051
0.72,31.22219876668189,131.01042709552098,11.222299279116209,-12.48068042707506,-17.863327312939667,28.828378272775986,6.124462297650989,6.173519711241302,350.7922053414578,23.06984268998172,10.537874365159112,69.51394020809569,-2.032351567064877,117.82903710671144,325.6348593305135,1.274,1.024337302174265,0.0,10.631358244257331,165.0000707061107,0.0678025426038998,-3.7805861207685387e-07,0.0799131529429611,-0.2067475163254719,-0.0057214548657831,21.674180221396814,12.052282530818903,20.30911538625064,30.111406109623903
0.73,31.22219828397004,131.01042805095037,11.439572140908083,-12.205084646660696,-17.55349492547102,36.49882457720586,6.5583065102504845,6.441660694981011,422.3203185282354,23.357818540389097,10.688966031868157,69.55516115958501,-2.354227872901141,117.48547728768165,333.8082938497633,1.274,1.024292465384646,0.0,10.665715561256237,165.0000707061107,0.0686490753337969,-5.217259078743521e-07,0.0899681484002245,-0.2222202279427726,-0.0065216213352085,21.269352266328585,11.839121254172172,20.64345347713188,37.63868451884714
0.74,31.22219779230325,131.01042902358884,11.660779329670328,-11.883089402878756,-17.177752589339136,22.631496897213687,7.028884904561775,6.728518565853521,294.4828134710563,23.72990037854852,10.87086828708845,69.60104398220463,-2.7019635307307475,117.11442129600697,344.5205780534066,1.274,1.0242470321640116,0.0,10.699840167667116,165.0000707061107,0.0697428050220001,-6.774247862909037e-07,0.1000918861049081,-0.2378278413780459,-0.0073708925238559,20.78496176920968,11.59094348627664,21.07186645887909,24.634586193017423
0.75,31.222197291687248,131.01043001375683,11.88600574334959,-11.689553947857403,-16.97117278203358,26.431915641453283,7.43841424662617,6.988125632656442,330.24688556441737,23.873165324184672,10.966912691265977,69.65145261641493,-3.0762025618165887,116.71520936103032,348.6855543384318,1.274,1.0241984712898409,0.0,10.734042402460132,165.0000707061107,0.0701640427721322,-8.451755157803217e-07,0.1103173977331466,-0.253618247058342,-0.0081727819485684,20.509402964464694,11.450617443143871,21.24615062391445,28.333903205155195
0.76,31.222196789897705,131.01043100367562,12.110138066779028,-11.429231476780409,-16.671637238765467,28.416577138511222,7.891846914162101,7.268976402634735,349.2703242098581,24.13590524581475,11.1067523318969,69.70625135308626,-3.477704634264414,116.28706100270206,356.3951466062162,1.274,1.0241522053390697,0.0,10.768261754500468,165.0000707061107,0.0709364236876373,-1.0250574348668613e-06,0.1205254483330963,-0.2694196167287686,-0.009027113398191,20.120974267807703,11.259382026590169,21.55392818625501,30.37467896007444
0.77,31.222196278446766,131.0104320131836,12.338878570010984,-11.161805092463617,-16.359587457676383,26.44677369844629,8.357551150945309,7.556595752191133,331.76876669606884,24.410152160796112,11.250172696227926,69.7652243687798,-3.906990931048941,115.82945260037728,364.5323122387678,1.274,1.0241065975906936,0.0,10.801802889104144,165.0000707061107,0.0717426318544754,-1.2169768502289683e-06,0.1307663885952378,-0.2853045772697078,-0.0099052086231971,19.71824790441844,11.06664978014024,21.87516939371924,28.746871823896438
0.78,31.22219576095299,131.0104330341596,12.569888266118973,-10.91235929116946,-16.06895144228159,21.50798075183745,8.818219847082862,7.842402409682228,286.8734378128874,24.648785437700887,11.37980474224347,69.8281648049842,-4.364732929826489,115.34170254104951,371.6862297014271,1.274,1.0240588105546735,0.0,10.835521015142856,165.0000707061107,0.0724441755421368,-1.4209030933455584e-06,0.1410361872455963,-0.3012677045258112,-0.0107873174508193,19.34282135572833,10.893267957947716,22.15763973641669,24.53278444955415
0.79,31.22219523797566,131.01043406541405,12.80282563976226,-10.689646837217731,-15.812777986330588,30.800483702816063,9.2618679827493,8.119908384544841,373.6203323159581,24.82822778201333,11.487228442542875,69.89484496802717,-4.851626771347095,114.82310518396798,377.10921955930337,1.274,1.0240083170932772,0.0,10.869064424420245,165.0000707061107,0.0729717585195689,-1.6368026389843994e-06,0.1513097417776219,-0.3172723507507034,-0.0116570933046267,19.01025541724584,10.747332171750347,22.37577429279076,33.17205008784829
0.8,31.222194710432767,131.01043510482015,13.037080778395584,-10.392301795642824,-15.449773538341624,31.112782296461816,9.772168122621736,8.431165658137093,377.42502064505805,25.16434311982683,11.650627538396808,69.96500513354134,-5.368339299754946,114.27298815455492,387.37994631928194,1.274,1.0239625010683884,0.0,10.90235103984986,165.0000707061107,0.0739598185860607,-1.86461371065958e-06,0.1615512280813693,-0.3332659056014773,-0.0126143173760704,18.548838163019525,10.545275845484118,22.766801272914197,33.68360204014355
0.81,31.22219417348984,131.0104361649994,13.276266864848496,-10.112972817865604,-15.108576820384366,19.806628000849933,10.276446052493917,8.740010348326274,273.9374926939922,25.462784866539767,11.799440763194628,70.03834843968897,-5.915476363098476,113.69074577140108,396.6137478786839,1.274,1.0239149950770308,0.0,10.93530023451236,165.0000707061107,0.074837162346257,-2.1041873957297848e-06,0.1718220657112757,-0.3493393166716985,-0.0135750911028887,18.115045925860823,10.364720739968067,23.11694358801757,23.96446613473208
0.82,31.22219363147088,131.0104372353289,13.517338626461038,-9.902230961273474,-14.861523046020176,25.624300860302807,10.71780063882048,9.016543708482436,328.725004432774,25.60035140019684,11.889966771147895,70.11458760388162,-6.493819115875406,113.07558733499567,400.9015743711449,1.274,1.0238644186635044,0.0,10.968449327249772,165.0000707061107,0.0752416860419292,-2.355476882418354e-06,0.1820940053083717,-0.3654514039931096,-0.0144640341074986,17.796229368103734,10.249076092855203,23.29199750783568,29.2022962377925
0.83,31.22219308686804,131.01043830913983,13.758390234242016,-9.631057974388543,-14.526066531894452,32.75194220652295,11.221218140084384,9.324725685850913,395.6875032246518,25.87640937712276,12.028903236395175,70.19339959321215,-7.104101634314444,112.42677368386468,409.5848474571373,1.274,1.0238188483711983,0.0,11.001371332931628,165.0000707061107,0.076053251569845,-2.618431012268036e-06,0.192286943714673,-0.3814827604659174,-0.0154380206817751,17.3713628381528,10.09032072136236,23.619025472880423,35.854650520722494
0.84,31.22219253392399,131.0104394024663,14.004006766056488,-9.32953725780556,-14.143905275097332,19.597890716833646,11.76567970396257,9.654399321018866,275.45937482564227,26.22879101670317,12.193569842591614,70.27440255589441,-7.746868488909347,111.74376804629227,420.8062260199439,1.274,1.0237739661568126,0.0,11.033813488976012,165.0000707061107,0.0770891486654876,-2.892825041107192e-06,0.2024507297091928,-0.3975082140332794,-0.0164749909194747,16.89117994736989,9.914267135463934,24.02956771192705,24.813624598088865
0.85,31.22219197428023,131.0104405116328,14.253133565396496,-9.112520402217449,-13.880944427784806,21.355575185168146,12.2116629875946,9.932187347116797,292.9609323393965,26.360456655756,12.280075456505593,70.35721653753872,-8.422798331355224,111.02589155855956,425.0314629306896,1.274,1.0237227741398531,0.0,11.066394844241428,165.0000707061107,0.0774763454594212,-3.178497781404379e-06,0.2126050295149449,-0.4135583152364822,-0.017387760039312,16.555510588618258,9.820759894712769,24.201309982599053,26.52986336018684
0.86,31.22219141350332,131.01044162053375,14.50117043671064,-8.859331730434674,-13.563123125991776,26.979319991429936,12.699755652506704,10.231331697727008,346.2265619465616,26.58220564621552,12.397070057265823,70.44144706652152,-9.1326263185336,110.27240559007222,432.20213006616245,1.274,1.023674789281455,0.0,11.098946375347978,165.0000707061107,0.0781283093106677,-3.475403355087835e-06,0.2226472067293124,-0.4294781697709341,-0.0183617932850841,16.154633214411948,9.706213929268182,24.471557253190436,31.525349310392432
0.87,31.222190845906105,131.0104427463395,14.753023033705874,-8.577954635577266,-13.20152283940669,24.841472542101485,13.226883948860994,10.550621006175112,327.9640783669946,26.878617293101986,12.53864072574276,70.52663239334962,-9.876810265300444,109.4828655887656,441.8839415919222,1.274,1.0236288969245204,0.0,11.130866192039992,165.0000707061107,0.0789997233813448,-3.783269630045915e-06,0.2326039119177898,-0.4453084065996826,-0.0193963612179675,15.7020009932485,9.578200291768526,24.823226575890203,30.05602802554859
0.88,31.222190272612792,131.01044388664735,15.00800297809531,-8.315477916482948,-12.864856386941128,21.04480375032377,13.72813286353282,10.855549210524952,294.4828134710421,27.11943880128936,12.660030760385542,70.6123013378235,-10.655860310373532,108.65677032332644,449.82660019631135,1.274,1.0235805388426191,0.0,11.162820486496845,165.0000707061107,0.0797077581648143,-4.10185051947427e-06,0.2424919444856038,-0.4610757251244967,-0.0204015754066638,15.280187435881036,9.478983949064618,25.115569153712432,27.3713051473725
0.89,31.222189695562744,131.01044503564813,15.26445274682309,-8.065385552729465,-12.544119852310915,23.098013764002204,14.206551866046672,11.147344560846427,315.02813424808807,27.31788824934967,12.76605266746832,70.6979674340014,-11.470308443560263,107.79359385896232,456.422756452411,1.274,1.0235293752791452,0.0,11.194717248161876,165.0000707061107,0.0802912606873115,-4.430967120979929e-06,0.2522771787062165,-0.4767284639957528,-0.0213796250446766,14.878216695965804,9.404216332262475,25.363166248404845,29.319066262808263
0.9,31.222189114584573,131.01044619415958,15.52260694281021,-7.797734325155661,-12.194688565157486,25.55387240517852,14.710400208053189,11.45178663080988,339.3781423542166,27.56671147178133,12.887864743103924,70.78310859020223,-12.320557745793431,106.89294477323902,464.7636947098201,1.274,1.0234837388140003,0.0,11.226350361829711,165.0000707061107,0.0810228244487411,-4.7703941323981965e-06,0.261931686366973,-0.4922241365970229,-0.0223994434274959,14.442750193405992,9.327057959185138,25.665603787756776,31.631308639049877
0.91,31.222188528639723,131.01044736661336,15.783730248677832,-7.520934901119144,-11.828765802363275,18.67072129937157,15.229208914885472,11.763328140579649,277.7421810230785,27.843755333183005,13.017742641931497,70.86717174834594,-13.20688401721316,105.95456353897002,474.140442741926,1.274,1.023436404813438,0.0,11.257753056907896,165.0000707061107,0.0818373402740588,-5.1198251568602965e-06,0.2714613599724749,-0.5075727290405792,-0.0234471016341643,13.988471060670586,9.255581071620346,25.998868065241307,26.81232043212574
0.92,31.22218793828777,131.01044855193234,16.047515761993036,-7.274365876418742,-11.506441144424551,22.51481245416392,15.683325602570832,12.038620178178467,315.0281342480675,28.011291825197294,13.11044638772734,70.94958676521978,-14.129518460038982,104.97823416569292,479.8512794734806,1.274,1.0233859136578225,0.0,11.289080059265917,165.0000707061107,0.0823300023969996,-5.478963955332999e-06,0.280862788831423,-0.5227700518550201,-0.0244044866324591,13.58677740065501,9.229439741157892,26.21598896581649,29.9635087664458
0.93,31.22218734558129,131.01044974236368,16.311753810746882,-7.0009895386358005,-11.140631649215996,27.09242642666367,16.186000333532306,12.338924189039512,359.16250706547066,28.270796384871584,13.231935587543084,71.02976345518874,-15.088609670286395,103.96382373700928,488.77101693632846,1.274,1.0233407575091376,0.0,11.32029314356498,165.0000707061107,0.0830929786441141,-5.847586268710343e-06,0.2900847480799251,-0.5377366845667996,-0.0254386612026328,13.134217234185575,9.192331417152555,26.53183611560433,33.885619761547176
0.94,31.222186747989447,131.01045094929432,16.57969287422906,-6.714068837559742,-10.751224823917145,18.60621226500407,16.716402055519243,12.653072891586753,283.06875048378083,28.58122372992705,13.368317343045952,71.10707825504358,-16.08406729683127,102.91144690346556,499.550989451267,1.274,1.0232914783978162,0.0,11.351134650004628,165.0000707061107,0.084005634662779,-6.225286529620355e-06,0.2991456167783764,-0.5525025618351057,-0.0265206156236208,12.654514935245937,9.15729111609289,26.902318387794843,28.03086666751429
0.95,31.22218614644943,131.01045217028204,16.85063734932156,-6.462288387527481,-10.414082247051388,24.82267460761404,17.15511497074756,12.915663708610529,342.421873617488,28.748043830239897,13.457585170553084,71.18089958436302,-17.115751867876117,101.82126420592265,505.3863177397105,1.274,1.0232418269359267,0.0,11.38198717154214,165.0000707061107,0.0844962088738795,-6.611695311794172e-06,0.3080471307372749,-0.5670720942711585,-0.0274684594650924,12.237360513187872,9.177728686670523,27.121195878353024,32.821905998417776
0.96,31.22218554317745,131.0104533949378,17.12162672359673,-6.1776117130023485,-10.022730378637512,24.00226697501068,17.67078529452515,13.218758657367344,337.09533515678265,29.050187700730305,13.58821936562336,71.25058320659782,-18.183414643468023,100.69354499316545,516.0520008901074,1.274,1.0231951201821403,0.0,11.412766785994316,165.0000707061107,0.0853845307741406,-7.006578323463778e-06,0.3167294613212068,-0.5813509593501404,-0.0285387494740485,11.757025463945354,9.178189540008148,27.483837988884584,32.60523045933917
0.97,31.22218493534217,131.01045463929546,17.397234565238126,-5.901619977139581,-9.642667384420925,13.745837770000472,18.15624812237162,13.503661017471488,245.0218871929888,29.312925556462687,13.704968671937968,71.31545920054991,-19.286492455434544,99.5288832844901,525.414937043312,1.274,1.0231476260761452,0.0,11.44314020425724,165.0000707061107,0.0861570397873693,-7.409429621087e-06,0.3252203687114903,-0.5953850307753062,-0.0295680675305562,11.290724925092682,9.206618741171305,27.80539893276861,26.47538975643368
0.98,31.222184325198626,131.0104558925981,17.674395227035337,-5.655033416622628,-9.307435362338753,21.5960404740543,18.53972319100772,13.730638390284277,319.593746642963,29.4318671822568,13.776194719007831,71.3748592042961,-20.424363057708224,98.32792721933151,529.6733893289302,1.274,1.0230935628253934,0.0,11.473624005653631,165.0000707061107,0.0865069055295887,-7.819900486077102e-06,0.3334920145201288,-0.6091312960118895,-0.0304423189804899,10.877765474287129,9.29064342323758,27.976280212378548,31.60127735964053
0.99,31.222183713583288,131.01045714919,17.9514978581098,-5.373098896528162,-8.913058568344482,23.72776470639517,19.02282981380885,14.010435036040333,341.66094855170127,29.71967099803964,13.897610522576809,71.42810529536816,-21.59616135919372,97.09157247501254,540.0686417997484,1.274,1.0230490803133316,0.0,11.50386940195027,165.0000707061107,0.0873530990737505,-8.237701198157737e-06,0.3414907392190988,-0.622503495388812,-0.0314764574366055,10.39612474909325,9.346480316368105,28.325251019553384,33.4838343381742
1.0,31.222183098471152,131.01045842594868,18.233357872695343,-5.092147293701531,-8.517863379796768,20.47405962406992,19.494857049990827,14.28216305075832,314.2672081822764,30.003587127068784,14.016114158365705,71.47451190973435,-22.80068101189767,95.82106535839112,550.4217303263521,1.274,1.022999484445133,0.0,11.533715178874267,165.0000707061107,0.0881878757832399,-8.662213743138161e-06,0.349248804444982,-0.635556163901047,-0.0324981973900802,9.914259954693067,9.42077528337088,28.67052733965687,31.673597053350182
1.01,31.22218248154084,131.0104597129398,18.5171442843668,-4.821403914459604,-8.136862006147716,21.35152888764853,19.918948761365048,14.525365104959189,324.92031610370094,30.23224103505205,14.116610505280129,71.51340748702123,-24.0366419859986,94.517719992092,558.8278684164089,1.274,1.0229507481225095,0.0,11.563682040085125,165.0000707061107,0.0888602300439634,-9.093000136147393e-06,0.3567488982748585,-0.6482631288168627,-0.0334481658959773,9.449756514464758,9.526958970755,28.95839770578904,32.613471710787586
1.02,31.22218186299419,131.01046100912436,18.802562898150285,-4.5450428491877615,-7.7442229932248035,16.673619086214266,20.35300529399782,14.77183529371473,284.59063161543185,30.493177248311355,14.225091326901833,71.54412856401024,-25.30252668402588,93.1830909650332,568.5004651210228,1.274,1.0229039803623294,0.0,11.593467974966757,165.0000707061107,0.0896274764552198,-9.529654595266377e-06,0.3639622527740014,-0.6605782132715466,-0.0344180644937811,8.972424569957973,9.641180155952576,29.28041804337538,30.17385483948493
1.03,31.222181242719923,131.01046231899994,19.090899372554635,-4.279327650226155,-7.367371164477155,12.320751654075506,20.724311719462523,14.981312814569913,247.3046933904342,30.68383107602149,14.311715268683953,71.56602499318868,-26.596536526721906,91.81901889873296,575.6156687918929,1.274,1.022853416101322,0.0,11.623045874068533,165.0000707061107,0.0901881516776747,-9.971653195736928e-06,0.3708812798657782,-0.6724908200399778,-0.0352906689428705,8.514089887922347,9.79106148857669,29.52975353200616,28.3855200976634
1.04,31.22218062138224,131.01046363578035,19.38021967802517,-4.018318393123264,-6.996648663773493,22.707428553672955,21.05218527832597,15.164340349858984,345.4656368807608,30.836339209022213,14.386187789352972,71.57846887709076,-27.91666265211328,90.42755591940328,581.3357104895625,1.274,1.0228049544826707,0.0,11.65254979857978,165.0000707061107,0.0906367105859024,-1.041857202890642e-05,0.3774757461981994,-0.683951825394652,-0.0360956771156765,8.063473723690922,9.967387561040104,29.740037623010792,34.478675072564606
1.05,31.222179999031887,131.01046496059888,19.6708494838166,-3.732975936551119,-6.581850197202315,10.965253323456384,21.49281893310086,15.407131847266225,240.4562587980608,31.167952147749688,14.509676832750731,71.5808593339708,-29.26061383104848,89.01104191474626,593.8896915767116,1.274,1.022755494436122,0.0,11.681783628563432,165.0000707061107,0.0916117151078909,-1.0869926950611006e-05,0.3837250881313258,-0.694927738201291,-0.0370868259911334,7.562704077827231,10.10828769204526,30.13634991551463,28.627919203072988
1.06,31.222179375897355,131.010466305679,19.96628190608984,-3.4759070194217485,-6.214395025715498,18.034434085572105,21.755262512518623,15.548869277512242,308.1796836557233,31.277085682587344,14.569543767787255,71.572631057601,-30.625856980745283,87.57206234067034,598.0389726831582,1.274,1.0227013895379469,0.0,11.71077761269065,165.0000707061107,0.091932796911963,-1.1324957081171564e-05,0.3896500926186884,-0.7054574635797181,-0.0377902655928417,7.117106810373841,10.327260966814128,30.302843572219626,32.25367569106825
1.07,31.22217875220338,131.01046764814487,20.259987145950458,-3.1994208559623543,-5.810363565306121,22.11415549560507,22.121224190316205,15.745098843243268,348.5093681440431,31.55299227471616,14.673964650022745,71.55325951191271,-32.00977457311275,86.11328306284845,608.6193811978048,1.274,1.0226540159946436,0.0,11.739887984777862,165.0000707061107,0.0927440770460861,-1.1783406646666104e-05,0.3951956891410674,-0.715446788551253,-0.0386651214845503,6.6303466918335126,10.51126881366598,30.641866043644946,35.01846042511765
1.08,31.22217812853024,131.01046901113637,20.558577059878694,-2.9208806208429845,-5.40038853369504,12.260597625243,22.491472591879788,15.940858496703283,261.0015785751465,31.858113095421068,14.784423475054163,71.52226786610531,-33.40941967246027,84.63770962043105,620.4293298421684,1.274,1.0226061614050743,0.0,11.768472027114887,165.0000707061107,0.0936412377263595,-1.2244485809815892e-05,0.4003780990767242,-0.7249268760654185,-0.0395498223698642,6.137626254994959,10.699495786019618,31.011077515700357,30.17117105932932
1.09,31.222177505201422,131.01047038593543,20.85956520027049,-2.6592344566971007,-5.018978647734312,10.368691050112057,22.71928817655658,16.055170614409338,246.54375332456465,31.999585710414618,14.849530268994382,71.47923094948835,-34.8217866124475,83.14840313031587,625.9337615278267,1.274,1.0225512795791307,0.0,11.797181102465409,165.0000707061107,0.0940573906835916,-1.270759134466094e-05,0.4051853842152882,-0.733880378506444,-0.0402012674934995,5.678342650326544,10.948697842643892,31.212214253967453,29.68912785515753
1.1,31.22217688161123,131.01047176307233,21.16024723689375,-2.3952496389928952,-4.631453310245664,28.221750476533725,22.94298699172624,16.164332880521506,413.1890617384087,32.165208105926844,14.919859008341186,71.42377969672921,-36.24374067736276,81.64855586616346,632.4116394934555,1.274,1.0224981043155532,0.0,11.825771669384652,165.0000707061107,0.0945445305941577,-1.3172377170414782e-05,0.4095812744683788,-0.7422429431017162,-0.0408465645348008,5.2129720637027575,11.202052241478492,31.43849313606717,39.801174725560045
1.11,31.22217625863572,131.0104731517689,21.463261650659565,-2.110911623320431,-4.2023055445873725,18.18955988688392,23.359285278323856,16.376442994333573,324.1593910379213,32.61033263043886,15.061041586118296,71.35561096865925,-37.67195914178504,80.14155516412694,650.0173381389902,1.274,1.0224548851875197,0.0,11.853992095254744,165.0000707061107,0.0958532313249925,-1.3638212507802866e-05,0.413558271315487,-0.7500030716282565,-0.0418127158348682,4.701842845571509,11.378041642113558,31.950827675300083,33.833477248714935
1.12,31.22217563868461,131.01047456647524,21.772745476669147,-1.8457235129676524,-3.8077061870841806,1.3548765433779617,23.57387801066253,16.474316842436696,172.7328179403806,32.8201948296101,15.139754540048168,71.27448870191871,-39.10306754030306,78.63084158867525,658.3909966117925,1.274,1.0223979224661404,0.0,11.882097156283704,165.0000707061107,0.0964704270072749,-1.4104080571177408e-05,0.4171325019376753,-0.7571980331666684,-0.0424442351825814,4.23087515857355,11.637491049985575,32.2225219076619,28.791778867141705
1.13,31.22217501856702,131.0104759800868,22.08094948042894,-1.592925703360896,-3.4363925033240683,22.29887019199177,23.60957093315848,16.47093100753666,367.5328077894322,32.83164148392401,15.167338500177268,71.18023847159584,-40.5337623561255,77.11978126779648,658.8308251991617,1.274,1.0223460397860296,0.0,11.910465627790837,165.0000707061107,0.0965044084976827,-1.4569750874520014e-05,0.4202642628484216,-0.7637539286562948,-0.042776547405436,3.787236769804604,11.970236549927195,32.2921777707998,36.413500514811446
1.14,31.22217439804968,131.010477394282,22.388354054227204,-1.3197430439704567,-3.019739959533665,8.03085253693827,23.93200069857422,16.62161175091942,239.6953177322812,33.243705171910335,15.293508541609244,71.07276428694236,-41.96063996502909,75.61184850589642,675.4523827847937,1.274,1.0223022138470996,0.0,11.938387069468131,165.0000707061107,0.0977159559408897,-1.5034932587569e-05,0.4229288959941866,-0.7696208499477268,-0.0435867641169379,3.295290287354267,12.17828270216542,32.76958509761154,30.224381335354202
1.15,31.222173783403,131.010478840019,22.70382363125499,-1.0627856897965249,-2.636292500752828,7.478415809983962,23.98341655322172,16.620478562177908,237.4125115347709,33.34101372949949,15.34038906129964,70.9520511360524,-43.38028409527666,74.11053569240099,679.3918535082921,1.274,1.0222426194541194,0.0,11.965918405510612,165.0000707061107,0.0980023318663516,-1.549834941514118e-05,0.4251435243662458,-0.7748442161703873,-0.0439419227766575,2.842314961879615,12.498706057896884,32.927051974522094,30.12260414088037
1.16,31.22217316701951,131.0104802768217,23.015775476577623,-0.8047411729019988,-2.247291887947087,34.764468665924575,24.05981188415442,16.629900743537124,490.043774385954,33.50444990195943,15.402309334624388,70.81814616882944,-44.789464766410696,72.61914490964007,686.0483193928687,1.274,1.02219674531104,0.0,11.993849693468215,165.0000707061107,0.0984830816419567,-1.595992296897818e-05,0.4268780108947486,-0.779360004339523,-0.0443361472335719,2.3869639816323915,12.80221262307516,33.15153662180917,45.43122745716702
