Time,Latitude,Longitude,Altitude,Angle of Attack,Angle of Sideslip,X-Acceleration,Y-Acceleration,Z-Acceleration,Thrust,True Velocity,Ground Velocity,Pitch,Roll,Yaw,Dynamic Pressure,cp,cg,parachute_deploy_gain,Wind Speed,Wind Direction,Mach,omega_x,omega_y,omega_z,Cmq,Angle of Attack(total),Angle of Attack(gust),True Velocity(gust),Acceleration
0.0,31.222216000000007,131.010392,3.000000004412624,0.0,0.0,0.0,0.0,0.0,2.2828121974499247,0.0,0.0,69.99999999623412,0.0,119.9999999935444,0.0,1.274,1.0271675151847728,0.0,0.0,0.0,0.0,0.0,0.0,0.0,-0.0,0.0,90.0,0.0,0.0
0.01,31.22221599999084,131.01039200000497,3.000002745347096,0.0,0.0,0.0,0.0,0.0,34.242186961749226,3.465174813755316e-14,2.8705476994166025e-14,69.9999999962611,-2.1713911667908447e-11,119.99999999352175,7.352495975525499e-28,1.274,1.0271659134330349,0.0,0.0,0.0,1.0183245502395064e-16,-3.3305335486039093e-18,7.169286865560398e-18,5.624298769768554e-18,-7.715917190115602e-34,0.0,89.99999999999979,3.465174813755316e-14,0.0
0.02,31.222215999994315,131.0103920000094,3.0000030495639742,0.0,0.0,0.0,0.0,0.0,25.871876237766216,3.8197434737535036e-11,2.4171837235633357e-11,69.99999999628672,-1.1921727947863515e-11,119.99999999353136,8.93414285188691e-22,1.274,1.027164492361118,0.0,0.0,0.0,1.1225230367947217e-13,-6.657678965418802e-18,1.4338573731120796e-17,1.1241821275959074e-17,-1.7010872994127372e-30,0.0,89.99999999975682,3.8197434737535036e-11,0.0
0.03,31.222215999994315,131.0103920000094,3.0000030495639742,0.0,0.0,9.81877837424427,-2.5122800045972096e-05,3.3498614629347925,180.34219359854663,1.2659015405517447e-10,1.1364406173918436e-10,69.99999999631459,-1.6431898037347223e-11,119.99999999352724,9.812605835254651e-21,1.274,1.0271551940870716,0.0,0.0,0.0,3.720154642239108e-13,-9.991600645811728e-18,2.150108433310316e-17,1.6859343782149594e-17,-8.453698244545225e-30,0.0,89.99999999919412,1.2659015405517447e-10,10.374487003414373
0.04,31.222215999994315,131.0103920000094,3.0000030495639742,18.83801224594347,-0.0001111777826462,48.68248476615645,-1.016330065874988e-05,3.3497854396877287,548.635972453808,0.1556173050466994,0.0975908358443652,69.99999999633813,-2.0932768807056278e-11,119.99999999352085,0.0148286043323172,1.274,1.027133720825283,0.0,0.0,0.0,0.0004573186944143,-1.3322134194415637e-17,-1.04744143520903e-11,1.336824254131964e-11,5.0626055458604615e-15,18.83801224625964,89.06236267790787,0.1555998412814392,48.79759610369246
0.05,31.22221599164764,131.01039201704114,3.002326315126219,5.772385609593056,-4.395076213712875e-06,71.20344550265034,4.905512691849684e-05,3.349217396035405,761.6984298824663,0.8326471944351852,0.3620326097059287,70.00000001316391,-1.0866255162484559e-10,120.00000000231074,0.4245281043148827,1.274,1.027093426565204,0.0,0.0,0.0,0.0024469331205246,-5.0245994431125096e-18,-7.32924164976824e-07,2.217344936947165e-11,1.895424184525467e-09,5.772385609594774,84.74112356985832,0.8326465040582279,71.28217104309611
0.06,31.22221596664444,131.01039206837547,3.015081730143309,4.056581213689704,3.169093567502233e-05,53.16249142470188,0.0001203825427859,3.3481235983850643,590.4875390737236,1.657216205300742,0.6755452977614796,69.99999964391398,-3.9285905645317736e-10,120.0000000287861,1.6816755551786196,1.274,1.027050317124926,0.0,0.0,0.0,0.0048701272653724,3.095757869075056e-13,-7.483541766772344e-06,3.074135420506017e-11,3.8518749565858254e-08,4.056581213813337,79.59316473687034,1.657221183301277,53.26781792157489
0.07,31.22221592883117,131.0103921460222,3.034593611434361,4.115662018628709,6.450869598349036e-05,81.18203554989698,0.0001593212642178,3.347059402768047,855.2937749779172,2.099899704220947,0.8579771146174259,69.99999543281565,-8.233801910783518e-10,120.00000006883089,2.700101932075157,1.274,1.027003201295312,0.0,0.0,0.0,0.006171060252819,3.4704292086287e-12,-2.6327204536316785e-05,1.9541142932033486e-10,1.7170712165327165e-07,4.115662019133419,76.90111966094352,2.099909837223217,81.2510043180746
0.08,31.22221588914193,131.01039222747755,3.0542761843835606,3.459696193892355,8.037433511260004e-05,16.298214211652088,0.0002413456836072,3.344878926597744,241.2171988638792,3.051964775152957,1.2149999716613011,69.99998042886442,-1.0128995578004475e-09,120.00000011111383,5.703497661025892,1.274,1.0269597189470347,0.0,0.0,0.0,0.0089689344021769,1.458982438104473e-11,-5.702803872814215e-05,7.043261397829576e-10,5.405702492731987e-07,3.459696194824858,71.30331929508368,3.051977400323993,16.63790856991177
0.09,31.2222158241468,131.01039236098703,3.0886872184095737,4.313676956300389,0.0001337561018991,50.35975918308536,0.0002293282821279,3.344215841840564,563.0937377043203,2.893161298572128,1.191209213966114,69.99994788602814,-7.098432023887522e-10,120.00000018106356,5.125380275808925,1.274,1.026918932011013,0.0,0.0,0.0,0.0085022553945842,3.8672912027154325e-11,-0.0001115933708951,2.016054215232918e-09,1.0027525988343615e-06,4.313676958370176,72.2316578138625,2.893182308931483,50.47067588835877
0.1,31.2222157788302,131.01039245392113,3.109877853389092,4.035124630954496,0.0001457499816535,47.804664812504015,0.0002878217657545,3.341734392237128,538.7437595981891,3.5677148583138303,1.4531247507621967,69.99988403958329,1.9248461973355822e-09,120.0000002323013,7.7939962029572305,1.274,1.0268846934974103,0.0,0.0,0.0,0.0104845969583028,8.579678749070606e-11,-0.0001726817043215,3.984565639703107e-09,1.913455350430327e-06,4.0351246335824245,68.43243098813296,3.567737752667411,47.92132267234452
0.11,31.222215703308,131.01039260899836,3.148841432727305,4.043401107254707,0.0001752764476999,37.67622367577205,0.0003286462930162,3.3392563999062723,442.86563930529127,4.034183355956686,1.6436552022667772,69.99978525353545,7.302513231814865e-09,120.00000031883242,9.96528118825134,1.274,1.026848594915519,0.0,0.0,0.0,0.0118554331868328,1.5870341853361987e-10,-0.0002596204409236,7.232030302688121e-09,3.252930323390323e-06,4.04340111104746,65.92012987243639,4.034210888316708,37.82391391539392
0.12,31.222215627491828,131.01039276462643,3.186995101203875,4.17874459224363,0.0002066711490009,41.15991989399172,0.0003576945202315,3.336766085769504,475.58594813540793,4.361857560629481,1.7865750500940407,69.99963665601238,1.781774420198147e-08,120.00000041104812,11.649831899889556,1.274,1.0268114448194128,0.0,0.0,0.0,0.0128183893919737,2.682972478760441e-10,-0.0003710216542429,1.2215991071490164e-08,5.026311388647148e-06,4.178744597345269,64.21681651392016,4.361890024457652,41.29495143136631
0.13,31.22221554594398,131.01039293200228,3.2277173449026786,4.202734874672792,0.0002327160860324,45.44886120763352,0.0003953741266062,3.333578629398489,515.9156326236897,4.792165672014363,1.9646716520715424,69.99942424225341,3.613383418913551e-08,120.00000051758742,14.061726603124043,1.274,1.026779572895131,0.0,0.0,0.0,0.0140829618979635,4.248908088871395e-10,-0.0005056103199642,1.908859219307828e-08,7.5253154423526356e-06,4.202734881104192,62.048594618540655,4.792202226971676,45.570952718869485
0.14,31.222215454191247,131.01039312033683,3.2737880595608355,4.184830647080848,0.000257138757548,42.32232525579263,0.0004369426767266,3.329727443445437,486.2390860568421,5.269261304374574,2.158791628597544,69.99913473613935,6.515851355725497e-08,120.00000064630268,17.000925061330125,1.274,1.0267449573927567,0.0,0.0,0.0,0.0154850332441425,6.382432869666793e-10,-0.0006690086306358,2.8426433029675884e-08,1.0948547100483978e-05,4.184830654966803,59.74181173116622,5.269301695636157,42.45310707234106
0.15,31.222215353826755,131.0103933263496,3.3242182719560263,4.21963947489699,0.0002846467688673,40.886944113003565,0.0004726792395108,3.325585650885676,472.5421858721398,5.6781946837482895,2.329510773545807,69.99875162806286,1.0876776246115984e-07,120.00000079954532,19.742017654108928,1.274,1.0267115958081523,0.0,0.0,0.0,0.0166867950518804,9.204756288136623e-10,-0.000865746478554,4.08948221429571e-08,1.526771148078443e-05,4.219639484480408,57.84996018384879,5.678239395958187,41.02196629910223
0.16,31.222215247130432,131.01039354534575,3.3775922280208457,4.253495568077899,0.0003118339050386,32.26872905470846,0.0005078415214353,3.32090791922544,391.1218908297597,6.081244877834229,2.4981889727471702,69.99825581174558,1.7187028096464329e-07,120.0000009800088,22.644030778355887,1.274,1.026675762255412,0.0,0.0,0.0,0.0178712695992133,1.2856146928958252e-09,-0.0010961187242953,5.6923362293832417e-08,2.0702404729358337e-05,4.253495579487569,56.06022383757386,6.081293860589489,32.43916312841722
0.17,31.22221513260033,131.01039378041813,3.4348437275053194,4.364838523348639,0.0003448792023946,40.840448242802736,0.0005326487904353,3.3162727284953744,471.78125980632416,6.362544479165355,2.6250789114832647,69.99762801982864,2.5997588617291615e-07,120.00000119506798,24.78723182122683,1.274,1.0266409836796937,0.0,0.0,0.0,0.0186979513961862,1.747791994374917e-09,-0.0013624931601664,7.706724512977917e-08,2.6923621797558364e-05,4.364838536947241,54.85936171416122,6.362598652663785,40.97486885600156
0.18,31.222215014088988,131.01039402363364,3.4935801365785646,4.353948305387995,0.0003681615230806,33.992183768165326,0.0005718025428208,3.310131992647221,407.1015672119096,6.81502088160835,2.810667639293692,69.99684761766231,3.794979223522764e-07,120.00000144728236,28.437950785509614,1.274,1.0266048342046536,0.0,0.0,0.0,0.020027681385988,2.3221419748804155e-09,-0.0016616990447559,1.0147209890543081e-07,3.517105786247627e-05,4.353948320923495,52.99157233768714,6.815078712285162,34.152972512863755
0.19,31.22221488419521,131.01039429023237,3.558399965607869,4.432620772533925,0.0003996774584738,38.45149959021069,0.0005986099513107,3.304145139297767,448.95313283182486,7.1223367465208405,2.946425726785696,69.99589577323147,5.440084577183829e-07,120.00000176148238,31.060341085698347,1.274,1.026566130444714,0.0,0.0,0.0,0.0209308229359413,3.022391489754689e-09,-0.0020041563310821,1.3135864879722746e-07,4.433199397898183e-05,4.432620790516937,51.77883352025967,7.122399527709208,38.59320142454953
0.2,31.222214751373183,131.01039456280608,3.624052454705669,4.443889400961181,0.0004246617145652,35.23432408779927,0.0006337972852267,3.2968110145188256,418.5156301991588,7.530482904611057,3.1167566004785483,69.99474776398331,7.478025600151903e-07,120.00000211715036,34.72195181863731,1.274,1.026529240027363,0.0,0.0,0.0,0.0221302820454282,3.866698391504749e-09,-0.0023849544920781,1.668144671071589e-07,5.57780533277244e-05,4.443889421210987,50.22448880200342,7.530549610317194,35.38822625098952
0.21,31.222214608673173,131.01039485566503,3.6948551453492566,4.493351735844891,0.0004538195602194,33.79371564104691,0.0006629296043866,3.2891790438445727,404.8187610144608,7.868284042829251,3.2629204975089228,69.99338155599101,1.0150082652278477e-06,120.00000255293388,37.906665490338085,1.274,1.0264923657015164,0.0,0.0,0.0,0.0231230169900677,4.871073773182836e-09,-0.0028117605859743,2.089322918608601e-07,6.870935089180403e-05,4.493351758715364,48.992529909481824,7.868355328639073,33.95340801819282
0.22,31.22221446109996,131.01039515850383,3.767700382407304,4.5412639153933885,0.000482649303782,41.008966751568416,0.0006914639179131,3.2808061382386606,472.5421858721387,8.20057841132235,3.4071691679735228,69.9917708347139,1.3454961520984431e-06,120.00000305929996,41.175744234065135,1.274,1.0264494137127138,0.0,0.0,0.0,0.0240995709751246,6.054779813287368e-09,-0.0032829112061357,2.580881224843564e-07,8.3609968899004e-05,4.54126394098788,47.82515604752711,8.2006542256977,41.13999323561041
0.23,31.22221430675399,131.0103954752338,3.843768625625224,4.52371495179584,0.0005047555656171,33.98493478127787,0.0007294889663961,3.2705214710765107,406.340642146096,8.647938096586296,3.5908865300848416,69.98989017772566,1.7539876018835507e-06,120.00000365514876,45.79040229326471,1.274,1.0264133390858623,0.0,0.0,0.0,0.0254142776666487,7.436335125872812e-09,-0.0038001790077148,3.1489825108822685e-07,0.0001020628978177,4.523714979897577,46.31461705147579,8.648017383405135,34.14194053232237
0.24,31.222214142622448,131.0103958120587,3.92493179063287,4.57837522350066,0.0005351929930195,35.051650311058864,0.0007555049947555,3.26053011385611,416.2328240017099,8.954297884844461,3.72617527247482,69.98771316795013,2.25257161141768e-06,120.0000043564586,49.09180568115741,1.274,1.0263750048312463,0.0,0.0,0.0,0.0263146218848643,9.034877387788232e-09,-0.0043732521010013,3.809642748985157e-07,0.00012161410144,4.578375254714954,45.32798984252032,8.954381952763216,35.20297212911011
0.25,31.22221397517227,131.0103961556623,4.0071748888306855,4.6034117733065,0.0005618935542827,36.03738579534623,0.000785606492708,3.249069743648399,425.3640807915084,9.311611941121669,3.8789349536029696,69.98520781816889,2.8559738498748624e-06,120.00000517181904,53.08749562138344,1.274,1.0263373768840591,0.0,0.0,0.0,0.0273647110956883,1.0873791100894836e-08,-0.0049950711786164,4.5609738277273444e-07,0.0001444478241125,4.603411807525074,44.2165428352526,9.311700203154778,36.183554686886296
0.26,31.22221379934012,131.01039651647062,4.09364247475714,4.621386912291471,0.0005881033207375,39.29107511182762,0.0008162761165496,3.236407051295005,455.80158342417656,9.67833954512075,4.034902068846398,69.98234620927953,3.5784678110229355e-06,120.00000612171208,57.350948423913096,1.274,1.0263006300381676,0.0,0.0,0.0,0.0284424679130479,1.2973286442992724e-08,-0.0056712051373577,5.414206381221602e-07,0.0001704578711045,4.621386949630312,43.12063533194282,9.678431924174348,39.42414126789902
0.27,31.222213616776543,131.01039689108487,4.183310605341074,4.617158109135719,0.0006115457810536,35.90419462403674,0.0008503454714941,3.221982799915672,423.8421996598744,10.088790784535757,4.205862468567124,69.97909721779352,4.436165972465058e-06,120.000007221354,62.31798301949865,1.274,1.026260090595354,0.0,0.0,0.0,0.0296487219805601,1.5355910600537293e-08,-0.0064045199323113,6.379142666348734e-07,0.0002006609239367,4.617158149547818,41.94410287616451,10.08888684592241,36.048472443180565
0.28,31.22221342607797,131.0103972823952,4.277051150896916,4.642105655370123,0.0006389739579882,41.51133203546672,0.0008785747638736,3.2071101123224945,476.3468732012228,10.432377224420517,4.35383399240675,69.97542808435722,5.446665372087172e-06,120.00000849080963,66.63429581008447,1.274,1.0262212716723291,0.0,0.0,0.0,0.0306584788590473,1.8045308789081613e-08,-0.0072006835403936,7.469524967369969e-07,0.0002332868227611,4.642105699250441,41.0023231023774,10.432477594215127,41.63503624837164
0.29,31.22221323001776,131.01039768469093,4.373143569786686,4.62134615173668,0.0006600657405645,33.17552944492765,0.0009148746278066,3.1894209319791806,397.9703104221098,10.876662296046485,4.536381530986506,69.9713027936179,6.629751536885327e-06,120.00000994797426,72.43000748232016,1.274,1.026183007522519,0.0,0.0,0.0,0.0319641703260467,2.1067646517035105e-08,-0.0080566154554079,8.688043379161898e-07,0.000272130659453,4.621346198772975,39.83162628795024,10.876765978930557,33.32848872465723
0.3,31.22221302403368,131.01039810736614,4.4744193758467325,4.664362353358112,0.0006905183788532,31.08096762732793,0.0009381960428197,3.172549142946348,378.1859457108735,11.168362145070317,4.66647911311536,69.96668711012893,8.005507138509574e-06,120.00001161892672,76.36634300732833,1.274,1.0261430389738484,0.0,0.0,0.0,0.0328214509167604,2.4447409007156216e-08,-0.0089829108229115,1.0056222251461646e-06,0.0003115527202986,4.664362404357781,39.09908960432563,11.168470611443622,31.242464973103964
0.31,31.22221281503337,131.01039853619727,4.576593712520673,4.700143580504286,0.0007196683316923,32.79732593144512,0.0009620705970519,3.154230688182399,394.1656220930229,11.470279728974068,4.800072153432283,69.96154070456518,9.597499105113692e-06,120.00001352112182,80.55022837857167,1.274,1.0261054058068628,0.0,0.0,0.0,0.0337087616009043,2.8214060606649844e-08,-0.0099686353219717,1.1565909895184251e-06,0.0003550834484269,4.700143635477137,38.36463422765983,11.47039277421126,32.94865339301887
0.32,31.222212598991007,131.01039897947376,4.68216432480395,4.718667719113184,0.0007464384342556,35.7316568886908,0.0009885845337584,3.133859770838664,421.5593934624264,11.808280530415894,4.946054328851105,69.95582953472353,1.14278227255889e-05,120.00001568218067,85.36654007972253,1.274,1.026068246703101,0.0,0.0,0.0,0.0347021168382987,3.2392058795580455e-08,-0.0110163301561155,1.3226102501723267e-06,0.0004039614423012,4.718667778018562,37.5686120062341,11.808397780690962,35.8688218659563
0.33,31.222212376029034,131.0103994369436,4.791055524254013,4.72141404831576,0.0007708346814671,35.42013590291081,0.0010176135371143,3.1111955852784385,418.5156301991632,12.181577273013426,5.104163223586657,69.94951809396906,1.351997394754887e-05,120.00001812674968,90.84831229869296,1.274,1.0260310883392356,0.0,0.0,0.0,0.0357992034445943,3.700677535501642e-08,-0.0121310534481307,1.5051409581878843e-06,0.0004588955105349,4.721414111097893,36.7208578211118,12.181698355442045,35.55651229220977
0.34,31.222212145785647,131.0103999093516,4.903491659547144,4.73024573449122,0.0007962944975467,27.63851074646407,0.0010446307681611,3.0871492806781062,345.4656368807584,12.53557620048282,5.2556261014174765,69.94256797855994,1.5899658158227497e-05,120.000020882338,96.20413272674828,1.274,1.0259901535019136,0.0,0.0,0.0,0.0368395817555172,4.208561016221623e-08,-0.0133180771902383,1.7057647550599631e-06,0.0005184333231541,4.730245801363397,35.94841996438923,12.535701282129995,27.810389570354005
0.35,31.222211909310875,131.01040039453565,5.018822212845608,4.780248518778662,0.0008286678570753,30.332092807652543,0.0010618579815451,3.063967690608957,370.5765700527057,12.774786382148209,5.367579971644358,69.93493776125636,1.8594985713558667e-05,120.00002397748868,99.9096898192772,1.274,1.025950003202184,0.0,0.0,0.0,0.0375426220587071,4.7658312175989686e-08,-0.0145774693288123,1.9252724355785177e-06,0.0005782798420984,4.780248590437683,35.44790728185619,12.774916548990808,30.486451961956565
0.36,31.22221166933814,131.0104008868675,5.135354490370708,4.798132156899578,0.0008554457330409,34.32674769697476,0.0010851169437774,3.0374319611165923,407.8625232777224,13.09301701329486,5.506730645516068,69.92658597246795,2.163521613217148e-05,120.0000274401514,104.94818266210537,1.274,1.0259105142325406,0.0,0.0,0.0,0.0384778908056978,5.3755109608570216e-08,-0.0158991451700967,2.162609490834569e-06,0.0006464142451675,4.798132232978766,34.796094028187134,13.09315138639638,34.46087058603792
0.37,31.222211421355144,131.01040139563804,5.255882891363927,4.797392186816851,0.0008791822061288,32.551601855236584,0.00111162791192,3.0078619428913056,391.1218908297639,13.457513730739372,5.661815946371007,69.91747693543164,2.5047738471809164e-05,120.0000313040604,110.87154396328836,1.274,1.025872170958032,0.0,0.0,0.0,0.0395491312153729,6.040098808671168e-08,-0.0172926678053148,2.420031948898497e-06,0.0007226353721561,4.797392267189059,34.07332166419882,13.457651832357364,32.69027405888565
0.38,31.22221116634284,131.01040191882743,5.379799334000849,4.811698494594017,0.0009057112478668,34.02947987649063,0.0011338447913587,2.9774881690446744,404.81876101445977,13.77554886562956,5.800899861213392,69.90756948297444,2.886339581486796e-05,120.00003560072224,116.17243393848278,1.274,1.02583050512925,0.0,0.0,0.0,0.0404838339452728,6.762496638941508e-08,-0.0187646375218858,2.69955777313946e-06,0.0008026686661094,4.8116985796350695,33.46655348088405,13.775691134419684,34.15949264475229
0.39,31.222210906095896,131.01040245274032,5.505993307722699,4.813508003664984,0.000929862892873,29.00025983045028,0.0011579891265804,2.9442136901860865,357.6406249338268,14.124492165837273,5.950648592462506,69.8968186645841,3.311602501056718e-05,120.00004036395212,122.13093644173792,1.274,1.02579027384009,0.0,0.0,0.0,0.0415093739609825,7.545934774906889e-08,-0.020311592409804,3.0013532510753577e-06,0.0008908380763632,4.813508093268025,32.821616487639595,14.124638228358922,29.149330452482886
0.4,31.222210638473225,131.0104030017851,5.635788650457906,4.841647069358873,0.0009592124397379,27.71178845184976,0.0011749448424961,2.91135549588368,345.4656368807565,14.390874239274588,6.07193451174791,69.8851815212744,3.783947407715338e-05,120.00004563180136,126.77947425345651,1.274,1.0257493418632293,0.0,0.0,0.0,0.0422922854866381,8.39343718693383e-08,-0.021938519432511,3.3271332720311508e-06,0.0009803271643914,4.841647164150728,32.348088166612904,14.391024912012275,27.864299944624147
0.41,31.22221036681104,131.01040355909262,5.767123077463226,4.86553909860892,0.0009876699832274,31.306062598221665,0.0011918093836199,2.876450850006428,378.9468707766882,14.663028799871563,6.195223154320929,69.87261222561014,4.307011032901644e-05,120.0000514391194,131.6183642808765,1.274,1.025708445186429,0.0,0.0,0.0,0.0430921644173401,9.308325447883581e-08,-0.0236371933433427,3.6760977501392174e-06,0.0010761942383903,4.865539198612839,31.87689439156756,14.663183942709727,31.437931330109585
0.42,31.22221008906472,131.01040412887247,5.901259531771367,4.867510642114694,0.0010118258958528,35.308283402190774,0.0012128114559048,2.8374461227958245,416.23282400171047,14.9952917972178,6.33928625560071,69.85906967380902,4.884273094936628e-05,120.00005782486392,137.64909586091787,1.274,1.0256701057426505,0.0,0.0,0.0,0.0440686959134695,1.0293499639582845e-07,-0.0254093547296826,4.049238334851429e-06,0.0011830797791891,4.867510747027452,31.315270489291198,14.995450734457847,35.422111438762386
0.43,31.222209804115888,131.01040471342728,6.038886819939341,4.854590670645608,0.0010330089741511,31.00586934514032,0.0012363751872706,2.794478603999558,375.90313951343126,15.369430568701889,6.497852263156962,69.8445117629242,5.519340856908871e-05,120.00006482835984,144.60167924299955,1.274,1.0256308158337524,0.0,0.0,0.0,0.0451682983415116,1.135186446762958e-07,-0.0272634397889413,4.449073329427772e-06,0.0013010625065656,4.854590780289497,30.70250814963406,15.369592833372094,31.13154422839874
0.44,31.22220951192321,131.01040531284193,6.180028459770617,4.866912332640401,0.0010595850174406,28.57707721036899,0.0012525768202179,2.752165534925872,353.07501253892326,15.659290812546615,6.627318538707029,69.82889155423543,6.216182865383864e-05,120.00007249162944,150.1053167542629,1.274,1.025586171750536,0.0,0.0,0.0,0.0460202245100907,1.2486676023179565e-07,-0.0292060158163984,4.8779154055816594e-06,0.001420032405556,4.866912447705031,30.24619499837236,15.659457251771938,28.709297424144207
0.45,31.222209215425703,131.01040592106523,6.322872201489905,4.881836476567178,0.0010866574689855,33.31904824532484,0.0012669045761511,2.7082028218433374,397.2093853562887,15.934249290371609,6.751662050993672,69.81215834018458,6.97909417564726e-05,120.00008085697964,155.42080512416243,1.274,1.0255397023523487,0.0,0.0,0.0,0.0468283602442113,1.3701614206272197e-07,-0.0312276295846745,5.334643585560923e-06,0.0015449645531859,4.8818365972149325,29.82567893138932,15.934419982127675,33.428929688274074
0.46,31.22220891307435,131.0104065412864,6.468371919199588,4.869610441729251,0.0011078049156487,38.95909776354321,0.0012868374716666,2.6582856015412624,449.7140588976424,16.292139278621757,6.904766425053949,69.79426683863348,7.812149592850748e-05,120.00008996920153,162.4785746623087,1.274,1.02549635315424,0.0,0.0,0.0,0.0478802236363867,1.499987870203256e-07,-0.0333272350234362,5.819761874615242e-06,0.0016858511402973,4.869610567434908,29.29014635640275,16.292313292210977,39.04968351401366
0.47,31.22220860266524,131.01040717804253,6.6178810515614845,4.838450928223533,0.0011247917292402,26.253747818137555,0.0013104398935566,2.6026193242279367,331.0078106302504,16.710658191447514,7.078951441335346,69.77517236812905,8.719457259907165e-05,120.0000998741591,170.9309671061642,1.274,1.025453319323251,0.0,0.0,0.0,0.0491102725711187,1.6384464803343264e-07,-0.0355167087264168,6.3368207228363735e-06,0.0018427306558807,4.838451058652396,28.68386015667837,16.710834873319172,26.382435512333956
0.48,31.222208284201663,131.0104078313267,6.771393590864176,4.869339340099417,0.0011561785713505,25.860860976019296,0.0013165328518772,2.5543454292827983,327.20312230115803,16.911139899671,7.177575416403102,69.75482343794755,9.70562828082882e-05,120.00011062072316,175.0543877818846,1.274,1.0254092882449153,0.0,0.0,0.0,0.0496995461609974,1.7858865391586845e-07,-0.0378054080201581,6.88909442277235e-06,0.0019849793891693,4.869339477030596,28.40887970825325,16.911321511776286,25.986704537635287
0.49,31.22220796480208,131.01040848648364,6.924537656029012,4.881367714530694,0.0011829003785372,32.565703383222065,0.0013261973190012,2.5011623511055703,389.6000096981238,17.169005224738054,7.296160258358563,69.73316318155707,0.0001077573203115,120.000122255028,180.4309832312717,1.274,1.025367445590036,0.0,0.0,0.0,0.05045746454003,1.942747077649401e-07,-0.0401641298712614,7.47069711110948e-06,0.002140948887153,4.881367857509675,28.058569663954906,17.169191034294997,32.66161128464712
0.5,31.222207637929923,131.01040915697027,7.081324512896956,4.862566137860805,0.001202418260511,33.47759680712428,0.0013425340759632,2.4399894027711366,397.970310422106,17.52898693231981,7.450304424940405,69.71015149227495,0.0001193385310595,120.0001348274002,188.0736471953394,1.274,1.0253278572281015,0.0,0.0,0.0,0.0515154948878309,2.109295159784217e-07,-0.0426011733481599,8.084173008518589e-06,0.0023184335011768,4.862566286171007,27.57768313050809,17.529175807738486,33.56639745442473
0.51,31.22220730314019,131.01040984370235,7.24202048914867,4.8479762258125,0.001223054804074,25.49162310288008,0.0013562860883156,2.3767006597692686,323.39843497208153,17.86914397471067,7.597652147346554,69.68574349602717,0.0001318441288964,120.00014838524436,195.4407439266201,1.274,1.025286455263166,0.0,0.0,0.0,0.0525152689856776,2.2858192086249162e-07,-0.0451315948093539,8.734206149830708e-06,0.002503767471626,4.847976379721193,27.13799345359824,17.86933609171003,25.602178740977283
0.52,31.222206962738102,131.01041054193402,7.405210501673173,4.865306299521403,0.0012516517170965,30.733671928447727,0.0013599291289974,2.317711624364424,372.098451184342,18.08534843773428,7.701914987606457,69.65988568649581,0.0001453248538387,120.00016298000436,200.19561780583155,1.274,1.0252426840672306,0.0,0.0,0.0,0.0531507657929359,2.4726951523704535e-07,-0.0477531686556663,9.421346966092632e-06,0.0026812161964639,4.865306460134566,26.8699055233151,18.085545046726228,30.820940596104087
0.53,31.222206619320115,131.01041124632013,7.569307468221277,4.848802699234936,0.0012715119568563,32.301199055744725,0.0013711327835325,2.2490252325653923,386.55624643486095,18.41963113311156,7.8474319110539055,69.6325258319474,0.0001598315062727,120.0001786629144,207.6614205945027,1.274,1.0251993415311351,0.0,0.0,0.0,0.0541332845214831,2.67031759303889e-07,-0.0504479325599339,1.0141887756417996e-05,0.0028848299490111,4.848802865552398,26.45837260670532,18.419830861742675,32.37940050117613
0.54,31.22220626697288,131.01041196903336,7.737918664599091,4.831496690588052,0.0012913635058467,28.31291960103712,0.0013809098107221,2.177242866245296,349.2703242098436,18.75116898748492,7.992112829440902,69.60362200959217,0.0001754082864028,120.00019548734956,215.20067397992847,1.274,1.0251561018460285,0.0,0.0,0.0,0.0551077428911958,2.878941684235108e-07,-0.0532336286085667,1.090122304443916e-05,0.003098869611663,4.831496862756785,26.061835558272342,18.751371834390056,28.396510432451375
0.55,31.222205908994248,131.01041270328463,7.909026079894722,9.733191319765169,9.297818225662493,30.185670857136675,-0.5263022773373187,1.815646682234368,365.2500005919912,20.15488583947672,8.113323699629928,69.57312211246325,0.0001921068626005,120.00021350480982,248.62252994758688,1.274,1.025112921033824,0.0,3.7596053489187766,0.0,0.0592332356177263,3.0989272306468813e-07,-0.0561100530405476,1.1700476995263424e-05,0.0035107731766435,13.429437566264813,34.42032336603195,21.608982020748854,30.244806034379348
0.56,31.222205546564343,131.01041344664463,8.081909946161325,4.801209568985303,-11.068697022659276,28.131673241125856,0.4752473427740665,1.9628773483088884,346.22656194657776,19.69305102441889,8.247294810559758,69.54097415464405,0.0002099796112633,120.00023276987916,237.3551171499417,1.274,1.0250709539098009,0.0,3.773321678167647,210.00008998959544,0.0578760612007725,3.3302698971832e-07,-0.0625881051614596,0.0063968696062511,0.0038263029272501,12.053217479585516,13.860750101042417,17.96517865912536,28.204073940953894
0.57,31.222205178420328,131.01041420495483,8.258296221886255,4.796109594373495,-10.928198785840427,27.82088642993161,0.6241396899372049,1.8853861392468447,343.1828296833045,19.96024777029228,8.372776033241683,69.50511423405666,0.0100165048196521,120.01070091644786,243.83558555957427,1.274,1.0250279191823897,0.0,3.786930847216913,210.00008998959544,0.0586614445252429,3.6232701017456533e-07,-0.0656236395000459,-0.0008252462461601,0.004066243906194,11.92260243670976,13.732246532458603,18.254039447820645,27.891682505610376
0.58,31.222204802720448,131.0104149717752,8.436536809833319,4.783301827307739,-10.799733139616148,36.755928116073626,0.7792843002185509,1.804689783146027,426.12500585731766,20.233919927477675,8.49899507874214,69.46751549513812,0.008736553834317,120.00933447734904,250.56352625060163,1.274,1.024981594484354,0.0,3.800559440921576,210.00008998959544,0.0594658629319358,3.889589902059719e-07,-0.0687414826160461,-0.0081522896083361,0.0043177617386736,11.800104955453444,13.588600912641208,18.54752927206663,36.80845610600817
0.59,31.222204421772304,131.01041575083718,8.617465146410488,4.7363929277325365,-10.600562600836744,29.734716094065547,0.9461452195238496,1.7093985338105575,360.68438819710633,20.640375096429548,8.672908885828642,69.42813050126107,-0.0037261432248726,119.99602480999012,260.72664978259684,1.274,1.0249386802161349,0.0,3.814091861313664,210.00008998959544,0.0606605257874889,4.12906685371797e-07,-0.0719393572728874,-0.0155947052917261,0.004609314541671,11.59951183553834,13.38552111910898,18.984726075918758,29.7988351335837
0.6,31.222204030514952,131.01041654923426,8.803270565900549,4.723181214600541,-10.478398232819533,26.396306906051137,1.1135066924523178,1.6230376557571706,329.4859594986072,20.89997505556678,8.794360904561152,69.38691064299444,-0.027476971380708,119.97065301850232,267.32159297317503,1.274,1.024891335813742,0.0,3.827590098140196,210.00008998959544,0.0614235994899392,4.341423560441378e-07,-0.0752385080644664,-0.0231994113874867,0.0048812426946591,11.482852101746468,13.26255879474908,19.26319182087185,26.469589469135798
0.61,31.2222036363686,131.01041735216353,8.989590577084025,4.711237317382608,-10.362306035442,30.99957321833656,1.2851650068622356,1.5351118311546408,372.0984511843332,21.14493624607809,8.910685549780903,69.34379250021344,-0.0626853515862239,119.93303121278836,273.6197835692782,1.274,1.0248423929069768,0.0,3.84120986231832,210.00008998959544,0.0621436543208246,4.5263512499863284e-07,-0.078614100153023,-0.0309080766479339,0.0051599265083741,11.372357060322372,13.15200249037476,19.52608797153068,31.064155503538537
0.62,31.222203235801693,131.01041816691333,9.178557077454784,4.677867945366816,-10.203084739085316,38.63328205769993,1.4675414342389863,1.4361500356319488,442.86563930529206,21.47395355668212,9.05740374359235,69.29872419384597,-0.1094240135308185,119.8830742161048,282.1960130371372,1.274,1.0247996097896497,0.0,3.8546298609394825,210.00008998959544,0.0631107502986651,4.683704141794754e-07,-0.0820627916667217,-0.0387122569674988,0.0054699972065606,11.213986136296723,13.007701522493038,19.879714004446665,38.687810578215114
0.63,31.222202826904915,131.0104189974223,9.371307861681927,4.622975023651404,-10.001957091515632,21.770918256576667,1.6637859462788591,1.3243241974964208,286.11251274707456,21.89282041743528,9.236695086841385,69.25165298149767,-0.1677451788736098,119.82071818711908,293.30687697549376,1.274,1.024756158874558,0.0,3.86799911991815,210.00008998959544,0.0643419165200912,4.813327382942855e-07,-0.0855976306905458,-0.0466394075577514,0.0058168012940958,11.00878804915919,12.82869770999301,20.32968407051695,21.8745262803484
0.64,31.22220240881352,131.01041984549744,9.56835308334282,4.629150599752599,-9.932214741989988,21.377687201916903,1.8442077246239528,1.2378047482699948,282.3078244179702,22.026028606780745,9.313179963148505,69.20251573216893,-0.2377345184302472,119.74586290789529,296.88140523773933,1.274,1.024708534665538,0.0,3.881403790246391,210.00008998959544,0.0647335526983613,4.91497557670279e-07,-0.089232830293054,-0.0547192492289531,0.0061006122111132,10.948184875067582,12.787744958576525,20.473682020249512,21.492760940125958
0.65,31.222201991563708,131.01042069036467,9.763666028541945,4.616042700929247,-9.824213703070487,38.034715363668,2.0339461705967934,1.1412805602465232,436.7781447787504,22.236216731577343,9.417576833325048,69.15123805357982,-0.3195135877643562,119.65836908348354,302.56887518776654,1.274,1.0246641738210605,0.0,3.8948730282116735,210.00008998959544,0.0653514305701407,4.988512260956405e-07,-0.0929183030683806,-0.0628403869839213,0.006413078790889,10.844985310374708,12.715748113736636,20.70058339716672,38.106154767141284
0.66,31.222201566182218,131.01042155065295,9.962637785624452,4.548280472390298,-9.605136993164432,32.30889006601879,2.252992935567512,1.0143334815499507,383.5125151715984,22.69376619892573,9.6117651189527,69.09777154466894,-0.4130276416914293,119.5582853802282,315.1427415786913,1.274,1.0246195561629028,0.0,3.9079977034711897,210.00008998959544,0.0666963014905431,5.034008947389195e-07,-0.0966656765371951,-0.0710276789174626,0.0068088690346858,10.618440336211204,12.539119349180073,21.19205186755081,32.403228648972586
0.67,31.222201128660675,131.0104224347887,10.167664998273583,4.513959459234767,-9.458168310344332,22.1527683030526,2.4633566379527245,0.901478824697312,289.15624401033847,22.985202734407032,9.746035086574024,69.04205814320969,-0.5182512621195319,119.44562848613418,323.2825650988965,1.274,1.024572383541697,0.0,3.9211459696485935,210.00008998959544,0.0675529810192877,5.05136554792965e-07,-0.1005162277209198,-0.0793682356013812,0.0071708738045192,10.4712598578892,12.443281480949338,21.506255467403008,22.30753086932427
0.68,31.222200688772222,131.0104233224088,10.372883020510333,4.502132550254052,-9.359685273775929,27.746804651547304,2.664824899707711,0.7999169919779712,340.89999248584934,23.155060497966524,9.836318280789062,68.98401259266562,-0.635279850789948,119.32028502421268,328.0717897036497,1.274,1.0245245285832842,0.0,3.934465062335125,210.00008998959544,0.0680523466231691,5.040425025356577e-07,-0.1044393225324646,-0.0877946918300795,0.0075056613804763,10.37748581298228,12.405080978469128,21.691374790106288,27.885952149985563
0.69,31.222200245070244,131.0104242165265,10.579164562212997,4.461360843625211,-9.204030994324384,34.243399634797974,2.885799665642665,0.6798498953812929,401.0140726853658,23.45740146956972,9.9750452478019,68.92356430333885,-0.7640984814544292,119.1822590073814,336.6884719851409,1.274,1.024479631064582,0.0,3.947568915260127,210.00008998959544,0.0689410822643549,5.001249977963698e-07,-0.1084117244238921,-0.0962570745678857,0.0078927173759167,10.219899943172926,12.314831812476616,22.017845741948168,34.371506428129614
0.7,31.22219979207883,131.0104251287488,10.789800158361928,4.4054786946322135,-9.020270884413858,28.67268619410739,3.121878864679957,0.5474244496529505,349.270324209851,23.8282103560877,10.139079823532295,68.86065330698482,-0.9046092007152702,119.03164272824417,347.41015709259,1.274,1.0244351749185203,0.0,3.960535674147468,210.00008998959544,0.0700310525085554,4.933942778408417e-07,-0.1124545184766652,-0.1047985369966384,0.0083162962150457,10.030595923577255,12.2016707061993,22.41715531791252,28.84733496806195
0.71,31.22219933133409,131.01042605595143,11.003871855547107,4.369673195307768,-8.879245805221712,23.511111665739257,3.3487510648335546,0.4258522122192918,301.3312640634036,24.084888632474488,10.2616949385868,68.79520421569595,-1.0567687756377864,118.86846914862868,354.92780081342613,1.274,1.0243880468141104,0.0,3.9735708969982095,210.00008998959544,0.0707856002935997,4.838509983879369e-07,-0.1165774268295592,-0.1134377634701124,0.008713884398755,9.888472541324616,12.142077462966656,22.6957160567735,23.75221790822357
0.72,31.2221988668608,131.01042698960967,11.218962353413644,4.340696387401362,-8.753537116823619,28.86221580543056,3.572459909159264,0.3080595104586209,350.7922053414578,24.29279934951816,10.36667298182818,68.72713273080032,-1.2205513828347672,118.69275179076392,361.0745586629091,1.274,1.024337302174265,0.0,3.9865778089093,210.00008998959544,0.0713968241132097,4.715008895758518e-07,-0.120757817658553,-0.1221266104498994,0.0091040898519726,9.763154080008183,12.107526457623132,22.92313973385645,29.084099980294727
0.73,31.22219839729305,131.01042793266762,11.435898109953945,4.29023466633047,-8.587066543095377,36.595209345743136,3.8160843336207,0.1731918935352699,422.3203185282354,24.60530686087893,10.510367950196084,68.65636496188482,-1.3958508420619604,118.5045896174072,370.41646863664727,1.274,1.024292465384646,0.0,3.9994451914495057,210.00008998959544,0.0723154643644988,4.563632156119962e-07,-0.1249845185212696,-0.130841115351385,0.0095437636685359,9.591963081323042,12.034992423837531,23.261497544474896,36.794046286485774
0.74,31.22219791923757,131.01042889256885,11.656737363118175,4.222384201751182,-8.388805526953334,22.795001881547687,4.080256387724905,0.0219184512298601,294.4828134710563,25.00595814294841,10.686939253401876,68.58283090413018,-1.582517044965014,118.30412804928176,382.5696429117151,1.274,1.0242470321640116,0.0,4.012224684207902,210.00008998959544,0.0734931692002118,4.384585024533318e-07,-0.1292731019743258,-0.1396118719792497,0.0100317598993731,9.384719710850224,11.93270355447919,23.692950470899987,23.157311661499847
0.75,31.22219743258784,131.01042986973184,11.881560029205572,4.194960751064566,-8.271139859520481,26.66749700385977,4.308424658954885,-0.0975832084856013,330.24688556441737,25.164417778149986,10.774416358806173,68.50644841976563,-1.7804349354618338,118.09147416397012,387.42523312909645,1.274,1.0241984712898409,0.0,4.025034957953918,210.00008998959544,0.0739590738298913,4.177998441411313e-07,-0.1336359921044267,-0.1484625741208995,0.0104358159701845,9.26752365519966,11.932765417412336,23.86969799087105,27.01346778877785
0.76,31.222196945731543,131.01043084580942,12.105283580979108,4.143554789002067,-8.10872754553765,28.728890136360167,4.561358586335262,-0.2379317292008827,349.2703242098581,25.44839449759652,10.90862477887418,68.42712493094825,-1.9895133215946643,117.86670859862144,396.21013113873073,1.274,1.0241522053390697,0.0,4.037847385851506,210.00008998959544,0.0747938797819269,3.944097850111777e-07,-0.1380271109457816,-0.1572993356290189,0.0109001265234455,9.099763129056218,11.887163589684036,24.178926181991734,29.089718667047084
0.77,31.222196449365928,131.01043184138655,12.333570679541848,4.088227361915817,-7.940052960269794,26.841040298340427,4.820662356855739,-0.3831162066832862,331.76876669606884,25.74390840672803,11.047519732559664,68.34479336423733,-2.209517375039065,117.63006567382756,405.4564762616113,1.274,1.0241065975906936,0.0,4.050405745667844,210.00008998959544,0.0756626022055007,3.6832491883692986e-07,-0.1424652829085711,-0.1661591386948415,0.0113810087800286,8.924734101180812,11.84252044209317,24.500676000615464,27.27319211027129
0.78,31.22219594734353,131.01043284812275,12.564094487548685,4.03707517259262,-7.781196774141686,21.989553969454995,5.076370616111768,-0.5251650948838446,286.8734378128874,26.00145367173064,11.172653659708816,68.2593728360001,-2.4402566493108164,117.38173134020488,413.6003734280953,1.274,1.0240588105546735,0.0,4.0630285632133,210.00008998959544,0.0764197390488098,3.395766192781073e-07,-0.1469488972446732,-0.1750370726992021,0.0118563654752347,8.76040207411799,11.81738798460973,24.782939862141863,22.574007636761827
0.79,31.22219544023748,131.01043386481413,12.796514767195225,3.9936402750561104,-7.638182552299328,31.3748597906754,5.321673789346405,-0.6592166604329137,373.6203323159581,26.19656296810413,11.274794376869202,68.17078120658121,-2.68152495412082,117.12190781031288,419.8214274973666,1.274,1.0240083170932772,0.0,4.075584690769186,210.00008998959544,0.0769933781673111,3.0820116013017016e-07,-0.1514675155937782,-0.1839117462760413,0.0123123723692642,8.613731490564955,11.821045997669172,25.000310705815814,31.829806870450046
0.8,31.222194929047937,131.01043488926007,13.030226116443965,3.9225206803246624,-7.4446370252998095,31.78552985123612,5.604469409804713,-0.8229800207968362,377.42502064505805,26.555010085844728,11.438547893913404,68.07894077177673,-2.933077816273128,116.85083787117988,431.37916500309456,1.274,1.0239625010683884,0.0,4.0880477863634805,210.00008998959544,0.0780470830198439,2.742432139735693e-07,-0.1560064553748551,-0.1927534949354924,0.0128545600542696,8.40964194652259,11.76647666859691,25.388896899789437,32.28633273389671
0.81,31.222194408024617,131.01043593488637,13.268798857425288,3.8558856526202376,-7.261072662624499,20.58394135183811,5.882990832025811,-0.9832824133947016,273.9374926939922,26.87338270874124,11.587776945691882,67.98378135712645,-3.194622260502212,116.56881601905307,441.77480944384575,1.274,1.0239149950770308,0.0,4.100379591617435,210.00008998959544,0.078983015630816,2.377504441092773e-07,-0.1605899304092218,-0.2016081037752673,0.0133905641537198,8.21652764287179,11.732758181675385,25.735866623670308,21.43070383842075
0.82,31.222193882084603,131.01043699054432,13.509216725851749,3.8119638323930216,-7.121040556255677,26.51237529646993,6.124910760548462,-1.1160759430159677,328.725004432774,27.023685462192702,11.673993417547448,67.88521594852321,-3.465921401591612,116.27607570904335,446.72000546454046,1.274,1.0238644186635044,0.0,4.112783442368336,210.00008998959544,0.079424982850317,1.9876456599609614e-07,-0.1652063469826347,-0.2104516933456791,0.0138522240153864,8.072506899135318,11.767014307096904,25.90799254703543,27.233549184712047
0.83,31.222193354248404,131.0104380491071,13.749599253516056,3.74486943516953,-6.9395238097313,33.75676124195438,6.401567237159012,-1.2761601596002872,395.6875032246518,27.31766763641368,11.814936830172956,67.78316334603655,-3.746697977824621,115.9728933539732,456.4817879430788,1.274,1.0238188483711983,0.0,4.1251008198772725,210.00008998959544,0.0802892400066968,1.573383571606376e-07,-0.1698223553837414,-0.2192200011039202,0.0143938393790589,7.881140532539381,11.751391290556064,26.23027292434278,34.3820822143036
0.84,31.22219281732316,131.01043912785113,13.994465285230053,3.66505240604662,-6.736176789064675,20.72604426688892,6.700735442358013,-1.4535814561644471,275.45937482564227,27.690200641957,11.98630414696864,67.67756271006324,-4.036581739451576,115.65964533750832,469.0058009976,1.274,1.0237739661568126,0.0,4.137238276980261,210.00008998959544,0.0813843750065509,1.1353768152171605e-07,-0.1744579222375052,-0.2279499130433031,0.0149880371545907,7.664641079320403,11.711653520554547,26.634520389727665,21.830750455978766
0.85,31.22219227305363,131.01044022300442,14.242766263715223,3.6146265957244688,-6.587449601823479,22.61388304101408,6.943257046279196,-1.5896339568344986,292.9609323393965,27.83347351404344,12.070778856270262,67.56833974917117,-4.3352477956926165,115.33665869998688,473.8604574762937,1.274,1.0237227741398531,0.0,4.149424684691482,210.00008998959544,0.0818056980284919,6.742087343495079e-08,-0.1791210861628007,-0.2366548456010754,0.0154679132897751,7.510151916595293,11.761587053597657,26.80099753133516,23.709142977342967
0.86,31.22219172860244,131.01044131709435,14.489976166806516,3.549385312553995,-6.413136451044332,28.374124886607408,7.209070595729243,-1.744256474048261,346.2265619465616,28.06965789044969,12.191124384012983,67.45541428617938,-4.642383935446583,115.00424635652622,481.9251396870122,1.274,1.023674789281455,0.0,4.161603572849852,210.00008998959544,0.0825001004851568,1.9046900104945297e-08,-0.1837683366225916,-0.245252988540367,0.0160035046420325,7.326239574461843,11.781060660791272,27.064386917779,29.327531307327266
0.87,31.222191176405868,131.01044242889543,14.740915509576856,3.4722684843886635,-6.218536909319496,26.379574715570687,7.496233635879256,-1.915639105270481,327.9640783669946,28.382466281919204,12.341448634328543,67.33873441592252,-4.95756607852385,114.66284203143616,492.7142671534058,1.274,1.0236288969245204,0.0,4.173540418783417,210.00008998959544,0.0834197181501661,-3.150414489319056e-08,-0.1884102376017107,-0.2537632622094787,0.0165901937537035,7.118950767648166,11.776983373944638,27.407577391631676,27.4908194508586
0.88,31.22219061761921,131.0104435559724,14.994898850594373,3.400649086864343,-6.035045880384737,22.73322769348,7.768024085353159,-2.07696062984673,294.4828134710421,28.637389218794965,12.470045931267927,67.21824170208822,-5.280393768503065,114.31285380019946,501.5926085385696,1.274,1.0235805388426191,0.0,4.1854870526595045,210.00008998959544,0.0841692106375872,-8.415573295530399e-08,-0.1930538950307828,-0.2621970026470271,0.0171513467703278,6.924116070925063,11.79856908046752,27.691158388627976,24.113390574785747
0.89,31.222190054806447,131.01044469198635,15.25029793854684,3.3323467656390338,-5.858455299210456,24.943669314910057,8.026297054900718,-2.2299559776145554,315.02813424808807,28.84827691094048,12.582085747960049,67.09387350336647,-5.610479789281881,113.9546753069784,508.9948496654636,1.274,1.0235293752791452,0.0,4.19740924434746,210.00008998959544,0.0847892827869848,-1.3883364627909113e-07,-0.1976841980010735,-0.2705257907706528,0.0176916124952744,6.737009627084834,11.840432367053165,27.92963558032872,26.297923624636077
0.9,31.22218948763642,131.01044583789144,15.507341096447616,3.255897242903684,-5.668660939193438,27.5636440051968,8.298230867808764,-2.394350130306924,339.3781423542166,29.1105508662242,12.71460344576031,66.96557801571655,-5.947399775882531,113.5887404975206,518.2791745357691,1.274,1.0234837388140003,0.0,4.209231173984008,210.00008998959544,0.0855603922362227,-1.9545545722250853e-07,-0.202288565914549,-0.2787261452758801,0.0182678157908638,6.534521011257946,11.86769713342799,28.221571640075595,28.885082982868102
0.91,31.222188914281364,131.01044699878204,15.767259263813155,3.17439090651414,-5.471284364471019,20.851678399133792,8.577838924419375,-2.5657749119753688,277.7421810230785,29.4012951043542,12.858856963167176,66.8333131520725,-6.290700827022763,113.21551448231637,528.6703966771181,1.274,1.023436404813438,0.0,4.220965091278456,210.00008998959544,0.0864151877506262,-2.5393022226178057e-07,-0.206869243599494,-0.2868009358311982,0.0188675891696923,6.323057514051826,11.888882332041211,28.5431733152037,22.6926202447648
0.92,31.222188335274662,131.01044817360076,16.02974598475444,3.103540211978882,-5.293079800004038,24.873973745954466,8.82057364912418,-2.712682457938572,315.0281342480675,29.579400678069128,12.959528693566288,66.69703691415947,-6.6399362351294,112.83545593233248,535.0814099135414,1.274,1.0233859136578225,0.0,4.232667590214064,210.00008998959544,0.0869389264752358,-3.1416693973834e-07,-0.2114244915557967,-0.2947457955392423,0.0193993751102143,6.1336150631709385,11.9550328345912,28.74914777223543,26.530656522816457
0.93,31.222187753883635,131.01044935358084,16.292645767193324,3.0205669047661985,-5.095386248081337,29.63654885985876,9.089873059910891,-2.88033957904714,359.16250706547066,29.851273482848207,13.097628233365413,66.55671029697017,-6.99465708618695,112.44902627498728,544.9490294079476,1.274,1.0233407575091376,0.0,4.2443244938612175,210.00008998959544,0.0877382674853307,-3.760771260819945e-07,-0.2159311563355982,-0.3025193719282437,0.0199944878360322,5.921377842806569,11.990968118580192,29.051946670955356,31.132734808537375
0.94,31.222187165448258,131.01045055188547,16.559116063909915,2.9306751898267622,-4.887209797260208,21.34234870796005,9.373890648807215,-3.0602316701764334,283.06875048378083,30.17467090000873,13.25684116887453,66.41231243908507,-7.354368654971315,112.0567373768732,556.8062827072607,1.274,1.0232914783978162,0.0,4.255841677669384,210.00008998959544,0.0886890573733136,-4.395543028362634e-07,-0.2203971040195975,-0.3101342650742569,0.0206285841914679,5.696738791327872,12.012506353742037,29.40792034866475,23.51022526780869
0.95,31.22218657108096,131.01045176592325,16.82847107724576,2.853852138021689,-4.701728144553374,27.75772211708886,9.606220979534788,-3.205711903464807,342.421873617488,30.35110937562217,13.358339585327228,66.26381967236482,-7.7185982180256225,111.65907781148115,563.322304899549,1.274,1.0232418269359267,0.0,4.267358731752372,210.00008998959544,0.0892079144964865,-5.04495308268752e-07,-0.2248231352838392,-0.3175901869418426,0.021165343990197,5.498402209200565,12.09099001896202,29.613392254778194,29.54737225956302
0.96,31.222185975008337,131.01045298364002,17.09783716497683,2.761882957941712,-4.492577003863486,27.14278870010053,9.880700929982984,-3.382968290283093,337.09533515678265,30.66509142240985,13.51532034627373,66.1112105177617,-8.08687960948523,111.25652972731667,575.0228468879908,1.274,1.0231951201821403,0.0,4.278844790819504,210.00008998959544,0.0901310437786407,-5.708064577787711e-07,-0.229181520743274,-0.3248393664242684,0.0217982880401794,5.272153643369038,12.123493736093057,29.960121973895088,29.08270454650208
0.97,31.22218537087376,131.0104542239894,17.3716404296444,2.6722871176981604,-4.288253453064872,17.09857927988941,10.137703156406088,-3.550146909094078,245.0218871929888,30.9384989848942,13.656844443959482,65.95448603493273,-8.458698940582973,110.84962836937072,585.3068836949241,1.274,1.0231476260761452,0.0,4.290178686100106,210.00008998959544,0.0909349260649967,-6.383666962252812e-07,-0.2334847860259358,-0.3319015430058595,0.0224049991949617,5.051425066068507,12.17468136774144,30.265530407071846,20.19252291701608
0.98,31.222184763042936,131.01045547446873,17.646906265657442,2.594032680892633,-4.1029409193103135,25.167098780160103,10.337814623123933,-3.67988794963724,319.593746642963,31.065468735189807,13.739943510464416,65.79364196034808,-8.833575889216265,110.4388733611499,590.1052698365432,1.274,1.0230935628253934,0.0,4.301548045151583,210.00008998959544,0.0913084011602097,-7.070696481768119e-07,-0.2377200819033103,-0.3387537945923404,0.0229044256972395,4.85300135913428,12.282011092060449,30.42153096077064,27.455324574921647
0.99,31.222184153713314,131.0104567283055,17.922080947497903,2.499256757213955,-3.8924715457414623,27.522922155806256,10.592414612217617,-3.850196265053527,341.66094855170127,31.363585206840018,13.89290681450912,65.62868678126902,-9.211014726346969,110.02478239495964,601.4694822192262,1.274,1.0230490803133316,0.0,4.312828190067361,210.00008998959544,0.0921849187593943,-7.768120554416863e-07,-0.2418616528034666,-0.3453536434890906,0.0235264752047851,4.624716778214139,12.330903843669702,30.752627424468205,29.741124770107877
1.0,31.222183536458544,131.01045800600076,18.201800967539,2.4036594024848967,-3.681742188487093,24.49924806034844,10.840181266332117,-4.018238441004438,314.2672081822764,31.65731757639453,14.044989995327963,65.4596513901383,-9.59048509241879,109.60791262148489,612.7717739676256,1.274,1.022999484445133,0.0,4.323958165005913,210.00008998959544,0.0930485606323327,-8.474568382173482e-07,-0.2459248633959816,-0.3517243162425729,0.024145101285023,4.396003726728392,12.385017375583724,31.07938878402165,27.090015237688412
1.01,31.222182915197266,131.01045929577745,18.48333002735969,2.311166553515696,-3.4769820688347384,25.612245157689355,11.060967433685477,-4.170066521988108,324.92031610370094,31.89472336450936,14.174834706078428,65.28656009112464,-9.971497469320434,109.18877795356256,621.9800614129996,1.274,1.0229507481225095,0.0,4.335127110874532,210.00008998959544,0.0937466518181592,-9.188853275362272e-07,-0.2499017121333152,-0.3578511954345683,0.0247188810829645,4.174246745101352,12.462593854492022,31.348895457196274,28.208536959304332
1.02,31.22218229034653,131.01046059642405,18.766383993883263,2.214852376419425,-3.267496637816957,21.17495628328172,11.286590176257327,-4.327997939142316,284.59063161543185,32.16447242988565,14.318735453339915,65.10944736797498,-10.353561108715336,108.76789532807868,632.5281262214107,1.274,1.0229039803623294,0.0,4.346224326206441,210.00008998959544,0.0945398144338526,-9.909810156480452e-07,-0.2537779102027845,-0.3637109132328528,0.0253139069624762,3.9467436682795296,12.531700775213055,31.65149342048408,24.382318543709097
1.03,31.22218166031113,131.01046191365592,19.05219148929296,2.1223355548025733,-3.064493795878157,17.06724264536655,11.47734605526473,-4.464446513228124,247.3046933904342,32.36291500662735,14.433926343438872,64.92836263003416,-10.736176466226224,108.3457932333362,640.3395418089593,1.274,1.022853416101322,0.0,4.357240041865706,210.00008998959544,0.0951233959443326,-1.0636142226498263e-06,-0.2575498114688888,-0.369296255851098,0.0258479364939342,3.727081172012229,12.629530651826965,31.881774922933506,21.04641362934774
1.04,31.22218102763517,131.0104632391518,19.33889499797504,2.031007367551692,-2.863971756423116,27.702813890015847,11.644020935503873,-4.586996780378359,345.4656368807608,32.522653318299675,14.533637324773164,64.74336282082497,-11.118854127185472,107.92299102260436,646.658567908138,1.274,1.0228049544826707,0.0,4.368223108673461,210.00008998959544,0.0955932194735594,-1.1366655764267472e-06,-0.2612023748708635,-0.3745832605231158,0.0263431764665729,3.51053966748872,12.744040852403112,32.07296900297875,30.398514115570006
1.05,31.222180391938146,131.0104645744018,19.626804671923686,1.9267954892435573,-2.6462658373395684,16.213165346975426,11.871343510266648,-4.754881986973562,240.4562587980608,32.862754121321665,14.709509432697915,64.55452085699909,-11.501098619542178,107.50001695622002,660.2356980189242,1.274,1.022755494436122,0.0,4.379103020015544,210.00008998959544,0.0965931851311394,-1.210009000667023e-06,-0.2647250754077095,-0.3795554803407417,0.0269769022947235,3.273014415017508,12.795716220449824,32.44722742261846,20.6495624655139
1.06,31.222179749023752,131.01046593523938,19.91924653254435,1.8354590931463728,-2.447169363949381,23.5376543724522,12.001448022353484,-4.857952943019624,308.1796836557233,32.97841497839178,14.791983014222328,64.36192256687772,-11.882418157968708,107.07739764488886,664.8726161517365,1.274,1.0227013895379469,0.0,4.389893978765564,210.00008998959544,0.0969334658718062,-1.2834877778856565e-06,-0.2681292920816694,-0.3842267922617034,0.0274192065177738,3.058676023784932,12.931431129935527,32.59413137627498,26.863648947729782
1.07,31.22217910692345,131.01046729243112,20.209991395374765,1.7330966240405594,-2.234359518192549,27.8749677838816,12.186984524887617,-5.002909733612593,348.5093681440431,33.261803951761365,14.945949244786975,64.16565088539254,-12.262355612693463,106.6556237839672,676.3295458952781,1.274,1.0226540159946436,0.0,4.400720936342784,210.00008998959544,0.0977667519208112,-1.357001765945921e-06,-0.2713862074271294,-0.3885557721351255,0.0279899605358894,2.8274482347076466,13.0080359631571,32.91092053009671,30.83124270224869
1.08,31.222178457728628,131.0104686760313,20.50533187116317,1.628534201318346,-2.0197970148094098,18.28104860036108,12.373903150463525,-5.1521958509244,261.0015785751465,33.57428127665169,15.113372370437997,63.965815058307285,-12.640434460287116,106.23521024885363,689.0772168261415,1.274,1.0226061614050743,0.0,4.411354169833111,210.00008998959544,0.0986855485181149,-1.430391041555756e-06,-0.2745047511855092,-0.3925526683650826,0.0285767598772287,2.5943409313066934,13.076458675445611,33.257078011675915,22.668377515651567
1.09,31.2221778045636,131.01047007504417,20.80289194005707,1.531631296003489,-1.8160335065599105,16.64966259290438,12.483510393242378,-5.250578492558335,246.54375332456465,33.72206340913313,15.21130951669183,63.76252335369398,-13.016210614264702,105.816638649685,695.136849321026,1.274,1.0225512795791307,0.0,4.422026356467514,210.00008998959544,0.0991202602757263,-1.503516618317884e-06,-0.2774795929781645,-0.3962072682961015,0.029012768500294,2.3755181445699214,13.20683948447132,33.436849293956826,21.462009940876136
1.1,31.22217715056865,131.0104714769628,21.100106195025607,1.4324983641949882,-1.6103734438165993,34.76322008767634,12.590383009513769,-5.350338244963802,413.1890617384087,33.89399628184545,15.320216002474236,63.55589348188804,-13.389252323913448,105.40037969823209,702.2232216713134,1.274,1.0224981043155532,0.0,4.43265044142812,210.00008998959544,0.0996259617897161,-1.5762699265648134e-06,-0.2802902695591447,-0.3994925466596893,0.0294552276871605,2.1551830064409865,13.330056837751028,33.64107271601722,37.358069202328956
1.11,31.222176492761253,131.01047289414643,21.39947380266932,1.320380778550428,-1.3912389474208395,24.99186846923706,12.798985018155932,-5.525479777690053,324.1593910379213,34.346255355311534,15.55142794730352,63.34606335107161,-13.759126170035056,104.98690897738064,721.0675195670949,1.274,1.0224548851875197,0.0,4.443137125684628,210.00008998959544,0.1009556457858046,-1.6485112029238791e-06,-0.2829328553391521,-0.4024020817617073,0.0301288027874465,1.9179699022010468,13.351977831024149,34.127741526619296,28.617100374641158
1.12,31.22217582673644,131.01047434657093,21.70489451176945,1.2179948254198638,-1.1843385774674184,8.416916963462134,12.89877837382964,-5.627595451013232,172.7328179403806,34.56225535731089,15.681281076556424,63.13317921325849,-14.12541687787678,104.576684952283,730.1440546293258,1.274,1.0223979224661404,0.0,4.453577123153157,210.00008998959544,0.1015908953951327,-1.720054639374907e-06,-0.2854192423770964,-0.4049441711700236,0.0305838166254254,1.6988107486760644,13.462247928640236,34.376233136331564,16.397951252130756
1.13,31.222175161104968,131.01047579757235,22.009041976112464,1.122268129509597,-0.9850325342821868,29.617732064446315,12.9030250180762,-5.665370159288882,367.5328077894322,34.57927991410043,15.724567784154363,62.917384633152686,-14.48773888992252,104.1701359522422,730.842184736281,1.274,1.0223460397860296,0.0,4.464104542775743,210.00008998959544,0.1016412855329811,-1.7908066201939762e-06,-0.2877256124397702,-0.4070904739747309,0.0308452389240392,1.4932015118629056,13.646836463194166,34.424558987433194,32.799306796031416
1.14,31.22217449522353,131.01047724917083,22.3123783059586,1.0118932641258336,-0.7732256369624179,15.604255943462276,13.057917535724307,-5.8140112059243485,239.6953177322812,34.997675040829904,15.945250693388749,62.69884543929044,-14.845705967898455,103.76769431093116,748.6131506879248,1.274,1.0223022138470996,0.0,4.474467732517045,210.00008998959544,0.1028714555928847,-1.8606710475807151e-06,-0.2898350353340799,-0.4088245187067169,0.0314464114875174,1.2734770123429944,13.683832666937144,34.87622072850039,21.161397407105895
1.15,31.222173819929186,131.01047874481404,22.62324238136488,0.9117090439991056,-0.5714078084763153,15.301774153540764,13.068519384287557,-5.863654340452757,237.4125115347709,35.10063718633479,16.027542893001964,62.477744305620384,-15.198943406069915,103.36978281453284,753.0019422397788,1.274,1.0222426194541194,0.0,4.484687358001442,210.00008998959544,0.1031744623643985,-1.929435170493788e-06,-0.2917630134535609,-0.4101533401648235,0.031747774389381,1.0759612941191214,13.838456116771942,35.01088214552107,20.95979325679951
1.16,31.22217314735667,131.01048022806395,22.93072988914077,0.8090618216532456,-0.3690918906220715,42.83272080675036,13.091309793428447,-5.9256017353898045,490.043774385954,35.26977846464506,16.13984847225917,62.254259085138216,-15.547103824876736,102.97679684295086,760.2540326603652,1.274,1.02219674531104,0.0,4.495042352043652,210.00008998959544,0.1036719942771502,-1.997028636289532e-06,-0.2934880449068981,-0.4110585803834633,0.0320884226499759,0.8892698129954405,13.968588698653944,35.21180204702417,45.17894553597942
