Time,Latitude,Longitude,Altitude,Angle of Attack,Angle of Sideslip,X-Acceleration,Y-Acceleration,Z-Acceleration,Thrust,True Velocity,Ground Velocity,Pitch,Roll,Yaw,Dynamic Pressure,cp,parachute_deploy_gain,Wind Speed,Mach,omega_x,omega_y,omega_z,Cmq
0,31.2221860000000042,131.010383999999988,3.00000000364323682,0,0,0,0,0,2.2828121974499247,0,0,69.9999999962342088,0,113.699999993883324,0,15.2880000000000003,0,0,0,0,0,0,-0
0.01,31.2221859999997946,131.010384000000556,3.00000016469923247,0,0,0,0,0,34.2421869617492334,9.11367326775851009e-12,8.66229497295429822e-12,69.9999999962370651,-4.92863947922479589e-13,113.699999993882884,5.08594204168408172e-23,15.2880000000000003,0,0,2.67827100510624443e-14,-3.65918233213857746e-19,7.58941520739853104e-19,4.81114714040442593e-19,-1.83541113936281872e-32
0.02,31.2221859999996028,131.010384000001039,3.00000030885429547,0,0,0,0,0,25.8718762377664078,1.96992978605390895e-11,1.88456988716431921e-11,69.9999999962400494,-1.04152381447771591e-12,113.699999993882386,2.37621641206600858e-22,15.2880000000000003,0,0,5.78911013494094702e-14,-7.28448334638698292e-19,1.51788304147970621e-18,9.75781955236953991e-19,-7.93451985123442364e-32
0.03,31.222185999409362,131.010384001586402,3.00018176030779937,18.6493779029494604,-0.000129237623237530007,10.7928899806483045,-1.97644583900689674e-05,3.34983967390763571,180.342193598546658,0.0785672533977095078,0.0490694047558625918,69.9999999976775626,-4.2497891361524094e-12,113.699999994705607,0.00377978965327356543,15.2880000000000003,0,0,0.000230888677896110966,2.88330015245363835e-17,-7.25223402354589416e-10,1.08188208080271277e-11,1.51197624781400831e-13
0.04,31.2221859959356287,131.010384010943454,3.00162780953569674,9.74253989061216075,-4.88763086122285772e-05,51.6475445943311158,1.54548216767323456e-06,3.34965665682309899,548.635972453807767,0.346420694310776434,0.171860503977579737,70.0000000036447574,-2.28205307288861013e-11,113.699999999565534,0.0734838809649275282,15.2880000000000003,0,0,0.00101804013696402693,1.80009747884589399e-15,-1.58734069119923437e-08,2.61929145365345784e-11,1.45916869803439425e-11
0.05,31.222185985910329,131.010384038045004,3.00715844163023283,5.5769968489095687,-4.21135943534799539e-06,75.3242160169835273,4.73080294831520123e-05,3.34902689347595528,761.698429882464552,0.947854334293939504,0.409211128642743283,70.0000000010935537,-1.04766136577077691e-10,113.700000013612069,0.55013262299765131,15.2880000000000003,0,0,0.00278549703395658196,1.95473045844392346e-14,-1.13584749331540247e-07,4.14067569904437612e-11,2.85688606727574374e-10
0.06,31.222185966868647,131.010384089593572,3.01868664272593046,4.48500474963244322,2.31139019787050305e-05,56.3605563030587007,9.71465785775115924e-05,3.34799244711343214,590.487539073720654,1.60618980149218604,0.665693519146445256,69.9999999197690244,-2.82941102348924619e-10,113.700000040305838,1.57971028663545732,15.2880000000000003,0,0,0.00472017413217633904,1.01936766184118274e-13,-4.07864410983111553e-07,5.76522069423461223e-11,1.73837509686130208e-09
0.07,31.2221859390775336,131.010384164863126,3.03600551209402658,4.00448286551149391,4.63712119495135773e-05,85.8192455386477917,0.000147926970097503541,3.34656708333141317,855.293774977913927,2.27788210706903049,0.926660947343454056,69.9999996219982279,-5.49831570978999292e-10,113.700000079276109,3.1772067926123353,15.2880000000000003,0,0,0.00669410445039518576,3.35900025920073467e-13,-9.92070622953462368e-07,7.83315922772719921e-11,5.99658406989250883e-09
0.08,31.2221859009658012,131.01038426812616,3.06033476575187802,3.77263127792190334,7.06371256062416025e-05,17.6076228145981588,0.000196957592070898702,3.34480227118667583,241.217198863884818,2.92612482887636283,1.17954495655796454,69.9999989088305909,-9.15694670892462832e-10,113.700000132739973,5.24285298735243899,15.2880000000000003,0,0,0.00859912396431777512,8.49635706706491564e-13,-2.01744800413265681e-06,1.10032289818440005e-10,1.56647792516492608e-08
0.09,31.2221858556197738,131.010384390989856,3.0892797608365723,3.74258231141200604,9.5325675231994802e-05,53.4176180048964397,0.000237730218002333866,3.34289666486112669,563.093737704317618,3.46187703891102627,1.39384941462988121,69.9999975134546446,-1.31671842773002699e-09,113.70000019638816,7.33844512707370811,15.2880000000000003,0,0,0.0101735644468633635,1.80613395740032365e-12,-3.4856561047658452e-06,1.59232278560273843e-10,3.20202005890100843e-08
0.1,31.2221858028175774,131.010384534057465,3.12301320909491364,3.81071421019783685,0.000121971080758598364,50.732831688561788,0.000271545837515448313,3.34090447591365036,538.7437595981919,3.9029133825176725,1.57567038389986336,69.999995157830341,-1.72222432289554893e-09,113.700000270567642,9.32732681847184431,15.2880000000000003,0,0,0.0114696609641860067,3.37914451533694905e-12,-5.48904943388414521e-06,2.34452541412924053e-10,5.68476506314615152e-08
0.11,31.2221857431700727,131.010384695667796,3.16106164078641116,3.84323765504598036,0.000147145408783231387,40.0848474374385688,0.000307099758177995722,3.33859717034531034,442.865639305294906,4.36819921201157246,1.76578242121538631,69.9999915253729768,-2.07703942468805025e-09,113.700000354470319,11.6837607126815346,15.2880000000000003,0,0,0.0128370221364947634,5.76365694334259916e-12,-8.08162139954488366e-06,3.4437809457680147e-10,9.36754562129998513e-08
0.12,31.2221856770245907,131.01038487487628,3.20315617196047642,3.86558564807459826,0.000171348089099210797,43.7480799143332604,0.000342946594964391399,3.33600966231316054,475.585948135404465,4.83801864946757032,1.95742650583495204,69.9999862600106582,-2.3147200577597177e-09,113.700000447673773,14.3321420062794882,15.2880000000000003,0,0,0.0142177082532951912,9.17772063248746377e-12,-1.13223702306849879e-05,4.98555567062495836e-10,1.45354343598177095e-07
0.13,31.2221856047215205,131.010385070757366,3.24903338361815308,3.95285669440916232,0.000198169826234992146,48.2585391180499741,0.000371981107240517913,3.33344523512332414,515.915632623689476,5.21512035057569623,2.1172615234944101,69.9999789703044399,-2.35265113573284059e-09,113.700000549782459,16.6533950244453948,15.2880000000000003,0,0,0.0153259223232261182,1.38588880633063252e-11,-1.52681962163171846e-05,7.07166414280215559e-10,2.11287244421402401e-07
0.14,31.2221855263490333,131.010385283071088,3.29862557546706325,3.99981420118284792,0.000223008237377726162,44.9721767850953427,0.000403855591455553264,3.33052592490198407,486.239086056840392,5.63167615200940475,2.29059513099545553,69.9999692426645623,-2.0964169591742506e-09,113.700000660771011,19.4199179783547713,15.2880000000000003,0,0,0.0165500839355928395,2.00553635588333716e-11,-1.99811439493909854e-05,9.81252131659242702e-10,2.9859131057555361e-07
0.15,31.2221854420015994,131.010385511560628,3.35186028506811029,4.05975476911301225,0.000248539990764711958,43.4637160193537753,0.000433543226731567866,3.32747422849243879,472.54218587214001,6.01888316560526437,2.45383766868271946,69.99995661705006,-1.43188768134039915e-09,113.700000780625842,22.182048585914238,15.2880000000000003,0,0,0.0176879988684610287,2.80404916713566325e-11,-2.55291719775422389e-05,1.33309260321839681e-09,4.07727088477750495e-07
0.16,31.2221853515819241,131.010385756490507,3.40881389436676407,4.08854462484130732,0.000272210944932510383,34.4023069357135967,0.000465877824565354701,3.32404684464906053,391.12189082975641,6.44303061809316624,2.62971580822363071,69.9999405987561403,-2.27841984783363582e-10,113.700000909623355,25.4183784408083007,15.2880000000000003,0,0,0.0189344747787753703,3.81042963600432359e-11,-3.19913711614788564e-05,1.77662362644707755e-09,5.46937370926295155e-07
0.17,31.2221852554099399,131.010386016990765,3.46923909377793649,4.13347468842419552,0.00029684158695823977,43.4155809381403728,0.000495744973995866601,3.3205135250562221,471.78125980632376,6.83404379119085981,2.79420112365087148,69.9999206448319882,1.67575894446247236e-09,113.700001047478835,28.5969980778046526,15.2880000000000003,0,0,0.0200835795555658371,5.05622819343119236e-11,-3.94162603380559734e-05,2.32482468580976756e-09,7.14768170397066036e-07
0.18,31.2221851530022434,131.010386294375877,3.53351204963262022,4.16207877285686756,0.000320492787063832857,36.2151660219171347,0.000526966735016640565,3.31665933612355879,407.101567211914528,7.2444022294323478,2.96528531587496236,69.9998961790314524,4.45070668055043651e-09,113.700001195059045,32.1341903991183955,15.2880000000000003,0,0,0.0212895378539265934,6.5741708189353534e-11,-4.79243856484647045e-05,2.99669991322666987e-09,9.21230820748327094e-07
0.19,31.2221850444828668,131.010386588308563,3.60153760019172342,4.17456309251139679,0.000342914278589344943,40.9041800427263027,0.00055982867240863632,3.31244583927210501,448.953132831826849,7.67810673790947895,3.14433961722118216,69.9998665624008964,8.30674092292676784e-09,113.700001352409558,36.0967170721845179,15.2880000000000003,0,0,0.0225641073333706747,8.40032927522686365e-11,-5.75836346763551867e-05,3.80911503044151526e-09,1.17316671380156179e-06
0.2,31.2221849296486234,131.01038689934137,3.67347464118590317,4.20078915399145636,0.000366573034254704516,37.5214898208491761,0.000590466919182690893,3.30812712915434881,418.515630199161365,8.08216006412957277,3.31318683933006453,69.9998311045104487,1.34800080829191884e-08,113.700001520067786,39.9955165273270055,15.2880000000000003,0,0,0.0237515420632470921,1.05728805481567758e-10,-6.85028882131185225e-05,4.78351733027568889e-09,1.4690610466811608e-06
0.21,31.2221848088436893,131.01038722653837,3.74905730552401684,4.22722562033261262,0.000390310433246848657,36.0064697775761644,0.000620601272787201603,3.30359776763142721,404.818761014464428,8.48018829437500621,3.47992805775657654,69.9997890742529592,2.02433263776548733e-08,113.700001697833756,44.0315784885794201,15.2880000000000003,0,0,0.0249212734096428447,1.31320595517854955e-10,-8.07208291683553139e-05,5.93661589182972911e-09,1.81631626331753899e-06
0.22,31.2221846819136672,131.010387570319409,3.82840670130281646,4.2176244726165093,0.000410696285369717819,43.5935627685881499,0.000655758920494764063,3.29841875767922987,472.542185872136486,8.94831461811120121,3.67066782999472752,69.9997397083127737,2.88926538075102191e-08,113.700001886238866,49.0266756129506618,15.2880000000000003,0,0,0.0262970098082033268,1.61186003536399267e-10,-9.43348117723774896e-05,7.29106197993283208e-09,2.23980539128825791e-06
0.23,31.2221845484548304,131.01038793178239,3.91183756115468473,4.25320537954326383,0.0004356497720089569,36.207459360748949,0.000683686922722525747,3.29355466128287455,406.340642146102141,9.31799902525197865,3.82760028360492655,69.9996821549030983,3.9766623706965518e-08,113.70000208621326,53.1608354775167555,15.2880000000000003,0,0,0.0273834518362109196,1.95767624418301473e-10,-0.000109505708778552874,8.87784718088286285e-09,2.70740355927931971e-06
0.24,31.2221844093456014,131.010388308538637,3.99866964940866776,4.27135264557773553,0.00045883378920767232,37.3286080087975947,0.000713911697673520317,3.2882529474867046,416.232824001711379,9.7203332459195213,3.9956861712714935,69.9996155408946805,5.32509871046438109e-08,113.700002296918697,57.8502398901668755,15.2880000000000003,0,0,0.0285658473732890855,2.35534745143307651e-10,-0.00012617657385590063,1.07071802425012536e-08,3.25424194465518317e-06
0.25,31.2221842644570167,131.010388700938847,4.08900446593793809,4.29698686981540234,0.000482848983334858658,38.3649566400252979,0.000742483922667206905,3.28284626589867479,425.364080791506922,10.1009615935159527,4.1562806652626314,69.9995389781877293,6.97479781374676735e-08,113.700002518962805,62.4689963611702623,15.2880000000000003,0,0,0.0296844577155840929,2.80933085873043406e-10,-0.000144451636124542286,1.28055329635332884e-08,3.87142965072796435e-06
0.26,31.2221841140756986,131.010389108203611,4.18262110402873155,4.32755423691547136,0.000507438991606541483,41.7865661614553829,0.000769736419800412888,3.27732087646770287,455.80158342417883,10.4644497354123782,4.31094871887776954,69.9994515368878751,8.97024502886333285e-08,113.700002752408935,67.0452443356678742,15.2880000000000003,0,0,0.0307527002093570291,3.32431765373287754e-10,-0.00016436315770221847,1.51925047864838523e-08,4.56355359993810651e-06
0.27,31.2221839578137299,131.010389531387915,4.27982215321117465,4.33742811840656994,0.000529702335486379188,38.2242911032538473,0.000800211178185602123,3.27123004841987974,423.842199659872563,10.8736118498261902,4.48123226393084195,69.9993522521519935,1.13587393208351198e-07,113.700002998306658,72.3900346549699947,15.2880000000000003,0,0,0.0319551720828357214,3.90484337603431509e-10,-0.000186059811616844751,1.79019946498730075e-08,5.36790267753501075e-06
0.28,31.2221837957695953,131.010389970223883,4.38053283172365671,4.35979025650862262,0.000553527510562852902,44.1207307275094038,0.000828072271385077072,3.26514386100193477,476.346873201222195,11.2478718916014184,4.63949182586423614,69.9992400702920463,1.41938296327408329e-07,113.700003257081931,77.4582454645660761,15.2880000000000003,0,0,0.0330550782151640757,4.55595825375374429e-10,-0.000209619220926101062,2.09616181379585756e-08,6.25569396794615011e-06
0.29,31.2221836278828384,131.010390424876022,4.48480177698289584,4.38135974025744623,0.00057737648726709299,35.3536197607625553,0.000855659611391794222,3.2588361863853601,397.970310422111766,11.6195889013503368,4.79682445966682813,69.9991139044831527,1.7532937395312496e-07,113.700003529427192,82.6616578528940948,15.2880000000000003,0,0,0.0341475147840558241,5.28268525040872464e-10,-0.000235137545717689308,2.44023887909330158e-08,7.24907222782668121e-06
0.3,31.2221834544381096,131.010390894570321,4.59240982688131272,4.39617507281761988,0.000600356665334356751,33.1490797613948018,0.000884158719714270942,3.25217107922164672,378.185945710871067,12.0052186882677852,4.95887519756831807,69.998972627127344,2.14383684192303281e-07,113.700003815596887,88.2385269149682756,15.2880000000000003,0,0,0.0352808420099011907,6.09029939588318471e-10,-0.000262641159892275291,2.82471356422800846e-08,8.36561857411674722e-06
0.31,31.2221832755909574,131.01039137888381,4.7032380575360353,4.42235615181669761,0.000624899913490765827,34.9528590290802086,0.000910025197609511073,3.24555398289468222,394.16562209302117,12.3556398803864607,5.10879227158949156,69.9988150759387651,2.59766173767152649e-07,113.700004116072961,93.4639131761651498,15.2880000000000003,0,0,0.0363107024397255479,6.98403788157463991e-10,-0.000292187019282257228,3.25229566712151178e-08,9.57826248689966157e-06
0.32,31.2221830914257232,131.010391877587324,4.81722282885169673,4.45155794779377789,0.000649944303128982049,38.0379859115142835,0.000934821026682707218,3.23882361682650144,421.559393462426954,12.6924793110791878,5.25399282922068878,69.9986400687318024,3.12179641788393281e-07,113.700004431478234,98.6283237403037703,15.2880000000000003,0,0,0.0373006526995305274,7.96905013945712519e-10,-0.000323836613651358495,3.72580440687311147e-08,1.09050644159405278e-05
0.33,31.22218290196043,131.01039239063175,4.9343519698327194,4.48019701204722054,0.000675004219851668761,37.7093551175013246,0.000959261610436717115,3.23189933669563656,418.515630199168186,13.0256844327599097,5.39788776638052958,69.9984463826819052,3.72372687880250348e-07,113.700004762578004,103.87354288045799,15.2880000000000003,0,0,0.0382799263433428877,9.05047894999210997e-10,-0.000357667290238851605,4.24836225249657193e-08,1.23603484615852587e-05
0.34,31.222182707020778,131.010392918491164,5.05476263450916541,4.49049305198152204,0.000697378143373914754,29.5227085089536203,0.000987142430045659337,3.22427911658814059,345.465636880756449,13.4081741031825317,5.55863100914667463,69.9982327456812641,4.41143957445642244e-07,113.700005110463266,110.062177258613033,15.2880000000000003,0,0,0.0394040418267209702,1.02333461745717641e-09,-0.000393806243978271305,4.82396483202145133e-08,1.40087103268591529e-05
0.35,31.2221825067937928,131.010393460657156,5.17831168393457641,4.50711781535187139,0.000720712543856854714,32.3530371383660977,0.00101333646443235357,3.21661305844837253,370.576570052703289,13.7686530554979374,5.71176159517965232,69.9979978091806316,5.19362042776584697e-07,113.700005475786654,116.058400304168075,15.2880000000000003,0,0,0.0404634764462946869,1.15232390415689195e-09,-0.000432299813734132244,5.45552399130644805e-08,1.57912776608867467e-05
0.36,31.2221823012122108,131.010394017312592,5.30505329869157727,4.52767240178778962,0.000744729708600240731,36.5526511043957356,0.00103828652712813154,3.20885713174522058,407.862523277719447,14.1132764952183631,5.85938873702120233,69.9977401961163537,6.07939829707116331e-07,113.700005859608282,121.939407863977465,15.2880000000000003,0,0,0.0414763190843316643,1.29254043868676357e-09,-0.000473255972436325862,6.14699225552327593e-08,1.77198251922661022e-05
0.37,31.222182090341061,131.010394588280832,5.43493909097431604,4.55039311415752579,0.00076918150115683735,34.6835787828593496,0.00106234372950533948,3.20097384516078431,391.121890829766642,14.446930470491731,6.00318739776240751,69.9974584775585669,7.0785096329375243e-07,113.700006262864989,127.771540530283914,15.2880000000000003,0,0,0.042456928843506235,1.4445318520011827e-09,-0.000516746496826029863,6.90186481791334769e-08,1.98053803654614999e-05
0.38,31.2221818741223878,131.010395173719473,5.56801609611825477,4.56315131642791805,0.000792019287104061913,36.2353933787001239,0.00108827974821363053,3.19255015153205646,404.818761014460279,14.8084413239345949,6.1564787166299757,69.9971511865591651,8.20121521966083772e-07,113.700006686723384,134.244380272309172,15.2880000000000003,0,0,0.0435194095147296359,1.60882660749176723e-09,-0.000562873331420229127,7.72423853301427293e-08,2.21128406351508731e-05
0.39,31.2221816525004634,131.010395773780147,5.704329739781131,4.57922628245169783,0.000815489716137310881,30.9425419640016202,0.00111309493143926189,3.18402316666385765,357.640624933827439,15.1559126959619999,6.30488433186772657,69.9968167722787769,9.45855271408966431e-07,113.700007132429306,140.616382889747683,15.2880000000000003,0,0,0.0445406353688629561,1.78596578656278109e-09,-0.000611756345505213715,8.61868943159197994e-08,2.45968452142520012e-05
0.4,31.2221814256617982,131.010396387955836,5.84373750626454935,4.59349479979191955,0.000838670682925170751,29.5834243852937959,0.00113797512888990423,3.17521289611434332,345.465636880754005,15.505969085398343,6.45410901523083158,69.9964536498379317,1.08621525395706341e-06,113.700007600947828,147.185065961143067,15.2880000000000003,0,0,0.045569462889951777,1.97653506559195414e-09,-0.000663427505461186432,9.58835144134294998e-08,2.72901174189528038e-05
0.41,31.2221811937141673,131.010397015953487,5.98615797249314241,4.60939449845229365,0.000862163931524819621,33.360545626359837,0.00116210409424792778,3.16624854525325983,378.946870776686467,15.8471768437686258,6.60022848408685459,69.9960602026584695,1.24241947051318175e-06,113.700008093413757,153.73182724817184,15.2880000000000003,0,0,0.0465722905345462151,2.18109996727848554e-09,-0.000717942131686907965,1.06367950505874699e-07,3.01820283711074823e-05
0.42,31.2221809567080335,131.010397657635991,6.13155423418529733,4.63387609959193458,0.000887317919769279608,37.5676427387571721,0.001183742077125155,3.15743374731593907,416.232824001711379,16.155026338188506,6.73482947265292431,69.9956347739890248,1.41574639558456e-06,113.700008611107208,159.760443802515937,15.2880000000000003,0,0,0.0474770882933877245,2.400206535531791e-09,-0.00077537935552726017,1.17680930846389008e-07,3.32294321368729263e-05
0.43,31.222180714655078,131.010398312971745,6.27991949833728835,4.65367427313455995,0.000911660169575580258,33.0386483003103493,0.00120612360190941372,3.14823214930187856,375.903139513433644,16.4750454055619109,6.87353555569934649,69.9951756835756242,1.60752723178871754e-06,113.700009155418982,166.15023929888028,15.2880000000000003,0,0,0.0484176551665520677,2.63438237315801404e-09,-0.000835821567166909188,1.29864614855892046e-07,3.65287677570896608e-05
0.44,31.2221804673911407,131.010398982407111,6.43138341412837455,4.65757387742934892,0.000932929976641759203,30.4788052564327749,0.00123214974254881528,3.13809943757763454,353.075012538921555,16.8483715860516412,7.03046484016701978,69.9946811832270441,1.81916859536649675e-06,113.700009728069276,173.762989227436179,15.2880000000000003,0,0,0.0495148886868988364,2.88411342836306464e-09,-0.000899417740154189794,1.42975581697416844e-07,4.01983191819108926e-05
0.45,31.2221802146980103,131.010399666535704,6.58611776122768511,4.65827001030579346,0.000953562143933252499,35.4620561517945134,0.00125873275223327787,3.12754579585638304,397.209385356286873,17.2316459864824161,7.19073264961644831,69.9941493995125938,2.05218870761162579e-06,113.700010330973456,181.755888424112015,15.2880000000000003,0,0,0.0506413642318551335,3.14987863732273609e-09,-0.000966369542842942814,1.57083782729145849e-07,4.41725079750487196e-05
0.46,31.2221799565319174,131.010400365476642,6.74415901717088939,4.66907507286434065,0.00097630283571516251,41.3913707355688842,0.0012823814722795761,3.11722412848720953,449.71405889764344,17.5754687869478978,7.33738035579407555,69.9935783582983362,2.30821229426708146e-06,113.700010965912341,189.078525726536213,15.2880000000000003,0,0,0.0516519027755614896,3.43223060675433133e-09,-0.00103681314204437207,1.7224885851047691e-07,4.83373548649469587e-05
0.47,31.2221796928065203,131.010401079464799,6.90557672428163105,4.67806301106434042,0.000998761260684927557,28.0209900204918974,0.00130616618884544979,3.10657060381263461,331.007810630253402,17.9233234115620377,7.48533101007974988,69.9929660462147325,2.5889364060732201e-06,113.700011634803886,196.634049649816575,15.2880000000000003,0,0,0.0526742959306323727,3.73170463860384924e-09,-0.0011108841623615434,1.88532207060213475e-07,5.28148505664365441e-05
0.48,31.2221794239793269,131.010401807256216,7.07001851744381948,4.68642527483421745,0.00102109091231145262,27.6007969606275125,0.00132978852885184593,3.09563681785184297,327.203122301157407,18.2709832353803314,7.63313726727991071,69.9923104035261474,2.89614261094227829e-06,113.700012338884164,204.33305198470137,15.2880000000000003,0,0,0.0536961221459722679,4.04904859899578719e-09,-0.00118849531779471017,2.05948560519311644e-07,5.75998398329450787e-05
0.49,31.2221791502289392,131.010402548365278,7.23734841566291642,4.70156796398202914,0.00104489945272251677,34.6487244505178253,0.00135120419031512233,3.08484494341801163,389.60000969812296,18.589315545984995,7.7707981814672209,69.9916093757078812,3.23165731652504743e-06,113.700013079832303,211.511801733856089,15.2880000000000003,0,0,0.0546317638991248022,4.38486615800834454e-09,-0.00126967773493266863,2.2453662401782158e-07,6.26054017926546362e-05
0.5,31.2221788715876762,131.010403302704333,7.40754387012007864,4.72212438923579736,0.00106996435823571525,35.6033845714535389,0.00137072557486675028,3.0741588573465477,397.970310422105001,18.8826594549893159,7.8998011517407587,69.9908609011483378,3.5973597360057951e-06,113.700013859590555,218.236320199079358,15.2880000000000003,0,0,0.0554939729313439212,4.73968531279909998e-09,-0.00135450679800636423,2.44344941868023912e-07,6.78409867869358833e-05
0.51,31.2221785881337617,131.010404070060673,7.5805467220577798,4.73558879650721298,0.00109346949398930206,27.1956639286467201,0.00139183542187690463,3.06284319292573448,323.39843497208409,19.200774511812984,8.03722958125224807,69.9900628955037689,3.99519228958782199e-06,113.700014680103109,225.647740475438098,15.2880000000000003,0,0,0.0564289867670437692,5.11403675587933804e-09,-0.00144303978709531136,2.65418546512062939e-07,7.34915902759761199e-05
0.52,31.2221782999013868,131.010404850474288,7.75637073941223498,-16.4950635606322393,-21.75149320147354,33.3487058564173324,1.10335306923981191,4.05983713594463325,372.098451184341457,19.1293810176791723,8.17882358751979943,69.9892118024353351,1.40010246503539477e-05,113.700025732485003,223.969044485115603,15.2880000000000003,0,10.0257722823219062,0.0562192805646315741,5.5100423478789671e-09,-0.00152439945724424449,2.23841616689912651e-05,7.73451281102585929e-05
0.53,31.2221780059341789,131.010405644752808,7.93514192000616969,-16.1614685624893788,-21.4651538782896019,34.9906552245314728,1.13188597122725909,4.07626833572506619,386.55624643486243,19.4154378161979899,8.3295123987320121,69.9884067631249707,-0.000227580164457035812,113.699769039465679,230.713540472554257,15.2880000000000003,0,10.0639027806548764,0.057060087105458096,5.7787050055380638e-09,-0.00126103343653102482,-0.00037037823495467896,6.49381026932361244e-05
0.54,31.222177705590326,131.010406453351209,8.11693529670568203,-15.8397847947697645,-21.1875530864232395,30.7866448779188495,1.16080736671590778,4.09277017552163613,349.270324209843579,19.7006625775041364,8.47967169459512782,69.9877541737631219,-0.00109419600055313303,113.698847154670332,237.537833785971202,15.2880000000000003,0,10.1019567201102429,0.057898453730235451,5.71794814832742872e-09,-0.00099166643789938883,-0.000773322916338925318,5.18160940183788434e-05
0.55,31.2221773990855382,131.010407275568014,8.30154878770384919,-15.5339499819411415,-20.9238483465935801,32.6004465057765671,1.18976918585027969,4.10909409867995024,365.250000591990727,19.9798477234182776,8.62733316299093822,69.9872573718693616,-0.00260156175557114218,113.697243348156405,244.31367440321759,15.2880000000000003,0,10.1398714407006203,0.0587190757457862825,5.32938942505168365e-09,-0.000716678597591887106,-0.0011860409052122582,3.79775666554489015e-05
0.56,31.2221770864000341,131.010408111403876,8.48898170658015161,-15.2463792791634187,-20.6775003840679545,30.4573716806912529,1.21849276135015971,4.12504982481830496,346.226561946578727,20.2489269339449933,8.77099045203568117,69.9869195779880044,-0.00476518441811906585,113.694941113874833,250.934074163373424,15.2880000000000003,0,10.1776472353334384,0.0595100025247121203,4.61499184353447527e-09,-0.000436027628253508155,-0.00160869622566813539,2.34163246770024913e-05
0.57,31.2221767675811961,131.010408960678035,8.67918171923491677,-14.9605981016627183,-20.4289563722111538,30.1202089564135491,1.24815864604405746,4.14147857064785718,343.182829683302316,20.5256087230147841,8.91737984169751918,69.9867439645093583,-0.00760062092982284696,113.691923894542839,257.833753546451192,15.2880000000000003,0,10.2152821186970453,0.0603232779588754736,3.57712192707054137e-09,-0.000149808903945799127,-0.00204126416023672286,8.1550842094989768e-06
0.58,31.2221764425887898,131.01040982344847,8.87216460647704608,-14.6667135817043928,-20.1660053508280761,39.5111177172751695,1.27963679452515056,4.1589783665458242,426.12500585731533,20.8223231545733896,9.07117147378122901,69.9867336949155714,-0.0111236311584722147,113.688174919216124,265.337111122434862,15.2880000000000003,0,10.2527727926066596,0.0611954334167232397,2.21835576866158553e-09,0.000142028096270833688,-0.00248392173216160309,-7.84314380569040121e-06
0.59,31.222176111027931,131.010410700735065,9.06822039988493067,-14.4014991621301451,-19.9341779323642712,32.1146822631356343,1.30991437983734071,4.17544202643445317,360.68438819711065,21.0942496891233802,9.21547933983741174,69.9868921516543878,-0.0153510648898460764,113.683676259834499,272.307511063302854,15.2880000000000003,0,10.2901745258368198,0.0619947446696161517,5.40998057065559959e-10,0.000440167678931484155,-0.00293774003256528325,-2.46241237940264011e-05
0.6,31.222175773074536,131.010411592005966,9.26719673364071994,-14.116037549857479,-19.6728347387106233,28.5903871642585123,1.34315010893263587,4.19375321535011025,329.48595949860578,21.4022805168362282,9.37320625601758195,69.9872227248727086,-0.0203000639814476039,113.678409679212251,280.313014676970852,15.2880000000000003,0,10.3274487480388757,0.0629001701349207187,-1.45219281079953834e-09,0.000744292013105820271,-0.00340239133309993115,-4.22448397258457132e-05
0.61,31.2221754286627338,131.01041249738671,9.46912870069805024,-13.8348023500749076,-19.4123338964009911,33.4223890882749686,1.37735151947307322,4.21251346790812065,372.09845118432969,21.7166156991966339,9.53311273382180602,69.9877288580959345,-0.0259882499602551165,113.672356432720989,288.601795843010109,15.2880000000000003,0,10.3645992857194091,0.0638241299998245915,-3.75841702089980034e-09,0.00105451809037216413,-0.0038781561763561942,-6.07306620550172977e-05
0.62,31.2221750778771465,131.010413416592769,9.67393452263606335,-13.602980514799949,-19.2108353277756656,41.445658982161298,1.40804573857761683,4.22868448112234052,442.86563930529212,21.9732559649191934,9.67133288431713645,69.9884140064564662,-0.0324337096291845081,113.665497286046516,295.45750474033855,15.2880000000000003,0,10.4016237073061095,0.0645785330882609893,-6.37477253123537005e-09,0.00137077567463291103,-0.00436504740889422527,-7.98755934502851599e-05
0.63,31.2221747205288231,131.010414350088411,9.88174608850083125,-13.3647299629474112,-18.9976558731872274,23.6930238782930296,1.44043982764490108,4.24582722432039361,286.112512747078938,22.2473045895147941,9.81596880229401236,69.9892815157382842,-0.0396539727917216631,113.657813592767198,302.867261949955093,15.2880000000000003,0,10.4385274606671459,0.0653841044789073428,-9.29753785792401376e-09,0.00169331013944153379,-0.00486354314196789112,-9.9898401136861898e-05
0.64,31.2221743571364634,131.010415296411253,10.0921460101430398,-13.11282054147952,-18.7631586239556079,23.2657068560652114,1.47541848575701628,4.26451098795902439,282.307824417967538,22.5508880108767826,9.97146086431033751,69.9903346114829219,-0.0476667947429835412,113.649286477159578,311.183135089003201,15.2880000000000003,0,10.4752047659473746,0.0662764835927980855,-1.25234667876225679e-08,0.0020212073792919877,-0.00537243214011054373,-0.000120867733066672435
0.65,31.2221739876636022,131.01041625561254,10.3051485879018738,-12.8967257030830282,-18.5720126027261294,40.7831332158803406,1.50770934685922997,4.2812069331616458,436.778144778747503,22.8095154931345405,10.1101583378840107,69.991576361241016,-0.0564895932518945307,113.639897426975395,318.355233112767905,15.2880000000000003,0,10.5117538639738441,0.0670367442418820098,-1.60484850365197709e-08,0.00235458584716437659,-0.00589199113474671993,-0.0001424155987448028
0.66,31.22217361162717,131.010417228962382,10.5211156840917788,-12.6789511795697738,-18.3755667771079736,34.7505791549671414,1.54124734201789026,4.29855182321828355,383.512515171600171,23.0785570080272855,10.2526536057048592,69.9930099335949336,-0.0661400729951181765,113.629627620578162,325.902857133172802,15.2880000000000003,0,10.5481341255345118,0.0678276175364787709,-1.98675183345811126e-08,0.00269424556627142348,-0.00642351683093637677,-0.000164878410390091677
0.67,31.2221732291777592,131.010418216000971,10.7399159068463561,-12.4500342056649664,-18.1610311943505991,24.0526749181922028,1.57726670909135125,4.3173431615797444,289.156244010342505,23.3745347452038281,10.4050083227360251,69.994638589965831,-0.0766372013925103734,113.61845690680515,334.308709971466783,15.2880000000000003,0,10.5843590172942008,0.0686976623259888258,-2.39767948009717165e-08,0.003039908686508528,-0.0069667232457139407,-0.000188413645595423082
0.68,31.2221728404507459,131.010419216310822,10.9614300130767006,-12.23138858806632,-17.9569407310690394,29.9280982574714365,1.61329806142625332,4.33594596187344372,340.899992485846269,23.6629852475792326,10.5544769805612511,69.9964656357867199,-0.0880000152396008817,113.606365056100898,342.603321494658644,15.2880000000000003,0,10.6204535097677741,0.0695455909734600669,-2.83723964527524955e-08,0.00339136641133008267,-0.00752141772096345633,-0.000212786390954875345
0.69,31.2221724455005365,131.010420229697075,11.1856023410555032,-12.0330934139055721,-17.77742344329695,36.7567167497419547,1.64786345448294069,4.35340593892587613,401.014072685363431,23.9245197171221662,10.6939631523697631,69.9984942515579149,-0.100247382850464764,113.593332022845516,350.210860860108596,15.2880000000000003,0,10.6563354342972421,0.0703144194619218649,-3.30500148517245496e-08,0.00374850931609348008,-0.00808755350540577532,-0.00023778917211080225
0.7,31.2221720441844361,131.010421256505651,11.4125314761570866,-11.8381940209623657,-17.5997868597132516,30.8874728306667095,1.68304889862405527,4.37108832885329424,349.270324209852845,24.1874118724687079,10.8338917971452968,70.0007273949133122,-0.113398045986412677,113.579337909783789,357.941859823144284,15.2880000000000003,0,10.6920480856195876,0.0710872443137608168,-3.80043421288110239e-08,0.00411157263785633283,-0.00866560866239343003,-0.000263680586183436178
0.71,31.2221716365335951,131.010422296607317,11.6421806037194138,-11.6377237749704054,-17.411666416520525,25.4469951735053534,1.72015430501500766,4.38982163136734904,301.331264063405797,24.4685026969434958,10.9804190861742548,70.003168152037361,-0.127471326146549879,113.564362201298138,366.301672476301576,15.2880000000000003,0,10.7276201016675667,0.0719135616871245248,-4.32307255968001779e-08,0.00448047434613623244,-0.0092555842989621509,-0.00029067159935915448
0.72,31.2221712225317383,131.010423350002355,11.8745498518472452,-11.4300872133303297,-17.2106347744256141,31.0698090528947972,1.75956483498131466,4.40983151306637211,350.79220534145287,24.7722164670674907,11.135125846158509,70.0058197212870539,-0.142487069217846485,113.548383822828171,375.443123810844043,15.2880000000000003,0,10.7630219473599507,0.0728063751711047064,-4.87243273865154293e-08,0.00485525802761163465,-0.00985767203550173658,-0.000318888385188252849
0.73,31.2221708021574003,131.010424416704097,12.1096430876055781,-11.2533944870860303,-17.0501441156807871,39.2032249637332768,1.79553978934949887,4.42746687833827224,422.320318528233997,25.0236081786101785,11.2706581345110344,70.0086852839779539,-0.158465908982552722,113.531380875719208,383.093232339992994,15.2880000000000003,0,10.7982215717162422,0.0735454189084733811,-5.44802865447979604e-08,0.00523600774666405089,-0.0104721248050614994,-0.000347377693354989205
0.74,31.2221703753357147,131.01042549687682,12.3475073500648058,-11.0716504644660958,-16.8800404073258541,24.6759817597553059,1.83339144377521013,4.44610984154128897,294.482813471059444,25.2922066580888192,11.4124140596813159,70.0117677880275551,-0.175427908796072535,113.513332074530695,391.352525392819814,15.2880000000000003,0,10.8332840415797644,0.074335040427032803,-6.04931947327844817e-08,0.00562278471610266027,-0.0110991725259896104,-0.000377033528610529894
0.75,31.2221699423802939,131.010426589619868,12.5878860850401306,-10.8880952749980278,-16.7047945655168668,28.745004194049578,1.87272163568390959,4.46549232764965431,330.246885564414924,25.5723242386860079,11.5582823097335776,70.0150702453443898,-0.193393444877613979,113.494215799319107,400.059950473011099,15.2880000000000003,0,10.8681721858101454,0.0751585236123775563,-6.67600295887968442e-08,0.0060149850331537363,-0.0117380042041114289,-0.000407789954845074354
0.76,31.2221695031729531,131.010427695217771,12.8308607542795663,-10.7169836674331158,-16.5449003602272491,30.9116935295666266,1.91112179239584012,4.48410491567833436,349.270324209861712,25.8333485952229509,11.6971481509498112,70.0185955195932763,-0.212382871128658779,113.474010464361356,408.259169227539701,15.2880000000000003,0,10.9028610663680841,0.0759258972586960429,-7.32746868452038575e-08,0.00641285481295929445,-0.0123891293890209982,-0.000439191320398439676
0.77,31.2221690576449191,131.010428813821051,13.0764746757352981,-10.5511435584460411,-16.3903250575257715,28.9233035225330042,1.94969827088790293,4.5026439938680598,331.76876669607077,26.0894612380493278,11.8341825846765314,70.0223464650781722,-0.232416903789952806,113.452694104211375,416.38446387718119,15.2880000000000003,0,10.9373509211414621,0.0766788415092870268,-8.00313835132631052e-08,0.00681651212523925586,-0.0130528669961524294,-0.000471453338597431872
0.78,31.2221686058398937,131.010429945272477,13.3246834672603462,-10.3808016194320292,-16.2268807756764524,23.8157712320140327,1.99023626997115799,4.52220879450721469,286.873437812889904,26.3627603635990475,11.9773779307726542,70.0263258448265731,-0.253516480051109272,113.430244528070261,425.143660286094871,15.2880000000000003,0,10.9716777074613336,0.0774823046759009482,-8.70253281221689901e-08,0.00722582747315824933,-0.0137291474584592295,-0.000504986201371351363
0.79,31.2221681478230622,131.010431089355478,13.5754258740505129,-10.2094360035152842,-16.0595304347909327,33.6929732339493029,2.03221468502979263,4.5424633275681785,373.620332315953419,26.6461961706171628,12.1241564069294476,70.0305365226002152,-0.275702962220780057,113.406639091026165,434.32409920769328,15.2880000000000003,0,11.0058342510285794,0.0783155671994435476,-9.425196190338415e-08,0.00764066930816563461,-0.0144178939067140226,-0.000539705952910754017
0.8,31.2221676833763624,131.010432246633684,13.8288631578256176,-10.0554220317333911,-15.915524501241924,34.1293590185549718,2.07201256091492469,4.56119692168436419,377.42502064505743,26.8953639614281954,12.2585099559136896,70.0349812808533585,-0.298998415744661961,113.38185441826954,442.474011149247929,15.2880000000000003,0,11.0398469260956258,0.0790481197748116732,-1.01703633331441624e-07,0.00806150947285219806,-0.0151199989356829659,-0.000574743155753736578
0.81,31.2221672125791336,131.010433416853857,14.0849237135123495,-9.89511105303098937,-15.7600497113967641,22.3433494270126367,2.11419443066156232,4.58118982361885863,273.937492693991885,27.1663498843057027,12.4006716758911892,70.0396628578593266,-0.32342495753083994,113.355867082982499,451.424178125261108,15.2880000000000003,0,11.0736371635572333,0.0798448047225239349,-1.09376291952860221e-07,0.00848811609661838384,-0.0158352353980597306,-0.000611240236674512869
0.82,31.2221667355893437,131.010434599545619,14.3434740514308192,-9.73405201432866285,-15.6012176935023419,28.5860481149442798,2.15779016939870605,4.60183912392136918,328.725004432770049,27.4466216464277437,12.5460932372601075,70.0445840007029119,-0.349004914555633539,113.328653436567663,460.775356909338541,15.2880000000000003,0,11.1072444988745413,0.0806687886926562708,-1.17266634300798773e-07,0.00892016174038491594,-0.0165632122041313341,-0.00064896335719946685
0.83,31.2221662523774341,131.010435794756575,14.6045284751080757,-9.59214319745983168,-15.4692371127366073,36.2195176627573971,2.19839101110537793,4.62049720803351427,395.68750322465047,27.6838277962029906,12.6759802259933156,70.0497473043760834,-0.37576093002924954,113.300189510874276,468.762480148338057,15.2880000000000003,0,11.1406868344463508,0.0813662045953341129,-1.25368802881120742e-07,0.00935774136203671586,-0.0173042218090941925,-0.000686664886638911186
0.84,31.2221657628340843,131.010437002759801,14.8681657146811137,-9.44933288466131849,-15.3340050708678106,22.5144945508732057,2.2402449944784828,4.6397231602051443,275.459374825645227,27.9289522699372412,12.8086660978641014,70.055155168696345,-0.403715366636259232,113.270451646035255,477.08839999443228,15.2880000000000003,0,11.1739664435352921,0.0820869000041691971,-1.33676198801312162e-07,0.00980100952011316202,-0.0180586670302228039,-0.000725541272501255404
0.85,31.2221652672165071,131.010438222813235,15.1341749609114409,-9.29594593801718361,-15.1805569638420614,24.5093747489022817,2.28575511584829627,4.66092836757380624,292.960932339393764,28.2094699402117222,12.9539533763020422,70.0608100478352043,-0.43289074785942655,113.239416008189181,486.707822532517696,15.2880000000000003,0,11.2070561783584175,0.0829116275347836496,-1.42187525890282926e-07,0.0102493860963896091,-0.0188257359761068999,-0.00076633445465850976
0.86,31.2221647653530852,131.010439455362672,15.4026842884167365,-9.1546621311776839,-15.0437649600456673,30.5849432994647721,2.32958270697423631,4.68093781186823854,346.226561946558718,28.4629040156645665,13.089476259626073,70.0667143493770936,-0.463310501911650185,113.207057820095841,495.479501942493243,15.2880000000000003,0,11.2399790909123336,0.0836567596164140143,-1.50894522200239372e-07,0.0107032796420058422,-0.0196062487443926341,-0.000807440360942736184
0.87,31.222164257254363,131.010440700351353,15.6736784952752455,-9.01999621954380082,-14.9154647832774714,28.5013659849411951,2.37285066726272742,4.70042472012489565,327.964078366998024,28.7028534878886532,13.220125174734445,70.0728703966805284,-0.494998101234559396,113.173352263923306,503.855636806154394,15.2880000000000003,0,11.2726936939594413,0.084362265179932866,-1.59792170866745006e-07,0.0111626412292919683,-0.0204002763055247428,-0.00084917091741764923
0.88,31.2221637429420973,131.010441957693075,15.9471340337171199,-8.88125383550698366,-14.7789655182453608,24.6794209685756059,2.41830710087147205,4.7209997668834438,294.482813471041823,28.9605461905163111,13.3570398523834761,70.0792804070020026,-0.527977127582806238,113.138274415215434,512.929957221693485,15.2880000000000003,0,11.3052255184684469,0.085119927766449402,-1.68876174987847469e-07,0.0116273467867878642,-0.0212077651061878432,-0.000892440024772594661
0.89,31.222163222479832,131.010443227185192,16.2229942062592514,-8.73879935019755649,-14.634678780999522,27.0235496398155597,2.46601626696668008,4.7426829813835738,315.028134248086985,29.2361314311773306,13.5002417179112353,70.0859465461041395,-0.562271547646137404,113.101798949992272,522.724520795412559,15.2880000000000003,0,11.3375813519139168,0.0859301867085917187,-1.78142454377687849e-07,0.0120972674804460216,-0.022028650548089862,-0.000937318845436235261
0.9,31.2221626957886222,131.010444509022534,16.5013156935876033,-8.61345859034498496,-14.5158062618397388,29.8030600619769999,2.51016264317250837,4.76209880142119513,339.378142354214447,29.4644927460199391,13.6265731982627596,70.0928710178046117,-0.597906166216036206,113.06389966341257,530.908148471290815,15.2880000000000003,0,11.3697736490880388,0.0866016531569008402,-1.8758404621402707e-07,0.0125725916860678858,-0.022863406911188839,-0.000981730608375197761
0.91,31.2221621629237092,131.010445803029768,16.7820497284862817,-8.48411638101539012,-14.3888656502724519,22.761164355118126,2.55654589662110032,4.78261165084882833,277.742181023078899,29.7107081713597481,13.7591855690894356,70.1000557580381383,-0.634905168507419959,113.024551020097903,539.803568705229054,15.2880000000000003,0,11.4017927189662203,0.0873256029341040185,-1.97197405642374755e-07,0.013053134042803196,-0.0237118814673203011,-0.00102774327485808162
0.92,31.2221616240580069,131.010447108700333,17.0650529800302948,-8.35113522556681787,-14.2542992719921244,27.0187278441958618,2.60521071114155944,4.80422825269796849,315.028134248062145,29.9747603827796354,13.8980353008781261,70.1075026397342924,-0.673293120818401758,112.983727090122457,549.426218992583244,15.2880000000000003,0,11.4336232108989915,0.0881019855355905934,-2.06981781373485381e-07,0.0135384617152940444,-0.0245734853954272039,-0.00107540011730785029
0.93,31.2221610791015323,131.010448426266322,17.3503930137942106,-8.23311344439963477,-14.142400138918271,32.0609274031214326,2.65041344459268791,4.82366293853460792,359.162507065472823,30.1940990712982327,14.0209663116027894,70.115213461583636,-0.713094937470947321,112.941401585091413,557.481153819076098,15.2880000000000003,0,11.4652817110320147,0.0887469527766817506,-2.16929121330229835e-07,0.0140288217815597409,-0.0254488032093512159,-0.00112247431125427023
0.94,31.2221605279493524,131.01044975600783,17.6381512554596043,-8.10524650468177121,-14.0127715794135437,23.3601744938763396,2.69987084745473327,4.84531646737698374,283.068750483778672,30.452297175211374,14.157576409852048,70.1231898412353871,-0.754335365943110459,112.897548405626893,567.040599476284569,15.2880000000000003,0,11.4967678336035295,0.0895061431632572929,-2.27032947559024684e-07,0.0145243305381625217,-0.026338209542021377,-0.00117202619275603927
0.95,31.2221599708525659,131.010451097197404,17.9281213716089525,-7.98090694477842444,-13.8872708175342741,30.1440810018361169,2.74939906460026195,4.86679537484169167,342.421873617487279,30.7040237439294579,14.2917974008324062,70.1314334500792143,-0.797040178990289117,112.852140373462547,576.43790105295443,15.2880000000000003,0,11.5280687582593213,0.0902463193754019927,-2.37294386048258013e-07,0.0150244490259277535,-0.0272409212180510334,-0.00122237057636367637
0.96,31.2221594075431135,131.010452450577731,18.2205170015916309,-7.86458419965616873,-13.7735029932963613,29.5325656012410569,2.79736941958439722,4.88718817117336357,337.095335156783449,30.9320744224822946,14.4175858496691642,70.1399458159869624,-0.84123521284368652,112.805150255909879,585.016127215336724,15.2880000000000003,0,11.5592093525437836,0.0909169137043604053,-2.47701000782807947e-07,0.015529775509299279,-0.0281581650002951447,-0.00127283194902297662
0.97,31.2221588380331703,131.010453816101347,18.5153261176164321,-7.74691727846400013,-13.6559621491485377,18.9948922377393536,2.84694191334103497,4.90827252001106817,245.021887192993233,31.1699050876899726,14.5467469024465252,70.1487284452482953,-0.886947005974778935,112.7565500858462,594.030041208910006,15.2880000000000003,0,11.5901865323779809,0.0916162608159453162,-2.58248769611521903e-07,0.0160402365387118419,-0.0290899931683399025,-0.00132474044302785098
0.98,31.2221582625726377,131.010455193044692,18.8123436610487644,-7.62060097134427927,-13.5221874206932515,27.5240864965744656,2.90094469919622799,4.93160642229916668,319.593746642958081,31.4463819795315196,14.689397021277049,70.1577826987815172,-0.934202193922295976,112.706311805619549,604.59761682691942,15.2880000000000003,0,11.6209790731241824,0.0924292063294418903,-2.68941490397309727e-07,0.0165551787764499116,-0.0300354135440061981,-0.00137935711191229486
0.99,31.2221576810244308,131.010456581783757,19.1116786486737489,-7.51345922353954965,-13.4194381863894368,30.0464803390161315,2.94892523015093788,4.95137590400543903,341.660948551705417,31.6538713755892971,14.8077022615579263,70.1671099175692206,-0.983028181206536456,112.654406553987826,612.584834343623811,15.2880000000000003,0,11.6516106844510592,0.0930393866102222772,-2.79768507210199333e-07,0.0170750021953268265,-0.0309953177987537173,-0.00143201403259624657
1,31.2221570933846877,131.0104579823238,19.4133343535883078,-7.39794923524701709,-13.3009401283695734,26.9062146247023364,3.00127139043045821,4.97334674622377282,314.26720818227642,31.8990034600153756,14.939138065410333,70.1767110974376465,-1.03345146353473294,112.600806449340155,622.091436608363551,15.2880000000000003,0,11.6820706703885389,0.0937602160008397939,-2.90726852346410243e-07,0.0175995715921383952,-0.0319696529934848581,-0.00148739494696416221
1.01,31.2221564998073688,131.010459394214053,19.7171837145932294,-7.28571239025867623,-13.1865838273221083,28.121884509057633,3.05349900375028938,4.99502790401852792,324.920316103697928,32.1360178840736239,15.0676187921991982,70.1865872874831069,-1.08549973185631687,112.545482353159969,631.351822353049556,15.2880000000000003,0,11.7123540090707152,0.0944571924509886168,-3.01816518418175303e-07,0.0181285371774044697,-0.032957962964416665,-0.00154343817394460335
1.02,31.2221559002228872,131.010460817648124,20.0232838900940209,-7.17752297037573772,-13.077822306729777,23.49663827959073,3.10519442424167247,5.01619593923619256,284.590631615404163,32.3609253373510057,15.191760957457392,70.1967393117731433,-1.13920043194416465,112.488405402202005,640.201094541710972,15.2880000000000003,0,11.7424733644446242,0.0951185900333246515,-3.13030503063398314e-07,0.0186620266282235617,-0.0339606686599465898,-0.00159993148005056068
1.03,31.2221552946890206,131.010462252456591,20.3315883470503778,-7.06439239762048565,-12.95895153039592,19.2174935112715026,3.16021904471158255,5.03895110701216264,247.30469339049705,32.6118954107149221,15.3249039460459535,70.2071678218349859,-1.19458105362188283,112.429546700741383,650.150305417927257,15.2880000000000003,0,11.7724233044276367,0.0958566007922128233,-3.24367050843562155e-07,0.0191998324504794697,-0.0349775800850165089,-0.00165875508354380494
1.04,31.2221546832563774,131.01046369848757,20.6420555549995264,-6.95887131001946191,-12.8520565054810429,30.4624324202393666,3.21308245673634874,5.060301025170725,345.465636880722968,32.8346795025769609,15.4480864219115936,70.2178734780406444,-1.25167014062187487,112.368876247825341,659.043835015075388,15.2880000000000003,0,11.8022039685240046,0.096511771304233912,-3.35822791509894788e-07,0.0197418496669368483,-0.0360086901629854197,-0.0017171825191087094
1.05,31.2221540656802148,131.010465156451232,20.9548905873477622,-6.84973307575845336,-12.7373127994028401,18.4169689352994723,3.26881173967243477,5.08296778017016049,240.456258798199826,33.0784038131884586,15.5784676959902306,70.228856727396149,-1.31049611148706924,112.306364191281773,668.843912603428635,15.2880000000000003,0,11.8318310912362037,0.0972284993152504884,-3.47384174920410384e-07,0.0202886194410874521,-0.0370552180914494461,-0.00177778741754446197
1.06,31.2221534421626572,131.010466625759335,21.2699272450425561,-6.73789646918831853,-12.6162217074356793,26.1760497080559702,3.32718914159863877,5.10681202805030932,308.179683655939243,33.3402162181044517,15.7150109686798114,70.2401180639678699,-1.37108872543839544,112.241979269183958,679.452924314390771,15.2880000000000003,0,11.8612938809711181,0.0979984019727959121,-3.59055887830270426e-07,0.0208395947537644011,-0.0381163407233816171,-0.00184046400266342936
1.07,31.2221528126039267,131.01046810670104,21.587250247436284,-6.63717667735403261,-12.513750816108189,30.7961533429669672,3.38138058965486943,5.12817313773860928,348.509368144030759,33.5550169390557045,15.835082489047787,70.2516579200320592,-1.43347853409069836,112.175689394257816,688.215161906994922,15.2880000000000003,0,11.8906095187847338,0.0986301285948657513,-3.70828012675631047e-07,0.0213950751060284529,-0.0391928316297084217,-0.00190163729935931562
1.08,31.2221521769205381,131.010469599526942,21.9069334576951924,-6.53572773758040348,-12.4086434507129955,20.7487273570234763,3.43710012488232097,5.15011342423673479,261.001578574662346,33.7774512655473416,15.9577034669899263,70.2634764526719806,-1.49769570864298585,112.10746289994357,697.348270717840023,15.2880000000000003,0,11.9197799089472927,0.0992843003485253811,-3.82694135008590779e-07,0.0219551692017554839,-0.040285124852198366,-0.00196429512419068813
1.09,31.2221515353467503,131.01047110355529,22.2287840094668745,-6.4256156644525424,-12.2862216575152718,19.0803578057860115,3.49869720978565368,5.17491734120247404,246.543753324744074,34.0478708170101072,16.0968231344134978,70.2755736913812683,-1.5637708934692558,112.037267633196507,708.536891096522254,15.2880000000000003,0,11.9487876268630497,0.100079525930616281,-3.94662571377710279e-07,0.0225191915759906415,-0.041392125187171995,-0.00203082453897590175
1.1,31.222150887947258,131.010472618598527,22.55275039326634,-6.32207735715508967,-12.1744361043060163,38.2044449487595941,3.55814935341520222,5.19832451328032974,413.189061738584087,34.2912019922923932,16.2263971162372513,70.2879495294954779,-1.63173519464221828,111.965070967813503,718.678169957187947,15.2880000000000003,0,11.9776384315911297,0.10079513645985709,-4.0673060480241158e-07,0.0230870113615729497,-0.0425137898498173933,-0.00209684611555632306
1.11,31.2221502343883763,131.010474145651642,22.8791196524800711,-6.22987063185188461,-12.0824481243599102,27.9748584872472215,3.61241950074960272,5.2187628006600848,324.159391037639693,34.4801710245913,16.3370593642121626,70.3006037568079449,-1.70162040566523354,111.890839565407703,726.5980774354407,15.2880000000000003,0,12.0063602233285209,0.101350962973716846,-4.18876814618851046e-07,0.023659492941393398,-0.0436520352284977403,-0.00216061488577773712
1.12,31.2221495747287854,131.010475684559538,23.2078498088316145,-6.12033654090264179,-11.9565884101210909,10.5720879407093484,3.67807729313444298,5.24489931975787371,172.73281794065943,34.7655985986719216,16.4809061673476513,70.3135358810190496,-1.77345798635070406,111.81454045917431,738.654132352628153,15.2880000000000003,0,12.0349403339540952,0.102190327442881437,-4.31103685831123672e-07,0.024236331882207935,-0.0448065233940391286,-0.00223154376772445899
1.13,31.222148909459186,131.010477233862446,23.5385251934179713,-6.02213095145901622,-11.8506685306638264,32.9429141634572247,3.73841030984082501,5.2679842220851727,367.532807790070478,34.9958540879919227,16.6055335293482891,70.3267455928992149,-1.84728187657462772,111.736138065642123,748.447097768989011,15.2880000000000003,0,12.0633595775618669,0.10286752645263017,-4.43431365852067734e-07,0.0248162714679121855,-0.0459749907420698573,-0.00230000161428066093
1.14,31.2221482380388196,131.010478795195723,23.8716165152777329,-5.93193986845972976,-11.758782116625893,18.2430008135657928,3.79494588106410324,5.28884581380651664,239.695317731955441,35.1855056100972163,16.7160618427821639,70.340231974690596,-1.92312379495539321,111.655599180584048,756.556926243167936,15.2880000000000003,0,12.0916561221068317,0.103425380763817618,-4.55825486928309421e-07,0.0254007267496553606,-0.04716049996104342,-0.00236685174793681329
1.15,31.2221475608753245,131.010480367358355,24.2067823532611648,-5.82491621035719032,-11.6332155408551099,17.9689141573810787,3.86362445154735701,5.3156986591370794,237.412511535467729,35.4758339177959385,16.8610492035257913,70.3539939178410947,-2.00101573345776895,111.572890326270041,769.0689249047781,15.2880000000000003,0,12.1197952345807867,0.104279175330895327,-4.68309492752941509e-07,0.0259884111926839308,-0.0483607358055979236,-0.00244151545695461825
1.16,31.2221468780833433,131.010481950011012,24.5439278780991437,-5.73844027229921849,-11.5460979490554632,47.0080558635892345,3.92002711051544495,5.33596609582326575,490.043774384589426,35.6517338591673507,16.9665581681678397,70.3680304574789801,-2.08099208690405835,111.487975492689245,776.689232841480589,15.2880000000000003,0,12.1477890495982503,0.104796621819490024,-4.80880773382164696e-07,0.0265791413018939236,-0.0495755509158331553,-0.00250931205343446354
1.17,31.2221461889656453,131.010483545298683,24.8836703117695954,-5.64375729334330067,-11.4417759304418549,8.31789342987012681,3.98319226456272535,5.35943028275147793,153.709379294867944,35.8798859637097181,17.0898852908445527,70.3823400520371365,-2.16308522046681784,111.400820845289559,786.636163560653813,15.2880000000000003,0,12.175674974068146,0.105467668737866296,-4.93496089562445249e-07,0.0271747241497678135,-0.0508089073053304627,-0.00258187431009979313
1.18,31.2221454944604417,131.010485150389712,25.2252008040959979,-5.53820820926602053,-11.3146167927055981,22.8352142962410873,4.05562532116111285,5.38730788774398661,280.025018221967457,36.1807923593550882,17.2379002599190301,70.3969211995431152,-2.24732934038292242,111.311390611321485,799.859485888093104,15.2880000000000003,0,12.2033921717730482,0.106352582461192557,-5.06213228363559711e-07,0.0277723719535251483,-0.0520553625479953999,-0.00266069869779487827
1.19,31.222144794155092,131.010486766557648,25.5688868844838026,-5.45981195767480987,-11.2401144609021255,39.8995233836267715,4.10942168514621375,5.40545307261871155,428.407813052929214,36.3161648506750296,17.3291440402884618,70.4117723025727713,-2.33375974221729532,111.219647883463253,805.829518890014697,15.2880000000000003,0,12.2309459746891509,0.106750920736596339,-5.18993188776959487e-07,0.0283734655710726966,-0.0533180016619279676,-0.00272836629453358575
1.2,31.2221440877092178,131.01048839489448,25.9150444673411116,-5.36152905717997541,-11.1246805394108534,4.0674100527216881,4.17940080417126492,5.43148512968447061,117.184374136023607,36.5819769527180298,17.4648080646486115,70.4268910884290307,-2.42240905763030812,111.125558601597248,817.641859604436718,15.2880000000000003,0,12.2583762463645201,0.107532692224379237,-5.31817546202630238e-07,0.0289786998873503635,-0.0545985908557106436,-0.00280686768558212211
1.21,31.2221433760473843,131.010490032566423,26.2628636527309531,-5.26543590002211559,-11.0122322748397536,31.9989660506474678,4.24925905487479305,5.4571370966719952,359.923432132008998,36.8400163711860245,17.597570368931251,70.4422755771824285,-2.51331359860483428,111.029084816850173,829.189687891420135,15.2880000000000003,0,12.2856411812190593,0.108291623966036768,-5.44744232721464116e-07,0.029585370136393202,-0.0558917260130317381,-0.00288574653514210881
1.22,31.2221426584844792,131.01049168172699,26.6129647396691702,-5.18749915614075707,-10.9355656706866586,23.137358461973669,4.30559410321305513,5.47574225538361326,283.068750482576149,36.9797191520287853,17.6898972748732426,70.4579232547594074,-2.60650799689980728,110.930190386364899,835.462333684876171,15.2880000000000003,0,12.312797139497329,0.108702711283551343,-5.57714429211304553e-07,0.0301955973080808952,-0.05720215368036978,-0.00295633734265782211
1.23,31.2221419353137968,131.010493341511648,26.9651026990345848,-5.09179030608634342,-10.8212978417042791,8.92387075018465303,4.37792185305410797,5.50201055614233603,159.796873822227951,37.2450333068279562,17.8247569823523619,70.4738310909549313,-2.70202524341190564,110.8288409264687,847.464863234352038,15.2880000000000003,0,12.3398122204447738,0.109483043269168689,-5.70753325811029484e-07,0.0308082320568766957,-0.0585277531090083458,-0.00303785617597910999
1.24,31.2221412069249702,131.01049501072319,27.3189367508137231,-5.0034693515544939,-10.7209860620729049,38.7175653786275902,4.44533397310601508,5.52552087280884052,418.515630199805003,37.4641001790478612,17.9436745519182281,70.489996186729698,-2.79990113439391664,110.724999096092418,857.434230699593854,15.2880000000000003,0,12.3666768144080894,0.110127437565050709,-5.83881971347884439e-07,0.0314221232289915095,-0.0598663152411141597,-0.00311650721673656069
1.25,31.2221404726992589,131.010496691354973,27.6750418069229056,-4.92538676540454823,-10.6409705276853774,18.6247174264976998,4.50467345824498988,5.54475759111671707,244.260946125734876,37.6123124396973125,18.0384339243392091,70.5064151504507066,-2.90017005467811995,110.6186290732186,864.20230243215542,15.2880000000000003,0,12.393436912281425,0.110563558636801132,-5.97043869725253496e-07,0.0320391827493930192,-0.061222274843191142,-0.00319017062379538946
1.26,31.2221397330736643,131.010498382077316,28.0330392561148152,-4.82953574086275861,-10.5223963352203356,10.8895420261533147,4.58160289062817316,5.5723025390479215,177.298446336408631,37.8954427827773372,18.178641057335188,70.5230842139487777,-3.002865737099222,110.509695745072548,877.231837287184703,15.2880000000000003,0,12.4199999882938883,0.111396286662547778,-6.10277578283606627e-07,0.0326578022203630053,-0.0625924629195329096,-0.0032761324525559187
1.27,31.2221389881947182,131.010500082449568,28.3928053660778836,-4.74950171891402118,-10.436181067403302,37.1944528279290765,4.64482238789775526,5.59281896918975718,405.579686079964688,38.0640495150019902,18.279917613811584,70.5399998426205599,-3.10802570441317316,110.398159998762409,885.024683019639383,15.2880000000000003,0,12.4464176577798167,0.111892372182324951,-6.2358165458415796e-07,0.0332776817432791916,-0.0639764918875435629,-0.00335305406040536024
1.28,31.2221382375870462,131.010501794057546,28.7547985774236743,-4.66686032056034072,-10.3433205737975751,11.907962105515951,4.7116572669624821,5.61478473006989987,186.429688124688823,38.2555989702000261,18.3887778202020051,70.5571576660843078,-3.21568361491420029,110.283986841108856,893.923416129553061,15.2880000000000003,0,12.4727271282912469,0.112455906834757591,-6.36914621711770452e-07,0.0339001342635036895,-0.0653776137355463749,-0.0034328420690509882
1.29,31.2221374818780042,131.010503514929127,29.1184555283796556,-4.57623411580126849,-10.231935048118757,19.7019980570479731,4.7879942240234481,5.64100726357449744,254.153128984572163,38.5155028296880886,18.5204080800035484,70.5745532443000201,-3.32587479643825423,110.167139525285208,906.079435098260205,15.2880000000000003,0,12.4988908499286406,0.113220383197334379,-6.50329040203448671e-07,0.0345230380517619062,-0.0667914201068279395,-0.00351954730180225293
