Time,Latitude,Longitude,Altitude,Angle of Attack,Angle of Sideslip,X-Acceleration,Y-Acceleration,Z-Acceleration,Thrust,True Velocity,Ground Velocity,Pitch,Roll,Yaw,Dynamic Pressure,cp,parachute_deploy_gain,Wind Speed,Mach,omega_x,omega_y,omega_z,Cmq
0,31.2221860000000042,131.010383999999988,3.00000000364323682,0,0,0,0,0,2.2828121974499247,0,0,69.9999999962342088,0,113.699999993883324,0,15.2880000000000003,0,0,0,0,0,0,-0
0.01,31.2221859999997946,131.010384000000556,3.00000016469923247,0,0,0,0,0,34.2421869617492334,9.11367326775851009e-12,8.66229497295429822e-12,69.9999999962370651,-4.92863947922479589e-13,113.699999993882884,5.08594204168408172e-23,15.2880000000000003,0,0,2.67827100510624443e-14,-3.65918233213857746e-19,7.58941520739853104e-19,4.81114714040442593e-19,-1.83541113936281872e-32
0.02,31.2221859999996028,131.010384000001039,3.00000030885429547,0,0,0,0,0,25.8718762377664078,1.96992978605390895e-11,1.88456988716431921e-11,69.9999999962400494,-1.04152381447771591e-12,113.699999993882386,2.37621641206600858e-22,15.2880000000000003,0,0,5.78911013494094702e-14,-7.28448334638698292e-19,1.51788304147970621e-18,9.75781955236953991e-19,-7.93451985123442364e-32
0.03,31.222185999409362,131.010384001586402,3.00018176030779937,18.6493779029494604,-0.000129237623237530007,10.7928899806483045,-1.97644583900689674e-05,3.34983967390763571,180.342193598546658,0.0785672533977095078,0.0490694047558625918,69.9999999976775626,-4.2497891361524094e-12,113.699999994705607,0.00377978965327356543,15.2880000000000003,0,0,0.000230888677896110966,2.88330015245363835e-17,-7.25223402354589416e-10,1.08188208080271277e-11,1.51197624781400831e-13
0.04,31.2221859959356287,131.010384010943454,3.00162780953569674,9.74253989061216075,-4.88763086122285772e-05,51.6475445943311158,1.54548216767323456e-06,3.34965665682309899,548.635972453807767,0.346420694310776434,0.171860503977579737,70.0000000036447574,-2.28205307288861013e-11,113.699999999565534,0.0734838809649275282,15.2880000000000003,0,0,0.00101804013696402693,1.80009747884589399e-15,-1.58734069119923437e-08,2.61929145365345784e-11,1.45916869803439425e-11
0.05,31.222185985910329,131.010384038045004,3.00715844163023283,5.5769968489095687,-4.21135943534799539e-06,75.3242160169835273,4.73080294831520123e-05,3.34902689347595528,761.698429882464552,0.947854334293939504,0.409211128642743283,70.0000000010935537,-1.04766136577077691e-10,113.700000013612069,0.55013262299765131,15.2880000000000003,0,0,0.00278549703395658196,1.95473045844392346e-14,-1.13584749331540247e-07,4.14067569904437612e-11,2.85688606727574374e-10
0.06,31.222185966868647,131.010384089593572,3.01868664272593046,4.48500474963244322,2.31139019787050305e-05,56.3605563030587007,9.71465785775115924e-05,3.34799244711343214,590.487539073720654,1.60618980149218604,0.665693519146445256,69.9999999197690244,-2.82941102348924619e-10,113.700000040305838,1.57971028663545732,15.2880000000000003,0,0,0.00472017413217633904,1.01936766184118274e-13,-4.07864410983111553e-07,5.76522069423461223e-11,1.73837509686130208e-09
0.07,31.2221859390775336,131.010384164863126,3.03600551209402658,4.00448286551149391,4.63712119495135773e-05,85.8192455386477917,0.000147926970097503541,3.34656708333141317,855.293774977913927,2.27788210706903049,0.926660947343454056,69.9999996219982279,-5.49831570978999292e-10,113.700000079276109,3.1772067926123353,15.2880000000000003,0,0,0.00669410445039518576,3.35900025920073467e-13,-9.92070622953462368e-07,7.83315922772719921e-11,5.99658406989250883e-09
0.08,31.2221859009658012,131.01038426812616,3.06033476575187802,3.77263127792190334,7.06371256062416025e-05,17.6076228145981588,0.000196957592070898702,3.34480227118667583,241.217198863884818,2.92612482887636283,1.17954495655796454,69.9999989088305909,-9.15694670892462832e-10,113.700000132739973,5.24285298735243899,15.2880000000000003,0,0,0.00859912396431777512,8.49635706706491564e-13,-2.01744800413265681e-06,1.10032289818440005e-10,1.56647792516492608e-08
0.09,31.2221858556197738,131.010384390989856,3.0892797608365723,3.74258231141200604,9.5325675231994802e-05,53.4176180048964397,0.000237730218002333866,3.34289666486112669,563.093737704317618,3.46187703891102627,1.39384941462988121,69.9999975134546446,-1.31671842773002699e-09,113.70000019638816,7.33844512707370811,15.2880000000000003,0,0,0.0101735644468633635,1.80613395740032365e-12,-3.4856561047658452e-06,1.59232278560273843e-10,3.20202005890100843e-08
0.1,31.2221858028175774,131.010384534057465,3.12301320909491364,3.81071421019783685,0.000121971080758598364,50.732831688561788,0.000271545837515448313,3.34090447591365036,538.7437595981919,3.9029133825176725,1.57567038389986336,69.999995157830341,-1.72222432289554893e-09,113.700000270567642,9.32732681847184431,15.2880000000000003,0,0,0.0114696609641860067,3.37914451533694905e-12,-5.48904943388414521e-06,2.34452541412924053e-10,5.68476506314615152e-08
0.11,31.2221857431700727,131.010384695667796,3.16106164078641116,3.84323765504598036,0.000147145408783231387,40.0848474374385688,0.000307099758177995722,3.33859717034531034,442.865639305294906,4.36819921201157246,1.76578242121538631,69.9999915253729768,-2.07703942468805025e-09,113.700000354470319,11.6837607126815346,15.2880000000000003,0,0,0.0128370221364947634,5.76365694334259916e-12,-8.08162139954488366e-06,3.4437809457680147e-10,9.36754562129998513e-08
0.12,31.2221856770245907,131.01038487487628,3.20315617196047642,3.86558564807459826,0.000171348089099210797,43.7480799143332604,0.000342946594964391399,3.33600966231316054,475.585948135404465,4.83801864946757032,1.95742650583495204,69.9999862600106582,-2.3147200577597177e-09,113.700000447673773,14.3321420062794882,15.2880000000000003,0,0,0.0142177082532951912,9.17772063248746377e-12,-1.13223702306849879e-05,4.98555567062495836e-10,1.45354343598177095e-07
0.13,31.2221856047215205,131.010385070757366,3.24903338361815308,3.95285669440916232,0.000198169826234992146,48.2585391180499741,0.000371981107240517913,3.33344523512332414,515.915632623689476,5.21512035057569623,2.1172615234944101,69.9999789703044399,-2.35265113573284059e-09,113.700000549782459,16.6533950244453948,15.2880000000000003,0,0,0.0153259223232261182,1.38588880633063252e-11,-1.52681962163171846e-05,7.07166414280215559e-10,2.11287244421402401e-07
0.14,31.2221855263490333,131.010385283071088,3.29862557546706325,3.99981420118284792,0.000223008237377726162,44.9721767850953427,0.000403855591455553264,3.33052592490198407,486.239086056840392,5.63167615200940475,2.29059513099545553,69.9999692426645623,-2.0964169591742506e-09,113.700000660771011,19.4199179783547713,15.2880000000000003,0,0,0.0165500839355928395,2.00553635588333716e-11,-1.99811439493909854e-05,9.81252131659242702e-10,2.9859131057555361e-07
0.15,31.2221854420015994,131.010385511560628,3.35186028506811029,4.05975476911301225,0.000248539990764711958,43.4637160193537753,0.000433543226731567866,3.32747422849243879,472.54218587214001,6.01888316560526437,2.45383766868271946,69.99995661705006,-1.43188768134039915e-09,113.700000780625842,22.182048585914238,15.2880000000000003,0,0,0.0176879988684610287,2.80404916713566325e-11,-2.55291719775422389e-05,1.33309260321839681e-09,4.07727088477750495e-07
0.16,31.2221853515819241,131.010385756490507,3.40881389436676407,4.08854462484130732,0.000272210944932510383,34.4023069357135967,0.000465877824565354701,3.32404684464906053,391.12189082975641,6.44303061809316624,2.62971580822363071,69.9999405987561403,-2.27841984783363582e-10,113.700000909623355,25.4183784408083007,15.2880000000000003,0,0,0.0189344747787753703,3.81042963600432359e-11,-3.19913711614788564e-05,1.77662362644707755e-09,5.46937370926295155e-07
0.17,31.2221852554099399,131.010386016990765,3.46923909377793649,4.13347468842419552,0.00029684158695823977,43.4155809381403728,0.000495744973995866601,3.3205135250562221,471.78125980632376,6.83404379119085981,2.79420112365087148,69.9999206448319882,1.67575894446247236e-09,113.700001047478835,28.5969980778046526,15.2880000000000003,0,0,0.0200835795555658371,5.05622819343119236e-11,-3.94162603380559734e-05,2.32482468580976756e-09,7.14768170397066036e-07
0.18,31.2221851530022434,131.010386294375877,3.53351204963262022,4.16207877285686756,0.000320492787063832857,36.2151660219171347,0.000526966735016640565,3.31665933612355879,407.101567211914528,7.2444022294323478,2.96528531587496236,69.9998961790314524,4.45070668055043651e-09,113.700001195059045,32.1341903991183955,15.2880000000000003,0,0,0.0212895378539265934,6.5741708189353534e-11,-4.79243856484647045e-05,2.99669991322666987e-09,9.21230820748327094e-07
0.19,31.2221850444828668,131.010386588308563,3.60153760019172342,4.17456309251139679,0.000342914278589344943,40.9041800427263027,0.00055982867240863632,3.31244583927210501,448.953132831826849,7.67810673790947895,3.14433961722118216,69.9998665624008964,8.30674092292676784e-09,113.700001352409558,36.0967170721845179,15.2880000000000003,0,0,0.0225641073333706747,8.40032927522686365e-11,-5.75836346763551867e-05,3.80911503044151526e-09,1.17316671380156179e-06
0.2,31.2221849296486234,131.01038689934137,3.67347464118590317,4.20078915399145636,0.000366573034254704516,37.5214898208491761,0.000590466919182690893,3.30812712915434881,418.515630199161365,8.08216006412957277,3.31318683933006453,69.9998311045104487,1.34800080829191884e-08,113.700001520067786,39.9955165273270055,15.2880000000000003,0,0,0.0237515420632470921,1.05728805481567758e-10,-6.85028882131185225e-05,4.78351733027568889e-09,1.4690610466811608e-06
0.21,31.2221848088436893,131.01038722653837,3.74905730552401684,4.22722562033261262,0.000390310433246848657,36.0064697775761644,0.000620601272787201603,3.30359776763142721,404.818761014464428,8.48018829437500621,3.47992805775657654,69.9997890742529592,2.02433263776548733e-08,113.700001697833756,44.0315784885794201,15.2880000000000003,0,0,0.0249212734096428447,1.31320595517854955e-10,-8.07208291683553139e-05,5.93661589182972911e-09,1.81631626331753899e-06
0.22,31.2221846819136672,131.010387570319409,3.82840670130281646,4.2176244726165093,0.000410696285369717819,43.5935627685881499,0.000655758920494764063,3.29841875767922987,472.542185872136486,8.94831461811120121,3.67066782999472752,69.9997397083127737,2.88926538075102191e-08,113.700001886238866,49.0266756129506618,15.2880000000000003,0,0,0.0262970098082033268,1.61186003536399267e-10,-9.43348117723774896e-05,7.29106197993283208e-09,2.23980539128825791e-06
0.23,31.2221845484548304,131.01038793178239,3.91183756115468473,4.25320537954326383,0.0004356497720089569,36.207459360748949,0.000683686922722525747,3.29355466128287455,406.340642146102141,9.31799902525197865,3.82760028360492655,69.9996821549030983,3.9766623706965518e-08,113.70000208621326,53.1608354775167555,15.2880000000000003,0,0,0.0273834518362109196,1.95767624418301473e-10,-0.000109505708778552874,8.87784718088286285e-09,2.70740355927931971e-06
0.24,31.2221844093456014,131.010388308538637,3.99866964940866776,4.27135264557773553,0.00045883378920767232,37.3286080087975947,0.000713911697673520317,3.2882529474867046,416.232824001711379,9.7203332459195213,3.9956861712714935,69.9996155408946805,5.32509871046438109e-08,113.700002296918697,57.8502398901668755,15.2880000000000003,0,0,0.0285658473732890855,2.35534745143307651e-10,-0.00012617657385590063,1.07071802425012536e-08,3.25424194465518317e-06
0.25,31.2221842644570167,131.010388700938847,4.08900446593793809,4.29698686981540234,0.000482848983334858658,38.3649566400252979,0.000742483922667206905,3.28284626589867479,425.364080791506922,10.1009615935159527,4.1562806652626314,69.9995389781877293,6.97479781374676735e-08,113.700002518962805,62.4689963611702623,15.2880000000000003,0,0,0.0296844577155840929,2.80933085873043406e-10,-0.000144451636124542286,1.28055329635332884e-08,3.87142965072796435e-06
0.26,31.2221841140756986,131.010389108203611,4.18262110402873155,4.32755423691547136,0.000507438991606541483,41.7865661614553829,0.000769736419800412888,3.27732087646770287,455.80158342417883,10.4644497354123782,4.31094871887776954,69.9994515368878751,8.97024502886333285e-08,113.700002752408935,67.0452443356678742,15.2880000000000003,0,0,0.0307527002093570291,3.32431765373287754e-10,-0.00016436315770221847,1.51925047864838523e-08,4.56355359993810651e-06
0.27,31.2221839578137299,131.010389531387915,4.27982215321117465,4.33742811840656994,0.000529702335486379188,38.2242911032538473,0.000800211178185602123,3.27123004841987974,423.842199659872563,10.8736118498261902,4.48123226393084195,69.9993522521519935,1.13587393208351198e-07,113.700002998306658,72.3900346549699947,15.2880000000000003,0,0,0.0319551720828357214,3.90484337603431509e-10,-0.000186059811616844751,1.79019946498730075e-08,5.36790267753501075e-06
0.28,31.2221837957695953,131.010389970223883,4.38053283172365671,4.35979025650862262,0.000553527510562852902,44.1207307275094038,0.000828072271385077072,3.26514386100193477,476.346873201222195,11.2478718916014184,4.63949182586423614,69.9992400702920463,1.41938296327408329e-07,113.700003257081931,77.4582454645660761,15.2880000000000003,0,0,0.0330550782151640757,4.55595825375374429e-10,-0.000209619220926101062,2.09616181379585756e-08,6.25569396794615011e-06
0.29,31.2221836278828384,131.010390424876022,4.48480177698289584,4.38135974025744623,0.00057737648726709299,35.3536197607625553,0.000855659611391794222,3.2588361863853601,397.970310422111766,11.6195889013503368,4.79682445966682813,69.9991139044831527,1.7532937395312496e-07,113.700003529427192,82.6616578528940948,15.2880000000000003,0,0,0.0341475147840558241,5.28268525040872464e-10,-0.000235137545717689308,2.44023887909330158e-08,7.24907222782668121e-06
0.3,31.2221834544381096,131.010390894570321,4.59240982688131272,4.39617507281761988,0.000600356665334356751,33.1490797613948018,0.000884158719714270942,3.25217107922164672,378.185945710871067,12.0052186882677852,4.95887519756831807,69.998972627127344,2.14383684192303281e-07,113.700003815596887,88.2385269149682756,15.2880000000000003,0,0,0.0352808420099011907,6.09029939588318471e-10,-0.000262641159892275291,2.82471356422800846e-08,8.36561857411674722e-06
0.31,31.2221832755909574,131.01039137888381,4.7032380575360353,4.42235615181669761,0.000624899913490765827,34.9528590290802086,0.000910025197609511073,3.24555398289468222,394.16562209302117,12.3556398803864607,5.10879227158949156,69.9988150759387651,2.59766173767152649e-07,113.700004116072961,93.4639131761651498,15.2880000000000003,0,0,0.0363107024397255479,6.98403788157463991e-10,-0.000292187019282257228,3.25229566712151178e-08,9.57826248689966157e-06
0.32,31.2221830914257232,131.010391877587324,4.81722282885169673,4.45155794779377789,0.000649944303128982049,38.0379859115142835,0.000934821026682707218,3.23882361682650144,421.559393462426954,12.6924793110791878,5.25399282922068878,69.9986400687318024,3.12179641788393281e-07,113.700004431478234,98.6283237403037703,15.2880000000000003,0,0,0.0373006526995305274,7.96905013945712519e-10,-0.000323836613651358495,3.72580440687311147e-08,1.09050644159405278e-05
0.33,31.22218290196043,131.01039239063175,4.9343519698327194,4.48019701204722054,0.000675004219851668761,37.7093551175013246,0.000959261610436717115,3.23189933669563656,418.515630199168186,13.0256844327599097,5.39788776638052958,69.9984463826819052,3.72372687880250348e-07,113.700004762578004,103.87354288045799,15.2880000000000003,0,0,0.0382799263433428877,9.05047894999210997e-10,-0.000357667290238851605,4.24836225249657193e-08,1.23603484615852587e-05
0.34,31.222182707020778,131.010392918491164,5.05476263450916541,4.49049305198152204,0.000697378143373914754,29.5227085089536203,0.000987142430045659337,3.22427911658814059,345.465636880756449,13.4081741031825317,5.55863100914667463,69.9982327456812641,4.41143957445642244e-07,113.700005110463266,110.062177258613033,15.2880000000000003,0,0,0.0394040418267209702,1.02333461745717641e-09,-0.000393806243978271305,4.82396483202145133e-08,1.40087103268591529e-05
0.35,31.2221825067937928,131.010393460657156,5.17831168393457641,4.50711781535187139,0.000720712543856854714,32.3530371383660977,0.00101333646443235357,3.21661305844837253,370.576570052703289,13.7686530554979374,5.71176159517965232,69.9979978091806316,5.19362042776584697e-07,113.700005475786654,116.058400304168075,15.2880000000000003,0,0,0.0404634764462946869,1.15232390415689195e-09,-0.000432299813734132244,5.45552399130644805e-08,1.57912776608867467e-05
0.36,31.2221823012122108,131.010394017312592,5.30505329869157727,4.52767240178778962,0.000744729708600240731,36.5526511043957356,0.00103828652712813154,3.20885713174522058,407.862523277719447,14.1132764952183631,5.85938873702120233,69.9977401961163537,6.07939829707116331e-07,113.700005859608282,121.939407863977465,15.2880000000000003,0,0,0.0414763190843316643,1.29254043868676357e-09,-0.000473255972436325862,6.14699225552327593e-08,1.77198251922661022e-05
0.37,31.222182090341061,131.010394588280832,5.43493909097431604,4.55039311415752579,0.00076918150115683735,34.6835787828593496,0.00106234372950533948,3.20097384516078431,391.121890829766642,14.446930470491731,6.00318739776240751,69.9974584775585669,7.0785096329375243e-07,113.700006262864989,127.771540530283914,15.2880000000000003,0,0,0.042456928843506235,1.4445318520011827e-09,-0.000516746496826029863,6.90186481791334769e-08,1.98053803654614999e-05
0.38,31.2221818741223878,131.010395173719473,5.56801609611825477,4.56315131642791805,0.000792019287104061913,36.2353933787001239,0.00108827974821363053,3.19255015153205646,404.818761014460279,14.8084413239345949,6.1564787166299757,69.9971511865591651,8.20121521966083772e-07,113.700006686723384,134.244380272309172,15.2880000000000003,0,0,0.0435194095147296359,1.60882660749176723e-09,-0.000562873331420229127,7.72423853301427293e-08,2.21128406351508731e-05
0.39,31.2221816525004634,131.010395773780147,5.704329739781131,4.57922628245169783,0.000815489716137310881,30.9425419640016202,0.00111309493143926189,3.18402316666385765,357.640624933827439,15.1559126959619999,6.30488433186772657,69.9968167722787769,9.45855271408966431e-07,113.700007132429306,140.616382889747683,15.2880000000000003,0,0,0.0445406353688629561,1.78596578656278109e-09,-0.000611756345505213715,8.61868943159197994e-08,2.45968452142520012e-05
0.4,31.2221814256617982,131.010396387955836,5.84373750626454935,4.59349479979191955,0.000838670682925170751,29.5834243852937959,0.00113797512888990423,3.17521289611434332,345.465636880754005,15.505969085398343,6.45410901523083158,69.9964536498379317,1.08621525395706341e-06,113.700007600947828,147.185065961143067,15.2880000000000003,0,0,0.045569462889951777,1.97653506559195414e-09,-0.000663427505461186432,9.58835144134294998e-08,2.72901174189528038e-05
0.41,31.2221811937141673,131.010397015953487,5.98615797249314241,4.60939449845229365,0.000862163931524819621,33.360545626359837,0.00116210409424792778,3.16624854525325983,378.946870776686467,15.8471768437686258,6.60022848408685459,69.9960602026584695,1.24241947051318175e-06,113.700008093413757,153.73182724817184,15.2880000000000003,0,0,0.0465722905345462151,2.18109996727848554e-09,-0.000717942131686907965,1.06367950505874699e-07,3.01820283711074823e-05
0.42,31.2221809567080335,131.010397657635991,6.13155423418529733,4.63387609959193458,0.000887317919769279608,37.5676427387571721,0.001183742077125155,3.15743374731593907,416.232824001711379,16.155026338188506,6.73482947265292431,69.9956347739890248,1.41574639558456e-06,113.700008611107208,159.760443802515937,15.2880000000000003,0,0,0.0474770882933877245,2.400206535531791e-09,-0.00077537935552726017,1.17680930846389008e-07,3.32294321368729263e-05
0.43,31.222180714655078,131.010398312971745,6.27991949833728835,4.65367427313455995,0.000911660169575580258,33.0386483003103493,0.00120612360190941372,3.14823214930187856,375.903139513433644,16.4750454055619109,6.87353555569934649,69.9951756835756242,1.60752723178871754e-06,113.700009155418982,166.15023929888028,15.2880000000000003,0,0,0.0484176551665520677,2.63438237315801404e-09,-0.000835821567166909188,1.29864614855892046e-07,3.65287677570896608e-05
0.44,31.2221804673911407,131.010398982407111,6.43138341412837455,4.65757387742934892,0.000932929976641759203,30.4788052564327749,0.00123214974254881528,3.13809943757763454,353.075012538921555,16.8483715860516412,7.03046484016701978,69.9946811832270441,1.81916859536649675e-06,113.700009728069276,173.762989227436179,15.2880000000000003,0,0,0.0495148886868988364,2.88411342836306464e-09,-0.000899417740154189794,1.42975581697416844e-07,4.01983191819108926e-05
0.45,31.2221802146980103,131.010399666535704,6.58611776122768511,4.65827001030579346,0.000953562143933252499,35.4620561517945134,0.00125873275223327787,3.12754579585638304,397.209385356286873,17.2316459864824161,7.19073264961644831,69.9941493995125938,2.05218870761162579e-06,113.700010330973456,181.755888424112015,15.2880000000000003,0,0,0.0506413642318551335,3.14987863732273609e-09,-0.000966369542842942814,1.57083782729145849e-07,4.41725079750487196e-05
0.46,31.2221799565319174,131.010400365476642,6.74415901717088939,4.66907507286434065,0.00097630283571516251,41.3913707355688842,0.0012823814722795761,3.11722412848720953,449.71405889764344,17.5754687869478978,7.33738035579407555,69.9935783582983362,2.30821229426708146e-06,113.700010965912341,189.078525726536213,15.2880000000000003,0,0,0.0516519027755614896,3.43223060675433133e-09,-0.00103681314204437207,1.7224885851047691e-07,4.83373548649469587e-05
0.47,31.2221796928065203,131.010401079464799,6.90557672428163105,4.67806301106434042,0.000998761260684927557,28.0209900204918974,0.00130616618884544979,3.10657060381263461,331.007810630253402,17.9233234115620377,7.48533101007974988,69.9929660462147325,2.5889364060732201e-06,113.700011634803886,196.634049649816575,15.2880000000000003,0,0,0.0526742959306323727,3.73170463860384924e-09,-0.0011108841623615434,1.88532207060213475e-07,5.28148505664365441e-05
0.48,31.2221794239793269,131.010401807256216,7.07001851744381948,4.68642527483421745,0.00102109091231145262,27.6007969606275125,0.00132978852885184593,3.09563681785184297,327.203122301157407,18.2709832353803314,7.63313726727991071,69.9923104035261474,2.89614261094227829e-06,113.700012338884164,204.33305198470137,15.2880000000000003,0,0,0.0536961221459722679,4.04904859899578719e-09,-0.00118849531779471017,2.05948560519311644e-07,5.75998398329450787e-05
0.49,31.2221791502289392,131.010402548365278,7.23734841566291642,4.70156796398202914,0.00104489945272251677,34.6487244505178253,0.00135120419031512233,3.08484494341801163,389.60000969812296,18.589315545984995,7.7707981814672209,69.9916093757078812,3.23165731652504743e-06,113.700013079832303,211.511801733856089,15.2880000000000003,0,0,0.0546317638991248022,4.38486615800834454e-09,-0.00126967773493266863,2.2453662401782158e-07,6.26054017926546362e-05
0.5,31.2221788715876762,131.010403302704333,7.40754387012007864,4.72212438923579736,0.00106996435823571525,35.6033845714535389,0.00137072557486675028,3.0741588573465477,397.970310422105001,18.8826594549893159,7.8998011517407587,69.9908609011483378,3.5973597360057951e-06,113.700013859590555,218.236320199079358,15.2880000000000003,0,0,0.0554939729313439212,4.73968531279909998e-09,-0.00135450679800636423,2.44344941868023912e-07,6.78409867869358833e-05
0.51,31.2221785881337617,131.010404070060673,7.5805467220577798,4.73558879650721298,0.00109346949398930206,27.1956639286467201,0.00139183542187690463,3.06284319292573448,323.39843497208409,19.200774511812984,8.03722958125224807,69.9900628955037689,3.99519228958782199e-06,113.700014680103109,225.647740475438098,15.2880000000000003,0,0,0.0564289867670437692,5.11403675587933804e-09,-0.00144303978709531136,2.65418546512062939e-07,7.34915902759761199e-05
0.52,31.2221782998839075,131.01040485046758,7.75636900758130832,15.3983309008481317,-11.5086053061658546,33.094158099305794,0.8291068916454849,2.27226419589161654,372.098451184341457,22.2048486728970786,8.17624791664879425,69.9892123481260029,1.00885073862370502e-05,113.700021568590088,301.773984970086815,15.2880000000000003,0,6.26610767645119093,0.0652577632417222497,5.50735131573182259e-09,-0.00157766956968346714,7.16366217311976158e-06,9.29174166807654445e-05
0.53,31.222178006431843,131.010405643680599,7.93515934368950848,15.2661765566550915,-11.3624690595415991,34.7403973836616657,0.849189992914568648,2.24078565127690421,386.55624643486243,22.5295676089813739,8.30911933178455797,69.9882133642829984,-0.000186411526631322441,113.699812852628298,310.659343413535964,15.2880000000000003,0,6.28994106751357762,0.066212212294125633,5.88985197810785207e-09,-0.00195113192942666176,-0.000287571792622974391,0.000116591072485382966
0.54,31.2221777074741986,131.010406449610002,8.11700982800770277,15.1382795177139258,-11.2207670076367503,30.5407532329149589,0.869520085115868091,2.20881389183338239,349.270324209843579,22.8526287734792461,8.44112848469923804,69.986997566947565,-0.000851566359959358,113.699105370513564,319.626995774025602,15.2880000000000003,0,6.31373161218151324,0.0671617954757947333,6.22608893695970281e-09,-0.00233568472227770876,-0.000589445738123997327,0.000141569143954519907
0.55,31.2221774032545518,131.010407267518133,8.3017206423873855,15.0181133439592713,-11.0858622742482655,32.359009736405568,0.889874321736178753,2.17665756976749636,365.250000591990727,23.1685814359054518,8.57032855003865635,69.9855586633896678,-0.00199631394925508599,113.697887472227791,328.520373347129805,15.2880000000000003,0,6.33744015168050989,0.0680904934675889417,6.51741824209486637e-09,-0.00273102676231286616,-0.000898177421776910601,0.000167816986433606829
0.56,31.2221770937693677,131.010408097378985,8.48929256475609328,14.9080349909171304,-10.9593260667615553,30.2204908696639798,0.910074537041713816,2.1445682030840918,346.226561946578727,23.4732266485993648,8.69521427800402158,69.9838903981273859,-0.0036313842168194427,113.69614772701739,337.21057262866492,15.2880000000000003,0,6.36106651639451393,0.0689859658527483405,6.76508073874914902e-09,-0.00313736459737109499,-0.00121386675617703404,0.000195317195642069331
0.57,31.2221767790819271,131.010408938985762,8.67967469255095914,14.7951236232670116,-10.8320316761762623,29.8879639961411065,0.930876545025169366,2.11148166481268662,343.182829683302316,23.785231764604287,8.8225303323233959,69.9819864698625764,-0.00576746539723667698,113.693874745717537,346.228197044174465,15.2880000000000003,0,6.38460946020443654,0.0699030744663388798,6.97042986982012868e-09,-0.00355473825488921173,-0.00153648924568435615,0.000224238289817405917
0.58,31.2221764591677946,131.010409792370638,8.87288422618376948,14.6712148306904151,-10.6982810630329901,39.2835683182843738,0.952837305166548298,2.0766034170694887,426.12500585731533,24.1175870021313727,8.95695025561292901,69.9798404820008244,-0.00841530155383332125,113.691057076997907,355.965009198047767,15.2880000000000003,0,6.40806683340338701,0.0708799969430035925,7.13479042486632313e-09,-0.00398336834077879162,-0.00186615390087095179,0.000254783336762860291
0.59,31.2221761336486914,131.010410658526638,9.0692126625625189,14.5666571587100009,-10.5792154330488817,31.8919633740334199,0.974030595064169558,2.04265896322018259,360.68438819711065,24.4233803114196242,9.08155593280332774,69.9774456151777713,-0.0115862676848854321,113.687682598274108,365.042103969544087,15.2880000000000003,0,6.43147310327683375,0.071778862279467559,7.25918749503928957e-09,-0.00442427936863552113,-0.00220355884066473313,0.000286567428859693738
0.6,31.2221758027169685,131.010411536895418,9.26850908926525285,14.4409486967958873,-10.4466274509908565,28.3725346115678647,0.997115276822061136,2.00587005548792163,329.48595949860578,24.7662811895928314,9.21927836076956098,69.9747950346831544,-0.0152918632857546987,113.683739041832112,375.357158124949478,15.2880000000000003,0,6.45480409532949029,0.0727867912147248664,7.3451634593802188e-09,-0.00487724597994933663,-0.00254848018007236598,0.00032033593508951579
0.61,31.2221754663233249,131.010412427575858,9.47081004965432527,14.3143400804424754,-10.314605973837498,33.209487168078617,1.02081833278272449,1.96803457992847908,372.09845118432969,25.1150876979913491,9.3588754746330487,69.9718816063578259,-0.0195437867073562956,113.679213933610598,385.997120517003225,15.2880000000000003,0,6.47806213907106265,0.0738120835585483193,7.39408151422199858e-09,-0.00534258692365406889,-0.00290109292647690612,0.000355834506435442921
0.62,31.2221751245691941,131.010413330256597,9.67603523559679779,14.2261148132298683,-10.2101661674203257,41.2379190572898366,1.04228065251005253,1.933241023238226,442.86563930529212,25.403282259874576,9.4764698590515728,69.968698008861594,-0.0243539463272900367,113.674094572009338,394.898765423337636,15.2880000000000003,0,6.50124565831915113,0.0746592469257583852,7.40741559332585837e-09,-0.00582037803974566181,-0.00326139352552257383,0.000392097644826552068
0.63,31.2221747772809515,131.010414245377547,9.88431789209290734,14.1287485987759336,-10.1004358567445731,23.4905246730300235,1.0648290870487942,1.89673839815449785,286.112512747078938,25.7091098074900124,9.60017304123161175,69.9652371570716411,-0.0297337778372808552,113.668368749218303,404.456203457710444,15.2880000000000003,0,6.52435799731109167,0.0755582395934668721,7.38653708526646564e-09,-0.00631112608247156107,-0.00362968990961554843,0.000430267374226393274
0.64,31.2221744249932947,131.010415171450745,10.0952420545490771,14.0156709340657368,-9.98092563746888217,23.0684994489116093,1.08902874500582336,1.85769603020943785,282.307824417967538,26.0450497360505047,9.73448416790577475,69.9614918538161135,-0.0356947651878149128,113.662024200839994,415.086881936471798,15.2880000000000003,0,6.54733224451056728,0.0765457382859563995,7.33339693900498645e-09,-0.00681379405178196389,-0.00400517460032583528,0.000470597827762769035
0.65,31.2221740676846089,131.010416108503819,10.3088233494265324,13.9307992891910999,-9.8816828492220381,40.5914180608722859,1.11151276414402966,1.8209640126749389,436.778144778747503,26.3339249762797429,9.85171516912996559,69.9574548740562676,-0.0422480311879672929,113.655049051726223,424.337005374170019,15.2880000000000003,0,6.57023250121499558,0.077394921748183465,7.24946339829106445e-09,-0.00732869486319174829,-0.00438801719670235332,0.0005117631972872983
0.66,31.2221737048853782,131.010417057785816,10.5254248766742293,13.8411355333589814,-9.78006800120338582,34.5644554383381859,1.13479174802864669,1.78292388299398419,383.512515171600171,26.633155441533237,9.97244983378656613,69.9531189879636628,-0.0494047738017297858,113.647431334183466,434.026187331388314,15.2880000000000003,0,6.59302588030424896,0.0782745458595861532,7.13590797325888097e-09,-0.00785708923123132688,-0.00477906354445128186,0.00055488386096234194
0.67,31.2221733367618519,131.010418018812345,10.7449166112994732,13.7378825294635529,-9.67014310677175715,23.8722023146880389,1.15965789928871721,1.74241917551154257,289.156244010342505,26.9597713003502584,10.1027851601345269,69.9484764715048613,-0.0571768994320482477,113.639158323011614,444.727453884641022,15.2880000000000003,0,6.61573132949268228,0.0792346624158502544,6.99441108792058885e-09,-0.00839878589041404347,-0.0051781158033745488,0.000600400913436289563
0.68,31.2221729634647431,131.010418991141961,10.9671806681354767,13.6405518584614924,-9.56515389395503135,29.753407961060006,1.18453361793301792,1.70173121408782047,340.899992485846269,27.2781572651728617,10.2299680977660721,69.9435195522695636,-0.0655762045171961183,113.630217405098662,455.28392958923871,15.2880000000000003,0,6.63835947218845668,0.0801705985487980582,6.82661672557230924e-09,-0.00895367407702284818,-0.00558503535855886003,0.000647613169474269045
0.69,31.2221725850630456,131.010419974557095,11.19216268372287,13.5589985774748705,-9.47164826336943655,36.5879959673614152,1.20846799865579979,1.66224170337671517,401.014072685363431,27.568377068072131,10.3468886924904009,69.9382404518863439,-0.0746142231745622192,113.620596243779559,465.013200028487859,15.2880000000000003,0,6.66085061071941897,0.0810237612055439982,6.63413802204744973e-09,-0.00952177698829394757,-0.00599977960594438257,0.000696015937684940351
0.7,31.2221722014273269,131.010420969383262,11.419962442281637,13.477664228058778,-9.37908940463853469,30.7248469096398082,1.23279834652400977,1.6220093063792238,349.270324209852845,27.8596317257273753,10.4639885340239687,69.932631511694396,-0.0843022956514557498,113.610282694646997,474.880266343076187,15.2880000000000003,0,6.68324730479105256,0.0818799722538118419,6.41844362277223007e-09,-0.0101036100086075789,-0.00642265240826568259,0.000746332620477004353
0.71,31.2221718126026317,131.010421975469995,11.6505443786943559,13.387948060179653,-9.28171199824471138,25.2905442328024641,1.25835720867664991,1.57981078886793669,301.331264063405797,28.1692296674666629,10.5874559213031265,69.9266847073810851,-0.0946519390938003469,113.599264429971839,485.482640572155447,15.2880000000000003,0,6.70556003890369201,0.0827901016914362187,6.18115630677911181e-09,-0.0106992457985608819,-0.00685364392081133991,0.000799096075198169422
0.72,31.2221714185865125,131.010422992796435,11.883909849728024,13.2880828649120186,-9.1783594829009516,30.9196016772293696,1.28538928489975901,1.53527063976557199,350.79220534145287,28.5016495736179252,10.7188908923429143,69.9203919340986175,-0.105674859928452339,113.587528905031945,496.997293765825532,15.2880000000000003,0,6.72775903938157782,0.0837673130193380133,5.92382265782488162e-09,-0.011308934553596774,-0.00729286882481679655,0.000854580180724247708
0.73,31.2221710193716717,131.010424021354453,12.1200639829178112,13.2154380327152339,-9.09391642903148423,39.0595287122930728,1.31021964585896966,1.49379026992639274,422.320318528233997,28.7800068121356389,10.8308263542301138,69.9137447276906983,-0.117383106214861435,113.575063208798525,506.740910743249174,15.2880000000000003,0,6.74984556431740756,0.0845856397258172438,5.64796102532058369e-09,-0.0119329803063825887,-0.00774047711766672614,0.000910523369950742888
0.74,31.222170614895699,131.010425061289681,12.3590549415992896,13.1350334797683317,-9.00503541103303995,24.5388866111631216,1.33624861820750973,1.45037181496203571,294.482813471059444,29.0756876560916275,10.9487638021373215,69.9067347862710875,-0.129788170842453254,113.561855014797374,517.194866204937512,15.2880000000000003,0,6.77185003284507037,0.085454888462556805,5.35513766481771547e-09,-0.0125716765285348881,-0.00819660979849241682,0.000969090879986989453
0.75,31.2221702054871102,131.010426111678527,12.6006274936923592,13.0499775076566262,-8.91379136494671975,28.6146097735573441,1.36322328140341198,1.40537632796718781,330.246885564414924,29.3828218167279438,11.0706244646061531,69.8993537650049888,-0.142901561858865406,113.547891966111919,528.166855097890675,15.2880000000000003,0,6.79374914809844377,0.0863578063593323786,5.04710030765689595e-09,-0.0132243277365717768,-0.00866072270836309478,0.00103014496454305739
0.76,31.2221697910395015,131.010427172788269,12.844864172510805,12.974716146450298,-8.82969441609919059,30.7881861286383689,1.38959365424155923,1.36109146607713671,349.270324209861712,29.6700777769623976,11.1852253611205139,69.8915931658420249,-0.156734555067749748,113.533161956183861,538.531764104260674,15.2880000000000003,0,6.81551143282317717,0.0872023084638848672,4.72531829147661005e-09,-0.0138914840944480474,-0.00913313500139708613,0.00109266840009473315
0.77,31.2221693714957027,131.010428244752404,13.0918093725389948,12.9022771186023437,-8.74810826843359912,28.8068386690452982,1.41607392047977898,1.31646420279978815,331.76876669607077,29.9520154763009145,11.2977607348216651,69.8834444750866055,-0.171298480434864703,113.51765280248091,548.802092488020662,15.2880000000000003,0,6.83716726378194828,0.0880311871518642403,4.39128999045549631e-09,-0.0145735215662771752,-0.00961404244662123798,0.00115718105017479462
0.78,31.2221689469116299,131.010429327395769,13.3414198179846633,12.8225735927164344,-8.66240708122690251,23.7064397570205898,1.44380748805614023,1.26978827852605614,286.873437812889904,30.2512089888852884,11.4162901408669875,69.8748989536862979,-0.186604574056113748,113.501352423281119,559.807505917240746,15.2880000000000003,0,6.85872447579205424,0.0889107893844705566,4.04659273778762603e-09,-0.015270447652556033,-0.0101033866570117443,0.00122460167139295324
0.79,31.2221685173649419,131.010430420483431,13.5936353862425694,12.7390938798522786,-8.57489486103470355,33.5908836882438138,1.47246115955082835,1.22154902275156507,373.620332315953419,30.5604310756545559,11.5382395577385388,69.8659478565856773,-0.202664138472936933,113.484248645311169,571.296651198074187,15.2880000000000003,0,6.8801785027125808,0.0898198740986820565,3.69275277989757154e-09,-0.0159822596626382554,-0.0106011030475403542,0.00129475465973983954
0.8,31.2221680826472365,131.010431524565831,13.8486182475341071,12.6713073323853003,-8.49823947817457892,34.0347487386856429,1.4997046956614617,1.17522991229932683,377.42502064505743,30.8344150602423568,11.6474517377862163,69.8565820354967713,-0.219488688015979816,113.466329070551396,581.572041651405129,15.2880000000000003,0,6.90153041016662971,0.0906253985490838437,3.33116106195823023e-09,-0.0167098844904565239,-0.0111077579021875671,0.00136580391047203724
0.81,31.2221676428498363,131.010432639372368,14.1062978812559603,12.5944155330792533,-8.41624972390694204,22.256305818283316,1.52847119111191243,1.12643482455215072,273.937492693991885,31.1303513735913455,11.7643420058801169,69.846792311747933,-0.237089516121770705,113.447581525858922,592.774332677134225,15.2880000000000003,0,6.92275459312037889,0.0914954506719517224,2.96337246752441212e-09,-0.017453182159531011,-0.0116231898403163312,0.00144021419488953224
0.82,31.2221671981436444,131.010433764413705,14.3665419517877719,12.5141752758140523,-8.33269803377842244,28.5066863343159724,1.55814057520716842,1.07608543381124799,328.725004432770049,31.435451773302276,11.8843549926013008,69.836569513646225,-0.255477805791578805,113.427993938276359,604.435416052384426,15.2880000000000003,0,6.94387299732451435,0.0923924448414225608,2.59090238205930798e-09,-0.0182118471923832202,-0.0121471272658425413,0.0015175090605040833
0.83,31.2221667485097214,131.010434899722668,14.6293657427290391,12.4524136739131812,-8.26165215363156058,36.1481079193865895,1.58587523270464636,1.02845644778616663,395.68750322465047,31.6964710001207273,11.988499167619711,69.8259042602438882,-0.274664680376627612,113.407554293594544,614.499243727717612,15.2880000000000003,0,6.96489109766568859,0.0931598869219337072,2.21517547676884923e-09,-0.018986230932563998,-0.012679742102362038,0.00159513078949218945
0.84,31.2221662938468683,131.010436045561875,14.89484878632814,12.3874656289710092,-8.18908077688890756,22.4511632902135467,1.61440340789255088,0.979438817153957197,275.459374825645227,31.9653121681780341,12.0952853442293726,69.814787270159627,-0.294660818572985761,113.386251039045703,624.951560334855571,15.2880000000000003,0,6.98581021700251714,0.0939503261038901055,1.83761661701924758e-09,-0.0197768026866649398,-0.0132212828578282971,0.00167560090111923085
0.85,31.2221658344257378,131.010437201169339,15.1627814661699123,12.308429263195773,-8.10800811092360085,24.4541609655165857,1.6452738923025223,0.926674120154871717,292.960932339393764,32.2698600927200943,12.214681445952678,69.8032092022695423,-0.315476699416756545,113.364072822698631,636.900290192896819,15.2880000000000003,0,7.00661331797307074,0.0948457198888836839,1.45970864898125273e-09,-0.0205828456982164835,-0.0137712044185305509,0.00176046291367531224
0.86,31.2221653700819104,131.010438366982299,15.433292579439879,12.2406223016635014,-8.03465492085828714,30.5380733975243217,1.675044460028974,0.87536881933487698,346.226561946558718,32.5466362325893996,12.3240387656983845,69.7911603707384813,-0.337123105975680792,113.341007957500608,647.855602965535354,15.2880000000000003,0,7.02729093887711098,0.0956594963895681522,1.08279245396913156e-09,-0.0214052291858438312,-0.0143300207822498245,0.00184645653668957972
0.87,31.2221649008351854,131.010439542931721,15.7063678048569457,12.1782404106171942,-7.96525860953694753,28.4630358864334383,1.70444279577154911,0.82442667958335436,327.964078366998024,32.8094986477677111,12.4283005911868294,69.7786310637959559,-0.359610541201429823,113.317045042299512,658.345388760248056,15.2880000000000003,0,7.0478570138338581,0.09643238597811149,7.08253478305979293e-10,-0.0222440975117425693,-0.014897759751242903,0.00193426552840172549
0.88,31.2221644267163079,131.01044072891969,15.9819844414870662,12.1090517721724353,-7.89202513627510349,24.6497283300786343,1.73523717172346514,0.771151751274795405,294.482813471041823,33.090134014701178,12.5387770623409942,69.7656115191886244,-0.382949265261299576,113.292172921928241,669.638116681330189,15.2880000000000003,0,7.06831710950256653,0.0972575208396474211,3.37459775225155793e-10,-0.02309947491845845,-0.0154743694675138141,0.00202577331575483398
0.89,31.2221639477985526,131.010441924730543,16.2600867042950981,12.033297172714077,-7.81513651459061798,27.0025890687946095,1.76746848542720159,0.715466528011167946,315.028134248086985,33.3886656506534649,12.6555219169703914,69.7520917890812484,-0.407149451805086549,113.266380523084734,681.757055703446554,15.2880000000000003,0,7.08866944517473208,0.0981352639223539019,-2.82450777549451536e-11,-0.023971371189971967,-0.0160597887844300471,0.00212114595409863263
0.9,31.2221634640099488,131.010443130551124,16.5407319776312214,11.9754939877326994,-7.75007113049830565,29.7911298676424963,1.79738642304787821,0.66310904546909577,339.378142354214447,33.6391306316542682,12.754988890168919,69.73806172435674,-0.432221492870513979,113.23965651779703,692.005165379035816,15.2880000000000003,0,7.1089216958895225,0.098871738406635698,-3.8756073204209221e-10,-0.0248603241865180576,-0.0166543021865488243,0.00221624851943152132
0.91,31.2221629754141112,131.010444346195499,16.8238722913972829,11.910968117694944,-7.68121494665600402,22.7583625428869425,1.82872787137734827,0.608356734516120046,277.742181023078899,33.9074739840434134,12.8607217888229233,69.7235112835810042,-0.458175023593481723,113.211990378751622,703.070497451512551,15.2880000000000003,0,7.12906771890507862,0.0996607684276674261,-7.3917647822852278e-10,-0.0257662625013093359,-0.0172577931208343846,0.00231527169293734101
0.92,31.2221624821956105,131.010445571140764,17.1093653583387066,11.8400058044434537,-7.60877358158593076,27.0252108696901168,1.86151424048353542,0.551160585767545008,315.028134248062145,34.1936501345735167,12.972725098151237,69.7084303164004524,-0.485019572405207156,113.183371675026493,714.968683372116288,15.2880000000000003,0,7.14909784729318964,0.10050222044527797,-1.08183419645133507e-09,-0.0266886704283122306,-0.0178698571216513967,0.0024183301616932701
0.93,31.2221619842692846,131.010446805614947,17.3972792896121327,11.785182141529825,-7.54686911633461399,32.077017320540449,1.89204185184248042,0.497224686321499687,359.162507065472823,34.4343919893450092,13.0683964573628959,69.6928085427875175,-0.512764520014572289,113.153790118580048,725.051609993318152,15.2880000000000003,0,7.16902232669761652,0.101210139413156361,-1.41427074767258316e-09,-0.0276281910056008009,-0.018490843554346513,0.00252101860065180681
0.94,31.2221614815327655,131.01044804989786,17.6876959053645777,11.7163807596104874,-7.47666264302060224,23.385921229106259,1.92529138923217102,0.438863782524004209,283.068750483778672,34.7142346923327594,13.177931768926733,69.6766357417412365,-0.541418766335366786,113.123235918588236,736.863696553991076,15.2880000000000003,0,7.18884081765522698,0.102032992101621908,-1.73523480495238729e-09,-0.028585279980612114,-0.0191209770472855027,0.00262947540792575528
0.95,31.2221609742512989,131.010449303241614,17.9804100908136348,11.6499177369314619,-7.40833988226822981,30.1796564244852767,1.95856346194394204,0.380234229169573279,342.421873617487279,34.9873251553105931,13.2849723314690724,69.6599013181523787,-0.570991461778257214,113.09169900065757,748.481797276028033,15.2880000000000003,0,7.20853983289551081,0.102836006423340134,-2.04355546454067683e-09,-0.0295592191428814856,-0.0197597238949680613,0.00274037853470359468
0.96,31.222160462153898,131.010450566398703,18.2756354582352678,11.5915424952169595,-7.34543903340334214,29.5781946516728276,1.99080334285301452,0.322974820643006644,337.095335156783449,35.2363074812509254,13.3832935914506574,69.6425946502991309,-0.601491403759110033,113.059169651112228,759.151105547206384,15.2880000000000003,0,7.22813181379880465,0.103568169246328265,-2.33797094435645174e-09,-0.0305513158982560276,-0.02040785376515971,0.00285242908756709384
0.97,31.2221599452580953,131.010451839316659,18.5733605592105242,11.5296219438300795,-7.28073957878215161,19.0507077412244037,2.02405161421014324,0.263917914719419555,245.021887192993233,35.4949891931124455,13.4849850183100717,69.6247048605094534,-0.632927413416358609,113.025638113537866,770.316365830872996,15.2880000000000003,0,7.24762499711057995,0.104328848865488655,-2.61729639036258955e-09,-0.0315617032564641728,-0.0210653773615154805,0.00296831240301911924
0.98,31.2221594238277014,131.010453121252198,18.8733815318587119,11.4546918428494617,-7.2084341987043894,27.590134757274086,2.06013657882850243,0.200197715105554619,319.593746642958081,35.7924805026795312,13.6004938782564295,69.6062210366322773,-0.665307950270150439,112.991094999318378,783.260288238455701,15.2880000000000003,0,7.26700623930047485,0.105203608036047391,-2.88045232537016563e-09,-0.0325894520106718849,-0.0217316290948215973,0.00309056916253967317
0.99,31.2221588977258833,131.010454412585574,19.1758075786363058,11.4025985596105723,-7.15054978948777542,30.1231162180023624,2.0923012761499189,0.142353856592097039,341.660948551705417,36.0201860848470687,13.6909405671862263,69.58713198485151,-0.698641517541216062,112.955530855707039,793.234881633181431,15.2880000000000003,0,7.28629003168701761,0.105873256518739314,-3.12622721603699784e-09,-0.0336355300637389137,-0.0224071522259534604,0.00320997186276290826
1,31.222158366951362,131.010455713322074,19.4806423551601675,11.3378579601147305,-7.08528165223656003,26.9934906860205004,2.12725783728673612,0.0799032951837131272,314.26720818227642,36.2856917882736525,13.7948433811881923,69.5674268489354972,-0.732935621961224193,112.918937274395873,804.948320982677046,15.2880000000000003,0,7.30547052233149863,0.106654017827607334,-3.35351036158477371e-09,-0.0346999690489336043,-0.0230918919048620809,0.00333586738228624016
1.01,31.2221578316686212,131.01045702299723,19.7877597345130525,11.2755993895480113,-7.02190148255519464,28.2199809684408685,2.16210694820031568,0.0173704032806362117,324.920316103697928,36.5428370064673658,13.895688879130871,69.5470943380302629,-0.768198048397663924,112.881305531116013,816.373493410759238,15.2880000000000003,0,7.32454495169499076,0.107410213335524432,-3.56123894506817432e-09,-0.0357823712586949338,-0.0237855226003310105,0.00346419914251997266
1.02,31.2221572918079104,131.010458341809709,20.0972170339250731,11.216960464460449,-6.96107998850196275,23.6057474603674713,2.19657811918631651,-0.0448191720380308883,284.590631615404163,36.7876158101217783,13.9920344004420869,69.5261232568500418,-0.804435973642650071,112.842627531342174,827.322337009682883,15.2880000000000003,0,7.3435178644789918,0.108130068262565118,-3.74828860221025064e-09,-0.0368832402544357688,-0.0244882870175940695,0.00359458926765230096
1.03,31.2221567474316899,131.010459669586538,20.408968243047017,11.1498907318423033,-6.89550075205578406,19.3376975395333837,2.23316870908438458,-0.110602648547397875,247.30469339049705,37.0584836573861836,14.0976835610973801,69.50450240209328,-0.841656131893805504,112.802895632860142,839.525228589036715,15.2880000000000003,0,7.36238578804260069,0.108926614993879706,-3.91361471421618982e-09,-0.0380024577865861399,-0.0252000355195773941,0.00373082509922076106
1.04,31.2221561985958829,131.010461006171397,20.7229723739859786,11.091387153523387,-6.83545245665046775,30.5939670842024682,2.26832574062368497,-0.174386671300883284,345.465636880722968,37.3007999593854436,14.1930370350124235,69.4822201886699702,-0.879865411718025681,112.762102008232617,850.514369024520761,15.2880000000000003,0,7.38115131261859947,0.109639247792729974,-4.056158314311994e-09,-0.0391400824937185796,-0.0259207296860072753,0.00386751800299965512
1.05,31.2221556450438236,131.010462352300294,21.039433809944267,11.0261643020343136,-6.7716984616030782,18.5599358228487681,2.30529916762312981,-0.241305757796496989,240.456258798199826,37.5640432812986731,14.2958421674400356,69.4592650872643418,-0.919070136628911016,112.720239412711251,862.535199521538061,15.2880000000000003,0,7.39982457073623046,0.110413400276885232,-4.17475412777280615e-09,-0.0402974555930008735,-0.0266511269009958064,0.00400986007869635029
1.06,31.2221550869900852,131.010463707368245,21.3581873945031688,10.9553445401443881,-6.70493928993476995,26.3305524784401932,2.34394964775943571,-0.311159235434450676,308.179683655939243,37.8453222523016635,14.4050944489788488,69.4356250826001116,-0.959276922030566359,112.677300267548176,875.474058206614131,15.2880000000000003,0,7.41839766255927557,0.111240574217334243,-4.26845763152016973e-09,-0.041473799136102496,-0.0273906643686574747,0.00415768891969060632
1.07,31.2221545243308753,131.010465071676663,21.6793177175163621,10.8983374355512161,-6.64679493193100868,30.9624847350469388,2.37984748254537015,-0.376919408143888912,348.509368144030759,38.0791475217501585,14.4972353415300503,69.4112878745469288,-1.00049233473215282,112.633277023916961,886.298277956855827,15.2880000000000003,0,7.43688105475480032,0.111928273664727226,-4.33614978189087699e-09,-0.042669984444431916,-0.0281398015533845906,0.00430390097791168592
1.08,31.2221539569769853,131.010466445491346,22.0028983605461796,10.8386545049743326,-6.5873661027701722,20.9270252035824029,2.41669102511222755,-0.444455623324085336,261.001578574662346,38.3205120267776138,14.5920314373070887,69.3862413191646112,-1.04272218306796804,112.588162920138529,897.541585590533145,15.2880000000000003,0,7.45527582864438987,0.112638141810175049,-4.37677975154867585e-09,-0.0438865483387662139,-0.0288987857266966366,0.00445452909083042178
1.09,31.2221533851769024,131.010467828110791,22.3287376310977415,10.7647867786183085,-6.51982852768127508,19.2706293063934488,2.45730019511038567,-0.518283801936693211,246.543753324744074,38.6099698745812887,14.7041293463655958,69.3604731119917517,-1.08597201139202282,112.54195145268487,911.1236220325369,15.2880000000000003,0,7.47357120976084666,0.113489382651711046,-4.38947564012604169e-09,-0.0451224261209672642,-0.0296668804076692105,0.00461442279574490917
1.1,31.2221528089998976,131.010469219344714,22.6567844837029497,10.6985914618218132,-6.45718567056928627,38.4068395949464474,2.49648545078058115,-0.590137879464142756,413.189061738584087,38.8720367364901307,14.8063513007073144,69.3339707899087472,-1.13024708635941207,112.494636391084825,923.505081583674269,15.2880000000000003,0,7.49177065459306579,0.114260119782259237,-4.37323649843507334e-09,-0.046377639986072916,-0.0304440189723040634,0.00477482804398749166
1.11,31.2221522280878787,131.010470620236191,22.9873243250879327,10.6473439641336256,-6.40368198583984238,28.1897091601043002,2.53225640144549935,-0.656813884582237328,324.159391037639693,39.079339829971417,14.8887692093885384,69.306721643134523,-1.17555252216240125,112.446211643900938,933.351747884072779,15.2880000000000003,0,7.50988561503013408,0.114869893121497701,-4.32686327796555034e-09,-0.0476542853790410878,-0.0312313947703929534,0.00493227389894606606
1.12,31.2221516424993517,131.010472030635555,23.3203152860779284,10.5687450959435267,-6.33436208279025248,10.7992351068813424,2.57536194795787798,-0.735556309425694499,172.73281794065943,39.3834080473038526,15.0060941936275967,69.2787131082539815,-1.22189266384683459,112.396671916134224,947.902366466038075,15.2880000000000003,0,7.52790300123250944,0.115764106881435236,-4.2494519852439704e-09,-0.0489521062247403466,-0.03202876189156139,0.00510585871171790294
1.13,31.222151052762996,131.010473449022612,23.6553445278934795,10.5052656773248074,-6.27425433797818766,33.1826791757282749,2.61496091155002208,-0.808980826307006184,367.532807790070478,39.6319036968738061,15.1033711684364018,69.2499317062763708,-1.26927269927292619,112.346010985307515,959.871084689413237,15.2880000000000003,0,7.54581988471386467,0.116494978693568813,-4.14021644023338225e-09,-0.0502687604860259582,-0.0328346178895315213,0.00527610281232910455
1.14,31.2221504582909581,131.010474877120032,23.9928794875143581,10.4523189140072983,-6.22059841039746253,18.4956717351725395,2.6520369633599632,-0.878641670200907332,239.695317731955441,39.8395052315114242,15.1858165991000309,69.2203648160615899,-1.3176959470131715,112.294224602975163,969.922051303150738,15.2880000000000003,0,7.56365987579599253,0.117105653737733434,-3.99789935236357329e-09,-0.0516075740002507888,-0.0336508833090181092,0.00544481889499086325
1.15,31.2221498595190923,131.010476313682972,24.3325808839680207,10.3719734557440049,-6.15124257116775031,18.2343051475674294,2.69693866184377118,-0.961251498815332117,237.412511535467729,40.1480381028811522,15.3048189433542667,69.1899997416625752,-1.3671652805978316,112.241308968947152,984.971002061978538,15.2880000000000003,0,7.58140133666638505,0.118013018599624972,-3.82180511919116774e-09,-0.0529661788792587587,-0.0344760437083896157,0.00563125064570144974
1.16,31.2221492565713739,131.010477758361702,24.6743546442737838,10.3216869584197664,-6.09967468609938024,47.2866820535099777,2.73381217025017653,-1.03120165978981615,490.043774384589426,40.3415859088446709,15.3821862381518688,69.1588228958241444,-1.41768433538794381,112.187259441615836,994.458047006235802,15.2880000000000003,0,7.59905173089964059,0.118582399425158413,-3.61092485993885141e-09,-0.0543444584286489826,-0.0353099454738692448,0.0058054496425648059
1.17,31.2221486486787434,131.010479213431495,25.0188129308561322,10.2570563107800581,-6.04004989635516143,8.60974160302089153,2.77500908752183362,-1.10846974672114351,153.709379294867944,40.5874582844491059,15.4784798530395324,69.1268214865476693,-1.46925498291440815,112.132073240221459,1006.58365211924638,15.2880000000000003,0,7.61663417456242886,0.119305594729606487,-3.36403108723625031e-09,-0.0557467535344130863,-0.0361550867225892969,0.00599135007752179833
1.18,31.2221480368628193,131.010480675921286,25.3651529685985615,10.1734838548614501,-5.96977984463000322,23.1401742107251778,2.82216331812206844,-1.19576196865021145,280.025018221967457,40.9061721241196423,15.6013096363891481,69.093982054990505,-1.52187949618740914,112.075747123979255,1022.4201422687936,15.2880000000000003,0,7.63411087435578661,0.120242914304367995,-3.08060511898088779e-09,-0.0571673036082480102,-0.0370079463418271984,0.00619206293466011484
1.19,31.2221474206677669,131.010482147185712,25.7137392574255124,10.1317104841625394,-5.92387464544990205,40.2182892764653062,2.8571534583419953,-1.26359461468404977,428.407813052929214,41.0587331559860615,15.6637619622624715,69.0602907449676309,-1.57556012955551172,112.018277845635936,1030.02617797117182,15.2880000000000003,0,7.65151224690265597,0.120691839342798202,-2.75939930662592349e-09,-0.0586094611381108785,-0.0378704267839450187,0.00637173262683604375
1.2,31.2221467997054809,131.010483628404899,26.0648843750877681,10.0563702551371073,-5.85893636578485832,4.39970071747857627,2.90258078576227785,-1.34877525104053264,117.184374136023607,41.3419967838487352,15.7737512705757918,69.025734751192644,-1.63029701240374147,111.959664404001202,1044.25225172637738,15.2880000000000003,0,7.66884030496674285,0.121524972240273713,-2.3994644902007665e-09,-0.0600752531219695268,-0.0387436250103104091,0.00657592238874409561
1.21,31.2221461749956291,131.010485116586182,26.4177853039445765,9.98283432058665632,-5.79532738314003026,32.3449281158174031,2.94786249712675419,-1.43408615861249489,359.923432132008998,41.6173271979898729,15.8809717243715589,68.9902998928114357,-1.68609165806774364,111.899904284828182,1058.17176755341598,15.2880000000000003,0,7.68606647961390621,0.122334794359566623,-2.00009654948517094e-09,-0.061558885772490024,-0.039624038033533697,0.00678296902221036616
1.22,31.2221455457690062,131.010486614034676,26.7730563698401056,9.93772307506296926,-5.7481738490166574,23.4975237000087809,2.98427588327852034,-1.50522433410375145,283.068750482576149,41.7739175359611536,15.9448910526051524,68.9539726548848222,-1.74294400843079522,111.838996629800349,1066.11336820263546,15.2880000000000003,0,7.70319449155828906,0.122795586485767161,-1.56010336613838087e-09,-0.0630655581811699201,-0.0405146250741999156,0.00697489261977649391
1.23,31.2221449123396191,131.010488119855324,27.1304541161555584,9.86150161736859943,-5.68356193213844474,9.29794965279151242,3.0309983298954295,-1.59362678020124293,159.796873822227951,42.0562931652761804,16.0547887855903468,68.9167401928359737,-1.80085245474276245,111.776942210922584,1080.53801710397988,15.2880000000000003,0,7.72023081142062484,0.12362613610301236,-1.07872457629515513e-09,-0.0645930756356497965,-0.0414140027213513937,0.0071918748649392808
1.24,31.2221442751388416,131.010489632784783,27.4896407927982693,9.7960746304226074,-5.6253402012731728,39.1058281894958597,3.07445146528613211,-1.67703134801237796,418.515630199805003,42.2922015445157484,16.1478190278372189,68.8785886120707858,-1.85981626638094744,111.713740829599686,1092.65654141885534,15.2880000000000003,0,7.73717229298563325,0.124320102062991336,-5.55009221371425719e-10,-0.0661390673374207122,-0.0423207017487510564,0.0074050593096403293
1.25,31.2221436334576588,131.010491154978354,27.8511849040883419,9.74669487433188664,-5.5764092719821754,19.0275361549876045,3.11257613621812324,-1.75200980108506355,244.260946125734876,42.4570278973460447,16.2148312278413229,68.8395045886742025,-1.91983330125671769,111.649393771715239,1101.15176330133932,15.2880000000000003,0,7.75404732290392751,0.124805126851480014,1.20394521751414438e-11,-0.0677084450875641147,-0.0432374750932895402,0.00761005030862879194
1.26,31.2221429877757721,131.010492685038173,28.2147109462536712,9.66522756756990908,-5.50965308709357515,11.3065872280689614,3.16204830964339445,-1.84609898236845482,177.298446336408631,42.7568977032572448,16.3314447971410956,68.7994750916307254,-1.98090041202677236,111.583903369422444,1116.72234826707495,15.2880000000000003,0,7.77083226643724068,0.125687128828388228,6.23260562277128333e-10,-0.06929783913842745,-0.0441622725862892418,0.00784342614082673105
1.27,31.2221423382533843,131.010494222506338,28.5800961937904603,9.60979178340448215,-5.45775692481703079,37.6262228979062456,3.20253350330077646,-1.9257087759242113,405.579686079964688,42.9419529727440761,16.4060264174679133,68.7584856498524033,-2.04301581531285237,111.517270462261251,1126.37025728808271,15.2880000000000003,0,7.78753518745129281,0.126231633310664088,1.27971300745122977e-09,-0.0709068454408914028,-0.0450947702357717278,0.00805999262867679832
1.28,31.2221416843299231,131.010495769121377,28.9477930266996992,9.54834850222581544,-5.40270936039941141,12.3545030619857759,3.24526977746798284,-2.00942364851164523,186.429688124688823,43.1498907152478282,16.48904981149877,68.7165233213709996,-2.10617502389293643,111.449498760493981,1137.26493751826865,15.2880000000000003,0,7.80415823449434409,0.126843410906842841,1.98219339415432413e-09,-0.0725391356280097738,-0.0460369712868423445,0.00828516999938016738
1.29,31.2221410267122685,131.010497322779997,29.3172438072823667,9.47103965476635601,-5.33905005582298209,20.1631755512918645,3.29407620232218346,-2.10363138545848471,254.153128984572163,43.4261493564374916,16.597382988963389,68.6735745551471837,-2.17037377498718298,111.380591701715147,1151.83289995278665,15.2880000000000003,0,7.82065793127197306,0.12765603304461684,2.73177295397725693e-09,-0.0741899157103730472,-0.0469860350249853009,0.00852766503693988369
