Time,Latitude,Longitude,Altitude,Angle of Attack,Angle of Sideslip,X-Acceleration,Y-Acceleration,Z-Acceleration,Thrust,True Velocity,Ground Velocity,Pitch,Roll,Yaw,Dynamic Pressure,cp,cg,parachute_deploy_gain,Wind Speed,Wind Direction,Mach,omega_x,omega_y,omega_z,Cmq,Angle of Attack(total),Angle of Attack(gust),True Velocity(gust),Acceleration
0.0,31.222216000000007,131.010392,3.000000004412624,0.0,0.0,0.0,0.0,0.0,2.2828121974499247,0.0,0.0,69.99999999623412,0.0,119.9999999935444,0.0,1.274,1.0271675151847728,0.0,0.0,0.0,0.0,0.0,0.0,0.0,-0.0,0.0,90.0,0.0,0.0
0.01,31.22221599999084,131.01039200000497,3.000002745347096,0.0,0.0,0.0,0.0,0.0,34.242186961749226,3.465174813755316e-14,2.8705476994166025e-14,69.9999999962611,-2.1713911667908447e-11,119.99999999352175,7.352495975525499e-28,1.274,1.0271659134330349,0.0,0.0,0.0,1.0183245502395064e-16,-3.3305335486039093e-18,7.169286865560398e-18,5.624298769768554e-18,-7.715917190115602e-34,0.0,89.99999999999979,3.465174813755316e-14,0.0
0.02,31.222215999994315,131.0103920000094,3.0000030495639742,0.0,0.0,0.0,0.0,0.0,25.871876237766216,3.8197434737535036e-11,2.4171837235633357e-11,69.99999999628672,-1.1921727947863515e-11,119.99999999353136,8.93414285188691e-22,1.274,1.027164492361118,0.0,0.0,0.0,1.1225230367947217e-13,-6.657678965418802e-18,1.4338573731120796e-17,1.1241821275959074e-17,-1.7010872994127372e-30,0.0,89.99999999975682,3.8197434737535036e-11,0.0
0.03,31.222215999994315,131.0103920000094,3.0000030495639742,0.0,0.0,9.81877837424427,-2.5122800045972096e-05,3.3498614629347925,180.34219359854663,1.2659015405517447e-10,1.1364406173918436e-10,69.99999999631459,-1.6431898037347223e-11,119.99999999352724,9.812605835254651e-21,1.274,1.0271551940870716,0.0,0.0,0.0,3.720154642239108e-13,-9.991600645811728e-18,2.150108433310316e-17,1.6859343782149594e-17,-8.453698244545225e-30,0.0,89.99999999919412,1.2659015405517447e-10,10.374487003414373
0.04,31.222215999994315,131.0103920000094,3.0000030495639742,18.83801224594347,-0.0001111777826462,48.68248476615645,-1.016330065874988e-05,3.3497854396877287,548.635972453808,0.1556173050466994,0.0975908358443652,69.99999999633813,-2.0932768807056278e-11,119.99999999352085,0.0148286043323172,1.274,1.027133720825283,0.0,0.0,0.0,0.0004573186944143,-1.3322134194415637e-17,-1.04744143520903e-11,1.336824254131964e-11,5.0626055458604615e-15,18.83801224625964,89.06236267790787,0.1555998412814392,48.79759610369246
0.05,31.22221599164764,131.01039201704114,3.002326315126219,5.772385609593056,-4.395076213712875e-06,71.20344550265034,4.905512691849684e-05,3.349217396035405,761.6984298824663,0.8326471944351852,0.3620326097059287,70.00000001316391,-1.0866255162484559e-10,120.00000000231074,0.4245281043148827,1.274,1.027093426565204,0.0,0.0,0.0,0.0024469331205246,-5.0245994431125096e-18,-7.32924164976824e-07,2.217344936947165e-11,1.895424184525467e-09,5.772385609594774,84.74112356985832,0.8326465040582279,71.28217104309611
0.06,31.22221596664444,131.01039206837547,3.015081730143309,4.056581213689704,3.169093567502233e-05,53.16249142470188,0.0001203825427859,3.3481235983850643,590.4875390737236,1.657216205300742,0.6755452977614796,69.99999964391398,-3.9285905645317736e-10,120.0000000287861,1.6816755551786196,1.274,1.027050317124926,0.0,0.0,0.0,0.0048701272653724,3.095757869075056e-13,-7.483541766772344e-06,3.074135420506017e-11,3.8518749565858254e-08,4.056581213813337,79.59316473687034,1.657221183301277,53.26781792157489
0.07,31.22221592883117,131.0103921460222,3.034593611434361,4.115662018628709,6.450869598349036e-05,81.18203554989698,0.0001593212642178,3.347059402768047,855.2937749779172,2.099899704220947,0.8579771146174259,69.99999543281565,-8.233801910783518e-10,120.00000006883089,2.700101932075157,1.274,1.027003201295312,0.0,0.0,0.0,0.006171060252819,3.4704292086287e-12,-2.6327204536316785e-05,1.9541142932033486e-10,1.7170712165327165e-07,4.115662019133419,76.90111966094352,2.099909837223217,81.2510043180746
0.08,31.22221588914193,131.01039222747755,3.0542761843835606,3.459696193892355,8.037433511260004e-05,16.298214211652088,0.0002413456836072,3.344878926597744,241.2171988638792,3.051964775152957,1.2149999716613011,69.99998042886442,-1.0128995578004475e-09,120.00000011111383,5.703497661025892,1.274,1.0269597189470347,0.0,0.0,0.0,0.0089689344021769,1.458982438104473e-11,-5.702803872814215e-05,7.043261397829576e-10,5.405702492731987e-07,3.459696194824858,71.30331929508368,3.051977400323993,16.63790856991177
0.09,31.2222158241468,131.01039236098703,3.0886872184095737,4.313676956300389,0.0001337561018991,50.35975918308536,0.0002293282821279,3.344215841840564,563.0937377043203,2.893161298572128,1.191209213966114,69.99994788602814,-7.098432023887522e-10,120.00000018106356,5.125380275808925,1.274,1.026918932011013,0.0,0.0,0.0,0.0085022553945842,3.8672912027154325e-11,-0.0001115933708951,2.016054215232918e-09,1.0027525988343615e-06,4.313676958370176,72.2316578138625,2.893182308931483,50.47067588835877
0.1,31.2222157788302,131.01039245392113,3.109877853389092,4.035124630954496,0.0001457499816535,47.804664812504015,0.0002878217657545,3.341734392237128,538.7437595981891,3.5677148583138303,1.4531247507621967,69.99988403958329,1.9248461973355822e-09,120.0000002323013,7.7939962029572305,1.274,1.0268846934974103,0.0,0.0,0.0,0.0104845969583028,8.579678749070606e-11,-0.0001726817043215,3.984565639703107e-09,1.913455350430327e-06,4.0351246335824245,68.43243098813296,3.567737752667411,47.92132267234452
0.11,31.222215703308,131.01039260899836,3.148841432727305,4.043401107254707,0.0001752764476999,37.67622367577205,0.0003286462930162,3.3392563999062723,442.86563930529127,4.034183355956686,1.6436552022667772,69.99978525353545,7.302513231814865e-09,120.00000031883242,9.96528118825134,1.274,1.026848594915519,0.0,0.0,0.0,0.0118554331868328,1.5870341853361987e-10,-0.0002596204409236,7.232030302688121e-09,3.252930323390323e-06,4.04340111104746,65.92012987243639,4.034210888316708,37.82391391539392
0.12,31.222215627491828,131.01039276462643,3.186995101203875,4.17874459224363,0.0002066711490009,41.15991989399172,0.0003576945202315,3.336766085769504,475.58594813540793,4.361857560629481,1.7865750500940407,69.99963665601238,1.781774420198147e-08,120.00000041104812,11.649831899889556,1.274,1.0268114448194128,0.0,0.0,0.0,0.0128183893919737,2.682972478760441e-10,-0.0003710216542429,1.2215991071490164e-08,5.026311388647148e-06,4.178744597345269,64.21681651392016,4.361890024457652,41.29495143136631
0.13,31.22221554594398,131.01039293200228,3.2277173449026786,4.202734874672792,0.0002327160860324,45.44886120763352,0.0003953741266062,3.333578629398489,515.9156326236897,4.792165672014363,1.9646716520715424,69.99942424225341,3.613383418913551e-08,120.00000051758742,14.061726603124043,1.274,1.026779572895131,0.0,0.0,0.0,0.0140829618979635,4.248908088871395e-10,-0.0005056103199642,1.908859219307828e-08,7.5253154423526356e-06,4.202734881104192,62.048594618540655,4.792202226971676,45.570952718869485
0.14,31.222215454191247,131.01039312033683,3.2737880595608355,4.184830647080848,0.000257138757548,42.32232525579263,0.0004369426767266,3.329727443445437,486.2390860568421,5.269261304374574,2.158791628597544,69.99913473613935,6.515851355725497e-08,120.00000064630268,17.000925061330125,1.274,1.0267449573927567,0.0,0.0,0.0,0.0154850332441425,6.382432869666793e-10,-0.0006690086306358,2.8426433029675884e-08,1.0948547100483978e-05,4.184830654966803,59.74181173116622,5.269301695636157,42.45310707234106
0.15,31.222215353826755,131.0103933263496,3.3242182719560263,4.21963947489699,0.0002846467688673,40.886944113003565,0.0004726792395108,3.325585650885676,472.5421858721398,5.6781946837482895,2.329510773545807,69.99875162806286,1.0876776246115984e-07,120.00000079954532,19.742017654108928,1.274,1.0267115958081523,0.0,0.0,0.0,0.0166867950518804,9.204756288136623e-10,-0.000865746478554,4.08948221429571e-08,1.526771148078443e-05,4.219639484480408,57.84996018384879,5.678239395958187,41.02196629910223
0.16,31.222215247130432,131.01039354534575,3.3775922280208457,4.253495568077899,0.0003118339050386,32.26872905470846,0.0005078415214353,3.32090791922544,391.1218908297597,6.081244877834229,2.4981889727471702,69.99825581174558,1.7187028096464329e-07,120.0000009800088,22.644030778355887,1.274,1.026675762255412,0.0,0.0,0.0,0.0178712695992133,1.2856146928958252e-09,-0.0010961187242953,5.6923362293832417e-08,2.0702404729358337e-05,4.253495579487569,56.06022383757386,6.081293860589489,32.43916312841722
0.17,31.22221513260033,131.01039378041813,3.4348437275053194,4.364838523348639,0.0003448792023946,40.840448242802736,0.0005326487904353,3.3162727284953744,471.78125980632416,6.362544479165355,2.6250789114832647,69.99762801982864,2.5997588617291615e-07,120.00000119506798,24.78723182122683,1.274,1.0266409836796937,0.0,0.0,0.0,0.0186979513961862,1.747791994374917e-09,-0.0013624931601664,7.706724512977917e-08,2.6923621797558364e-05,4.364838536947241,54.85936171416122,6.362598652663785,40.97486885600156
0.18,31.222215014088988,131.01039402363364,3.4935801365785646,4.353948305387995,0.0003681615230806,33.992183768165326,0.0005718025428208,3.310131992647221,407.1015672119096,6.81502088160835,2.810667639293692,69.99684761766231,3.794979223522764e-07,120.00000144728236,28.437950785509614,1.274,1.0266048342046536,0.0,0.0,0.0,0.020027681385988,2.3221419748804155e-09,-0.0016616990447559,1.0147209890543081e-07,3.517105786247627e-05,4.353948320923495,52.99157233768714,6.815078712285162,34.152972512863755
0.19,31.22221488419521,131.01039429023237,3.558399965607869,4.432620772533925,0.0003996774584738,38.45149959021069,0.0005986099513107,3.304145139297767,448.95313283182486,7.1223367465208405,2.946425726785696,69.99589577323147,5.440084577183829e-07,120.00000176148238,31.060341085698347,1.274,1.026566130444714,0.0,0.0,0.0,0.0209308229359413,3.022391489754689e-09,-0.0020041563310821,1.3135864879722746e-07,4.433199397898183e-05,4.432620790516937,51.77883352025967,7.122399527709208,38.59320142454953
0.2,31.222214751373183,131.01039456280608,3.624052454705669,4.443889400961181,0.0004246617145652,35.23432408779927,0.0006337972852267,3.2968110145188256,418.5156301991588,7.530482904611057,3.1167566004785483,69.99474776398331,7.478025600151903e-07,120.00000211715036,34.72195181863731,1.274,1.026529240027363,0.0,0.0,0.0,0.0221302820454282,3.866698391504749e-09,-0.0023849544920781,1.668144671071589e-07,5.57780533277244e-05,4.443889421210987,50.22448880200342,7.530549610317194,35.38822625098952
0.21,31.222214608673173,131.01039485566503,3.6948551453492566,4.493351735844891,0.0004538195602194,33.79371564104691,0.0006629296043866,3.2891790438445727,404.8187610144608,7.868284042829251,3.2629204975089228,69.99338155599101,1.0150082652278477e-06,120.00000255293388,37.906665490338085,1.274,1.0264923657015164,0.0,0.0,0.0,0.0231230169900677,4.871073773182836e-09,-0.0028117605859743,2.089322918608601e-07,6.870935089180403e-05,4.493351758715364,48.992529909481824,7.868355328639073,33.95340801819282
0.22,31.22221446109996,131.01039515850383,3.767700382407304,4.5412639153933885,0.000482649303782,41.008966751568416,0.0006914639179131,3.2808061382386606,472.5421858721387,8.20057841132235,3.4071691679735228,69.9917708347139,1.3454961520984431e-06,120.00000305929996,41.175744234065135,1.274,1.0264494137127138,0.0,0.0,0.0,0.0240995709751246,6.054779813287368e-09,-0.0032829112061357,2.580881224843564e-07,8.3609968899004e-05,4.54126394098788,47.82515604752711,8.2006542256977,41.13999323561041
0.23,31.22221430675399,131.0103954752338,3.843768625625224,4.52371495179584,0.0005047555656171,33.98493478127787,0.0007294889663961,3.2705214710765107,406.340642146096,8.647938096586296,3.5908865300848416,69.98989017772566,1.7539876018835507e-06,120.00000365514876,45.79040229326471,1.274,1.0264133390858623,0.0,0.0,0.0,0.0254142776666487,7.436335125872812e-09,-0.0038001790077148,3.1489825108822685e-07,0.0001020628978177,4.523714979897577,46.31461705147579,8.648017383405135,34.14194053232237
0.24,31.222214142622448,131.0103958120587,3.92493179063287,4.57837522350066,0.0005351929930195,35.051650311058864,0.0007555049947555,3.26053011385611,416.2328240017099,8.954297884844461,3.72617527247482,69.98771316795013,2.25257161141768e-06,120.0000043564586,49.09180568115741,1.274,1.0263750048312463,0.0,0.0,0.0,0.0263146218848643,9.034877387788232e-09,-0.0043732521010013,3.809642748985157e-07,0.00012161410144,4.578375254714954,45.32798984252032,8.954381952763216,35.20297212911011
0.25,31.22221397517227,131.0103961556623,4.0071748888306855,4.6034117733065,0.0005618935542827,36.03738579534623,0.000785606492708,3.249069743648399,425.3640807915084,9.311611941121669,3.8789349536029696,69.98520781816889,2.8559738498748624e-06,120.00000517181904,53.08749562138344,1.274,1.0263373768840591,0.0,0.0,0.0,0.0273647110956883,1.0873791100894836e-08,-0.0049950711786164,4.5609738277273444e-07,0.0001444478241125,4.603411807525074,44.2165428352526,9.311700203154778,36.183554686886296
0.26,31.22221379934012,131.01039651647062,4.09364247475714,4.621386912291471,0.0005881033207375,39.29107511182762,0.0008162761165496,3.236407051295005,455.80158342417656,9.67833954512075,4.034902068846398,69.98234620927953,3.5784678110229355e-06,120.00000612171208,57.350948423913096,1.274,1.0263006300381676,0.0,0.0,0.0,0.0284424679130479,1.2973286442992724e-08,-0.0056712051373577,5.414206381221602e-07,0.0001704578711045,4.621386949630312,43.12063533194282,9.678431924174348,39.42414126789902
0.27,31.222213616776543,131.01039689108487,4.183310605341074,4.617158109135719,0.0006115457810536,35.90419462403674,0.0008503454714941,3.221982799915672,423.8421996598744,10.088790784535757,4.205862468567124,69.97909721779352,4.436165972465058e-06,120.000007221354,62.31798301949865,1.274,1.026260090595354,0.0,0.0,0.0,0.0296487219805601,1.5355910600537293e-08,-0.0064045199323113,6.379142666348734e-07,0.0002006609239367,4.617158149547818,41.94410287616451,10.08888684592241,36.048472443180565
0.28,31.22221342607797,131.0103972823952,4.277051150896916,4.642105655370123,0.0006389739579882,41.51133203546672,0.0008785747638736,3.2071101123224945,476.3468732012228,10.432377224420517,4.35383399240675,69.97542808435722,5.446665372087172e-06,120.00000849080963,66.63429581008447,1.274,1.0262212716723291,0.0,0.0,0.0,0.0306584788590473,1.8045308789081613e-08,-0.0072006835403936,7.469524967369969e-07,0.0002332868227611,4.642105699250441,41.0023231023774,10.432477594215127,41.63503624837164
0.29,31.22221323001776,131.01039768469093,4.373143569786686,4.62134615173668,0.0006600657405645,33.17552944492765,0.0009148746278066,3.1894209319791806,397.9703104221098,10.876662296046485,4.536381530986506,69.9713027936179,6.629751536885327e-06,120.00000994797426,72.43000748232016,1.274,1.026183007522519,0.0,0.0,0.0,0.0319641703260467,2.1067646517035105e-08,-0.0080566154554079,8.688043379161898e-07,0.000272130659453,4.621346198772975,39.83162628795024,10.876765978930557,33.32848872465723
0.3,31.22221302403368,131.01039810736614,4.4744193758467325,4.664362353358112,0.0006905183788532,31.08096762732793,0.0009381960428197,3.172549142946348,378.1859457108735,11.168362145070317,4.66647911311536,69.96668711012893,8.005507138509574e-06,120.00001161892672,76.36634300732833,1.274,1.0261430389738484,0.0,0.0,0.0,0.0328214509167604,2.4447409007156216e-08,-0.0089829108229115,1.0056222251461646e-06,0.0003115527202986,4.664362404357781,39.09908960432563,11.168470611443622,31.242464973103964
0.31,31.22221281503337,131.01039853619727,4.576593712520673,4.700143580504286,0.0007196683316923,32.79732593144512,0.0009620705970519,3.154230688182399,394.1656220930229,11.470279728974068,4.800072153432283,69.96154070456518,9.597499105113692e-06,120.00001352112182,80.55022837857167,1.274,1.0261054058068628,0.0,0.0,0.0,0.0337087616009043,2.8214060606649844e-08,-0.0099686353219717,1.1565909895184251e-06,0.0003550834484269,4.700143635477137,38.36463422765983,11.47039277421126,32.94865339301887
0.32,31.222212598991007,131.01039897947376,4.68216432480395,4.718667719113184,0.0007464384342556,35.7316568886908,0.0009885845337584,3.133859770838664,421.5593934624264,11.808280530415894,4.946054328851105,69.95582953472353,1.14278227255889e-05,120.00001568218067,85.36654007972253,1.274,1.026068246703101,0.0,0.0,0.0,0.0347021168382987,3.2392058795580455e-08,-0.0110163301561155,1.3226102501723267e-06,0.0004039614423012,4.718667778018562,37.5686120062341,11.808397780690962,35.8688218659563
0.33,31.222212376029034,131.0103994369436,4.791055524254013,4.72141404831576,0.0007708346814671,35.42013590291081,0.0010176135371143,3.1111955852784385,418.5156301991632,12.181577273013426,5.104163223586657,69.94951809396906,1.351997394754887e-05,120.00001812674968,90.84831229869296,1.274,1.0260310883392356,0.0,0.0,0.0,0.0357992034445943,3.700677535501642e-08,-0.0121310534481307,1.5051409581878843e-06,0.0004588955105349,4.721414111097893,36.7208578211118,12.181698355442045,35.55651229220977
0.34,31.222212145785647,131.0103999093516,4.903491659547144,4.73024573449122,0.0007962944975467,27.63851074646407,0.0010446307681611,3.0871492806781062,345.4656368807584,12.53557620048282,5.2556261014174765,69.94256797855994,1.5899658158227497e-05,120.000020882338,96.20413272674828,1.274,1.0259901535019136,0.0,0.0,0.0,0.0368395817555172,4.208561016221623e-08,-0.0133180771902383,1.7057647550599631e-06,0.0005184333231541,4.730245801363397,35.94841996438923,12.535701282129995,27.810389570354005
0.35,31.222211909310875,131.01040039453565,5.018822212845608,4.780248518778662,0.0008286678570753,30.332092807652543,0.0010618579815451,3.063967690608957,370.5765700527057,12.774786382148209,5.367579971644358,69.93493776125636,1.8594985713558667e-05,120.00002397748868,99.9096898192772,1.274,1.025950003202184,0.0,0.0,0.0,0.0375426220587071,4.7658312175989686e-08,-0.0145774693288123,1.9252724355785177e-06,0.0005782798420984,4.780248590437683,35.44790728185619,12.774916548990808,30.486451961956565
0.36,31.22221166933814,131.0104008868675,5.135354490370708,4.798132156899578,0.0008554457330409,34.32674769697476,0.0010851169437774,3.0374319611165923,407.8625232777224,13.09301701329486,5.506730645516068,69.92658597246795,2.163521613217148e-05,120.0000274401514,104.94818266210537,1.274,1.0259105142325406,0.0,0.0,0.0,0.0384778908056978,5.3755109608570216e-08,-0.0158991451700967,2.162609490834569e-06,0.0006464142451675,4.798132232978766,34.796094028187134,13.09315138639638,34.46087058603792
0.37,31.222211421355144,131.01040139563804,5.255882891363927,4.797392186816851,0.0008791822061288,32.551601855236584,0.00111162791192,3.0078619428913056,391.1218908297639,13.457513730739372,5.661815946371007,69.91747693543164,2.5047738471809164e-05,120.0000313040604,110.87154396328836,1.274,1.025872170958032,0.0,0.0,0.0,0.0395491312153729,6.040098808671168e-08,-0.0172926678053148,2.420031948898497e-06,0.0007226353721561,4.797392267189059,34.07332166419882,13.457651832357364,32.69027405888565
0.38,31.22221116634284,131.01040191882743,5.379799334000849,4.811698494594017,0.0009057112478668,34.02947987649063,0.0011338447913587,2.9774881690446744,404.81876101445977,13.77554886562956,5.800899861213392,69.90756948297444,2.886339581486796e-05,120.00003560072224,116.17243393848278,1.274,1.02583050512925,0.0,0.0,0.0,0.0404838339452728,6.762496638941508e-08,-0.0187646375218858,2.69955777313946e-06,0.0008026686661094,4.8116985796350695,33.46655348088405,13.775691134419684,34.15949264475229
0.39,31.222210906095896,131.01040245274032,5.505993307722699,4.813508003664984,0.000929862892873,29.00025983045028,0.0011579891265804,2.9442136901860865,357.6406249338268,14.124492165837273,5.950648592462506,69.8968186645841,3.311602501056718e-05,120.00004036395212,122.13093644173792,1.274,1.02579027384009,0.0,0.0,0.0,0.0415093739609825,7.545934774906889e-08,-0.020311592409804,3.0013532510753577e-06,0.0008908380763632,4.813508093268025,32.821616487639595,14.124638228358922,29.149330452482886
0.4,31.222210638473225,131.0104030017851,5.635788650457906,4.841647069358873,0.0009592124397379,27.71178845184976,0.0011749448424961,2.91135549588368,345.4656368807565,14.390874239274588,6.07193451174791,69.8851815212744,3.783947407715338e-05,120.00004563180136,126.77947425345651,1.274,1.0257493418632293,0.0,0.0,0.0,0.0422922854866381,8.39343718693383e-08,-0.021938519432511,3.3271332720311508e-06,0.0009803271643914,4.841647164150728,32.348088166612904,14.391024912012275,27.864299944624147
0.41,31.22221036681104,131.01040355909262,5.767123077463226,4.86553909860892,0.0009876699832274,31.306062598221665,0.0011918093836199,2.876450850006428,378.9468707766882,14.663028799871563,6.195223154320929,69.87261222561014,4.307011032901644e-05,120.0000514391194,131.6183642808765,1.274,1.025708445186429,0.0,0.0,0.0,0.0430921644173401,9.308325447883581e-08,-0.0236371933433427,3.6760977501392174e-06,0.0010761942383903,4.865539198612839,31.87689439156756,14.663183942709727,31.437931330109585
0.42,31.22221008906472,131.01040412887247,5.901259531771367,4.867510642114694,0.0010118258958528,35.308283402190774,0.0012128114559048,2.8374461227958245,416.23282400171047,14.9952917972178,6.33928625560071,69.85906967380902,4.884273094936628e-05,120.00005782486392,137.64909586091787,1.274,1.0256701057426505,0.0,0.0,0.0,0.0440686959134695,1.0293499639582845e-07,-0.0254093547296826,4.049238334851429e-06,0.0011830797791891,4.867510747027452,31.315270489291198,14.995450734457847,35.422111438762386
0.43,31.222209804115888,131.01040471342728,6.038886819939341,4.854590670645608,0.0010330089741511,31.00586934514032,0.0012363751872706,2.794478603999558,375.90313951343126,15.369430568701889,6.497852263156962,69.8445117629242,5.519340856908871e-05,120.00006482835984,144.60167924299955,1.274,1.0256308158337524,0.0,0.0,0.0,0.0451682983415116,1.135186446762958e-07,-0.0272634397889413,4.449073329427772e-06,0.0013010625065656,4.854590780289497,30.70250814963406,15.369592833372094,31.13154422839874
0.44,31.22220951192321,131.01040531284193,6.180028459770617,4.866912332640401,0.0010595850174406,28.57707721036899,0.0012525768202179,2.752165534925872,353.07501253892326,15.659290812546615,6.627318538707029,69.82889155423543,6.216182865383864e-05,120.00007249162944,150.1053167542629,1.274,1.025586171750536,0.0,0.0,0.0,0.0460202245100907,1.2486676023179565e-07,-0.0292060158163984,4.8779154055816594e-06,0.001420032405556,4.866912447705031,30.24619499837236,15.659457251771938,28.709297424144207
0.45,31.222209215425703,131.01040592106523,6.322872201489905,4.881836476567178,0.0010866574689855,33.31904824532484,0.0012669045761511,2.7082028218433374,397.2093853562887,15.934249290371609,6.751662050993672,69.81215834018458,6.97909417564726e-05,120.00008085697964,155.42080512416243,1.274,1.0255397023523487,0.0,0.0,0.0,0.0468283602442113,1.3701614206272197e-07,-0.0312276295846745,5.334643585560923e-06,0.0015449645531859,4.8818365972149325,29.82567893138932,15.934419982127675,33.428929688274074
0.46,31.22220891307435,131.0104065412864,6.468371919199588,4.869610441729251,0.0011078049156487,38.95909776354321,0.0012868374716666,2.6582856015412624,449.7140588976424,16.292139278621757,6.904766425053949,69.79426683863348,7.812149592850748e-05,120.00008996920153,162.4785746623087,1.274,1.02549635315424,0.0,0.0,0.0,0.0478802236363867,1.499987870203256e-07,-0.0333272350234362,5.819761874615242e-06,0.0016858511402973,4.869610567434908,29.29014635640275,16.292313292210977,39.04968351401366
0.47,31.22220860266524,131.01040717804253,6.6178810515614845,4.838450928223533,0.0011247917292402,26.253747818137555,0.0013104398935566,2.6026193242279367,331.0078106302504,16.710658191447514,7.078951441335346,69.77517236812905,8.719457259907165e-05,120.0000998741591,170.9309671061642,1.274,1.025453319323251,0.0,0.0,0.0,0.0491102725711187,1.6384464803343264e-07,-0.0355167087264168,6.3368207228363735e-06,0.0018427306558807,4.838451058652396,28.68386015667837,16.710834873319172,26.382435512333956
0.48,31.222208284201663,131.0104078313267,6.771393590864176,4.869339340099417,0.0011561785713505,25.860860976019296,0.0013165328518772,2.5543454292827983,327.20312230115803,16.911139899671,7.177575416403102,69.75482343794755,9.70562828082882e-05,120.00011062072316,175.0543877818846,1.274,1.0254092882449153,0.0,0.0,0.0,0.0496995461609974,1.7858865391586845e-07,-0.0378054080201581,6.88909442277235e-06,0.0019849793891693,4.869339477030596,28.40887970825325,16.911321511776286,25.986704537635287
0.49,31.22220796480208,131.01040848648364,6.924537656029012,4.881367714530694,0.0011829003785372,32.565703383222065,0.0013261973190012,2.5011623511055703,389.6000096981238,17.169005224738054,7.296160258358563,69.73316318155707,0.0001077573203115,120.000122255028,180.4309832312717,1.274,1.025367445590036,0.0,0.0,0.0,0.05045746454003,1.942747077649401e-07,-0.0401641298712614,7.47069711110948e-06,0.002140948887153,4.881367857509675,28.058569663954906,17.169191034294997,32.66161128464712
0.5,31.222207637929923,131.01040915697027,7.081324512896956,4.862566137860805,0.001202418260511,33.47759680712428,0.0013425340759632,2.4399894027711366,397.970310422106,17.52898693231981,7.450304424940405,69.71015149227495,0.0001193385310595,120.0001348274002,188.0736471953394,1.274,1.0253278572281015,0.0,0.0,0.0,0.0515154948878309,2.109295159784217e-07,-0.0426011733481599,8.084173008518589e-06,0.0023184335011768,4.862566286171007,27.57768313050809,17.529175807738486,33.56639745442473
0.51,31.22220730314019,131.01040984370235,7.24202048914867,4.8479762258125,0.001223054804074,25.49162310288008,0.0013562860883156,2.3767006597692686,323.39843497208153,17.86914397471067,7.597652147346554,69.68574349602717,0.0001318441288964,120.00014838524436,195.4407439266201,1.274,1.025286455263166,0.0,0.0,0.0,0.0525152689856776,2.2858192086249162e-07,-0.0451315948093539,8.734206149830708e-06,0.002503767471626,4.847976379721193,27.13799345359824,17.86933609171003,25.602178740977283
0.52,31.222206962738102,131.01041054193402,7.405210501673173,4.865306299521403,0.0012516517170965,30.733671928447727,0.0013599291289974,2.317711624364424,372.098451184342,18.08534843773428,7.701914987606457,69.65988568649581,0.0001453248538387,120.00016298000436,200.19561780583155,1.274,1.0252426840672306,0.0,0.0,0.0,0.0531507657929359,2.4726951523704535e-07,-0.0477531686556663,9.421346966092632e-06,0.0026812161964639,4.865306460134566,26.8699055233151,18.085545046726228,30.820940596104087
0.53,31.222206619320115,131.01041124632013,7.569307468221277,4.848802699234936,0.0012715119568563,32.301199055744725,0.0013711327835325,2.2490252325653923,386.55624643486095,18.41963113311156,7.8474319110539055,69.6325258319474,0.0001598315062727,120.0001786629144,207.6614205945027,1.274,1.0251993415311351,0.0,0.0,0.0,0.0541332845214831,2.67031759303889e-07,-0.0504479325599339,1.0141887756417996e-05,0.0028848299490111,4.848802865552398,26.45837260670532,18.419830861742675,32.37940050117613
0.54,31.22220626697288,131.01041196903336,7.737918664599091,4.831496690588052,0.0012913635058467,28.31291960103712,0.0013809098107221,2.177242866245296,349.2703242098436,18.75116898748492,7.992112829440902,69.60362200959217,0.0001754082864028,120.00019548734956,215.20067397992847,1.274,1.0251561018460285,0.0,0.0,0.0,0.0551077428911958,2.878941684235108e-07,-0.0532336286085667,1.090122304443916e-05,0.003098869611663,4.831496862756785,26.061835558272342,18.751371834390056,28.396510432451375
0.55,31.222205908994248,131.01041270328463,7.909026079894722,16.926145910542473,21.867809829269504,30.9209585032238,-1.5629167197966192,1.284649892361431,365.2500005919912,23.311818853880887,8.113323699629928,69.57312211246325,0.0001921068626005,120.00021350480982,332.60755958266367,1.274,1.025112921033824,0.0,10.025614263783408,0.0,0.068511152573491,3.0989272306468813e-07,-0.0561100530405476,1.1700476995263424e-05,0.0040606783378885,27.39650053572576,44.75010101150643,26.664016837543148,30.987073252842908
0.56,31.222205546564343,131.01041344664463,8.081909946161325,25.84371128734607,-0.0520423560201111,28.920678530929287,-0.358518402614174,-0.0259102289191752,346.22656194657776,25.31932448988769,8.24370876953435,69.54097415464405,0.0002099796112633,120.00023276987916,392.3528541349901,1.274,1.0250709539098009,0.0,10.062191141780394,300.0001285565649,0.0744111601560327,3.3292051977349045e-07,-0.0690085882480278,0.0189385669121715,0.0054241263542985,25.84376008424293,31.97166794422691,25.31114969684435,28.922912257833403
0.57,31.22220518105916,131.01041420589075,8.258547605517315,25.60499247008621,-0.0435531104230021,28.64682105989265,-0.36140137540655,-0.5707872515993269,343.1828296833045,25.59934352152625,8.348264426232312,69.50143310747288,0.0292380856677736,120.03121933929825,401.072492790264,1.274,1.0250279191823897,0.0,10.098482259245095,300.0001285565649,0.0752342601861021,3.715038406580957e-07,-0.0945880078324816,0.0188709181622792,0.0075167841811116,25.605027011831385,31.67930834165789,25.5925022155978,28.654786090254504
0.58,31.22220480852428,131.0104149697193,8.437178246442343,25.361055230005693,-0.0526043839675891,37.61922776580232,-0.3628907090291622,-1.136273078056362,426.12500585731766,25.88677096731129,8.459444955096,69.44723071234414,0.0580073115755431,120.0619389348904,410.1224416129713,1.274,1.024981594484354,0.0,10.134876624800247,300.0001285565649,0.0760791379401039,4.208101026560007e-07,-0.1205366079364154,0.0188114502115621,0.0096862700311776,25.361106176047144,31.370876129228176,25.878507891161213,37.6381336395673
0.59,31.2222044318687,131.01041574625268,8.618601261139569,24.98059591828456,-0.0612504008340553,30.633678027075607,-0.3665990994377068,-1.7524491269255396,360.68438819710633,26.29706393207672,8.618275085363017,69.37815556196169,0.086469909407021,120.09234335032912,423.2185845381544,1.274,1.0249386802161349,0.0,10.171040314215317,300.0001285565649,0.077285114140579,4.809854682002534e-07,-0.1468616840783581,0.0187403998464842,0.0119885849663942,24.98066618929367,30.911640866280376,26.287442743444764,30.685952849939426
0.6,31.222204046082776,131.01041654078253,8.805052172429361,24.73007355190304,-0.0699960896579666,27.33035761053381,-0.3672263507550482,-2.3586162716590664,329.4859594986072,26.57187327512456,8.724470730830669,69.29399210616259,0.1145488658941296,120.12235301986452,432.102496727045,1.274,1.024891335813742,0.0,10.207130453685409,300.0001285565649,0.0780929226093759,5.521662478201274e-07,-0.173692148378951,0.0186570425446081,0.0143267190222729,24.73016638110496,30.607706310494255,26.560878317807006,27.434401269743198
0.61,31.222203658578508,131.01041733876522,8.992159448022182,24.48207578568537,-0.0786327440613737,31.96684455793724,-0.3672741196431257,-2.9784708111711486,372.0984511843332,26.83361399718653,8.825650697108891,69.1944509479585,0.1421672796932403,120.15188832796468,440.6491777740293,1.274,1.0248423929069768,0.0,10.243570208582211,300.0001285565649,0.0788623271944791,6.345598896813917e-07,-0.2008558743511323,0.0185615045077176,0.0167301674308642,24.482194283207637,30.312296201493105,26.821262398510125,32.107403034865335
0.62,31.22220326578729,131.0104181475163,9.182053809127396,24.146894285834296,-0.0869024773831175,39.63064824680352,-0.3685525962275766,-3.641822911472493,442.86563930529206,27.17340490087295,8.957606170585068,69.0793413663116,0.1692511203660251,120.1808725353365,451.8713732575616,1.274,1.0247996097896497,0.0,10.279500341076613,300.0001285565649,0.0798611226659487,7.282994868484546e-07,-0.2283232491241548,0.0184535659474635,0.0192585177553933,24.14704129267533,29.92256513349069,27.159754296880504,39.79933398433425
0.63,31.22220286575552,131.01041897100708,9.375871164291018,23.72541867559672,-0.094739594007408,22.79475482637096,-0.3711006734294208,-4.359596810245108,286.11251274707456,27.597326803160986,9.122764845870842,68.94848963525568,0.1957291466079101,120.2092316272069,466.0716203556545,1.274,1.024756158874558,0.0,10.315320810217097,300.0001285565649,0.081107182852663,8.335029398997899e-07,-0.25616597667624,0.0183325975828238,0.0219436588766023,23.725596893503635,29.43874835924892,27.582445149315475,23.210873478869363
0.64,31.222202457558765,131.01041981109495,9.574118717211896,23.53783464674915,-0.1032559847639377,22.4258924539808,-0.3680681776747317,-4.999268865484903,282.3078244179702,27.755464157899937,9.184175528411217,68.80168097404037,0.2215323315335761,120.23689366072765,471.419288065738,1.274,1.024708534665538,0.0,10.351251540673882,300.0001285565649,0.0815721231763364,9.503195720213585e-07,-0.28446179475819,0.0181978189663736,0.0245066953756714,23.538048241315074,29.232085051356503,27.739244754520744,22.979312777590554
0.65,31.22220205144456,131.01042064684756,9.770779040306875,23.271689467074715,-0.1113971969517864,39.10247258769675,-0.3661023681065979,-5.67722450807172,436.7781447787504,27.985789631727965,9.274337986322456,68.63865606853663,0.2465938763164729,120.26378873458424,479.2667365272963,1.274,1.0246641738210605,0.0,10.387372621556867,300.0001285565649,0.0822492223792323,1.0789688521122414e-06,-0.3128853970246334,0.0180503618950048,0.027178593011814,23.27194125903841,28.940193080520107,27.96829141197343,39.51415280036457
0.66,31.22220163818175,131.01042149709954,9.97123155719576,22.79148967390673,-0.118493842023336,33.38962012958114,-0.3681452851420116,-6.475513820927208,383.5125151715984,28.44745284648248,9.456859145129105,68.45934205057029,0.2708550368680164,120.28985522572408,495.19992515825953,1.274,1.0246195561629028,0.0,10.422593790310335,300.0001285565649,0.0836062229161202,1.219506924595914e-06,-0.3415003407290426,0.0178896678300277,0.0301529827269062,22.79178127827742,28.405567447191927,28.428839890570828,34.01374049694802
0.67,31.222201213494447,131.01042237051013,10.177859293331792,22.43663338731853,-0.1259957588012941,23.24172187698168,-0.3667810400534632,-7.228863933688142,289.15624401033847,28.754215863365985,9.578701747103976,68.26362964800286,0.2942610211085447,120.31503532514508,505.927444073952,1.274,1.024572383541697,0.0,10.457893829083726,300.0001285565649,0.0845079873464477,1.3719970335335548e-06,-0.3705456521307748,0.0177140299555741,0.0330697098770414,22.43696888667001,28.02315186741825,28.73442451180542,24.342732753536293
0.68,31.22220078752533,131.010423246417,10.384814379055973,22.164229792785044,-0.1338112317174887,28.83836339417328,-0.3628895521615889,-7.940599266138727,340.89999248584934,28.94743562721808,9.655793256901685,68.05127263261264,0.3167580734929341,120.33927187342664,512.7394625452769,1.274,1.0245245285832842,0.0,10.493650266294996,300.0001285565649,0.0850760544758496,1.5366551292727067e-06,-0.3998199344276379,0.0175241363517696,0.0359213825910422,22.164613363751613,27.743447324996207,28.92641662719888,29.913809666889044
0.69,31.2222003587777,131.01042412787487,10.592967062500716,21.77746246329713,-0.1409146226149768,35.329618051353634,-0.3608690459897859,-8.729331146998318,401.0140726853658,29.265372608121307,9.783976482307729,67.82214020303897,0.3383002934661031,120.3625156995145,524.0539337872668,1.274,1.024479631064582,0.0,10.528864924838308,300.0001285565649,0.086010668200256,1.713615968431052e-06,-0.429171792284669,0.0173205983742438,0.0389811862064362,21.77789619562838,27.336158660649577,29.243237813276497,36.39386432349334
0.7,31.222199921326844,131.01042502688816,10.805584808950996,21.330153919079848,-0.1475203039038861,29.745241698888048,-0.3595143617266737,-9.573804569250076,349.270324209851,29.648349681224367,9.939774405658175,67.57618831661891,0.3588496878908675,120.38472565210309,537.8486103858843,1.274,1.0244351749185203,0.0,10.563729151802152,300.0001285565649,0.0871364434017635,1.902915248338544e-06,-0.4587130908415439,0.017102333568912,0.0422087620111369,21.330640254567548,26.863872902540948,29.62517727167665,31.25006221164607
0.71,31.22219947667332,131.01042594037807,11.021746311534516,20.955024749644924,-0.1544390895449523,24.5621320508783,-0.3557437825456157,-10.374892630910663,301.3312640634036,29.9242011965936,10.05310466239912,67.31330883360076,0.3783717609616664,120.40586381837684,547.8922027276265,1.274,1.0243880468141104,0.0,10.598754880492669,300.0001285565649,0.0879473849546679,2.10464520224504e-06,-0.4884848264878807,0.0168685925687534,0.0453654878203194,20.955568248476663,26.48345935504935,29.89994199051268,26.665769848750426
0.72,31.222199029154748,131.01042685954897,11.239049156276003,20.60115771630346,-0.1614035213730958,29.88280070815822,-0.350711264702436,-11.158957860393937,350.7922053414578,30.154269349826773,10.14869798275346,67.03337012712517,0.3968364896662437,120.42589657265036,556.3377693654203,1.274,1.024337302174265,0.0,10.633741041058428,300.0001285565649,0.0886237737338217,2.31895426616272e-06,-0.5183386727309701,0.0166200480986708,0.0485070988563441,20.60176249513172,26.13534479357781,30.12891617750852,31.900268291736015
0.73,31.222198577239965,131.01042778749633,11.458310513546992,20.1634960805819,-0.167663438751159,37.574698025664645,-0.346880879687082,-12.01764447098051,422.3203185282354,30.48390548950328,10.286960503578676,66.7363255628432,0.4142220050590029,120.44479857211034,568.5556688933019,1.274,1.024292465384646,0.0,10.668367812892551,300.0001285565649,0.0895928000809738,2.545921678833098e-06,-0.5481947972803657,0.0163569794402682,0.0518608046175422,20.164164129275928,25.69428399259308,30.45756901571752,39.45126153490491
0.74,31.222198116983684,131.01042873217165,11.68155821281017,19.658681513710043,-0.1732632295343742,23.721942830999648,-0.3438609288641952,-12.950685126152315,294.4828134710563,30.89807763333664,10.462453353081903,66.4221742457748,0.4305134211608875,120.46255149705324,584.0975582548108,1.274,1.0242470321640116,0.0,10.702769447331075,300.0001285565649,0.0908102889065964,2.785558249699239e-06,-0.5781253070271422,0.0160783737489077,0.0554342102732009,19.659414834288796,25.179331637601383,30.870861550364864,27.029040997644696
0.75,31.22219764805623,131.01042969421016,11.908858076064332,19.297828301570814,-0.1798998642363239,27.53205294367597,-0.3365296713846148,-13.736176905255558,330.24688556441737,31.08196222508944,10.542266132677016,66.09087395882808,0.4456994727517903,120.47914039963403,591.0576568452992,1.274,1.0241984712898409,0.0,10.737208343380194,300.0001285565649,0.0913509649703322,3.037904982981652e-06,-0.6081810055248643,0.0157832354008483,0.0586619135042406,19.298634872869705,24.84571973868641,31.053703666927923,30.770273763578626
0.76,31.222197180128568,131.01043065409937,12.135194726290482,18.846015806006623,-0.1856697208587186,29.51826837962877,-0.3306115642357778,-14.613414814812822,349.2703242098581,31.38624854923624,10.67479321729766,65.74235335401121,0.4597725112463357,120.49455369597014,602.6738821956403,1.274,1.0241522053390697,0.0,10.771699208646,300.0001285565649,0.0922455085799763,3.3031243404357086e-06,-0.6380844675929939,0.0154737506419613,0.0621474177034221,18.846897163848052,24.40933617392133,31.357083668728247,32.939176745753514
0.77,31.222196702221563,131.0104316339638,12.36613909257214,18.37576231086329,-0.1911482273123014,27.54236406906728,-0.3242910366176254,-15.508710725722178,331.76876669606884,31.701832375722464,10.814291160794488,65.37670005007466,0.4727356699787185,120.508791062908,614.8407601400016,1.274,1.0241065975906936,0.0,10.80552385250404,300.0001285565649,0.0931732655229955,3.581152608269624e-06,-0.6679228192462702,0.0151486534991527,0.0657062255468737,18.376722143045388,23.95860245202535,31.67180693808619,31.610237132353323
0.78,31.22219621867871,131.01043262502657,12.599387964609276,17.917029885714634,-0.1966100643524445,22.58981041220557,-0.3168433195671457,-16.38326069863944,286.8734378128874,31.981722535562746,10.940110192016173,64.99395170904225,0.4845944182448816,120.52185419066872,625.731321889579,1.274,1.0240588105546735,0.0,10.839517629289084,300.0001285565649,0.0939961240063224,3.871996835568812e-06,-0.6976647572948153,0.0148077784790815,0.0692364484308676,17.918073198078048,23.529961369151724,31.950839159482623,27.907188236512276
0.79,31.22219573010705,131.01043362605876,12.83460097524184,17.481140690803446,-0.2022015929892582,31.86081791246128,-0.3079802575610505,-17.21151000643989,373.6203323159581,32.201948690586555,11.041399740403882,64.59416392008077,0.4953588176498819,120.533749302574,634.3642355080724,1.274,1.0240083170932772,0.0,10.873314799488623,300.00012855656485,0.0946436325113106,4.1756692270466e-06,-0.7272334584734995,0.0144515008248133,0.0726661818808165,17.482273557529773,23.138533049627306,32.17018700456164,36.21384606185652
0.8,31.22219523766964,131.01043463471544,13.071179829530765,16.945080507149743,-0.2065984795638692,32.14158686910936,-0.3007689392376554,-18.17489093450112,377.42502064505805,32.58005777050304,11.21540884502266,64.17743626624903,0.5050442652037693,120.54448801205886,649.3341083298805,1.274,1.0239625010683884,0.0,10.90683359517692,300.0001285565649,0.0957551753988816,4.492162233527296e-06,-0.7565294459360645,0.01408055848388,0.0764793443315361,16.946302976285587,22.63057733174106,32.54760542754515,36.92558366363793
0.81,31.22219473385701,131.01043566606398,13.31259198638223,16.42143740592521,-0.2109818483915252,20.795238954733936,-0.2923466028535159,-19.11250342150541,273.9374926939922,32.92011119781832,11.375024861995724,63.74392531798141,0.5136716989052899,120.55408761849748,662.9442905528953,1.274,1.0239149950770308,0.0,10.94004925029256,300.0001285565649,0.0967548808488316,4.821323117524812e-06,-0.7856568156392871,0.0136931226637881,0.0802510229551889,16.422755379368645,22.147100643204247,32.88697032146689,28.24562296635958
0.82,31.22219422474052,131.01043670789542,13.555883122270004,15.97169911214269,-0.2161358082494139,26.565121006885327,-0.281188256793815,-19.90373334729385,328.725004432774,33.098108599991406,11.462458550419976,63.29372796840142,0.5212620242176319,120.56256493504324,670.1170286751985,1.274,1.0238644186635044,0.0,10.973443852350089,300.0001285565649,0.0972782966887804,5.163129435682717e-06,-0.8145289512041022,0.0132896728700571,0.0836480760163087,15.97312339179738,21.767625127165463,33.06415814714261,33.195531658739796
0.83,31.2221937143324,131.01043775216368,13.799228770520513,15.439990694676192,-0.2201563283991555,33.63445908970274,-0.2712727095018936,-20.816617491049136,395.6875032246518,33.415813773938794,11.616765511260336,62.82699071675128,0.5278404522445314,120.56994116184028,683.0275725689496,1.274,1.0238188483711983,0.0,11.00660342426328,300.0001285565649,0.0982123302068991,5.5175920242185466e-06,-0.8429525583778267,0.0128723728969245,0.0873959445168347,15.441522026397656,21.293036843019653,33.38123178383924,39.55606136748779
0.84,31.222193192764088,131.01043881864433,14.046987569218008,14.86317503499475,-0.2234191867112053,20.41189990935592,-0.2616071558034523,-21.80206060896284,275.45937482564227,33.81039449689106,11.810440075142788,62.34397080003678,0.5334389479065766,120.57624472369116,699.2368292832106,1.274,1.0237739661568126,0.0,11.039286281018317,300.0001285565649,0.099372319146244,5.88446952209576e-06,-0.8710035952145015,0.0124395954642401,0.0913683869487612,14.864816295791387,20.76976931854576,33.77529998204631,29.867104697483164
0.85,31.22219266200384,131.0104399033693,14.298117970979112,14.3795854701026,-0.2278572830848178,22.09393624588997,-0.2486852538939043,-22.566124619625658,292.9609323393965,33.98230158675193,11.90061888081546,61.84488190019556,0.5380887048789466,120.58150286231168,706.3483327750243,1.274,1.0237227741398531,0.0,11.072041051960772,300.0001285565649,0.0998778552237105,6.263573843689103e-06,-0.898692090666738,0.0119904464767883,0.0947499539378967,14.381352598530867,20.38071237487524,33.94650994276508,31.582176041897906
0.86,31.2221921321321,131.01044098615063,14.548267084060356,13.844465104880529,-0.231436382429371,27.63210078557992,-0.2362832703084205,-23.40588078833732,346.2265619465616,34.24525596307427,12.036772951076788,61.32993192079734,0.5418213876905678,120.58574304876444,717.3048131641733,1.274,1.023674789281455,0.0,11.104747046271644,300.0001285565649,0.1006509921565023,6.654911923114402e-06,-0.9257804106466498,0.011528155246432,0.0983588106715018,13.846361627615275,19.935039662099253,34.20890211999298,36.21358970174225
0.87,31.222191592180685,131.01044208894237,14.802045786946875,13.26859583095001,-0.2342362301989139,25.398946786675666,-0.224071180116574,-24.311374919788115,327.9640783669946,34.583419870696424,12.212953213157034,60.79946491408416,0.5446755340775252,120.5890003483656,731.5233647821361,1.274,1.0236288969245204,0.0,11.136861783588785,300.0001285565649,0.1016451882438827,7.058178949375044e-06,-0.952293405907128,0.0110517571538801,0.102172258890172,13.27062611882902,19.44639305533964,34.54662623218743,35.15963105973445
0.88,31.222191043394965,131.010443209234,15.058766916538673,12.707695921230988,-0.2371243334961304,21.4987114466994,-0.2106395960662582,-25.146693338287,294.4828134710421,34.86552801376322,12.364447879029887,60.25381065449032,0.5466889470232578,120.59130882550448,743.4882567596602,1.274,1.0235805388426191,0.0,11.16898169044723,300.0001285565649,0.1024746377417216,7.473075148858952e-06,-0.9782333697385954,0.0105604739630216,0.1058089229371262,12.709871697296457,18.99091876054468,34.828280716887186,33.08466636914633
0.89,31.22219048946204,131.0104443396455,15.316867719191269,12.154186672992722,-0.2400107733291129,23.44043404744126,-0.1962296342334236,-25.918967673434448,315.02813424808807,35.10485947158783,12.497111062924011,59.69329758176002,0.5478988898342319,120.59270179221716,753.7118316662886,1.274,1.0235293752791452,0.0,11.201015920500964,300.0001285565649,0.1031783666578345,7.899391470599252e-06,-1.003501534639745,0.010055418791505,0.109284378907017,12.156520562367405,18.559898681181124,35.06715877773346,34.94689313312894
0.9,31.22218992976977,131.01044548139853,15.576555303852643,11.573691119276672,-0.2422616684780593,25.776414982545745,-0.181732528308397,-26.725994855920984,339.3781423542166,35.39505136864655,12.6587349807558,59.11831070437453,0.5483446347457613,120.59321479332117,766.2052403296475,1.274,1.0234837388140003,0.0,11.232770950709,300.0001285565649,0.1040315883138241,8.336862420608297e-06,-1.0280129247480092,0.0095375892862894,0.1128763868547018,11.576191791575106,18.10496215671508,35.356997108140305,37.131326357982
0.91,31.22218936112984,131.01044664085828,15.83896771305404,10.97661642342895,-0.2440213321034405,18.76567602194156,-0.1668733000105079,-27.54417628727338,277.7421810230785,35.71372337357134,12.838622709948936,58.52928369596349,0.5480667681389955,120.59288488390708,780.0444299346876,1.274,1.023436404813438,0.0,11.264277201499617,300.0001285565649,0.1049685259315188,8.785097132353726e-06,-1.0517466577904917,0.0090066511189701,0.1165191488880641,10.979295252150168,17.640674337945708,35.675392708238,33.32956781302635
0.92,31.2221887840574,131.01044781698755,16.103790154275984,10.407908419681874,-0.2462203255420805,22.47681237507172,-0.1505917865037579,-28.21347721630256,315.0281342480675,35.92167050503444,12.963245731664504,57.92666217084113,0.5471049978506841,120.59174812667985,789.1345964734104,1.274,1.0233859136578225,0.0,11.29567490853186,300.0001285565649,0.1055800323324005,9.24369906494254e-06,-1.07466274598648,0.0084625977394143,0.1197481206395521,10.41078833852127,17.235704700146222,35.882994425780545,36.072566710246214
0.93,31.222188203907617,131.01044899908752,16.369000134554675,9.80370428523982,-0.2474838017560138,26.914662447600545,-0.1345061560762815,-28.960299278539846,359.16250706547066,36.222625645427954,13.14061671413462,57.3109146269506,0.5454984365734713,120.58983994988957,802.3924383444963,1.274,1.0233407575091376,0.0,11.326926109852891,300.0001285565649,0.1064649103727098,9.712380427227656e-06,-1.0966356703438926,0.0079076280802646,0.1232171675653079,9.8067969817158,16.793302626682458,36.18375110163645,39.536262859264994
0.94,31.222187612412604,131.01045020366692,16.637509111445187,9.180055345466323,-0.2480901752197373,18.28299976114624,-0.1181726298860692,-29.73954626465112,283.06875048378083,36.57490594211768,13.349922047724943,56.68258147368864,0.5432880448017765,120.5871981141054,818.0544450971913,1.274,1.0232914783978162,0.0,11.35778255658386,300.0001285565649,0.1075006521680192,1.0190586882970968e-05,-1.1176652595276535,0.0073408343982209,0.1267980854971449,9.183378316340251,16.33723515607028,36.53593615029595,34.91020849356033
0.95,31.22218701102596,131.01045142781615,16.908644031754086,8.589661028682933,-0.2493523284336781,24.35172593416049,-0.1004229858238224,-30.316562117318032,342.421873617488,36.781949368125055,13.482624820696888,56.04220319020937,0.5405124890380905,120.5838578360439,827.3208100811547,1.274,1.0232418269359267,0.0,11.388594628091322,300.0001285565649,0.108109523176125,1.0677783726217527e-05,-1.137718687346561,0.0067619409626614,0.1298004061195201,8.593252391120073,15.955484658344355,36.74278131960812,38.885866061613555
0.96,31.222186407337794,131.01045265638197,17.179756970122217,7.960433571087465,-0.2493817347566657,23.37907268598327,-0.0829737839628032,-31.021087149126632,337.09533515678265,37.125837935234266,13.695265566623796,55.39033903871871,0.5372089237716795,120.57985272238824,842.8410608893848,1.274,1.0231951201821403,0.0,11.419292611048492,300.00012855656485,0.1091206144182073,1.117363342188942e-05,-1.1566615282909187,0.0061738849106488,0.1331918541575694,7.964313731300409,15.527234447091963,37.08666526762667,38.844507619726926
0.97,31.22218578916535,131.01045391368228,17.454863364512082,7.3370736911147505,-0.2493550559716004,12.969149156946116,-0.0647888323713933,-31.64207506348153,245.0218871929888,37.42963459251151,13.889416998208167,54.72762530741908,0.5334162990408919,120.5752188419186,856.6686143962824,1.274,1.0231476260761452,0.0,11.449583666668891,300.0001285565649,0.1100138779228613,1.1677402997348268e-05,-1.1745041152577762,0.0055751076960994,0.1363495675782136,7.341286539023996,15.13015270575128,37.390466115557984,34.19684110807482
0.98,31.222185164394222,131.01045518397385,17.73122449237737,6.739533527407875,-0.2499564141382796,20.667537643722504,-0.0456103849627143,-32.04450879116793,319.593746642963,37.5880704596972,14.002726500469963,54.05469232293208,0.5291702660908632,120.5699885610444,863.9134170010782,1.274,1.0230935628253934,0.0,11.479917158745693,300.0001285565649,0.1104799000750995,1.218855689386479e-05,-1.1911664482440465,0.0049669491316921,0.1388655735064078,6.744145754463959,14.805632909495204,37.54880752252047,38.13134847116139
0.99,31.222184537423768,131.01045645847762,18.007441515870607,6.1053412314921,-0.2491037102368644,22.646757072278152,-0.0267447642054695,-32.612902471154285,341.66094855170127,37.917108316052015,14.21921052028366,53.372216235561744,0.5245062084787635,120.56419426933876,879.0813198818444,1.274,1.0230490803133316,0.0,11.509992197392414,300.0001285565649,0.1114473646193667,1.270665752124604e-05,-1.2065371435276175,0.0043525191983672,0.1418850024828198,6.110401719248615,14.432036538452303,37.87797932002066,39.70488293354124
1.0,31.222183894744656,131.01045776415643,18.28763081870513,5.470929396981496,-0.2479497140298148,19.243332862903667,-0.0074111237411893,-33.132972995158546,314.2672081822764,38.2419299135372,14.437828148314562,52.68093702020305,0.5194605894681475,120.5578701485976,894.183287899293,1.274,1.022999484445133,0.0,11.539665691395983,300.0001285565649,0.1124024476109076,1.323079163017774e-05,-1.2206290616952005,0.0037298187167331,0.1447679440479378,5.47652814910317,14.080469745892524,38.20298218510088,38.31579066253454
1.01,31.22218324393784,131.0104590858798,18.569309360871284,4.844352519430604,-0.2468253620713732,19.976047249014822,0.0124342716989066,-33.53633446827684,324.92031610370094,38.51089087572053,14.626703190385449,51.98158724602928,0.5140660045052577,120.5510460160673,906.7808249550958,1.274,1.0229507481225095,0.0,11.569381224998306,300.0001285565649,0.1131933498649066,1.3760262687743969e-05,-1.233382477170457,0.0030997226004711,0.1473053397229363,4.850621491098446,13.770870926522155,38.472119758430566,39.034963146826705
1.02,31.22218258576864,131.0104604221221,18.852213542867734,4.212447567339644,-0.2451616645962049,15.158970287217596,0.0325302679729929,-33.931036192304774,284.59063161543185,38.81228245577234,14.839330129805155,51.274933703265965,0.508353951857544,120.54375079091426,921.0045241225952,1.274,1.0229039803623294,0.0,11.598875953998176,300.0001285565649,0.114079580901855,1.429441646938086e-05,-1.244726405116128,0.0024640189923712,0.1498195320552955,4.219562822780598,13.47322509602824,38.773772669062055,37.16329715553474
1.03,31.22218191633313,131.0104617806776,19.13738965244352,3.588798087667901,-0.243606644343376,10.675794590062548,0.0529580154312828,-34.18366647611035,247.3046933904342,39.04250611282693,15.011534774354798,50.56178384615713,0.5023554661027103,120.53601333992756,931.9376892921944,1.274,1.022853416101322,0.0,11.628127537218516,300.0001285565649,0.1147566384914833,1.4832427063464724e-05,-1.2546171946701674,0.0018230775751422,0.1519016102010212,3.59704577149467,13.224641269930531,39.004240585904846,35.81198749623592
1.04,31.22218124114461,131.01046315054344,19.423197113811863,2.9685582052358086,-0.2419457802115499,20.94267138706648,0.0735123077386121,-34.33240585453228,345.4656368807608,39.23412886743319,15.162485780798766,49.84297011359413,0.496099845165946,120.52786087171216,941.0823076363469,1.274,1.0228049544826707,0.0,11.657247321957728,300.0001285565649,0.1153202422519134,1.5373600810539635e-05,-1.26299139924029,0.0011790114693044,0.153661808788128,2.9783927191645545,13.014675786946585,39.19612422609684,40.215854841671145
1.05,31.222180559157884,131.01046453380843,19.70988978943035,2.334238401779709,-0.2388457276932843,9.090058032228452,0.0942598177737225,-34.65602505774166,240.4562587980608,39.606175075165645,15.433020595705976,49.11936129450639,0.4896159419411527,120.5193206506774,958.9885625917534,1.274,1.022755494436122,0.0,11.686073167261451,300.0001285565649,0.1164141682679271,1.5917165546393932e-05,-1.2698027932048197,0.0005334397849967,0.1559512126774713,2.346419534708712,12.774762308004595,39.568657384653946,35.82845395415975
1.06,31.222179859457,131.01046595227373,20.000253484435845,1.7183651728053173,-0.2367607277116534,16.065463030888285,0.1149691054133077,-34.63496605067087,308.1796836557233,39.75364659708153,15.56184932013916,48.39185267225895,0.4829316241670434,120.51041935172006,966.1164019040084,1.274,1.0227013895379469,0.0,11.714637884521148,300.0001285565649,0.1168480131800001,1.6461942193655788e-05,-1.2750321761237575,-0.0001156024308087,0.1571721451579117,1.7345943910666597,12.634937709438542,39.716456414780176,38.17974847511651
1.07,31.222179161994063,131.0104673661002,20.28899349709697,1.0955985774114454,-0.233343194798466,20.06465398483511,0.1359105126615884,-34.77011009453524,348.5093681440431,40.06912523398134,15.804513898666515,47.66135047926145,0.4760713155605961,120.50117974939816,981.4839193823954,1.274,1.0226540159946436,0.0,11.743219055022603,300.0001285565649,0.1177756842154924,1.7007437425311998e-05,-1.2786185320209351,-0.0007633901955748,0.1588606281301264,1.120169028720885,12.47317548809934,40.03247187197723,40.14435660444333
1.08,31.222178446047383,131.01046881667776,20.58137059206578,0.4769742452906915,-0.229439700776418,10.147516207890556,0.1570550340083097,-34.88215515570563,261.0015785751465,40.41351672697404,16.07153681133627,46.92879596414697,0.4690605801718054,120.49162691464932,998.3999662752186,1.274,1.0226061614050743,0.0,11.771292210361697,300.0001285565649,0.1187883503711672,1.755243316625675e-05,-1.280537599978706,-0.0014115791309516,0.1604620005203748,0.52928800371895,12.334307499101808,40.3774765193767,36.32852184964081
1.09,31.22217771906269,131.01047028914363,20.87533741142092,-0.1327172805105787,-0.2261467970805624,8.213321032696557,0.177757150533287,-34.72146985130545,246.54375332456465,40.59312551978894,16.230813640784348,46.195144229713726,0.4619218365743978,120.48178240994125,1007.265574366638,1.274,1.0225512795791307,0.0,11.7993689733812,300.0001285565649,0.1193166742895314,1.8095932707713725e-05,-1.2807476868847687,-0.0020594973725519,0.1611970290080852,0.2622139563552956,12.27543435438704,40.55760255620658,35.680116432346665
1.1,31.22217698972633,131.01047176614475,21.16878172535808,-0.7384662977883434,-0.2223830643996789,26.04481298702941,0.1983473652058833,-34.52990524632324,413.1890617384087,40.79686972288802,16.409492966544533,45.46137426293192,0.4546760304349181,120.47166653800326,1017.3735690183944,1.274,1.0224981043155532,0.0,11.827266281590928,300.0001285565649,0.1199159432272025,1.863729628442516e-05,-1.2792230114504408,-0.0027033926806067,0.1618086839331116,0.7712223815863,12.239951855166336,40.76193796052375,43.2514275085422
1.11,31.222176249380297,131.01047326498687,21.463726105410085,-1.334410789303264,-0.2167953056078637,16.010142864863145,0.2200445868518828,-34.630729449078764,324.1593910379213,41.28094634370867,16.788178273948617,44.728479842722926,0.4473443691330804,120.461300802031,1041.6306571554223,1.274,1.0224548851875197,0.0,11.854790529701852,300.00012855656485,0.1213392137019514,1.917551625358183e-05,-1.275941670545498,-0.0033425144136144,0.163304022875447,1.3519037912931868,12.15450666995455,41.246892297996375,38.153119352797646
1.12,31.2221754838604,131.01047481400013,21.7632216625726,-1.9255074555647715,-0.2121707010395923,-0.7995139854884507,0.2407102108308578,-34.36520166416982,172.7328179403806,41.528479289062254,17.005549417063193,43.99746730976703,0.4399464983434138,120.45070539919264,1054.1296457471371,1.274,1.0223979224661404,0.0,11.882140053868396,300.0001285565649,0.1220672125873443,1.9709032868971824e-05,-1.2708376109376875,-0.0039799672435992,0.1636213652485499,1.9371573037444103,12.166662606237567,41.49515166944679,34.37534362646648
1.13,31.22217471890281,131.01047636173703,22.06138775097409,-2.517326787546603,-0.2082394660593119,20.197876179988658,0.2599616154612379,-33.78690411258827,367.5328077894322,41.57712599830136,17.082913301738003,43.269380788311366,0.4324986613346165,120.43989648939886,1056.5704602351796,1.274,1.0223460397860296,0.0,11.90959721898103,300.0001285565649,0.1222106140431584,2.023732173349172e-05,-1.2639160097317992,-0.004610877551736,0.1629161608372773,2.525919619601732,12.262858300188755,41.54441589147661,39.36466272860597
1.14,31.222173953142605,131.01047791091955,22.358637083538618,-3.080885015333464,-0.2019951219034248,6.005533812459685,0.2812223094656321,-33.64547640222471,239.6953177322812,42.02678681080155,17.453771443792416,42.54526147531444,0.4250179125263581,120.42889228482784,1079.517053885146,1.274,1.0223022138470996,0.0,11.936626121856614,300.0001285565649,0.1235327485297379,2.0759831207842863e-05,-1.25521275136894,-0.0052310720108982,0.1635394815148411,3.087493348104748,12.272178887499097,41.99505755697721,34.178408457571535
1.15,31.222173155685585,131.01047952336958,22.66138862853048,-3.652500245055343,-0.1969994370380999,5.561907779256009,0.3002514617526428,-33.04710404658017,237.4125115347709,42.16089393537312,17.598424979333792,41.82613005749304,0.4175214827492042,120.41771225609318,1086.3859133889166,1.274,1.0222426194541194,0.0,11.963277398721452,300.0001285565649,0.1239273638818161,2.127469431202836e-05,-1.244617578107068,-0.0058452233730167,0.1626717725115832,3.657801830787121,12.394799932848231,42.12994939713537,33.51322209144816
1.16,31.22217236654637,131.0104811190303,22.961178321028257,-4.209377401555213,-0.1913883668426763,32.98548026454839,0.3192359133179514,-32.46857392081348,490.043774385954,42.3612584392462,17.794313839807984,41.11307027794517,0.4100227703794227,120.40637108508945,1096.7047018799062,1.274,1.02219674531104,0.0,11.990126504756187,300.0001285565649,0.1245167347980289,2.178160160747756e-05,-1.2322100019085456,-0.0064475230548931,0.1618108112161498,4.213718273645595,12.52076555179073,42.33119528079088,46.285549713734554
