Time,Latitude,Longitude,Altitude,Angle of Attack,Angle of Sideslip,X-Acceleration,Y-Acceleration,Z-Acceleration,Thrust,True Velocity,Ground Velocity,Pitch,Roll,Yaw,Dynamic Pressure,cp,cg,parachute_deploy_gain,Wind Speed,Wind Direction,Mach,omega_x,omega_y,omega_z,Cmq,Angle of Attack(total),Angle of Attack(gust),True Velocity(gust),Acceleration
0.0,31.222216000000007,131.010392,3.000000004412624,0.0,0.0,0.0,0.0,0.0,2.2828121974499247,0.0,0.0,69.99999999623412,0.0,119.9999999935444,0.0,1.274,1.0271675151847728,0.0,0.0,0.0,0.0,0.0,0.0,0.0,-0.0,0.0,90.0,0.0,0.0
0.01,31.22221599999084,131.01039200000497,3.000002745347096,0.0,0.0,0.0,0.0,0.0,34.242186961749226,3.465174813755316e-14,2.8705476994166025e-14,69.9999999962611,-2.1713911667908447e-11,119.99999999352175,7.352495975525499e-28,1.274,1.0271659134330349,0.0,0.0,0.0,1.0183245502395064e-16,-3.3305335486039093e-18,7.169286865560398e-18,5.624298769768554e-18,-7.715917190115602e-34,0.0,89.99999999999979,3.465174813755316e-14,0.0
0.02,31.222215999994315,131.0103920000094,3.0000030495639742,0.0,0.0,0.0,0.0,0.0,25.871876237766216,3.8197434737535036e-11,2.4171837235633357e-11,69.99999999628672,-1.1921727947863515e-11,119.99999999353136,8.93414285188691e-22,1.274,1.027164492361118,0.0,0.0,0.0,1.1225230367947217e-13,-6.657678965418802e-18,1.4338573731120796e-17,1.1241821275959074e-17,-1.7010872994127372e-30,0.0,89.99999999975682,3.8197434737535036e-11,0.0
0.03,31.222215999994315,131.0103920000094,3.0000030495639742,0.0,0.0,9.81877837424427,-2.5122800045972096e-05,3.3498614629347925,180.34219359854663,1.2659015405517447e-10,1.1364406173918436e-10,69.99999999631459,-1.6431898037347223e-11,119.99999999352724,9.812605835254651e-21,1.274,1.0271551940870716,0.0,0.0,0.0,3.720154642239108e-13,-9.991600645811728e-18,2.150108433310316e-17,1.6859343782149594e-17,-8.453698244545225e-30,0.0,89.99999999919412,1.2659015405517447e-10,10.374487003414373
0.04,31.222215999994315,131.0103920000094,3.0000030495639742,18.83801224594347,-0.0001111777826462,48.68248476615645,-1.016330065874988e-05,3.3497854396877287,548.635972453808,0.1556173050466994,0.0975908358443652,69.99999999633813,-2.0932768807056278e-11,119.99999999352085,0.0148286043323172,1.274,1.027133720825283,0.0,0.0,0.0,0.0004573186944143,-1.3322134194415637e-17,-1.04744143520903e-11,1.336824254131964e-11,5.0626055458604615e-15,18.83801224625964,89.06236267790787,0.1555998412814392,48.79759610369246
0.05,31.22221599164764,131.01039201704114,3.002326315126219,5.772385609593056,-4.395076213712875e-06,71.20344550265034,4.905512691849684e-05,3.349217396035405,761.6984298824663,0.8326471944351852,0.3620326097059287,70.00000001316391,-1.0866255162484559e-10,120.00000000231074,0.4245281043148827,1.274,1.027093426565204,0.0,0.0,0.0,0.0024469331205246,-5.0245994431125096e-18,-7.32924164976824e-07,2.217344936947165e-11,1.895424184525467e-09,5.772385609594774,84.74112356985832,0.8326465040582279,71.28217104309611
0.06,31.22221596664444,131.01039206837547,3.015081730143309,4.056581213689704,3.169093567502233e-05,53.16249142470188,0.0001203825427859,3.3481235983850643,590.4875390737236,1.657216205300742,0.6755452977614796,69.99999964391398,-3.9285905645317736e-10,120.0000000287861,1.6816755551786196,1.274,1.027050317124926,0.0,0.0,0.0,0.0048701272653724,3.095757869075056e-13,-7.483541766772344e-06,3.074135420506017e-11,3.8518749565858254e-08,4.056581213813337,79.59316473687034,1.657221183301277,53.26781792157489
0.07,31.22221592883117,131.0103921460222,3.034593611434361,4.115662018628709,6.450869598349036e-05,81.18203554989698,0.0001593212642178,3.347059402768047,855.2937749779172,2.099899704220947,0.8579771146174259,69.99999543281565,-8.233801910783518e-10,120.00000006883089,2.700101932075157,1.274,1.027003201295312,0.0,0.0,0.0,0.006171060252819,3.4704292086287e-12,-2.6327204536316785e-05,1.9541142932033486e-10,1.7170712165327165e-07,4.115662019133419,76.90111966094352,2.099909837223217,81.2510043180746
0.08,31.22221588914193,131.01039222747755,3.0542761843835606,3.459696193892355,8.037433511260004e-05,16.298214211652088,0.0002413456836072,3.344878926597744,241.2171988638792,3.051964775152957,1.2149999716613011,69.99998042886442,-1.0128995578004475e-09,120.00000011111383,5.703497661025892,1.274,1.0269597189470347,0.0,0.0,0.0,0.0089689344021769,1.458982438104473e-11,-5.702803872814215e-05,7.043261397829576e-10,5.405702492731987e-07,3.459696194824858,71.30331929508368,3.051977400323993,16.63790856991177
0.09,31.2222158241468,131.01039236098703,3.0886872184095737,4.313676956300389,0.0001337561018991,50.35975918308536,0.0002293282821279,3.344215841840564,563.0937377043203,2.893161298572128,1.191209213966114,69.99994788602814,-7.098432023887522e-10,120.00000018106356,5.125380275808925,1.274,1.026918932011013,0.0,0.0,0.0,0.0085022553945842,3.8672912027154325e-11,-0.0001115933708951,2.016054215232918e-09,1.0027525988343615e-06,4.313676958370176,72.2316578138625,2.893182308931483,50.47067588835877
0.1,31.2222157788302,131.01039245392113,3.109877853389092,4.035124630954496,0.0001457499816535,47.804664812504015,0.0002878217657545,3.341734392237128,538.7437595981891,3.5677148583138303,1.4531247507621967,69.99988403958329,1.9248461973355822e-09,120.0000002323013,7.7939962029572305,1.274,1.0268846934974103,0.0,0.0,0.0,0.0104845969583028,8.579678749070606e-11,-0.0001726817043215,3.984565639703107e-09,1.913455350430327e-06,4.0351246335824245,68.43243098813296,3.567737752667411,47.92132267234452
0.11,31.222215703308,131.01039260899836,3.148841432727305,4.043401107254707,0.0001752764476999,37.67622367577205,0.0003286462930162,3.3392563999062723,442.86563930529127,4.034183355956686,1.6436552022667772,69.99978525353545,7.302513231814865e-09,120.00000031883242,9.96528118825134,1.274,1.026848594915519,0.0,0.0,0.0,0.0118554331868328,1.5870341853361987e-10,-0.0002596204409236,7.232030302688121e-09,3.252930323390323e-06,4.04340111104746,65.92012987243639,4.034210888316708,37.82391391539392
0.12,31.222215627491828,131.01039276462643,3.186995101203875,4.17874459224363,0.0002066711490009,41.15991989399172,0.0003576945202315,3.336766085769504,475.58594813540793,4.361857560629481,1.7865750500940407,69.99963665601238,1.781774420198147e-08,120.00000041104812,11.649831899889556,1.274,1.0268114448194128,0.0,0.0,0.0,0.0128183893919737,2.682972478760441e-10,-0.0003710216542429,1.2215991071490164e-08,5.026311388647148e-06,4.178744597345269,64.21681651392016,4.361890024457652,41.29495143136631
0.13,31.22221554594398,131.01039293200228,3.2277173449026786,4.202734874672792,0.0002327160860324,45.44886120763352,0.0003953741266062,3.333578629398489,515.9156326236897,4.792165672014363,1.9646716520715424,69.99942424225341,3.613383418913551e-08,120.00000051758742,14.061726603124043,1.274,1.026779572895131,0.0,0.0,0.0,0.0140829618979635,4.248908088871395e-10,-0.0005056103199642,1.908859219307828e-08,7.5253154423526356e-06,4.202734881104192,62.048594618540655,4.792202226971676,45.570952718869485
0.14,31.222215454191247,131.01039312033683,3.2737880595608355,4.184830647080848,0.000257138757548,42.32232525579263,0.0004369426767266,3.329727443445437,486.2390860568421,5.269261304374574,2.158791628597544,69.99913473613935,6.515851355725497e-08,120.00000064630268,17.000925061330125,1.274,1.0267449573927567,0.0,0.0,0.0,0.0154850332441425,6.382432869666793e-10,-0.0006690086306358,2.8426433029675884e-08,1.0948547100483978e-05,4.184830654966803,59.74181173116622,5.269301695636157,42.45310707234106
0.15,31.222215353826755,131.0103933263496,3.3242182719560263,4.21963947489699,0.0002846467688673,40.886944113003565,0.0004726792395108,3.325585650885676,472.5421858721398,5.6781946837482895,2.329510773545807,69.99875162806286,1.0876776246115984e-07,120.00000079954532,19.742017654108928,1.274,1.0267115958081523,0.0,0.0,0.0,0.0166867950518804,9.204756288136623e-10,-0.000865746478554,4.08948221429571e-08,1.526771148078443e-05,4.219639484480408,57.84996018384879,5.678239395958187,41.02196629910223
0.16,31.222215247130432,131.01039354534575,3.3775922280208457,4.253495568077899,0.0003118339050386,32.26872905470846,0.0005078415214353,3.32090791922544,391.1218908297597,6.081244877834229,2.4981889727471702,69.99825581174558,1.7187028096464329e-07,120.0000009800088,22.644030778355887,1.274,1.026675762255412,0.0,0.0,0.0,0.0178712695992133,1.2856146928958252e-09,-0.0010961187242953,5.6923362293832417e-08,2.0702404729358337e-05,4.253495579487569,56.06022383757386,6.081293860589489,32.43916312841722
0.17,31.22221513260033,131.01039378041813,3.4348437275053194,4.364838523348639,0.0003448792023946,40.840448242802736,0.0005326487904353,3.3162727284953744,471.78125980632416,6.362544479165355,2.6250789114832647,69.99762801982864,2.5997588617291615e-07,120.00000119506798,24.78723182122683,1.274,1.0266409836796937,0.0,0.0,0.0,0.0186979513961862,1.747791994374917e-09,-0.0013624931601664,7.706724512977917e-08,2.6923621797558364e-05,4.364838536947241,54.85936171416122,6.362598652663785,40.97486885600156
0.18,31.222215014088988,131.01039402363364,3.4935801365785646,4.353948305387995,0.0003681615230806,33.992183768165326,0.0005718025428208,3.310131992647221,407.1015672119096,6.81502088160835,2.810667639293692,69.99684761766231,3.794979223522764e-07,120.00000144728236,28.437950785509614,1.274,1.0266048342046536,0.0,0.0,0.0,0.020027681385988,2.3221419748804155e-09,-0.0016616990447559,1.0147209890543081e-07,3.517105786247627e-05,4.353948320923495,52.99157233768714,6.815078712285162,34.152972512863755
0.19,31.22221488419521,131.01039429023237,3.558399965607869,4.432620772533925,0.0003996774584738,38.45149959021069,0.0005986099513107,3.304145139297767,448.95313283182486,7.1223367465208405,2.946425726785696,69.99589577323147,5.440084577183829e-07,120.00000176148238,31.060341085698347,1.274,1.026566130444714,0.0,0.0,0.0,0.0209308229359413,3.022391489754689e-09,-0.0020041563310821,1.3135864879722746e-07,4.433199397898183e-05,4.432620790516937,51.77883352025967,7.122399527709208,38.59320142454953
0.2,31.222214751373183,131.01039456280608,3.624052454705669,4.443889400961181,0.0004246617145652,35.23432408779927,0.0006337972852267,3.2968110145188256,418.5156301991588,7.530482904611057,3.1167566004785483,69.99474776398331,7.478025600151903e-07,120.00000211715036,34.72195181863731,1.274,1.026529240027363,0.0,0.0,0.0,0.0221302820454282,3.866698391504749e-09,-0.0023849544920781,1.668144671071589e-07,5.57780533277244e-05,4.443889421210987,50.22448880200342,7.530549610317194,35.38822625098952
0.21,31.222214608673173,131.01039485566503,3.6948551453492566,4.493351735844891,0.0004538195602194,33.79371564104691,0.0006629296043866,3.2891790438445727,404.8187610144608,7.868284042829251,3.2629204975089228,69.99338155599101,1.0150082652278477e-06,120.00000255293388,37.906665490338085,1.274,1.0264923657015164,0.0,0.0,0.0,0.0231230169900677,4.871073773182836e-09,-0.0028117605859743,2.089322918608601e-07,6.870935089180403e-05,4.493351758715364,48.992529909481824,7.868355328639073,33.95340801819282
0.22,31.22221446109996,131.01039515850383,3.767700382407304,4.5412639153933885,0.000482649303782,41.008966751568416,0.0006914639179131,3.2808061382386606,472.5421858721387,8.20057841132235,3.4071691679735228,69.9917708347139,1.3454961520984431e-06,120.00000305929996,41.175744234065135,1.274,1.0264494137127138,0.0,0.0,0.0,0.0240995709751246,6.054779813287368e-09,-0.0032829112061357,2.580881224843564e-07,8.3609968899004e-05,4.54126394098788,47.82515604752711,8.2006542256977,41.13999323561041
0.23,31.22221430675399,131.0103954752338,3.843768625625224,4.52371495179584,0.0005047555656171,33.98493478127787,0.0007294889663961,3.2705214710765107,406.340642146096,8.647938096586296,3.5908865300848416,69.98989017772566,1.7539876018835507e-06,120.00000365514876,45.79040229326471,1.274,1.0264133390858623,0.0,0.0,0.0,0.0254142776666487,7.436335125872812e-09,-0.0038001790077148,3.1489825108822685e-07,0.0001020628978177,4.523714979897577,46.31461705147579,8.648017383405135,34.14194053232237
0.24,31.222214142622448,131.0103958120587,3.92493179063287,4.57837522350066,0.0005351929930195,35.051650311058864,0.0007555049947555,3.26053011385611,416.2328240017099,8.954297884844461,3.72617527247482,69.98771316795013,2.25257161141768e-06,120.0000043564586,49.09180568115741,1.274,1.0263750048312463,0.0,0.0,0.0,0.0263146218848643,9.034877387788232e-09,-0.0043732521010013,3.809642748985157e-07,0.00012161410144,4.578375254714954,45.32798984252032,8.954381952763216,35.20297212911011
0.25,31.22221397517227,131.0103961556623,4.0071748888306855,4.6034117733065,0.0005618935542827,36.03738579534623,0.000785606492708,3.249069743648399,425.3640807915084,9.311611941121669,3.8789349536029696,69.98520781816889,2.8559738498748624e-06,120.00000517181904,53.08749562138344,1.274,1.0263373768840591,0.0,0.0,0.0,0.0273647110956883,1.0873791100894836e-08,-0.0049950711786164,4.5609738277273444e-07,0.0001444478241125,4.603411807525074,44.2165428352526,9.311700203154778,36.183554686886296
0.26,31.22221379934012,131.01039651647062,4.09364247475714,4.621386912291471,0.0005881033207375,39.29107511182762,0.0008162761165496,3.236407051295005,455.80158342417656,9.67833954512075,4.034902068846398,69.98234620927953,3.5784678110229355e-06,120.00000612171208,57.350948423913096,1.274,1.0263006300381676,0.0,0.0,0.0,0.0284424679130479,1.2973286442992724e-08,-0.0056712051373577,5.414206381221602e-07,0.0001704578711045,4.621386949630312,43.12063533194282,9.678431924174348,39.42414126789902
0.27,31.222213616776543,131.01039689108487,4.183310605341074,4.617158109135719,0.0006115457810536,35.90419462403674,0.0008503454714941,3.221982799915672,423.8421996598744,10.088790784535757,4.205862468567124,69.97909721779352,4.436165972465058e-06,120.000007221354,62.31798301949865,1.274,1.026260090595354,0.0,0.0,0.0,0.0296487219805601,1.5355910600537293e-08,-0.0064045199323113,6.379142666348734e-07,0.0002006609239367,4.617158149547818,41.94410287616451,10.08888684592241,36.048472443180565
0.28,31.22221342607797,131.0103972823952,4.277051150896916,4.642105655370123,0.0006389739579882,41.51133203546672,0.0008785747638736,3.2071101123224945,476.3468732012228,10.432377224420517,4.35383399240675,69.97542808435722,5.446665372087172e-06,120.00000849080963,66.63429581008447,1.274,1.0262212716723291,0.0,0.0,0.0,0.0306584788590473,1.8045308789081613e-08,-0.0072006835403936,7.469524967369969e-07,0.0002332868227611,4.642105699250441,41.0023231023774,10.432477594215127,41.63503624837164
0.29,31.22221323001776,131.01039768469093,4.373143569786686,4.62134615173668,0.0006600657405645,33.17552944492765,0.0009148746278066,3.1894209319791806,397.9703104221098,10.876662296046485,4.536381530986506,69.9713027936179,6.629751536885327e-06,120.00000994797426,72.43000748232016,1.274,1.026183007522519,0.0,0.0,0.0,0.0319641703260467,2.1067646517035105e-08,-0.0080566154554079,8.688043379161898e-07,0.000272130659453,4.621346198772975,39.83162628795024,10.876765978930557,33.32848872465723
0.3,31.22221302403368,131.01039810736614,4.4744193758467325,4.664362353358112,0.0006905183788532,31.08096762732793,0.0009381960428197,3.172549142946348,378.1859457108735,11.168362145070317,4.66647911311536,69.96668711012893,8.005507138509574e-06,120.00001161892672,76.36634300732833,1.274,1.0261430389738484,0.0,0.0,0.0,0.0328214509167604,2.4447409007156216e-08,-0.0089829108229115,1.0056222251461646e-06,0.0003115527202986,4.664362404357781,39.09908960432563,11.168470611443622,31.242464973103964
0.31,31.22221281503337,131.01039853619727,4.576593712520673,4.700143580504286,0.0007196683316923,32.79732593144512,0.0009620705970519,3.154230688182399,394.1656220930229,11.470279728974068,4.800072153432283,69.96154070456518,9.597499105113692e-06,120.00001352112182,80.55022837857167,1.274,1.0261054058068628,0.0,0.0,0.0,0.0337087616009043,2.8214060606649844e-08,-0.0099686353219717,1.1565909895184251e-06,0.0003550834484269,4.700143635477137,38.36463422765983,11.47039277421126,32.94865339301887
0.32,31.222212598991007,131.01039897947376,4.68216432480395,4.718667719113184,0.0007464384342556,35.7316568886908,0.0009885845337584,3.133859770838664,421.5593934624264,11.808280530415894,4.946054328851105,69.95582953472353,1.14278227255889e-05,120.00001568218067,85.36654007972253,1.274,1.026068246703101,0.0,0.0,0.0,0.0347021168382987,3.2392058795580455e-08,-0.0110163301561155,1.3226102501723267e-06,0.0004039614423012,4.718667778018562,37.5686120062341,11.808397780690962,35.8688218659563
0.33,31.222212376029034,131.0103994369436,4.791055524254013,4.72141404831576,0.0007708346814671,35.42013590291081,0.0010176135371143,3.1111955852784385,418.5156301991632,12.181577273013426,5.104163223586657,69.94951809396906,1.351997394754887e-05,120.00001812674968,90.84831229869296,1.274,1.0260310883392356,0.0,0.0,0.0,0.0357992034445943,3.700677535501642e-08,-0.0121310534481307,1.5051409581878843e-06,0.0004588955105349,4.721414111097893,36.7208578211118,12.181698355442045,35.55651229220977
0.34,31.222212145785647,131.0103999093516,4.903491659547144,4.73024573449122,0.0007962944975467,27.63851074646407,0.0010446307681611,3.0871492806781062,345.4656368807584,12.53557620048282,5.2556261014174765,69.94256797855994,1.5899658158227497e-05,120.000020882338,96.20413272674828,1.274,1.0259901535019136,0.0,0.0,0.0,0.0368395817555172,4.208561016221623e-08,-0.0133180771902383,1.7057647550599631e-06,0.0005184333231541,4.730245801363397,35.94841996438923,12.535701282129995,27.810389570354005
0.35,31.222211909310875,131.01040039453565,5.018822212845608,4.780248518778662,0.0008286678570753,30.332092807652543,0.0010618579815451,3.063967690608957,370.5765700527057,12.774786382148209,5.367579971644358,69.93493776125636,1.8594985713558667e-05,120.00002397748868,99.9096898192772,1.274,1.025950003202184,0.0,0.0,0.0,0.0375426220587071,4.7658312175989686e-08,-0.0145774693288123,1.9252724355785177e-06,0.0005782798420984,4.780248590437683,35.44790728185619,12.774916548990808,30.486451961956565
0.36,31.22221166933814,131.0104008868675,5.135354490370708,4.798132156899578,0.0008554457330409,34.32674769697476,0.0010851169437774,3.0374319611165923,407.8625232777224,13.09301701329486,5.506730645516068,69.92658597246795,2.163521613217148e-05,120.0000274401514,104.94818266210537,1.274,1.0259105142325406,0.0,0.0,0.0,0.0384778908056978,5.3755109608570216e-08,-0.0158991451700967,2.162609490834569e-06,0.0006464142451675,4.798132232978766,34.796094028187134,13.09315138639638,34.46087058603792
0.37,31.222211421355144,131.01040139563804,5.255882891363927,4.797392186816851,0.0008791822061288,32.551601855236584,0.00111162791192,3.0078619428913056,391.1218908297639,13.457513730739372,5.661815946371007,69.91747693543164,2.5047738471809164e-05,120.0000313040604,110.87154396328836,1.274,1.025872170958032,0.0,0.0,0.0,0.0395491312153729,6.040098808671168e-08,-0.0172926678053148,2.420031948898497e-06,0.0007226353721561,4.797392267189059,34.07332166419882,13.457651832357364,32.69027405888565
0.38,31.22221116634284,131.01040191882743,5.379799334000849,4.811698494594017,0.0009057112478668,34.02947987649063,0.0011338447913587,2.9774881690446744,404.81876101445977,13.77554886562956,5.800899861213392,69.90756948297444,2.886339581486796e-05,120.00003560072224,116.17243393848278,1.274,1.02583050512925,0.0,0.0,0.0,0.0404838339452728,6.762496638941508e-08,-0.0187646375218858,2.69955777313946e-06,0.0008026686661094,4.8116985796350695,33.46655348088405,13.775691134419684,34.15949264475229
0.39,31.222210906095896,131.01040245274032,5.505993307722699,4.813508003664984,0.000929862892873,29.00025983045028,0.0011579891265804,2.9442136901860865,357.6406249338268,14.124492165837273,5.950648592462506,69.8968186645841,3.311602501056718e-05,120.00004036395212,122.13093644173792,1.274,1.02579027384009,0.0,0.0,0.0,0.0415093739609825,7.545934774906889e-08,-0.020311592409804,3.0013532510753577e-06,0.0008908380763632,4.813508093268025,32.821616487639595,14.124638228358922,29.149330452482886
0.4,31.222210638473225,131.0104030017851,5.635788650457906,4.841647069358873,0.0009592124397379,27.71178845184976,0.0011749448424961,2.91135549588368,345.4656368807565,14.390874239274588,6.07193451174791,69.8851815212744,3.783947407715338e-05,120.00004563180136,126.77947425345651,1.274,1.0257493418632293,0.0,0.0,0.0,0.0422922854866381,8.39343718693383e-08,-0.021938519432511,3.3271332720311508e-06,0.0009803271643914,4.841647164150728,32.348088166612904,14.391024912012275,27.864299944624147
0.41,31.22221036681104,131.01040355909262,5.767123077463226,4.86553909860892,0.0009876699832274,31.306062598221665,0.0011918093836199,2.876450850006428,378.9468707766882,14.663028799871563,6.195223154320929,69.87261222561014,4.307011032901644e-05,120.0000514391194,131.6183642808765,1.274,1.025708445186429,0.0,0.0,0.0,0.0430921644173401,9.308325447883581e-08,-0.0236371933433427,3.6760977501392174e-06,0.0010761942383903,4.865539198612839,31.87689439156756,14.663183942709727,31.437931330109585
0.42,31.22221008906472,131.01040412887247,5.901259531771367,4.867510642114694,0.0010118258958528,35.308283402190774,0.0012128114559048,2.8374461227958245,416.23282400171047,14.9952917972178,6.33928625560071,69.85906967380902,4.884273094936628e-05,120.00005782486392,137.64909586091787,1.274,1.0256701057426505,0.0,0.0,0.0,0.0440686959134695,1.0293499639582845e-07,-0.0254093547296826,4.049238334851429e-06,0.0011830797791891,4.867510747027452,31.315270489291198,14.995450734457847,35.422111438762386
0.43,31.222209804115888,131.01040471342728,6.038886819939341,4.854590670645608,0.0010330089741511,31.00586934514032,0.0012363751872706,2.794478603999558,375.90313951343126,15.369430568701889,6.497852263156962,69.8445117629242,5.519340856908871e-05,120.00006482835984,144.60167924299955,1.274,1.0256308158337524,0.0,0.0,0.0,0.0451682983415116,1.135186446762958e-07,-0.0272634397889413,4.449073329427772e-06,0.0013010625065656,4.854590780289497,30.70250814963406,15.369592833372094,31.13154422839874
0.44,31.22220951192321,131.01040531284193,6.180028459770617,4.866912332640401,0.0010595850174406,28.57707721036899,0.0012525768202179,2.752165534925872,353.07501253892326,15.659290812546615,6.627318538707029,69.82889155423543,6.216182865383864e-05,120.00007249162944,150.1053167542629,1.274,1.025586171750536,0.0,0.0,0.0,0.0460202245100907,1.2486676023179565e-07,-0.0292060158163984,4.8779154055816594e-06,0.001420032405556,4.866912447705031,30.24619499837236,15.659457251771938,28.709297424144207
0.45,31.222209215425703,131.01040592106523,6.322872201489905,4.881836476567178,0.0010866574689855,33.31904824532484,0.0012669045761511,2.7082028218433374,397.2093853562887,15.934249290371609,6.751662050993672,69.81215834018458,6.97909417564726e-05,120.00008085697964,155.42080512416243,1.274,1.0255397023523487,0.0,0.0,0.0,0.0468283602442113,1.3701614206272197e-07,-0.0312276295846745,5.334643585560923e-06,0.0015449645531859,4.8818365972149325,29.82567893138932,15.934419982127675,33.428929688274074
0.46,31.22220891307435,131.0104065412864,6.468371919199588,4.869610441729251,0.0011078049156487,38.95909776354321,0.0012868374716666,2.6582856015412624,449.7140588976424,16.292139278621757,6.904766425053949,69.79426683863348,7.812149592850748e-05,120.00008996920153,162.4785746623087,1.274,1.02549635315424,0.0,0.0,0.0,0.0478802236363867,1.499987870203256e-07,-0.0333272350234362,5.819761874615242e-06,0.0016858511402973,4.869610567434908,29.29014635640275,16.292313292210977,39.04968351401366
0.47,31.22220860266524,131.01040717804253,6.6178810515614845,4.838450928223533,0.0011247917292402,26.253747818137555,0.0013104398935566,2.6026193242279367,331.0078106302504,16.710658191447514,7.078951441335346,69.77517236812905,8.719457259907165e-05,120.0000998741591,170.9309671061642,1.274,1.025453319323251,0.0,0.0,0.0,0.0491102725711187,1.6384464803343264e-07,-0.0355167087264168,6.3368207228363735e-06,0.0018427306558807,4.838451058652396,28.68386015667837,16.710834873319172,26.382435512333956
0.48,31.222208284201663,131.0104078313267,6.771393590864176,4.869339340099417,0.0011561785713505,25.860860976019296,0.0013165328518772,2.5543454292827983,327.20312230115803,16.911139899671,7.177575416403102,69.75482343794755,9.70562828082882e-05,120.00011062072316,175.0543877818846,1.274,1.0254092882449153,0.0,0.0,0.0,0.0496995461609974,1.7858865391586845e-07,-0.0378054080201581,6.88909442277235e-06,0.0019849793891693,4.869339477030596,28.40887970825325,16.911321511776286,25.986704537635287
0.49,31.22220796480208,131.01040848648364,6.924537656029012,4.881367714530694,0.0011829003785372,32.565703383222065,0.0013261973190012,2.5011623511055703,389.6000096981238,17.169005224738054,7.296160258358563,69.73316318155707,0.0001077573203115,120.000122255028,180.4309832312717,1.274,1.025367445590036,0.0,0.0,0.0,0.05045746454003,1.942747077649401e-07,-0.0401641298712614,7.47069711110948e-06,0.002140948887153,4.881367857509675,28.058569663954906,17.169191034294997,32.66161128464712
0.5,31.222207637929923,131.01040915697027,7.081324512896956,4.862566137860805,0.001202418260511,33.47759680712428,0.0013425340759632,2.4399894027711366,397.970310422106,17.52898693231981,7.450304424940405,69.71015149227495,0.0001193385310595,120.0001348274002,188.0736471953394,1.274,1.0253278572281015,0.0,0.0,0.0,0.0515154948878309,2.109295159784217e-07,-0.0426011733481599,8.084173008518589e-06,0.0023184335011768,4.862566286171007,27.57768313050809,17.529175807738486,33.56639745442473
0.51,31.22220730314019,131.01040984370235,7.24202048914867,4.8479762258125,0.001223054804074,25.49162310288008,0.0013562860883156,2.3767006597692686,323.39843497208153,17.86914397471067,7.597652147346554,69.68574349602717,0.0001318441288964,120.00014838524436,195.4407439266201,1.274,1.025286455263166,0.0,0.0,0.0,0.0525152689856776,2.2858192086249162e-07,-0.0451315948093539,8.734206149830708e-06,0.002503767471626,4.847976379721193,27.13799345359824,17.86933609171003,25.602178740977283
0.52,31.222206962738102,131.01041054193402,7.405210501673173,4.865306299521403,0.0012516517170965,30.733671928447727,0.0013599291289974,2.317711624364424,372.098451184342,18.08534843773428,7.701914987606457,69.65988568649581,0.0001453248538387,120.00016298000436,200.19561780583155,1.274,1.0252426840672306,0.0,0.0,0.0,0.0531507657929359,2.4726951523704535e-07,-0.0477531686556663,9.421346966092632e-06,0.0026812161964639,4.865306460134566,26.8699055233151,18.085545046726228,30.820940596104087
0.53,31.222206619320115,131.01041124632013,7.569307468221277,4.848802699234936,0.0012715119568563,32.301199055744725,0.0013711327835325,2.2490252325653923,386.55624643486095,18.41963113311156,7.8474319110539055,69.6325258319474,0.0001598315062727,120.0001786629144,207.6614205945027,1.274,1.0251993415311351,0.0,0.0,0.0,0.0541332845214831,2.67031759303889e-07,-0.0504479325599339,1.0141887756417996e-05,0.0028848299490111,4.848802865552398,26.45837260670532,18.419830861742675,32.37940050117613
0.54,31.22220626697288,131.01041196903336,7.737918664599091,4.831496690588052,0.0012913635058467,28.31291960103712,0.0013809098107221,2.177242866245296,349.2703242098436,18.75116898748492,7.992112829440902,69.60362200959217,0.0001754082864028,120.00019548734956,215.20067397992847,1.274,1.0251561018460285,0.0,0.0,0.0,0.0551077428911958,2.878941684235108e-07,-0.0532336286085667,1.090122304443916e-05,0.003098869611663,4.831496862756785,26.061835558272342,18.751371834390056,28.396510432451375
0.55,31.222205908994248,131.01041270328463,7.909026079894722,6.513254524653416,3.221351441463697,30.068444254434496,-0.1684980275329739,2.0122048554421923,365.2500005919912,19.321439881558085,8.113323699629928,69.57312211246325,0.0001921068626005,120.00021350480982,228.48556729167785,1.274,1.025112921033824,0.0,1.2532017829729258,0.0,0.0567838195707577,3.0989272306468813e-07,-0.0561100530405476,1.1700476995263424e-05,0.0033655954893797,7.263252841114067,28.864298325220624,19.8271820386331,30.136169296172707
0.56,31.222205546564343,131.01041344664463,8.081909946161325,2.379487024551532,-2.6916312452446505,28.01321934570087,0.0990615094681233,2.140876117209399,346.22656194657776,18.983567302259058,8.249440985479161,69.54097415464405,0.0002099796112633,120.00023276987916,220.5607548702328,1.274,1.0250709539098009,0.0,1.2577738927225492,165.0000707061107,0.0557909539579304,3.33055098311298e-07,-0.0602110325869796,0.0020678997594897,0.0035483662658546,3.59202881565998,22.764793945635304,18.56092235198597,28.095081808783636
0.57,31.22220517743276,131.01041420478916,8.258244915209472,2.404772348946317,-2.6560912177128486,27.699357260393583,0.1332284099082738,2.097211299199031,343.1828296833045,19.252075161276046,8.375462530305853,69.50647648621381,0.0033802394768671,120.00361702871795,226.84036135608133,1.274,1.0250279191823897,0.0,1.2623102824056371,165.0000707061107,0.0565801863490002,3.5903798977934985e-07,-0.0616502309457732,0.0004074532132357,0.0036845074856246,3.5824024034970203,22.495202290162435,18.83500674737544,27.778956742138703
0.58,31.222204802681016,131.01041497252788,8.436442783085527,2.4240787351137376,-2.624259410257805,36.6311484082276,0.1688653353459056,2.0515353008621,426.12500585731766,19.52615546196037,8.502527674491358,69.47115424991841,0.0039984073840055,120.00427721166352,233.34112517793537,1.274,1.024981594484354,0.0,1.2668518344190975,165.0000707061107,0.0573858000436256,3.8468152545611083e-07,-0.0631465711809614,-0.0012774540552741,0.0038275975863511,3.5719441569788133,22.222162902832643,19.114081869061906,36.68894038123424
0.59,31.22220442222837,131.01041575242263,8.617306392888601,2.4247422092004824,-2.5746145292898808,29.60683745481617,0.2071692636076524,1.994345998277016,360.68438819710633,19.93549755867305,8.677274903539873,69.43497473924592,0.0020408044985844,120.00218677914616,243.2228756183609,1.274,1.0249386802161349,0.0,1.2713615958382312,165.0000707061107,0.0585889430753499,4.099963544606661e-07,-0.0646985518944226,-0.0029896226733508,0.0040038136243058,3.536107540885262,21.826768733770955,19.53121414097126,29.674655164644
0.6,31.222204031940787,131.0104165520585,8.803032053956397,2.44215937984978,-2.544614820721824,26.26541131311713,0.2456531184545591,1.9456102949042804,329.4859594986072,20.195077761641315,8.799570534098489,69.39790598288168,-0.0025196779457185,119.99731546266229,249.5936742835846,1.274,1.024891335813742,0.0,1.27585946181971,165.0000707061107,0.0593519543187757,4.3498525176933973e-07,-0.0663171136028742,-0.0047402600207367,0.0041573406680811,3.5263699142730576,21.58414408006077,19.795501985564677,26.338518871065347
0.61,31.222203639106866,131.01041735656415,8.98925657022809,2.459496210337728,-2.51625533200376,30.86584272758128,0.2851422172709247,1.8961808660399244,372.0984511843332,20.43964421133153,8.916722458992258,69.35990958091445,-0.0097262740710989,119.98961567779568,255.67096614348705,1.274,1.0248423929069768,0.0,1.280397532326282,165.0000707061107,0.0600708446098611,4.596620565492149e-07,-0.0679903568894557,-0.0065155381297697,0.0043137736669868,3.518063750299887,21.361161058852524,20.0445187895503,30.925346485441167
0.62,31.22220324019116,131.0104181732199,9.178111945594337,2.4647802745730125,-2.477088999044967,38.49701571316608,0.3270848604226653,1.8383813635352613,442.86563930529206,20.76974407028253,9.064225154883516,69.3209538290629,-0.019600118824211,119.9790633776335,263.99102566871903,1.274,1.0247996097896497,0.0,1.2848686361624977,165.0000707061107,0.0610411176379082,4.840375728223024e-07,-0.0697168481763435,-0.0083134923741173,0.0044946690208287,3.4938983541904376,21.06716904002073,20.38076504158965,38.542273536514
0.63,31.222202833283365,131.01041900595712,9.37073612188248,2.457573724897011,-2.427454676784333,21.632460303679185,0.3722111180426557,1.7710947795146603,286.11251274707456,21.19110897675647,9.244239213657208,69.28100769312988,-0.0321583866585778,119.96563866899436,274.8059995809174,1.274,1.024756158874558,0.0,1.2893225935218344,165.0000707061107,0.0622796208966477,5.081180010915293e-07,-0.0715036507127538,-0.0101407134542001,0.00470330014439,3.453779129083679,20.702823753967067,20.809919348938497,21.708032076277075
0.64,31.2222024175132,131.010419856571,9.56763948532661,2.4829328901113974,-2.411107581954863,21.237284674036985,0.4138057264000126,1.7245038279322649,282.3078244179702,21.32184742123829,9.321540119102083,69.2400359343525,-0.0474272054785482,119.949312004785,278.20202787389366,1.274,1.024708534665538,0.0,1.293788085399049,165.0000707061107,0.0626639939136782,5.319080500356145e-07,-0.0733585337060314,-0.0120043313087315,0.0048549868238948,3.4604559672500588,20.59666469609224,20.9432233003392,21.311203836429343
0.65,31.222202002941284,131.01042070433465,9.762794346774395,2.4973108840523324,-2.3851911295114494,37.89282640763532,0.4575292769855594,1.6702325965281843,436.7781447787504,21.53079375419984,9.426676390277413,69.1979986741956,-0.0654423044040022,119.93004346552704,283.67598532285893,1.274,1.0246641738210605,0.0,1.2982748493221845,165.0000707061107,0.0632782175266667,5.554334235816732e-07,-0.0752559067959204,-0.0138779027016203,0.0050292714605885,3.452838662392339,20.426596234725626,21.15623701468836,37.93237803150481
0.66,31.222201580559943,131.01042156781745,9.961592880222549,2.480935380653153,-2.331351001717717,32.16613607086638,0.5079425001801514,1.5929113094995715,383.5125151715984,21.991079876471687,9.621380644490786,69.15487058446435,-0.0861983752205443,119.90783695335288,295.9288537181084,1.274,1.0246195561629028,0.0,1.302646499118196,165.0000707061107,0.0646311266009018,5.787032041317046e-07,-0.0772019868040467,-0.0157673986413065,0.0052695215684543,3.4039447969212606,20.05453592404395,21.624973161445432,32.209558856850435
0.67,31.22220114632165,131.01042245538372,10.166432856759096,2.482437274819975,-2.2958058719158863,22.0096451115134,0.5564371333109621,1.5270987343856537,289.15624401033847,22.28245141185888,9.756243019805424,69.1106226019317,-0.1096981191221673,119.88268772340476,303.81666613935533,1.274,1.024572383541697,0.0,1.3070257891035844,165.0000707061107,0.0654876101706875,6.01714417098901e-07,-0.0792190795140426,-0.0176936280336518,0.0054787359616904,3.3808165560045755,19.82966094344889,21.92192356138957,22.069574775302204
0.68,31.222200710053887,131.01042334675893,10.37144802385558,2.496051240205092,-2.272570014471276,27.60388125899384,0.6029397214203746,1.4701237873830084,340.89999248584934,22.450270279481703,9.847189494175552,69.0652126634206,-0.1359742678840492,119.8545587858188,308.40417972308177,1.274,1.0245245285832842,0.0,1.3114620139312787,165.0000707061107,0.0659809785530005,6.244881837090977e-07,-0.0812913645686266,-0.0196406334656266,0.0056642843707841,3.375141228696213,19.70710284366229,22.0933894088632,27.64957614175174
0.69,31.222200270302142,131.0104242449439,10.57751129024605,2.4929443026349465,-2.2350216814591444,34.10145429019649,0.6539124977525129,1.399406316795994,401.0140726853658,22.752523240995696,9.98636470434565,69.01860763016103,-0.165034326592026,119.82344006107158,316.7580402278893,1.274,1.024479631064582,0.0,1.3158260195313067,165.0000707061107,0.0668694505338786,6.470457633997048e-07,-0.0834065666412319,-0.0215965883154395,0.0058897963468705,3.3476768413958853,19.4835121103406,22.40153588607071,34.13641932453616
0.7,31.22219982151417,131.0104251614349,10.787915101714551,2.480670728283145,-2.190494458054238,28.532549949501018,0.70837248404993,1.3198700730019983,349.270324209851,23.12411765434028,10.150669633186224,68.9707812517255,-0.1968670085611372,119.78934150953904,327.1825102610049,1.274,1.0244351749185203,0.0,1.3201441108251688,165.0000707061107,0.0679617243186009,6.693923401704533e-07,-0.0855764491071867,-0.0235718516457023,0.0061415943094257,3.3089264720695075,19.214069586933284,22.780119403778187,28.57184374881215
0.71,31.222199365216685,131.01042609309843,11.001741667913596,2.4793747146123737,-2.1568166134717623,23.37359360531498,0.7607762515633311,1.2486822211622075,301.3312640634036,23.379837317578527,10.273652494197783,68.92170033627997,-0.2314753137579328,119.7522576973108,334.4519957320352,1.274,1.0243880468141104,0.0,1.3244848565936886,165.0000707061107,0.0687134495315075,6.915363821206998e-07,-0.0878067836463029,-0.0255709668514354,0.0063712160091492,3.2857651457273924,19.03760114947378,23.04112536396317,23.4192840586729
0.72,31.22219890548911,131.01042703148866,11.216572374227184,2.4816811781567925,-2.127080623805264,28.728224622460207,0.8124908885884428,1.1803485875184665,350.7922053414578,23.58605511907764,10.379015697005142,68.87132818958504,-0.2688676766462948,119.7121772650036,340.37094536921165,1.274,1.024337302174265,0.0,1.3288165620420358,165.0000707061107,0.0693196926063477,7.134999437991666e-07,-0.090085492906884,-0.0275825576780138,0.0065940765476078,3.268085592942526,18.901202300364403,23.252010820162063,28.763940171517273
0.73,31.222198440934896,131.0104279795079,11.433234397448627,2.471095494292914,-2.087175552825259,36.46582470425393,0.8687931841812659,1.0996612492505606,422.3203185282354,23.89817688228832,10.522793641732648,68.81963489596755,-0.3090344164231967,119.66910817628845,349.4317549468903,1.274,1.024292465384646,0.0,1.3331010921294597,165.0000707061107,0.0702371938112385,7.353017803714058e-07,-0.0924066839189692,-0.0296010083695833,0.0068533504001809,3.2341788941790046,18.69266252151282,23.570396618701743,36.4927448655395
0.74,31.22219796805433,131.01042894445715,11.653788396329675,2.4497503311888025,-2.0393665241412937,22.67139710488289,0.929846434726216,1.007350951875714,294.4828134710563,24.29940783668709,10.699121959115168,68.76659376895529,-0.3519564306877308,119.62306841382016,361.2559503491266,1.274,1.0242470321640116,0.0,1.3373561773882348,165.0000707061107,0.0714165968759649,7.569491909097104e-07,-0.0947794278362999,-0.0316337166600242,0.0071471904539552,3.187123722972901,18.42828668337517,23.979132528767035,22.71280733462313
0.75,31.22219748669386,131.01042992669582,11.878315329067055,2.451959776311799,-2.0119070965496166,26.550727779059823,0.9827069069087097,0.9379319602238926,330.24688556441737,24.45537282153835,10.786884970633755,68.7121727276333,-0.3976243096902365,119.57406547470627,365.9003635462538,1.274,1.0241984712898409,0.0,1.3416218373974242,165.0000707061107,0.0718751641218739,7.784500332265676e-07,-0.0972111929123325,-0.0336864503434085,0.0073774585643061,3.17134125984765,18.33816708764248,24.139408135033843,26.585457957775233
0.76,31.222197005491854,131.01043090821327,12.101727146881494,2.439531333561354,-1.9732788650307929,28.620277913483296,1.0412762756360725,0.8535102936102053,349.2703242098581,24.73825126447201,10.92092725821626,68.65633519514661,-0.4460357463072135,119.52209912507004,374.40612097015,1.274,1.0241522053390697,0.0,1.3458881200250083,165.0000707061107,0.0727067366479862,7.998401834271479e-07,-0.0996762481359218,-0.0357369307174459,0.0076518699439973,3.1373219677300663,18.16475354314867,24.42835061731166,28.651929148811618
0.77,31.22219651481139,131.010431909153,12.329693898493051,2.4244737809703807,-1.933157058769816,26.741956007933968,1.1013558362340532,0.7656183098040003,331.76876669606884,25.032732835531675,11.059496904451732,68.59905930024715,-0.4971547622330875,119.46720520102257,383.364565870841,1.274,1.0241065975906936,0.0,1.350069231397282,165.0000707061107,0.0735724193034797,8.211257615742955e-07,-0.1021856007281286,-0.0377940983750239,0.0079377124165375,3.100473897695966,17.98832159320844,24.72913084511828,26.77557407796497
0.78,31.222196018599544,131.01043292130387,12.559886721469963,2.4115490075943344,-1.8955827569376047,21.90139665369568,1.160663079481108,0.6798504223717204,286.8734378128874,25.28869546759299,11.184315772272152,68.54031664951033,-0.5509573267621914,119.40940662238386,391.23589463555135,1.274,1.0240588105546735,0.0,1.3542718084759764,165.0000707061107,0.0743248989527343,8.423223372715999e-07,-0.1047388570861026,-0.0398569173983087,0.008219058100375,3.067031197456973,17.84128334733865,24.99099234042748,21.94266416740187
0.79,31.22219551743459,131.01043394347084,12.79196534223608,2.4030964212167185,-1.8620705752327449,31.2990737922863,1.2176318017356171,0.5994836862709879,373.6203323159581,25.481490181269084,11.28627388233772,68.48007893441246,-0.6074167699539404,119.34872906464057,397.2151511528883,1.274,1.0240083170932772,0.0,1.3584521021107805,165.0000707061107,0.0748917295556227,8.63450456576789e-07,-0.1073303237795527,-0.0419204101923353,0.0084864367002484,3.0397607983465247,17.73806559914378,25.18904830525106,31.32848588983652
0.8,31.2221950123494,131.01043497349755,13.025323723505394,2.3773059673897867,-1.8159243220170007,31.72380579643955,1.2832651001098885,0.4981318858781077,377.42502064505805,25.839174851387227,11.449017762794584,68.41832099183775,-0.6664981847935039,119.28520697683224,408.43571389282766,1.274,1.0239625010683884,0.0,1.3626023718778268,165.0000707061107,0.0759431876218374,8.845335617113644e-07,-0.1099518100504378,-0.0439776229067232,0.0088155498566219,2.991199111079754,17.533959147292865,25.55397787826509,31.753657409865404
0.81,31.222194497220453,131.01043602433495,13.263540339503969,2.353928237474001,-1.772362003342942,20.53795078256692,1.3479885952657855,0.3990436056223762,273.9374926939922,26.156265341318186,11.597247275672206,68.35502228322197,-0.7281557766911365,119.21888645629798,418.5120454921419,1.274,1.0239149950770308,0.0,1.3667078519382976,165.0000707061107,0.07687534591839,9.055738163015888e-07,-0.1126179836082773,-0.0460396594721251,0.0091399101927418,2.946265016496881,17.36062708033934,25.877907766497025,20.586008146294315
0.82,31.222193977204668,131.01043708514564,13.503593896518847,2.344429208790629,-1.739827858812146,26.483710214712016,1.4043632973731266,0.3187216795467841,328.725004432774,26.303620144346425,11.683174995616096,68.29015364413078,-0.7923586306413845,119.14979751938036,423.2310580001016,1.274,1.0238644186635044,0.0,1.3708374365939204,165.0000707061107,0.0773086427924712,9.265929680242248e-07,-0.1153225657959503,-0.0481009742895142,0.009411920620553,2.9191881831039197,17.29411733759509,26.03037062073705,26.522834058917297
0.83,31.22219345553601,131.0104381490738,13.74359942582084,2.320156441331489,-1.696921101607181,33.74729740546291,1.468789084397896,0.2191225096013942,395.6875032246518,26.595855684323165,11.822929060687816,68.2236894245403,-0.8590669192024014,119.0779796998155,432.6775952670612,1.274,1.0238188483711983,0.0,1.3749382001596548,165.0000707061107,0.0781677602969492,9.476264899215312e-07,-0.1180460210677831,-0.0501463335520664,0.0097410045483258,2.874211704418837,17.142732342598897,26.329342907305204,33.779956160738635
0.84,31.222192924439703,131.01043923266508,13.98808849741124,2.287513895598724,-1.6485823434723488,20.73774905690392,1.538479480673959,0.1072542621500194,275.45937482564227,26.96718613888088,11.992451909783195,68.15561521501795,-0.928218554960658,119.00349645597284,444.83355598293736,1.274,1.0237739661568126,0.0,1.3789789206887446,165.0000707061107,0.0792593546026255,9.686782784207491e-07,-0.120800753031359,-0.0521847445694839,0.0101072615184293,2.819414705668648,16.94930158808224,26.70826316028017,20.795015232894723
0.85,31.2221923857013,131.0104403322063,14.236011921728672,2.273330652502861,-1.6140744521095047,22.648490946772032,1.5952127444022175,0.023390272373132,292.9609323393965,27.10729549670238,12.07635311182926,68.08590932317857,-0.9997634806966752,118.92639824364214,449.4571722031751,1.274,1.0237227741398531,0.0,1.3830361042850772,165.0000707061107,0.0796713733794288,9.89758722741996e-07,-0.1235922732916692,-0.0542196225677752,0.010394303630522,2.7878129885821075,16.893858027180727,26.85379080798822,22.704611711517103
0.86,31.22219184712665,131.01044143102916,14.482829818125856,2.2494437444840742,-1.5731834591544476,28.433627742458704,1.657386438663223,-0.0737606753626758,346.2265619465616,27.34095198138997,12.19537972922647,68.01454676526747,-1.0736556188058997,118.84673117308527,457.2280916603673,1.274,1.023674789281455,0.0,1.3870912896881595,165.0000707061107,0.0803583396975701,1.0109118491526208e-06,-0.1263945021839144,-0.0562315072778082,0.0107213484290074,2.7447461785504963,16.78650958875823,27.093867950308965,28.481986536072448
0.87,31.22219130039484,131.01044254696856,14.733379414386455,2.2176795588399445,-1.5272347296709712,26.46606120626556,1.7245749518805251,-0.1829028225408101,327.9640783669946,27.6517192176824,12.343645668049096,67.9415176664389,-1.1498213145643388,118.7645710695288,467.669952575039,1.274,1.0236288969245204,0.0,1.3910664197224556,165.0000707061107,0.0812719516501281,1.0321466352132284e-06,-0.1292143033593697,-0.0582251268160407,0.0110848513458546,2.69246793798272,16.638718549891365,27.41185015432617,26.522820513304048
0.88,31.222190746672844,131.01044367761145,14.986975371469628,2.1892043566454813,-1.4841478477984262,22.84871555795176,1.7883232054299447,-0.2857347062886902,294.4828134710421,27.904072725856768,12.470425380032143,67.86680811954997,-1.2281931814737694,118.6799869828762,476.23334926143247,1.274,1.0235805388426191,0.0,1.3950439583582683,165.0000707061107,0.0820138856583348,1.053473717074846e-06,-0.1320567434267043,-0.060203422526839,0.0114318033739237,2.644662262335204,16.526936946804,27.67096939703814,22.92037405579682
0.89,31.22219018877478,131.01044481693097,15.241984165085936,2.16269772426981,-1.4428650842322417,25.090184202265668,1.8490565380435613,-0.3835382086698634,315.02813424808807,28.112013070106595,12.58083639373217,67.79040124565557,-1.3087075117828264,118.59304397987718,483.34571244620446,1.274,1.0235293752791452,0.0,1.3990135239044617,165.0000707061107,0.0826252884941784,1.0749194367607392e-06,-0.1349129526564538,-0.0621597600285427,0.011765801714557,2.599640789556608,16.44205939465343,27.88539230715019,25.16114971423232
0.9,31.22218962630429,131.0104459658037,15.498635789420424,2.1306001830720853,-1.39829696654843,27.74332623239133,1.9130534656356124,-0.4897855540166618,339.3781423542166,28.371575695333583,12.711098562666956,67.7122853171812,-1.39129128211168,118.50381718436284,492.3003974385487,1.274,1.0234837388140003,0.0,1.4029497581964687,165.0000707061107,0.0833884222109017,1.0965086272003356e-06,-0.1377755365473107,-0.0640886866742524,0.012126090204911,2.548291623160223,16.331569289602097,28.151953524070787,27.813518545631666
0.91,31.22218905711648,131.01044712894148,15.758168651043954,2.094878745607576,-1.3518577715779043,21.066697812750792,1.9789477049619435,-0.6015218581487287,277.7421810230785,28.659670203363007,12.852614412845917,67.63245292773497,-1.475864053655916,118.41238975030478,502.3366051657276,1.274,1.023436404813438,0.0,1.4068567687384494,165.0000707061107,0.0842354229186533,1.1182547501280245e-06,-0.1406465111752694,-0.0659911209440438,0.0125041609417665,2.4930346841774456,16.20880892934334,28.44734058289485,21.167990440723557
0.92,31.222188481733536,131.01044830527948,16.020276978029223,2.0661415721502467,-1.3103344971509336,25.12632468041041,2.0364487967078726,-0.6974044463974522,315.0281342480675,28.834428579100965,12.95145372224888,67.55089552520224,-1.5623467221457887,118.31884341620928,508.4686901415813,1.274,1.0233859136578225,0.0,1.410753529715103,165.0000707061107,0.0847493167847453,1.1401739989559629e-06,-0.1435254378438476,-0.0678662482079761,0.0128375958793312,2.446461352973436,16.148264163951005,28.62861965909213,25.21836014908323
0.93,31.22218790390697,131.01044948664128,16.28279448581972,2.028965031495141,-1.2639079548243837,29.92842453008852,2.100223807963524,-0.8081800679540214,359.16250706547066,29.10334373879324,13.086562127560423,67.46760485090164,-1.650659231119152,118.2232609809903,517.9840003395522,1.274,1.0233407575091376,0.0,1.4146353193403962,165.0000707061107,0.0855399577949353,1.1623003520061006e-06,-0.1463979787769649,-0.0697042802030291,0.013216318334466,2.390291737512375,16.04064546303411,28.904825642741816,30.012908721398183
0.94,31.222187318126338,131.0104506851667,16.548898627449734,1.9867957789649648,-1.214852388369046,21.675965653582804,2.167557683081434,-0.928100577513247,283.06875048378083,29.423928702214027,13.241958915530878,67.38258109519639,-1.7407088968117483,118.12573897309784,529.4449227813093,1.274,1.0232914783978162,0.0,1.4184705993346252,165.0000707061107,0.086482474278639,1.1846412605677116e-06,-0.1492698652813438,-0.0715085208951533,0.0136236733658569,2.328654586625906,15.909605442796826,29.23311443358033,21.80383369975948
0.95,31.222186725573607,131.01045189835705,16.817902656813207,1.9534459866412195,-1.17162396109092,28.13500824582012,2.223083301488748,-1.0256429673414555,342.421873617488,29.596815843725008,13.341108245701978,67.29582118268273,-1.8324079338735288,118.0263686823008,535.671115993364,1.274,1.0232418269359267,0.0,1.4223061868082658,165.0000707061107,0.0869908862190531,1.2072095464178564e-06,-0.152142452799008,-0.0732791779570275,0.0139670795303755,2.277744936104993,15.855861268814683,29.4127904079175,28.24133020688263
0.96,31.22218613127379,131.01045311511896,17.086914421664158,1.9092818924452213,-1.122386659992919,27.565963678338257,2.288533439804505,-1.1456518201078183,337.09533515678265,29.9077108732994,13.49384723762534,67.20732133892852,-1.9256693413419992,117.92524061625129,546.9698344929926,1.274,1.0231951201821403,0.0,1.42613176838041,165.0000707061107,0.0879049349206842,1.2300446375361396e-06,-0.154998036057444,-0.0750048640596917,0.0143783268166965,2.214642820013666,15.735164328552347,29.73141806469753,27.684512943403643
0.97,31.22218552746908,131.01045435273585,17.360393864244088,1.8665628687546625,-1.074414483840514,17.5696628654975,2.3501150984137,-1.2598611221717524,245.0218871929888,30.177799286397043,13.63136403079158,67.11708828298576,-2.0203921197263206,117.82246056854768,556.8788874465292,1.274,1.0231476260761452,0.0,1.429906685084638,165.0000707061107,0.0886990542113053,1.25314681256929e-06,-0.1578457316471641,-0.0766906839958549,0.0147743364000381,2.153605119222299,15.63754681814414,30.00904054472686,17.770856598098856
0.98,31.22218491936222,131.0104555997118,17.635347018940035,1.8317481182344304,-1.031357860055636,25.68779965102674,2.3986771377184204,-1.3497967279525591,319.593746642963,30.300871978798728,13.712224243745684,67.02512352591822,-2.11648278941598,117.71812627456384,561.4155098573551,1.274,1.0230935628253934,0.0,1.433693946586179,165.0000707061107,0.0890610676720721,1.276541085864061e-06,-0.1606777775044504,-0.0783313240794669,0.0151003512405605,2.102055607097977,15.613248158197846,30.13887541369921,25.834834122345242
0.99,31.222184309687847,131.01045684991277,17.91020722939271,1.7848600570861075,-0.9818568675581186,28.09528296794054,2.460066357814722,-1.468287408661415,341.66094855170127,30.5955632829874,13.860318367101325,66.93143328406694,-2.2138420721379988,117.61234188678992,572.3736014002397,1.274,1.0230490803133316,0.0,1.437451711287259,165.0000707061107,0.0899275104924172,1.300266957651617e-06,-0.1634771953153909,-0.0799165995421136,0.0155124456787522,2.037021467953037,15.5077011640926,30.441341115402693,28.24097589404331
1.0,31.222183690278325,131.01045812178566,18.189654541365,1.7371274547153164,-0.9323023775387425,25.125096963294343,2.5200796076977774,-1.5864172341370069,314.2672081822764,30.88578040195891,14.007276738994152,66.83603391913822,-2.3123591718866865,117.5052242352556,583.2680554232115,1.274,1.022999484445133,0.0,1.44115947876462,165.0000707061107,0.0907808126698532,1.32431775731394e-06,-0.1662554181969904,-0.0814525346589152,0.0159252908718415,1.971429220639123,15.40701568906961,30.73934114926189,25.300948960164394
1.01,31.222183065937568,131.01045940460975,18.470931665044784,1.6914034720004367,-0.8843072529179578,26.29322749156158,2.5740374709428004,-1.694773118504867,324.92031610370094,31.1194271621118,14.13258490208744,66.73893528642772,-2.411932319997101,117.3968804918463,592.11012658923,1.274,1.0229507481225095,0.0,1.4448808741599104,165.0000707061107,0.0914678475645554,1.348712525684028e-06,-0.1690078950036689,-0.0829358428616586,0.0163109719455989,1.9085643412214783,15.335116142767411,30.980526018422037,26.473226791383667
1.02,31.22218243716623,131.01046069727522,18.75375277926503,1.6426021201670484,-0.8350958515051567,21.91272076920241,2.629340592937489,-1.80852289794414,284.59063161543185,31.385423746530616,14.271147784493577,66.64015013572238,-2.5124571138005303,117.2874208690508,602.2592750898099,1.274,1.0229039803623294,0.0,1.4485786985850764,165.0000707061107,0.0922499730251954,1.3734778683903511e-06,-0.1717253907711375,-0.0843610343939477,0.0167144452586344,1.8426436803439,15.25019514411142,31.254251841303823,22.143882192043286
1.03,31.222181801784096,131.01046200481852,19.039362130081383,1.596468186012017,-0.7875866147357857,17.863120959313495,2.676754875556996,-1.908992987026144,247.3046933904342,31.57991241180592,14.38194206601439,66.53969686863796,-2.613824096430319,117.1769612776974,609.7298164194768,1.274,1.022853416101322,0.0,1.4522496617475051,165.0000707061107,0.0928219252423921,1.3986261900785758e-06,-0.174406282666811,-0.0857266443043473,0.0170801071490642,1.78012437946728,15.19986253176396,31.45620249161769,18.163159452457556
1.04,31.22218116307385,131.01046331978787,19.32588382116164,1.551085867704183,-0.7407407671923237,28.55794780019368,2.718780327694589,-2.001323516071456,345.4656368807608,31.735577013729,14.477725445410698,66.43759508681191,-2.7159238865591324,117.06561775358186,615.7386816290294,1.274,1.0228049544826707,0.0,1.4559102365488914,165.0000707061107,0.0932797672904887,1.4241854376204104e-06,-0.1770405790499431,-0.0870269766658669,0.0174230752872701,1.7188456021790113,15.168365803951565,31.619224967402065,28.75679823702261
1.05,31.22218052048421,131.01046464347775,19.6136328717722,1.49545152852797,-0.6893525862787774,17.128959595369746,2.7751867089868694,-2.125870274526318,240.4562587980608,32.071833476627084,14.646031587232896,66.3338705333349,-2.8186423032235526,116.95351180367912,628.8386308728294,1.274,1.022755494436122,0.0,1.459536670415418,165.0000707061107,0.094268425483377,1.4501776627355005e-06,-0.1796213150182666,-0.088258168280316,0.0178638576832569,1.6466555033218413,15.057245823611462,31.963552838016454,17.482054871028783
1.06,31.222179868085213,131.010465989722,19.905982538754767,1.449757039189431,-0.6428951887773879,24.51467906871398,2.8091614551859583,-2.207703690917413,308.1796836557233,32.183294937619564,14.724963959694607,66.2285533423309,-2.921862877876644,116.84076769736632,633.1993390429299,1.274,1.0227013895379469,0.0,1.4631337495922505,165.0000707061107,0.0945963551191663,1.476588947219492e-06,-0.1821582282845418,-0.0894241310657197,0.0181786109258649,1.5858819264613195,15.047901251716214,32.08231131656476,24.773672184604287
1.07,31.22217921696376,131.01046733282803,20.19662230314553,1.39498114228705,-0.5927573953064529,28.91421343234382,2.856324783500316,-2.3195229366678505,348.5093681440431,32.462616689389506,14.871775754016667,66.12166821926085,-3.025475998568311,116.72750246346656,644.2202418232848,1.274,1.0226540159946436,0.0,1.4667436951129915,165.0000707061107,0.0954176784395677,1.503471756869801e-06,-0.1846302811962859,-0.0905145575120886,0.0185847073762123,1.5156728827399402,14.96555543888564,32.369508236399206,29.147392959468917
1.08,31.22217855589158,131.01046869902592,20.49193550361976,1.3381065618485593,-0.5421060300496063,19.38320940446701,2.90409201590782,-2.435872433666733,261.0015785751465,32.77102185594472,15.031038896887477,66.01325256534024,-3.1293625968667045,116.61384377661278,656.5003590852518,1.274,1.0226061614050743,0.0,1.4702889113405706,165.0000707061107,0.096324497666308,1.530811738236687e-06,-0.1870454894976728,-0.0915324670105153,0.0190061511022695,1.4437294367853946,14.872744094310123,32.68586931036962,19.750342573418198
1.09,31.222177889088982,131.01047007859765,20.78951784792586,1.2873092146467835,-0.4943604165547719,17.814827338400832,2.934043445468063,-2.51892368183087,246.54375332456465,32.914530859432254,15.124086126838325,65.90333939213987,-3.2334096741207103,116.49991296117189,662.2438385381771,1.274,1.0225512795791307,0.0,1.473848051722704,165.0000707061107,0.096746641321999,1.558618053439212e-06,-0.1894011706672834,-0.0924756513146592,0.0193292440484404,1.3789547167365612,14.852489191524992,32.836877870290984,18.229691729478482
1.1,31.222177221154247,131.01047146070783,21.086763454706663,1.2344364210921444,-0.4460684364946189,35.99147006148014,2.9636062128292258,-2.6044055060068296,413.1890617384087,33.08217790705911,15.227338070847535,65.79196363609914,-3.3375042849735364,116.38583159240692,668.9880717573672,1.274,1.0224981043155532,0.0,1.477391727061862,165.0000707061107,0.0972397373403146,1.586932547061068e-06,-0.1916817682345791,-0.0933372980914659,0.0196610651309461,1.312546966479199,14.822712141821782,33.01211034873065,36.20706846750866
1.11,31.222176547601407,131.01047285600174,21.38621438347061,1.1698802301974704,-0.3939226047473455,26.28357635312445,3.017317215163205,-2.7434071890692366,324.1593910379213,33.53026753093776,15.445891581837566,65.67916971186773,-3.4415288072887065,116.27172671419052,687.2135825386354,1.274,1.0224548851875197,0.0,1.4808896754689072,165.0000707061107,0.0985571577004319,1.6157622130880767e-06,-0.1938850610681388,-0.0941160272151154,0.0201558453380331,1.2344120893910293,14.676189922901791,33.46839080035793,26.59806143485799
1.12,31.222175861382016,131.01047428146973,21.69184859734458,1.1135204007044268,-0.3451516998001842,9.771498670752548,3.045816108874612,-2.833915900723404,172.7328179403806,33.7419477866074,15.568352938495064,65.56500370858409,-3.545367127588667,116.15772407628448,695.8974519810365,1.274,1.0223979224661404,0.0,1.4843726264310104,165.0000707061107,0.0991797019015714,1.6450678963018234e-06,-0.1960234143271824,-0.094814818142855,0.0205061910938026,1.1657797303416164,14.630856752297332,33.68773181229255,10.620275955641258
1.13,31.22217517568727,131.01047570565547,21.996208149503328,1.063077773841698,-0.298552637900546,31.034185973015425,3.0521185273594167,-2.8815026032584536,367.5328077894322,33.75454483316908,15.609103042683172,65.44950484217651,-3.648908999078648,116.04394332153376,696.3967959426737,1.274,1.0223460397860296,0.0,1.4878861520866102,165.0000707061107,0.0992170699066688,1.6749046348169475e-06,-0.1980775462240444,-0.0954262337689391,0.0207282056629173,1.1042000734626656,14.668428072964614,33.707648506691775,31.316755639199652
1.14,31.22217448970837,131.01047713037875,22.299758713189124,0.998470375511884,-0.2480963456064772,17.082329104734544,3.0941313002223407,-3.007522503809373,239.6953177322812,34.16859778524406,15.816454435632467,65.33272400253786,-3.752039436213959,115.93050968459065,713.5655961594721,1.274,1.0223022138470996,0.0,1.4913448314978743,165.0000707061107,0.100434468434908,1.7053184606921547e-06,-0.2000325936032407,-0.0959456793451566,0.0211889514420008,1.0288287790170036,14.541836147755545,34.12962702418934,17.618876461238845
1.15,31.222173788315928,131.01047859238483,22.611019228508088,0.9433762126036064,-0.2005978563135741,16.839798144816815,3.102471333012972,-3.0666217794144623,237.4125115347709,34.26716573909989,15.893515588442572,65.21472114675497,-3.8546422844830888,115.81755010377384,717.6669983727483,1.274,1.0222426194541194,0.0,1.4947555949428115,165.0000707061107,0.1007245508237624,1.7362399273905043e-06,-0.2019058003434113,-0.0963762771780776,0.0214484315724989,0.9644659362190884,14.545174710125028,34.23565596588659,17.39564023163052
1.16,31.222173091274364,131.01048004382326,22.91885722790132,0.8854452867263171,-0.1527900493117159,44.42928685738035,3.1139377594957924,-3.1358600763617464,490.043774385954,34.431859205326695,15.99853148545475,65.09554654060169,-3.956607249236452,115.70518543002916,724.5605955844575,1.274,1.02219674531104,0.0,1.4982133883594575,165.0000707061107,0.1012090006692531,1.767738131494344e-06,-0.2036771365547075,-0.0967125181955382,0.0217399465549084,0.8985300754508759,14.52214644215832,34.40785902894889,44.648535893620554
