Time,Latitude,Longitude,Altitude,Angle of Attack,Angle of Sideslip,X-Acceleration,Y-Acceleration,Z-Acceleration,Thrust,True Velocity,Ground Velocity,Pitch,Roll,Yaw,Dynamic Pressure,cp,cg,parachute_deploy_gain,Wind Speed,Wind Direction,Mach,omega_x,omega_y,omega_z,Cmq,Angle of Attack(total),Angle of Attack(gust),True Velocity(gust),Acceleration
0.0,31.222216000000007,131.010392,3.000000004412624,0.0,0.0,0.0,0.0,0.0,2.2828121974499247,0.0,0.0,69.99999999623412,0.0,119.9999999935444,0.0,1.274,1.0271675151847728,0.0,0.0,0.0,0.0,0.0,0.0,0.0,-0.0,0.0,90.0,0.0,0.0
0.01,31.22221599999084,131.01039200000497,3.000002745347096,0.0,0.0,0.0,0.0,0.0,34.242186961749226,3.465174813755316e-14,2.8705476994166025e-14,69.9999999962611,-2.1713911667908447e-11,119.99999999352175,7.352495975525499e-28,1.274,1.0271659134330349,0.0,0.0,0.0,1.0183245502395064e-16,-3.3305335486039093e-18,7.169286865560398e-18,5.624298769768554e-18,-7.715917190115602e-34,0.0,89.99999999999979,3.465174813755316e-14,0.0
0.02,31.222215999994315,131.0103920000094,3.0000030495639742,0.0,0.0,0.0,0.0,0.0,25.871876237766216,3.8197434737535036e-11,2.4171837235633357e-11,69.99999999628672,-1.1921727947863515e-11,119.99999999353136,8.93414285188691e-22,1.274,1.027164492361118,0.0,0.0,0.0,1.1225230367947217e-13,-6.657678965418802e-18,1.4338573731120796e-17,1.1241821275959074e-17,-1.7010872994127372e-30,0.0,89.99999999975682,3.8197434737535036e-11,0.0
0.03,31.222215999994315,131.0103920000094,3.0000030495639742,0.0,0.0,9.81877837424427,-2.5122800045972096e-05,3.3498614629347925,180.34219359854663,1.2659015405517447e-10,1.1364406173918436e-10,69.99999999631459,-1.6431898037347223e-11,119.99999999352724,9.812605835254651e-21,1.274,1.0271551940870716,0.0,0.0,0.0,3.720154642239108e-13,-9.991600645811728e-18,2.150108433310316e-17,1.6859343782149594e-17,-8.453698244545225e-30,0.0,89.99999999919412,1.2659015405517447e-10,10.374487003414373
0.04,31.222215999994315,131.0103920000094,3.0000030495639742,18.83801224594347,-0.0001111777826462,48.68248476615645,-1.016330065874988e-05,3.3497854396877287,548.635972453808,0.1556173050466994,0.0975908358443652,69.99999999633813,-2.0932768807056278e-11,119.99999999352085,0.0148286043323172,1.274,1.027133720825283,0.0,0.0,0.0,0.0004573186944143,-1.3322134194415637e-17,-1.04744143520903e-11,1.336824254131964e-11,5.0626055458604615e-15,18.83801224625964,89.06236267790787,0.1555998412814392,48.79759610369246
0.05,31.22221599164764,131.01039201704114,3.002326315126219,5.772385609593056,-4.395076213712875e-06,71.20344550265034,4.905512691849684e-05,3.349217396035405,761.6984298824663,0.8326471944351852,0.3620326097059287,70.00000001316391,-1.0866255162484559e-10,120.00000000231074,0.4245281043148827,1.274,1.027093426565204,0.0,0.0,0.0,0.0024469331205246,-5.0245994431125096e-18,-7.32924164976824e-07,2.217344936947165e-11,1.895424184525467e-09,5.772385609594774,84.74112356985832,0.8326465040582279,71.28217104309611
0.06,31.22221596664444,131.01039206837547,3.015081730143309,4.056581213689704,3.169093567502233e-05,53.16249142470188,0.0001203825427859,3.3481235983850643,590.4875390737236,1.657216205300742,0.6755452977614796,69.99999964391398,-3.9285905645317736e-10,120.0000000287861,1.6816755551786196,1.274,1.027050317124926,0.0,0.0,0.0,0.0048701272653724,3.095757869075056e-13,-7.483541766772344e-06,3.074135420506017e-11,3.8518749565858254e-08,4.056581213813337,79.59316473687034,1.657221183301277,53.26781792157489
0.07,31.22221592883117,131.0103921460222,3.034593611434361,4.115662018628709,6.450869598349036e-05,81.18203554989698,0.0001593212642178,3.347059402768047,855.2937749779172,2.099899704220947,0.8579771146174259,69.99999543281565,-8.233801910783518e-10,120.00000006883089,2.700101932075157,1.274,1.027003201295312,0.0,0.0,0.0,0.006171060252819,3.4704292086287e-12,-2.6327204536316785e-05,1.9541142932033486e-10,1.7170712165327165e-07,4.115662019133419,76.90111966094352,2.099909837223217,81.2510043180746
0.08,31.22221588914193,131.01039222747755,3.0542761843835606,3.459696193892355,8.037433511260004e-05,16.298214211652088,0.0002413456836072,3.344878926597744,241.2171988638792,3.051964775152957,1.2149999716613011,69.99998042886442,-1.0128995578004475e-09,120.00000011111383,5.703497661025892,1.274,1.0269597189470347,0.0,0.0,0.0,0.0089689344021769,1.458982438104473e-11,-5.702803872814215e-05,7.043261397829576e-10,5.405702492731987e-07,3.459696194824858,71.30331929508368,3.051977400323993,16.63790856991177
0.09,31.2222158241468,131.01039236098703,3.0886872184095737,4.313676956300389,0.0001337561018991,50.35975918308536,0.0002293282821279,3.344215841840564,563.0937377043203,2.893161298572128,1.191209213966114,69.99994788602814,-7.098432023887522e-10,120.00000018106356,5.125380275808925,1.274,1.026918932011013,0.0,0.0,0.0,0.0085022553945842,3.8672912027154325e-11,-0.0001115933708951,2.016054215232918e-09,1.0027525988343615e-06,4.313676958370176,72.2316578138625,2.893182308931483,50.47067588835877
0.1,31.2222157788302,131.01039245392113,3.109877853389092,4.035124630954496,0.0001457499816535,47.804664812504015,0.0002878217657545,3.341734392237128,538.7437595981891,3.5677148583138303,1.4531247507621967,69.99988403958329,1.9248461973355822e-09,120.0000002323013,7.7939962029572305,1.274,1.0268846934974103,0.0,0.0,0.0,0.0104845969583028,8.579678749070606e-11,-0.0001726817043215,3.984565639703107e-09,1.913455350430327e-06,4.0351246335824245,68.43243098813296,3.567737752667411,47.92132267234452
0.11,31.222215703308,131.01039260899836,3.148841432727305,4.043401107254707,0.0001752764476999,37.67622367577205,0.0003286462930162,3.3392563999062723,442.86563930529127,4.034183355956686,1.6436552022667772,69.99978525353545,7.302513231814865e-09,120.00000031883242,9.96528118825134,1.274,1.026848594915519,0.0,0.0,0.0,0.0118554331868328,1.5870341853361987e-10,-0.0002596204409236,7.232030302688121e-09,3.252930323390323e-06,4.04340111104746,65.92012987243639,4.034210888316708,37.82391391539392
0.12,31.222215627491828,131.01039276462643,3.186995101203875,4.17874459224363,0.0002066711490009,41.15991989399172,0.0003576945202315,3.336766085769504,475.58594813540793,4.361857560629481,1.7865750500940407,69.99963665601238,1.781774420198147e-08,120.00000041104812,11.649831899889556,1.274,1.0268114448194128,0.0,0.0,0.0,0.0128183893919737,2.682972478760441e-10,-0.0003710216542429,1.2215991071490164e-08,5.026311388647148e-06,4.178744597345269,64.21681651392016,4.361890024457652,41.29495143136631
0.13,31.22221554594398,131.01039293200228,3.2277173449026786,4.202734874672792,0.0002327160860324,45.44886120763352,0.0003953741266062,3.333578629398489,515.9156326236897,4.792165672014363,1.9646716520715424,69.99942424225341,3.613383418913551e-08,120.00000051758742,14.061726603124043,1.274,1.026779572895131,0.0,0.0,0.0,0.0140829618979635,4.248908088871395e-10,-0.0005056103199642,1.908859219307828e-08,7.5253154423526356e-06,4.202734881104192,62.048594618540655,4.792202226971676,45.570952718869485
0.14,31.222215454191247,131.01039312033683,3.2737880595608355,4.184830647080848,0.000257138757548,42.32232525579263,0.0004369426767266,3.329727443445437,486.2390860568421,5.269261304374574,2.158791628597544,69.99913473613935,6.515851355725497e-08,120.00000064630268,17.000925061330125,1.274,1.0267449573927567,0.0,0.0,0.0,0.0154850332441425,6.382432869666793e-10,-0.0006690086306358,2.8426433029675884e-08,1.0948547100483978e-05,4.184830654966803,59.74181173116622,5.269301695636157,42.45310707234106
0.15,31.222215353826755,131.0103933263496,3.3242182719560263,4.21963947489699,0.0002846467688673,40.886944113003565,0.0004726792395108,3.325585650885676,472.5421858721398,5.6781946837482895,2.329510773545807,69.99875162806286,1.0876776246115984e-07,120.00000079954532,19.742017654108928,1.274,1.0267115958081523,0.0,0.0,0.0,0.0166867950518804,9.204756288136623e-10,-0.000865746478554,4.08948221429571e-08,1.526771148078443e-05,4.219639484480408,57.84996018384879,5.678239395958187,41.02196629910223
0.16,31.222215247130432,131.01039354534575,3.3775922280208457,4.253495568077899,0.0003118339050386,32.26872905470846,0.0005078415214353,3.32090791922544,391.1218908297597,6.081244877834229,2.4981889727471702,69.99825581174558,1.7187028096464329e-07,120.0000009800088,22.644030778355887,1.274,1.026675762255412,0.0,0.0,0.0,0.0178712695992133,1.2856146928958252e-09,-0.0010961187242953,5.6923362293832417e-08,2.0702404729358337e-05,4.253495579487569,56.06022383757386,6.081293860589489,32.43916312841722
0.17,31.22221513260033,131.01039378041813,3.4348437275053194,4.364838523348639,0.0003448792023946,40.840448242802736,0.0005326487904353,3.3162727284953744,471.78125980632416,6.362544479165355,2.6250789114832647,69.99762801982864,2.5997588617291615e-07,120.00000119506798,24.78723182122683,1.274,1.0266409836796937,0.0,0.0,0.0,0.0186979513961862,1.747791994374917e-09,-0.0013624931601664,7.706724512977917e-08,2.6923621797558364e-05,4.364838536947241,54.85936171416122,6.362598652663785,40.97486885600156
0.18,31.222215014088988,131.01039402363364,3.4935801365785646,4.353948305387995,0.0003681615230806,33.992183768165326,0.0005718025428208,3.310131992647221,407.1015672119096,6.81502088160835,2.810667639293692,69.99684761766231,3.794979223522764e-07,120.00000144728236,28.437950785509614,1.274,1.0266048342046536,0.0,0.0,0.0,0.020027681385988,2.3221419748804155e-09,-0.0016616990447559,1.0147209890543081e-07,3.517105786247627e-05,4.353948320923495,52.99157233768714,6.815078712285162,34.152972512863755
0.19,31.22221488419521,131.01039429023237,3.558399965607869,4.432620772533925,0.0003996774584738,38.45149959021069,0.0005986099513107,3.304145139297767,448.95313283182486,7.1223367465208405,2.946425726785696,69.99589577323147,5.440084577183829e-07,120.00000176148238,31.060341085698347,1.274,1.026566130444714,0.0,0.0,0.0,0.0209308229359413,3.022391489754689e-09,-0.0020041563310821,1.3135864879722746e-07,4.433199397898183e-05,4.432620790516937,51.77883352025967,7.122399527709208,38.59320142454953
0.2,31.222214751373183,131.01039456280608,3.624052454705669,4.443889400961181,0.0004246617145652,35.23432408779927,0.0006337972852267,3.2968110145188256,418.5156301991588,7.530482904611057,3.1167566004785483,69.99474776398331,7.478025600151903e-07,120.00000211715036,34.72195181863731,1.274,1.026529240027363,0.0,0.0,0.0,0.0221302820454282,3.866698391504749e-09,-0.0023849544920781,1.668144671071589e-07,5.57780533277244e-05,4.443889421210987,50.22448880200342,7.530549610317194,35.38822625098952
0.21,31.222214608673173,131.01039485566503,3.6948551453492566,4.493351735844891,0.0004538195602194,33.79371564104691,0.0006629296043866,3.2891790438445727,404.8187610144608,7.868284042829251,3.2629204975089228,69.99338155599101,1.0150082652278477e-06,120.00000255293388,37.906665490338085,1.274,1.0264923657015164,0.0,0.0,0.0,0.0231230169900677,4.871073773182836e-09,-0.0028117605859743,2.089322918608601e-07,6.870935089180403e-05,4.493351758715364,48.992529909481824,7.868355328639073,33.95340801819282
0.22,31.22221446109996,131.01039515850383,3.767700382407304,4.5412639153933885,0.000482649303782,41.008966751568416,0.0006914639179131,3.2808061382386606,472.5421858721387,8.20057841132235,3.4071691679735228,69.9917708347139,1.3454961520984431e-06,120.00000305929996,41.175744234065135,1.274,1.0264494137127138,0.0,0.0,0.0,0.0240995709751246,6.054779813287368e-09,-0.0032829112061357,2.580881224843564e-07,8.3609968899004e-05,4.54126394098788,47.82515604752711,8.2006542256977,41.13999323561041
0.23,31.22221430675399,131.0103954752338,3.843768625625224,4.52371495179584,0.0005047555656171,33.98493478127787,0.0007294889663961,3.2705214710765107,406.340642146096,8.647938096586296,3.5908865300848416,69.98989017772566,1.7539876018835507e-06,120.00000365514876,45.79040229326471,1.274,1.0264133390858623,0.0,0.0,0.0,0.0254142776666487,7.436335125872812e-09,-0.0038001790077148,3.1489825108822685e-07,0.0001020628978177,4.523714979897577,46.31461705147579,8.648017383405135,34.14194053232237
0.24,31.222214142622448,131.0103958120587,3.92493179063287,4.57837522350066,0.0005351929930195,35.051650311058864,0.0007555049947555,3.26053011385611,416.2328240017099,8.954297884844461,3.72617527247482,69.98771316795013,2.25257161141768e-06,120.0000043564586,49.09180568115741,1.274,1.0263750048312463,0.0,0.0,0.0,0.0263146218848643,9.034877387788232e-09,-0.0043732521010013,3.809642748985157e-07,0.00012161410144,4.578375254714954,45.32798984252032,8.954381952763216,35.20297212911011
0.25,31.22221397517227,131.0103961556623,4.0071748888306855,4.6034117733065,0.0005618935542827,36.03738579534623,0.000785606492708,3.249069743648399,425.3640807915084,9.311611941121669,3.8789349536029696,69.98520781816889,2.8559738498748624e-06,120.00000517181904,53.08749562138344,1.274,1.0263373768840591,0.0,0.0,0.0,0.0273647110956883,1.0873791100894836e-08,-0.0049950711786164,4.5609738277273444e-07,0.0001444478241125,4.603411807525074,44.2165428352526,9.311700203154778,36.183554686886296
0.26,31.22221379934012,131.01039651647062,4.09364247475714,4.621386912291471,0.0005881033207375,39.29107511182762,0.0008162761165496,3.236407051295005,455.80158342417656,9.67833954512075,4.034902068846398,69.98234620927953,3.5784678110229355e-06,120.00000612171208,57.350948423913096,1.274,1.0263006300381676,0.0,0.0,0.0,0.0284424679130479,1.2973286442992724e-08,-0.0056712051373577,5.414206381221602e-07,0.0001704578711045,4.621386949630312,43.12063533194282,9.678431924174348,39.42414126789902
0.27,31.222213616776543,131.01039689108487,4.183310605341074,4.617158109135719,0.0006115457810536,35.90419462403674,0.0008503454714941,3.221982799915672,423.8421996598744,10.088790784535757,4.205862468567124,69.97909721779352,4.436165972465058e-06,120.000007221354,62.31798301949865,1.274,1.026260090595354,0.0,0.0,0.0,0.0296487219805601,1.5355910600537293e-08,-0.0064045199323113,6.379142666348734e-07,0.0002006609239367,4.617158149547818,41.94410287616451,10.08888684592241,36.048472443180565
0.28,31.22221342607797,131.0103972823952,4.277051150896916,4.642105655370123,0.0006389739579882,41.51133203546672,0.0008785747638736,3.2071101123224945,476.3468732012228,10.432377224420517,4.35383399240675,69.97542808435722,5.446665372087172e-06,120.00000849080963,66.63429581008447,1.274,1.0262212716723291,0.0,0.0,0.0,0.0306584788590473,1.8045308789081613e-08,-0.0072006835403936,7.469524967369969e-07,0.0002332868227611,4.642105699250441,41.0023231023774,10.432477594215127,41.63503624837164
0.29,31.22221323001776,131.01039768469093,4.373143569786686,4.62134615173668,0.0006600657405645,33.17552944492765,0.0009148746278066,3.1894209319791806,397.9703104221098,10.876662296046485,4.536381530986506,69.9713027936179,6.629751536885327e-06,120.00000994797426,72.43000748232016,1.274,1.026183007522519,0.0,0.0,0.0,0.0319641703260467,2.1067646517035105e-08,-0.0080566154554079,8.688043379161898e-07,0.000272130659453,4.621346198772975,39.83162628795024,10.876765978930557,33.32848872465723
0.3,31.22221302403368,131.01039810736614,4.4744193758467325,4.664362353358112,0.0006905183788532,31.08096762732793,0.0009381960428197,3.172549142946348,378.1859457108735,11.168362145070317,4.66647911311536,69.96668711012893,8.005507138509574e-06,120.00001161892672,76.36634300732833,1.274,1.0261430389738484,0.0,0.0,0.0,0.0328214509167604,2.4447409007156216e-08,-0.0089829108229115,1.0056222251461646e-06,0.0003115527202986,4.664362404357781,39.09908960432563,11.168470611443622,31.242464973103964
0.31,31.22221281503337,131.01039853619727,4.576593712520673,4.700143580504286,0.0007196683316923,32.79732593144512,0.0009620705970519,3.154230688182399,394.1656220930229,11.470279728974068,4.800072153432283,69.96154070456518,9.597499105113692e-06,120.00001352112182,80.55022837857167,1.274,1.0261054058068628,0.0,0.0,0.0,0.0337087616009043,2.8214060606649844e-08,-0.0099686353219717,1.1565909895184251e-06,0.0003550834484269,4.700143635477137,38.36463422765983,11.47039277421126,32.94865339301887
0.32,31.222212598991007,131.01039897947376,4.68216432480395,4.718667719113184,0.0007464384342556,35.7316568886908,0.0009885845337584,3.133859770838664,421.5593934624264,11.808280530415894,4.946054328851105,69.95582953472353,1.14278227255889e-05,120.00001568218067,85.36654007972253,1.274,1.026068246703101,0.0,0.0,0.0,0.0347021168382987,3.2392058795580455e-08,-0.0110163301561155,1.3226102501723267e-06,0.0004039614423012,4.718667778018562,37.5686120062341,11.808397780690962,35.8688218659563
0.33,31.222212376029034,131.0103994369436,4.791055524254013,4.72141404831576,0.0007708346814671,35.42013590291081,0.0010176135371143,3.1111955852784385,418.5156301991632,12.181577273013426,5.104163223586657,69.94951809396906,1.351997394754887e-05,120.00001812674968,90.84831229869296,1.274,1.0260310883392356,0.0,0.0,0.0,0.0357992034445943,3.700677535501642e-08,-0.0121310534481307,1.5051409581878843e-06,0.0004588955105349,4.721414111097893,36.7208578211118,12.181698355442045,35.55651229220977
0.34,31.222212145785647,131.0103999093516,4.903491659547144,4.73024573449122,0.0007962944975467,27.63851074646407,0.0010446307681611,3.0871492806781062,345.4656368807584,12.53557620048282,5.2556261014174765,69.94256797855994,1.5899658158227497e-05,120.000020882338,96.20413272674828,1.274,1.0259901535019136,0.0,0.0,0.0,0.0368395817555172,4.208561016221623e-08,-0.0133180771902383,1.7057647550599631e-06,0.0005184333231541,4.730245801363397,35.94841996438923,12.535701282129995,27.810389570354005
0.35,31.222211909310875,131.01040039453565,5.018822212845608,4.780248518778662,0.0008286678570753,30.332092807652543,0.0010618579815451,3.063967690608957,370.5765700527057,12.774786382148209,5.367579971644358,69.93493776125636,1.8594985713558667e-05,120.00002397748868,99.9096898192772,1.274,1.025950003202184,0.0,0.0,0.0,0.0375426220587071,4.7658312175989686e-08,-0.0145774693288123,1.9252724355785177e-06,0.0005782798420984,4.780248590437683,35.44790728185619,12.774916548990808,30.486451961956565
0.36,31.22221166933814,131.0104008868675,5.135354490370708,4.798132156899578,0.0008554457330409,34.32674769697476,0.0010851169437774,3.0374319611165923,407.8625232777224,13.09301701329486,5.506730645516068,69.92658597246795,2.163521613217148e-05,120.0000274401514,104.94818266210537,1.274,1.0259105142325406,0.0,0.0,0.0,0.0384778908056978,5.3755109608570216e-08,-0.0158991451700967,2.162609490834569e-06,0.0006464142451675,4.798132232978766,34.796094028187134,13.09315138639638,34.46087058603792
0.37,31.222211421355144,131.01040139563804,5.255882891363927,4.797392186816851,0.0008791822061288,32.551601855236584,0.00111162791192,3.0078619428913056,391.1218908297639,13.457513730739372,5.661815946371007,69.91747693543164,2.5047738471809164e-05,120.0000313040604,110.87154396328836,1.274,1.025872170958032,0.0,0.0,0.0,0.0395491312153729,6.040098808671168e-08,-0.0172926678053148,2.420031948898497e-06,0.0007226353721561,4.797392267189059,34.07332166419882,13.457651832357364,32.69027405888565
0.38,31.22221116634284,131.01040191882743,5.379799334000849,4.811698494594017,0.0009057112478668,34.02947987649063,0.0011338447913587,2.9774881690446744,404.81876101445977,13.77554886562956,5.800899861213392,69.90756948297444,2.886339581486796e-05,120.00003560072224,116.17243393848278,1.274,1.02583050512925,0.0,0.0,0.0,0.0404838339452728,6.762496638941508e-08,-0.0187646375218858,2.69955777313946e-06,0.0008026686661094,4.8116985796350695,33.46655348088405,13.775691134419684,34.15949264475229
0.39,31.222210906095896,131.01040245274032,5.505993307722699,4.813508003664984,0.000929862892873,29.00025983045028,0.0011579891265804,2.9442136901860865,357.6406249338268,14.124492165837273,5.950648592462506,69.8968186645841,3.311602501056718e-05,120.00004036395212,122.13093644173792,1.274,1.02579027384009,0.0,0.0,0.0,0.0415093739609825,7.545934774906889e-08,-0.020311592409804,3.0013532510753577e-06,0.0008908380763632,4.813508093268025,32.821616487639595,14.124638228358922,29.149330452482886
0.4,31.222210638473225,131.0104030017851,5.635788650457906,4.841647069358873,0.0009592124397379,27.71178845184976,0.0011749448424961,2.91135549588368,345.4656368807565,14.390874239274588,6.07193451174791,69.8851815212744,3.783947407715338e-05,120.00004563180136,126.77947425345651,1.274,1.0257493418632293,0.0,0.0,0.0,0.0422922854866381,8.39343718693383e-08,-0.021938519432511,3.3271332720311508e-06,0.0009803271643914,4.841647164150728,32.348088166612904,14.391024912012275,27.864299944624147
0.41,31.22221036681104,131.01040355909262,5.767123077463226,4.86553909860892,0.0009876699832274,31.306062598221665,0.0011918093836199,2.876450850006428,378.9468707766882,14.663028799871563,6.195223154320929,69.87261222561014,4.307011032901644e-05,120.0000514391194,131.6183642808765,1.274,1.025708445186429,0.0,0.0,0.0,0.0430921644173401,9.308325447883581e-08,-0.0236371933433427,3.6760977501392174e-06,0.0010761942383903,4.865539198612839,31.87689439156756,14.663183942709727,31.437931330109585
0.42,31.22221008906472,131.01040412887247,5.901259531771367,4.867510642114694,0.0010118258958528,35.308283402190774,0.0012128114559048,2.8374461227958245,416.23282400171047,14.9952917972178,6.33928625560071,69.85906967380902,4.884273094936628e-05,120.00005782486392,137.64909586091787,1.274,1.0256701057426505,0.0,0.0,0.0,0.0440686959134695,1.0293499639582845e-07,-0.0254093547296826,4.049238334851429e-06,0.0011830797791891,4.867510747027452,31.315270489291198,14.995450734457847,35.422111438762386
0.43,31.222209804115888,131.01040471342728,6.038886819939341,4.854590670645608,0.0010330089741511,31.00586934514032,0.0012363751872706,2.794478603999558,375.90313951343126,15.369430568701889,6.497852263156962,69.8445117629242,5.519340856908871e-05,120.00006482835984,144.60167924299955,1.274,1.0256308158337524,0.0,0.0,0.0,0.0451682983415116,1.135186446762958e-07,-0.0272634397889413,4.449073329427772e-06,0.0013010625065656,4.854590780289497,30.70250814963406,15.369592833372094,31.13154422839874
0.44,31.22220951192321,131.01040531284193,6.180028459770617,4.866912332640401,0.0010595850174406,28.57707721036899,0.0012525768202179,2.752165534925872,353.07501253892326,15.659290812546615,6.627318538707029,69.82889155423543,6.216182865383864e-05,120.00007249162944,150.1053167542629,1.274,1.025586171750536,0.0,0.0,0.0,0.0460202245100907,1.2486676023179565e-07,-0.0292060158163984,4.8779154055816594e-06,0.001420032405556,4.866912447705031,30.24619499837236,15.659457251771938,28.709297424144207
0.45,31.222209215425703,131.01040592106523,6.322872201489905,4.881836476567178,0.0010866574689855,33.31904824532484,0.0012669045761511,2.7082028218433374,397.2093853562887,15.934249290371609,6.751662050993672,69.81215834018458,6.97909417564726e-05,120.00008085697964,155.42080512416243,1.274,1.0255397023523487,0.0,0.0,0.0,0.0468283602442113,1.3701614206272197e-07,-0.0312276295846745,5.334643585560923e-06,0.0015449645531859,4.8818365972149325,29.82567893138932,15.934419982127675,33.428929688274074
0.46,31.22220891307435,131.0104065412864,6.468371919199588,4.869610441729251,0.0011078049156487,38.95909776354321,0.0012868374716666,2.6582856015412624,449.7140588976424,16.292139278621757,6.904766425053949,69.79426683863348,7.812149592850748e-05,120.00008996920153,162.4785746623087,1.274,1.02549635315424,0.0,0.0,0.0,0.0478802236363867,1.499987870203256e-07,-0.0333272350234362,5.819761874615242e-06,0.0016858511402973,4.869610567434908,29.29014635640275,16.292313292210977,39.04968351401366
0.47,31.22220860266524,131.01040717804253,6.6178810515614845,4.838450928223533,0.0011247917292402,26.253747818137555,0.0013104398935566,2.6026193242279367,331.0078106302504,16.710658191447514,7.078951441335346,69.77517236812905,8.719457259907165e-05,120.0000998741591,170.9309671061642,1.274,1.025453319323251,0.0,0.0,0.0,0.0491102725711187,1.6384464803343264e-07,-0.0355167087264168,6.3368207228363735e-06,0.0018427306558807,4.838451058652396,28.68386015667837,16.710834873319172,26.382435512333956
0.48,31.222208284201663,131.0104078313267,6.771393590864176,4.869339340099417,0.0011561785713505,25.860860976019296,0.0013165328518772,2.5543454292827983,327.20312230115803,16.911139899671,7.177575416403102,69.75482343794755,9.70562828082882e-05,120.00011062072316,175.0543877818846,1.274,1.0254092882449153,0.0,0.0,0.0,0.0496995461609974,1.7858865391586845e-07,-0.0378054080201581,6.88909442277235e-06,0.0019849793891693,4.869339477030596,28.40887970825325,16.911321511776286,25.986704537635287
0.49,31.22220796480208,131.01040848648364,6.924537656029012,4.881367714530694,0.0011829003785372,32.565703383222065,0.0013261973190012,2.5011623511055703,389.6000096981238,17.169005224738054,7.296160258358563,69.73316318155707,0.0001077573203115,120.000122255028,180.4309832312717,1.274,1.025367445590036,0.0,0.0,0.0,0.05045746454003,1.942747077649401e-07,-0.0401641298712614,7.47069711110948e-06,0.002140948887153,4.881367857509675,28.058569663954906,17.169191034294997,32.66161128464712
0.5,31.222207637929923,131.01040915697027,7.081324512896956,4.862566137860805,0.001202418260511,33.47759680712428,0.0013425340759632,2.4399894027711366,397.970310422106,17.52898693231981,7.450304424940405,69.71015149227495,0.0001193385310595,120.0001348274002,188.0736471953394,1.274,1.0253278572281015,0.0,0.0,0.0,0.0515154948878309,2.109295159784217e-07,-0.0426011733481599,8.084173008518589e-06,0.0023184335011768,4.862566286171007,27.57768313050809,17.529175807738486,33.56639745442473
0.51,31.22220730314019,131.01040984370235,7.24202048914867,4.8479762258125,0.001223054804074,25.49162310288008,0.0013562860883156,2.3767006597692686,323.39843497208153,17.86914397471067,7.597652147346554,69.68574349602717,0.0001318441288964,120.00014838524436,195.4407439266201,1.274,1.025286455263166,0.0,0.0,0.0,0.0525152689856776,2.2858192086249162e-07,-0.0451315948093539,8.734206149830708e-06,0.002503767471626,4.847976379721193,27.13799345359824,17.86933609171003,25.602178740977283
0.52,31.222206962738102,131.01041054193402,7.405210501673173,4.865306299521403,0.0012516517170965,30.733671928447727,0.0013599291289974,2.317711624364424,372.098451184342,18.08534843773428,7.701914987606457,69.65988568649581,0.0001453248538387,120.00016298000436,200.19561780583155,1.274,1.0252426840672306,0.0,0.0,0.0,0.0531507657929359,2.4726951523704535e-07,-0.0477531686556663,9.421346966092632e-06,0.0026812161964639,4.865306460134566,26.8699055233151,18.085545046726228,30.820940596104087
0.53,31.222206619320115,131.01041124632013,7.569307468221277,4.848802699234936,0.0012715119568563,32.301199055744725,0.0013711327835325,2.2490252325653923,386.55624643486095,18.41963113311156,7.8474319110539055,69.6325258319474,0.0001598315062727,120.0001786629144,207.6614205945027,1.274,1.0251993415311351,0.0,0.0,0.0,0.0541332845214831,2.67031759303889e-07,-0.0504479325599339,1.0141887756417996e-05,0.0028848299490111,4.848802865552398,26.45837260670532,18.419830861742675,32.37940050117613
0.54,31.22220626697288,131.01041196903336,7.737918664599091,4.831496690588052,0.0012913635058467,28.31291960103712,0.0013809098107221,2.177242866245296,349.2703242098436,18.75116898748492,7.992112829440902,69.60362200959217,0.0001754082864028,120.00019548734956,215.20067397992847,1.274,1.0251561018460285,0.0,0.0,0.0,0.0551077428911958,2.878941684235108e-07,-0.0532336286085667,1.090122304443916e-05,0.003098869611663,4.831496862756785,26.061835558272342,18.751371834390056,28.396510432451375
0.55,31.222205908994248,131.01041270328463,7.909026079894722,12.755903477510111,14.794421726616704,30.4011232242592,-0.9138835564803836,1.6094188870041668,365.2500005919912,21.25288039252061,8.113323699629928,69.57312211246325,0.0001921068626005,120.00021350480982,276.4492350024227,1.274,1.025112921033824,0.0,6.26600891486463,0.0,0.0624601340772573,3.0989272306468813e-07,-0.0561100530405476,1.1700476995263424e-05,0.0037020324998483,19.440775871503323,39.111542026911415,23.551045040360247,30.457408057896902
0.56,31.222205546564343,131.01041344664463,8.081909946161325,-8.20045987669504,-13.998585665914488,28.22935436329021,0.4424837684344035,2.535808516869163,346.22656194657776,18.438286077125507,8.245531141149062,69.54097415464405,0.0002099796112633,120.00023276987916,208.07202062256724,1.274,1.0250709539098009,0.0,6.288869463612746,165.0000707061107,0.0541884227138723,3.329899590246196e-07,-0.0650818414309746,0.0110861030447479,0.003725245695842,16.182172589717027,13.712924493066874,16.26120458127757,28.346473581166425
0.57,31.22220517944269,131.01041420523154,8.25837496244494,-8.029602530881718,-13.818363375906712,27.90630975277587,0.6051871151491501,2.6146171449099187,343.1828296833045,18.689155565403897,8.380816801641046,69.50368479041882,0.0172040712215395,120.01837335924364,213.7689312933155,1.274,1.0250279191823897,0.0,6.311551412028188,165.0000707061107,0.0549258143493159,3.6592213968294923e-07,-0.0606031985554543,0.0031656422108815,0.0035160286620374,15.942556761882376,13.545768030282847,16.53955330868923,28.035060161816542
0.58,31.222204802788635,131.01041497356636,8.436576152758402,-7.875587074249809,-13.656121980190306,36.828529575790974,0.7750731174008745,2.6965908234575413,426.12500585731766,18.948847931356447,8.513330382943337,69.46896185714017,0.0220201700788176,120.02351569947812,219.7472342306717,1.274,1.024981594484354,0.0,6.3342758069878045,165.0000707061107,0.0556891397387629,3.926167095223125e-07,-0.0560894550324666,-0.0048716000316444,0.0032993149964334,15.726859136396994,13.36747241964948,16.824001491162814,36.93525322942004
0.59,31.222204421353528,131.01041575424472,8.617500106066716,-7.667821269726371,-13.400087852211964,29.79385524727908,0.9577353392350566,2.777142037705888,360.68438819710633,19.33941536664032,8.693607188151164,69.43682663026803,0.0145462561255312,120.01553418382296,228.89533107508248,1.274,1.0249386802161349,0.0,6.356824701896,165.0000707061107,0.0568371020170387,4.130042307839473e-07,-0.051531072167037,-0.0130407937798373,0.0030936040316363,15.403916529375389,13.132179512424528,17.25367081108942,29.938329702463896
0.6,31.22220402912889,131.0104165548922,8.803278807490049,-7.524448508447321,-13.247843697784576,26.44098953696024,1.1414960280086015,2.866427096355131,329.4859594986072,19.585695843749964,8.821525499429937,69.4073028901422,-0.005361540470216,119.99426976132862,234.75806232241408,1.274,1.024891335813742,0.0,6.379321129091625,165.0000707061107,0.0575610226400557,4.2699879865017363e-07,-0.0468966749148741,-0.0213977242635461,0.0028511857718228,15.202268425284087,12.974538414980886,17.523222021326696,26.620393407579822
0.61,31.22220363366784,131.01041736063056,8.989557397006683,-7.388417386632159,-13.104520143366631,31.029013293834208,1.330197736837233,2.958671080811251,372.0984511843332,19.81768629402469,8.944308291201114,69.38042923812871,-0.0379408732440478,119.95946375335323,240.34806783511664,1.274,1.0248423929069768,0.0,6.402017431186979,165.0000707061107,0.0582429491250828,4.344846267172317e-07,-0.0422256975714745,-0.0298750883962834,0.002597565288063,15.01202535389245,12.82936766998258,17.777132988629642,31.198122164201738
0.62,31.22220323144351,131.01041817873605,9.178468130026529,-7.220899917888032,-12.90431179737862,38.64675742430248,1.5307234526772655,3.0517217992119106,442.86563930529206,20.132711504355942,9.097412858890754,69.3562183987703,-0.0833357471042556,119.91095811715203,248.04552645564428,1.274,1.0247996097896497,0.0,6.424379135927159,165.0000707061107,0.0591689147486354,4.353949351985666e-07,-0.037523666967837,-0.0384638949268523,0.0023449649453062,14.75727305531706,12.652160875356175,18.12280026452992,38.79726768267631
0.63,31.222202820546457,131.01041901313687,9.371149042818525,-7.023924633496257,-12.6488425849918,21.76766154102858,1.7466073133285407,3.1471257886816506,286.11251274707456,20.53660987729039,9.282958448859093,69.33467650695047,-0.1416859827567828,119.84859991579576,258.0930615399819,1.274,1.024756158874558,0.0,6.446654762472705,165.0000707061107,0.0603560807044535,4.296669606086448e-07,-0.0327725089895828,-0.0471974234316816,0.0020890999606577,14.440354544702885,12.442578696955788,18.565834014499064,22.063230198715974
0.64,31.222202400116142,131.01041986562322,9.5681108327847,-6.930482562487916,-12.570053650346935,21.356470193075804,1.9459643364868848,3.249804059357733,282.3078244179702,20.658844834827367,9.365992726354968,69.315816422942,-0.2131917259391125,119.772172394763,261.1696317616152,1.274,1.024708534665538,0.0,6.468988013978682,165.0000707061107,0.0607154581074198,4.172135459890748e-07,-0.027952866543869,-0.0561117375781515,0.0017924413224797,14.32703728704917,12.365430215178216,18.70014660518766,21.689786138430044
0.65,31.22220198016364,131.01042071549043,9.763324035209768,-6.809566552275339,-12.44090713558443,37.99486132147678,2.1556057921700567,3.352780905019816,436.7781447787504,20.85711254125553,9.476695561886926,69.2996581509274,-0.2981178396462033,119.68139027296466,266.20170780140137,1.274,1.0246641738210605,0.0,6.491427617233519,165.0000707061107,0.0612982933800528,3.979387502354881e-07,-0.0231375868584875,-0.0650770705803083,0.0014978787802161,14.156787722497706,12.259262427360545,18.918219308448563,38.20336716791538
0.66,31.2222015517514,131.01042158128035,9.962183030120029,-6.606604772390972,-12.16373144154363,32.24981661239066,2.397323971790173,3.457623180993279,383.5125151715984,21.299899498584445,9.676466220504585,69.2861763510268,-0.3965420101652692,119.57616905611609,277.61906282837725,1.274,1.0246195561629028,0.0,6.513291445148114,165.0000707061107,0.0625997685414996,3.718322002408991e-07,-0.018310081146899,-0.07412370353678,0.0012104976537531,13.81829604135246,12.054457554558212,19.40354510017997,32.52311473122294
0.67,31.222201110908124,131.01042247133012,10.167087986502793,-6.4606719131423125,-11.98402954327733,22.07328870483228,2.6302265122349366,3.566770611637568,289.15624401033847,21.57881280954213,9.81658486017607,69.27535118769933,-0.5085982114461304,119.45636479126172,284.93167122684787,1.274,1.024572383541697,0.0,6.535193521825921,165.0000707061107,0.0634196330350687,3.38855067486396e-07,-0.0134142509657658,-0.0833555873598972,0.0008984244417051,13.59213974874644,11.927348429019238,19.710061478656947,22.51377396947436
0.68,31.22220066735058,131.0104233654055,10.372169014211128,-6.35301072502339,-11.870205013104234,27.64588795088484,2.853883384705876,3.6773882024163913,340.89999248584934,21.737622323740343,9.912956894907577,69.26719019844124,-0.6345889513268188,119.32165404314024,289.1353254498836,1.274,1.0245245285832842,0.0,6.557380095139568,165.0000707061107,0.0638865183424054,2.9890784256948405e-07,-0.0084934429458649,-0.0926947175983462,0.000573026680751,13.441835453188318,11.855770409155998,19.8863645095523,28.035030853517018
0.69,31.222200219640857,131.0104242665015,10.578299409697248,-6.204659660000928,-11.680505104343071,34.12034253220548,3.099097273981925,3.7908636982879216,401.0140726853658,22.027590899698342,10.056976045950698,69.26167190891984,-0.7747087054124215,119.17182962315704,296.89472765440735,1.274,1.024479631064582,0.0,6.579206179869922,165.0000707061107,0.0647388818173096,2.519500680786708e-07,-0.0035791325890765,-0.1020833495539269,0.0002446894381987,13.205937205892772,11.735968825678738,20.20550397315603,34.46988288357866
0.7,31.22219976237921,131.01042518606573,10.788776227642964,-6.037880112813928,-11.45386313996034,28.526616792647328,3.361269544038344,3.908443626280708,349.270324209851,22.385513811417024,10.225619442958532,69.2587527380478,-0.929074458486942,119.00676794046288,306.615310967826,1.274,1.0244351749185203,0.0,6.600802659565533,165.0000707061107,0.0657909700989604,1.9797866592000026e-07,0.001356262318061,-0.1115739018482858,-9.422636112766338e-05,12.92902510439738,11.595857342658572,20.59830465475067,28.988651747917537
0.71,31.22219929710928,131.01042612096114,11.002682036582556,-5.904510950899713,-11.285466980032268,23.340903323519044,3.61395712284671,4.02685042741298,301.3312640634036,22.6306235741902,10.353193827034923,69.25839989160208,-1.0978934446006188,118.82624963002264,313.36019188994464,1.274,1.0243880468141104,0.0,6.622512849866121,165.0000707061107,0.0665115075954634,1.3695562612947777e-07,0.0063245701098484,-0.1211900836310207,-0.0004442017531787,12.718988492970665,11.507452721911658,20.86934692049141,23.95984095123323
0.72,31.22219882779964,131.01042706277667,11.217594683697936,-5.783936148892104,-11.1385386521339,28.666882905737847,3.86364221074708,4.145672251589967,350.7922053414578,22.8275489905083,10.463175137761688,69.26058210823986,-1.2814196912710458,118.63000603155916,318.8308867214879,1.274,1.024337302174265,0.0,6.644177076239003,165.0000707061107,0.0670904349726929,6.883100356164469e-08,0.0112958490488082,-0.130876388300248,-0.0008002430978968,12.533880859302108,11.4437619029484,21.08891129428828,29.22164446230832
0.73,31.22219835311505,131.01042801439615,11.434343047768357,-5.635801023176216,-10.937548927966956,36.37396186366388,4.135569431370481,4.269128652339086,422.3203185282354,23.128230093554027,10.610638776550152,69.26524647667435,-1.4798328522878117,118.41784875730116,327.27857781940446,1.274,1.024292465384646,0.0,6.665606633904561,165.0000707061107,0.0679743064883689,-6.403579353116193e-09,0.0162555355597946,-0.1406058813523455,-0.0011667516289041,12.288418195114176,11.34593346157043,21.42057971132224,36.856390160068344
0.74,31.222197869768905,131.01042898305857,11.654994013918452,-5.467215865359987,-10.694483304663027,22.546955316902945,4.430614864049835,4.398537110138896,294.4828134710563,23.516469128585506,10.789615203220563,69.27232709740981,-1.6932812049142547,118.18962368343868,338.3512686017052,1.274,1.0242470321640116,0.0,6.686889205806165,165.0000707061107,0.0691155204206242,-8.87352891605044e-08,0.0212228881884603,-0.1504166179942727,-0.0015488242268528,11.996427774434368,11.22202386110454,21.84632109127348,23.395355753765024
0.75,31.22219737770053,131.01042996909814,11.879631092318448,-5.357412598137762,-10.560973057429353,26.39130277103203,4.6868137982568125,4.520896367509425,330.24688556441737,23.664718189751014,10.88163361289298,69.28176332464324,-1.9219810391350047,117.94510465766948,342.6232924982875,1.274,1.0241984712898409,0.0,6.708225477452444,165.0000707061107,0.0695514045705719,-1.781757827198017e-07,0.0262126885026656,-0.1603387073705426,-0.0019249926126294,11.828357604699566,11.195123532186464,22.01518214356014,27.182817909436345
0.76,31.22219688504164,131.0104309546498,12.103150971947912,-5.217861462144674,-10.367856999379557,28.4238231289728,4.970677022928474,4.6493509561340325,349.2703242098581,23.937531110667862,11.018457343435944,69.29349674751128,-2.1662047916384872,117.6840061913408,350.5610004968623,1.274,1.0241522053390697,0.0,6.729564298589679,165.0000707061107,0.0703533883546179,-2.747610738815877e-07,0.0311677679458168,-0.1702618678886474,-0.0023152180471983,11.59398803807272,11.127427427005,22.317825121723185,29.227347051121534
0.77,31.22219638282913,131.01043195966545,12.331243441401275,-5.07545305864331,-10.167061453315016,26.506117153367967,5.262167147643457,4.780040756572621,331.76876669606884,24.221974153660845,11.159246908722702,69.30743284987902,-2.42606403751094,117.40621545390547,358.9338756222777,1.274,1.0241065975906936,0.0,6.750478307355466,165.0000707061107,0.0711895613496781,-3.784382861593141e-07,0.0361112371936201,-0.1802320506044254,-0.0027142461673452,11.351575780880292,11.062315431447448,22.633303957156564,27.44291236862992
0.78,31.22219587481676,131.01043297598991,12.561573687232077,-4.941630886918772,-9.98033946570742,21.62374560216484,5.550344787543208,4.910202271829289,286.8734378128874,24.468834276590183,11.286264432635509,69.32348395376168,-2.701749319121612,117.11153577728288,366.2792604665137,1.274,1.0240588105546735,0.0,6.7715010270313,165.0000707061107,0.0719152821482035,-4.891881114556843e-07,0.0410402802120264,-0.1902453726326257,-0.0031160995232863,11.12561401057108,11.01725404248904,22.909042121288536,22.85831987434835
0.79,31.22219536157139,131.0104340024316,12.793800834384124,-4.820073956985679,-9.815933964688057,30.977126874204348,5.827660846397001,5.037385486768472,373.6203323159581,24.653806214597747,11.390808479258348,69.34155512901835,-2.9934529856592493,116.79976914595532,371.8296692968474,1.274,1.0240083170932772,0.0,6.792413115852696,165.0000707061107,0.0724591149356128,-6.069884137754017e-07,0.0459425148469449,-0.200278070903473,-0.0035146070847877,10.925100336563371,11.00075242615952,23.119454402642845,31.920514921653243
0.8,31.22219484405844,131.01043503685267,13.027316629592976,-4.665738379824504,-9.583599271529897,31.355165339643623,6.146995995739512,5.175511074916672,377.42502064505805,25.00111875537621,11.553299515263973,69.36153925425407,-3.3013374889595566,116.47075002543698,382.3712505555904,1.274,1.0239625010683884,0.0,6.813173692380936,165.0000707061107,0.0734800823170869,-7.318003775095255e-07,0.0508006256874574,-0.2102963483417664,-0.0039409125982743,10.649460269572064,10.932350991395952,23.502740239495854,32.36847027795122
0.81,31.22219431690709,131.01043609199849,13.265721133038864,-4.519837717886505,-9.365545815201688,20.11985640065934,6.4624374700769645,5.312790293159647,273.9374926939922,25.308797798915723,11.701237055760332,69.38331479541296,-3.6255183553724657,116.12436348391208,391.8315793471023,1.274,1.0239149950770308,0.0,6.833712731230034,165.0000707061107,0.0743845731816811,-8.635428157671021e-07,0.05564232260982,-0.2203575712669555,-0.0043695339893968,10.390381810057354,10.885391681756984,23.84420378273993,21.78984764372846
0.82,31.222193784786946,131.01043715716543,13.505978582114574,-4.404606298182561,-9.207646531594882,26.013372227327725,6.738121506154732,5.438491343486634,328.725004432774,25.44951649586078,11.789243340833655,69.40676834821073,-3.9662058577808046,115.76039373785416,396.191773671762,1.274,1.0238644186635044,0.0,6.854374588219638,165.0000707061107,0.0747983593952792,-1.0021875653773955e-06,0.0604537192060148,-0.230435195591113,-0.0047736535418993,10.198722791483158,10.903546414372062,24.009400155894777,27.41669207184538
0.83,31.222193250499103,131.01043822561428,13.7461912700392,-4.263119415968776,-8.993809518771183,33.22217040209526,7.052942562399941,5.5745981599980095,395.6875032246518,25.73315109748183,11.92789146786126,69.43177338717804,-4.323573281471437,115.3786648906864,405.0627473084724,1.274,1.0238188483711983,0.0,6.874893313842366,165.0000707061107,0.0756321913221749,-1.147700221778195e-06,0.0651976077187992,-0.2404533406669331,-0.0052055059579789,9.94551280900524,10.877706485738308,24.32620134701373,34.41704155879497
0.84,31.22219270744485,131.01043931357344,13.99092418509078,-4.1087635820448245,-8.750701792420507,20.155002968411527,7.393627084050566,5.717952787425374,275.45937482564227,26.095068729172976,12.093937959201453,69.45817961384645,-4.697677095556349,114.97912607957484,416.52689309000925,1.274,1.0237739661568126,0.0,6.895111687364113,165.0000707061107,0.0766961136139692,-1.2999575778347872e-06,0.0698961306912291,-0.2504590349998351,-0.0056589999493833,9.660497288810664,10.831800023252043,24.72584929926641,22.216769571517574
0.85,31.22219215732446,131.01044041735403,14.239125209882328,-3.99159791219636,-8.583288402329764,22.00510158923129,7.672289052207197,5.842134098940736,292.9609323393965,26.22902449999655,12.178754592534238,69.48584194646341,-5.088649010350045,114.5616462034234,420.8042163365399,1.274,1.0237227741398531,0.0,6.915414999958976,165.0000707061107,0.0770900393945117,-1.4588717596934568e-06,0.0745573509033704,-0.2604712118969874,-0.0060672287050473,9.45971923680277,10.871330908255558,24.885802002755955,24.02538337015695
0.86,31.222191606639424,131.01044152063568,14.486217057939534,-3.85905278732964,-8.38141248896657,27.726926752224767,7.977568733766167,5.973165867831787,346.2265619465616,26.45546995640543,12.295980895580415,69.51461305173468,-5.496651337706765,114.12606158030576,428.0913584539389,1.274,1.023674789281455,0.0,6.935710598262878,165.0000707061107,0.0777558047103932,-1.62441152677159e-06,0.0791345120402065,-0.2703920292993733,-0.0064951451752644,9.22138570010646,10.884948764758194,25.143611166105604,29.46358397258948
0.87,31.222191048601704,131.01044264084408,14.73708003340912,-3.7145911703021626,-8.152156781924944,25.693188295364955,8.307528713773312,6.110818966216253,327.9640783669946,26.75832123940029,12.439718725904047,69.5443185596037,-5.921689264209689,113.67237626983416,437.9381336796871,1.274,1.0236288969245204,0.0,6.955601604511384,165.0000707061107,0.078646143615399,-1.7964276092992855e-06,0.083639176782337,-0.2802469199433977,-0.0069432947689767,8.953356071516078,10.87902651847184,25.48209964421137,27.685683422106724
0.88,31.22219048435195,131.01044377557395,14.991027454091252,-3.578658189507028,-7.938861532102192,22.006687145652688,8.621345938394724,6.242454068908336,294.4828134710421,27.00363835381863,12.56274486708062,69.5747845509313,-6.3638046128293615,113.20055502161068,445.9939950984104,1.274,1.0235805388426191,0.0,6.975510476504283,165.0000707061107,0.0793673895319225,-1.9747861791750665e-06,0.088078055394975,-0.2900524514911474,-0.0073786413169493,8.703460961710293,10.899364934192851,25.76059130290152,24.445656418238
0.89,31.222189916195063,131.010444918933,15.246411058421415,-3.448324425351127,-7.735790369123921,24.176098557773983,8.921008175524094,6.368331267508635,315.02813424808807,27.20517857351956,12.669997959542425,69.60583489839945,-6.82306077723916,112.71053930595014,452.6650410802744,1.274,1.0235293752791452,0.0,6.995381852697939,165.0000707061107,0.0799599742231406,-2.1593882719345225e-06,0.0924355228267218,-0.2997760375877103,-0.0078012865460868,8.465284111537045,10.941000437358872,25.99373189424052,26.54475035625118
0.9,31.22218934386505,131.0104460717625,15.503464094377351,-3.3108321635265145,-7.514916081153887,26.754346904053584,9.236906511778349,6.497975526904477,339.3781423542166,27.4579856587967,12.794736029577408,69.63728180578181,-7.299462088602918,112.20233325152375,461.1056250706312,1.274,1.0234837388140003,0.0,7.0150877120965776,165.0000707061107,0.0807032450540791,-2.3501099178718112e-06,0.0966988813240663,-0.3093909813391679,-0.0082367360633387,8.208083199616988,10.971420871507172,26.28092700089933,29.04030313405878
0.91,31.22218876585856,131.01044723860474,15.763442205943624,-3.169847740858759,-7.283943384674737,19.99992249582312,9.562489439180528,6.629360247415446,277.7421810230785,27.73925562484708,12.928875096702091,69.66892789474281,-7.7929606928900625,111.6759961384608,470.58906868260016,1.274,1.023436404813438,0.0,7.0346487824989055,165.0000707061107,0.0815301799168864,-2.5467851441284324e-06,0.1008701965199149,-0.3189034723803969,-0.0086798426523663,7.940375673311782,10.998539248457137,26.59817591597374,23.13842089260594
0.92,31.222188182718263,131.01044841838933,16.026039536610796,-3.04181970489094,-7.080449626170917,23.9788587079347,9.84779776083636,6.746105359828845,315.0281342480675,27.90835533991984,13.023564715750384,69.70057268142001,-8.303507636112691,111.13158776464203,476.33200680188656,1.274,1.0233859136578225,0.0,7.054161157673313,165.0000707061107,0.0820274344933993,-2.7492541359409734e-06,0.1049474268982694,-0.3283108329433803,-0.0090855091295345,7.70313423540018,11.07018336433295,26.798989531140712,26.78571864257782
0.93,31.2221875972098,131.01044960319763,16.289062317671416,-2.902980128875108,-6.8499835288656845,28.697570151581058,10.163998288627983,6.871220535184679,359.16250706547066,28.17096946936788,13.15016652054902,69.73201104566228,-8.831036765371259,110.56918550433544,485.32637345817807,1.274,1.0233407575091376,0.0,7.073601111107784,165.0000707061107,0.0827995481033634,-2.957394419359995e-06,0.1089082011352389,-0.3375635846883019,-0.0095168809693839,7.437027054604612,11.115816993050563,27.097537997310614,31.210111589984617
0.94,31.22218700554921,131.01045080471604,16.555734485232254,-2.758938475698846,-6.605035746341067,20.35890897789329,10.49803235924339,7.000545806393266,283.06875048378083,28.48506185659157,13.293921627573807,69.76302640428972,-9.375385942442149,109.98896816613356,496.19629534958415,1.274,1.0232914783978162,0.0,7.09280884485684,165.0000707061107,0.0837229740553889,-3.170988437397322e-06,0.1127599458685939,-0.3466804120261691,-0.0099630695657971,7.155730929981293,11.150170079431891,27.44984173519641,23.952066711941075
0.95,31.22218640877482,131.01045202048303,16.82536448440703,-2.629632829045704,-6.392833805142996,26.72897740721608,10.775084318108656,7.109209231614329,342.421873617488,28.652679237423257,13.38676944028398,69.79340245012233,-9.936406110232264,109.39109955165956,502.0401070473727,1.274,1.0232418269359267,0.0,7.112021753271866,165.0000707061107,0.0842158893857626,-3.3898388855217685e-06,0.1165027364209229,-0.3556640795137329,-0.0103540737775692,6.910468126444954,11.240613790735518,27.650577503441752,29.683017555442188
0.96,31.22218581028473,131.01045323982933,17.09501589772282,-2.4874040978887546,-6.147122607222098,26.068429519630048,11.100949448768592,7.2321209542195986,337.09533515678265,28.957522914434023,13.52609765752648,69.82292044681364,-10.513933663026169,108.77575781577951,512.7663391415275,1.274,1.0231951201821403,0.0,7.131187773740192,165.0000707061107,0.0851121441800598,-3.6138196222554455e-06,0.1201112450376614,-0.364456206354247,-0.0107880691472136,6.629519957777062,11.289728024067376,27.99378650540606,29.242053104741075
0.97,31.222185205171463,131.01045447929255,17.369224215092864,-2.349033147836342,-5.908635236931464,15.978000062658491,11.408505372492044,7.346944830781018,245.0218871929888,29.22200163475137,13.650997084884416,69.85135196953239,-11.107687422623489,108.14324511200564,522.1618938008688,1.274,1.0231476260761452,0.0,7.150100374968689,165.0000707061107,0.0858897675345957,-3.842661003359217e-06,0.1235965114924603,-0.3730853287181234,-0.0112022015057665,6.356913578475574,11.358748312491883,28.295519579536915,20.962539902956287
0.98,31.22218459693069,131.01045572782138,17.644949076225032,-2.2226681463073783,-5.698099565565342,23.999659332057217,11.652916500280492,7.438474234179591,319.593746642963,29.34040291390155,13.725736460369452,69.87847138335529,-11.717409810860792,107.49383701279872,526.3879025665838,1.274,1.0230935628253934,0.0,7.169079809041752,165.0000707061107,0.0862380427328771,-4.076177551088686e-06,0.1269465054692422,-0.3815250019436434,-0.0115521423036342,6.114923785585179,11.483512197929532,28.446822210234387,27.69666062813104
0.99,31.222183987199745,131.01045697956633,17.920594591026155,-2.0827730688074384,-5.451139000350107,26.308551850231588,11.960458308758684,7.548885935818061,341.66094855170127,29.62963691899761,13.857809304037268,69.90404922158704,-12.342774293642842,106.82788102810278,536.8029761153912,1.274,1.0230490803133316,0.0,7.187913488531152,165.0000707061107,0.0870884373844988,-4.314214850490134e-06,0.1301394197083057,-0.389722269767707,-0.0119591249816489,5.834360499669415,11.554405449527856,28.774665192441017,29.8693512196678
1.0,31.222183371359343,131.01045825204773,18.20093287734977,-1.943686001047552,-5.203879658995253,23.23758254940186,12.26185950359528,7.654939473766717,314.2672081822764,29.91459390414463,13.987728529891529,69.927851510075,-12.983339188127866,106.14584565869328,547.1630802201024,1.274,1.022999484445133,0.0,7.206496853877731,165.0000707061107,0.0879262707808272,-4.556443982036948e-06,0.1331876465366794,-0.3977109849029595,-0.0123566166230807,5.55408714961979,11.63221752697996,29.09829377693607,27.366704945484532
1.01,31.22218275240575,131.0104595350144,18.48315826447241,-1.809026685632944,-4.9655674484825125,24.302934805193903,12.534149653279,7.748810964040397,324.92031610370094,30.14335526952731,14.098130773897946,69.94964940078441,-13.63869018576014,105.4481685029753,555.5484944821395,1.274,1.0229507481225095,0.0,7.225154141739347,165.0000707061107,0.0885989382416525,-4.802632787257271e-06,0.1360836438199689,-0.4054752734448155,-0.0127214983474259,5.284055226929175,11.734525291101802,29.364341797107933,28.42149923970817
1.02,31.22218213066665,131.01046082739995,18.76697986797073,-1.6727038637570772,-4.720263813199197,19.81787127223973,12.813590433702318,7.842576236060927,284.59063161543185,30.40445991573192,14.21873978857516,69.96921459819576,-14.308356644352925,104.73534535417484,565.1992003829896,1.274,1.0229039803623294,0.0,7.243695937452739,165.0000707061107,0.089366676975265,-5.052566354215233e-06,0.1388158836709617,-0.4129870721428708,-0.013088966643993,5.007244297059082,11.830450517260427,29.66384105522104,24.868496608845497
1.03,31.22218150515443,131.01046213392812,19.05367159186124,-1.5407077583696227,-4.484832496852,15.662172407659664,13.0548164020306,7.920878097105483,247.3046933904342,30.59441465889828,14.315030580912172,69.98632012566088,-14.991790188591285,104.00795290153675,572.2677749405884,1.274,1.022853416101322,0.0,7.262105345622452,165.0000707061107,0.0899252946556728,-5.305966550999764e-06,0.1413808833193255,-0.4202401810988344,-0.0134137369872549,4.741587567843947,11.956064258186496,29.89065798341498,21.874007077972436
1.04,31.222180877640312,131.01046344753908,19.341318185792804,-1.4107634549382373,-4.253311136161956,26.24971753948775,13.269982212512108,7.98774460594091,345.4656368807608,30.745736849880245,14.39798775849721,70.00074302709466,-15.688400182186347,103.26661091226904,577.926763870809,1.274,1.0228049544826707,0.0,7.280466526539572,165.0000707061107,0.0903703649934222,-5.5626089236589605e-06,0.1437668754125711,-0.4272049176584389,-0.0137071980839813,4.480764637817509,12.099701559225997,30.07824175739549,30.478585313511793
1.05,31.22218024791963,131.01046476943517,19.630242852663336,-1.2727382521332362,-3.994956423196305,14.71238399774324,13.556583816723837,8.075833668972917,240.4562587980608,31.07725366782084,14.53983628695558,70.01226454251093,-16.39751418634416,102.51202430134336,590.4405953655004,1.274,1.022755494436122,0.0,7.29865806242382,165.0000707061107,0.0913450839293746,-5.822236557316995e-06,0.1459660785136424,-0.4338612640344403,-0.0140665459989811,4.192482976133972,12.183260994101538,30.450235719882176,21.574389843650888
1.06,31.22217961360901,131.01046611252295,19.92390597413649,-1.1448695787414602,-3.765727565794736,21.98898218010028,13.7331427904961,8.124155052554686,308.1796836557233,31.18462188568432,14.60727425399313,70.02067248912486,-17.11839410687703,101.74496594561596,594.5106786631818,1.274,1.0227013895379469,0.0,7.316704323437887,165.0000707061107,0.0916609740702311,-6.0844432277548e-06,0.1479849109305916,-0.4402332023636237,-0.01430996482256,3.935675615177457,12.35102921684791,30.593528554050163,27.168298502829956
1.07,31.22217897953735,131.01046745274,20.2158408983182,-1.0111146891049716,-3.514326877621281,26.27892976616995,13.975402206020238,8.191591498780225,348.5093681440431,31.45954753058652,14.729071026164773,70.02576273208939,-17.850309463709962,100.96619873071742,605.0224103997798,1.274,1.0226540159946436,0.0,7.334821689378125,165.0000707061107,0.092469367760025,-6.349094839832353e-06,0.1498039289612657,-0.4462639462155907,-0.0146131602473835,3.65671490256985,12.461774630754318,30.90786442886176,30.87063633549229
1.08,31.22217834127528,131.01046881454005,20.512597548764592,-0.8773263436487215,-3.259487303581856,16.637972576673214,14.221461789193423,8.257192104503106,261.0015785751465,31.763618983438167,14.859604970397944,70.02733977184408,-18.592404596170933,100.1766169580068,616.757010293993,1.274,1.0226061614050743,0.0,7.3526124036828,165.0000707061107,0.0933634407082861,-6.615768319644431e-06,0.1514278217284308,-0.4519727259720352,-0.0149139178054417,3.375370863514311,12.565601179871509,31.25189603704021,23.393446268865283
1.09,31.22217770079696,131.01047018878796,20.81171456376253,-0.7494034612941727,-3.022172511339333,14.959726038605346,14.3799700527601,8.290560880454011,246.54375332456465,31.90311542984168,14.936043306054358,70.02521822416954,-19.34382558185361,99.3771113435992,622.1682606533624,1.274,1.0225512795791307,0.0,7.370479806766125,165.0000707061107,0.0937737819143987,-6.884140445833302e-06,0.1528512510989893,-0.4573493228364581,-0.0151197882236453,3.1136170757938277,12.732371303149062,31.428613782199356,22.345253222573213
1.1,31.22217705970647,131.01047156542893,21.110513385786103,-0.6212796485125485,-2.781282346826154,33.02701816840532,14.537134400305629,8.320438231294208,413.1890617384087,32.06675192607589,15.01980908216622,70.01922320905015,-20.103672840132173,98.56861958295744,628.5490031223317,1.274,1.0224981043155532,0.0,7.388273268643379,165.0000707061107,0.0942550813635361,-7.154026669470021e-06,0.1540626538747606,-0.4623553486954799,-0.0153173451332759,2.849774844836487,12.893230211006474,31.630040673258826,37.03163374777714
1.11,31.22217641660156,131.01047295429996,21.41160937354339,-0.4886192291432038,-2.5154083466417365,23.210279333098992,14.815311096389731,8.3868973795342,324.1593910379213,32.510609555236,15.193077421309592,70.0091938738322,-20.87095817842314,97.75217221494135,646.0510888625261,1.274,1.0224548851875197,0.0,7.405837063449175,165.0000707061107,0.0955600544526287,-7.425087281096376e-06,0.1550591423113525,-0.4669842883974018,-0.0156293559202265,2.562396240419605,12.95317724361088,32.11561704936714,28.78455414381346
1.12,31.222175769868247,131.01047437096415,21.71910635276549,-0.3617705544106321,-2.270560274482273,6.590308659694651,14.969111359299216,8.408877674445792,172.7328179403806,32.718349326625955,15.289769052860066,69.9949834251944,-21.64465950893759,96.92883458065477,654.3145550016534,1.274,1.0223979224661404,0.0,7.423329070246144,165.0000707061107,0.0961710080154202,-7.69677034430474e-06,0.1558421422010811,-0.4712585070147927,-0.0158081867928338,2.2991853720055238,13.10303678952462,32.361783897154545,18.390641284657256
1.13,31.222175123279968,131.01047578642874,22.025323543094817,-0.2381760853021976,-2.0398194953664794,27.746773643808403,15.01285777100688,8.391728430083528,367.5328077894322,32.72714480891138,15.322525076532203,69.97645591565242,-22.42376847109628,96.09965631112296,654.6471384488668,1.274,1.0223460397860296,0.0,7.440984160845149,165.0000707061107,0.0961971935107889,-7.968949885024362e-06,0.156400602915772,-0.4751341464565186,-0.0158686335820729,2.0536717002132723,13.329275571652037,32.406798393514805,32.64491464435915
1.14,31.22217447636065,131.01047720242687,22.3307358333575,-0.1119033620680744,-1.7821000924428687,13.690308831945666,15.23595466404658,8.429497768571276,239.6953177322812,33.13721320283974,15.48237755911767,69.95349437668389,-23.20718951428669,95.26577898847668,671.1355771657321,1.274,1.0223022138470996,0.0,7.458362262807318,165.0000707061107,0.0974028720095891,-8.241467105341204e-06,0.1567298350873618,-0.4785820712270262,-0.0161008168409944,1.7856088775264,13.40622168216054,32.85732670838115,22.1498375404715
1.15,31.22217382627118,131.01047865247327,22.64414235752212,0.0112178581152491,-1.544337617632131,13.34555091163034,15.291689085281051,8.409473744963435,237.4125115347709,33.23197364528548,15.541575324740032,69.92600291598102,-23.99376984030848,94.42840457660826,674.9591565876353,1.274,1.0222426194541194,0.0,7.475498599048219,165.0000707061107,0.0976817544538286,-8.51362237222691e-06,0.1568282560663823,-0.4816289818331027,-0.0161565126581313,1.5443783497248116,13.603959713963166,32.98941903162998,21.969495508159728
1.16,31.22217317705409,131.01048009284307,22.954049758472056,0.1331578912878619,-1.3034374484944555,40.835479212418576,15.363976463644828,8.391488814480873,490.043774385954,33.39283116968212,15.621228366067555,69.8938963221732,-24.782385964547377,93.58870349175793,681.4888890990684,1.274,1.02219674531104,0.0,7.492883337907495,165.0000707061107,0.0981549208315654,-8.785367782201922e-06,0.1566916013005671,-0.4842375998745064,-0.0162200881491434,1.3102202666984517,13.777345901765187,33.188105353726925,44.429778525296065
