Time,Latitude,Longitude,Altitude,Angle of Attack,Angle of Sideslip,X-Acceleration,Y-Acceleration,Z-Acceleration,Thrust,True Velocity,Ground Velocity,Pitch,Roll,Yaw,Dynamic Pressure,cp,parachute_deploy_gain,Wind Speed,Mach,omega_x,omega_y,omega_z,Cmq,Angle of Attack(total),Angle of Attack(gust),True Velocity(gust),Acceleration
0.0,31.222186000000004,131.010384,3.000000003643237,0.0,0.0,0.0,0.0,0.0,2.2828121974499247,0.0,0.0,69.99999999623421,0.0,113.69999999388332,0.0,15.288,0.0,0.0,0.0,0.0,0.0,0.0,-0.0,0.0,90.0,0.0,0.0
0.01,31.22218600000153,131.01038399999584,2.99999882256592,0.0,0.0,0.0,0.0,0.0,34.24218696174923,7.502283530665459e-11,7.190531319924593e-11,69.99999999623329,-4.83564628150269e-13,113.69999999388072,3.446445726795683e-21,15.288,0.0,0.0,2.204725565824978e-13,-3.659182332138578e-19,7.589415207398531e-19,4.811147140404426e-19,-1.5108918610345807e-31,0.0,89.9999999995224,7.502283530665459e-11,0.0
0.02,31.22218600000288,131.01038399999217,2.999997775701936,0.0,0.0,0.0,0.0,0.0,25.871876237766408,1.5320717031631675e-10,1.4674636035870463e-10,69.99999999623222,-9.67129256300373e-13,113.69999999387804,1.4372842949972735e-20,15.288,0.0,0.0,4.5023593667086093e-13,-7.284483346386986e-19,1.5178830414797062e-18,9.757819552369542e-19,-6.170906918166791e-31,0.0,89.99999999902465,1.5320717031631675e-10,0.0
0.03,31.22218599928065,131.01038400193067,3.000201659671132,18.81500467334555,-0.00012974450181,11.96616230539064,-1.8916256735984712e-05,3.349833086198469,180.34219359854663,0.0882870268161719,0.0553390044312322,69.99999999799445,-4.212591857125379e-12,113.69999999488518,0.0047728553458352,15.288,0.0,0.0,0.0002594525584132,3.2187251995663407e-17,-7.20264389268894e-10,1.2365134327422308e-11,1.6874092354518158e-13,18.815004673776716,89.46786891739345,0.0882666465974854,12.426199017587786
0.04,31.22218599548236,131.0103840121632,3.001799604587872,9.46752327608497,-4.6177622759613696e-05,55.21900012092241,3.931876292165237e-06,3.349616504302861,548.6359724538078,0.3767519978512604,0.1853356633749705,70.00000000507204,-2.4624598767003407e-11,113.70000000019972,0.086915163246288,15.288,0.0,0.0,0.0011071759353184,1.6174128009138757e-15,-1.3693172015529268e-08,2.7753303060112748e-11,1.3689612277852356e-11,9.467523276196548,87.63554493451223,0.3767447442872393,55.32050167054111
0.05,31.222185984749512,131.01038404118162,3.00777936418888,5.376730308971262,-2.257790939128127e-06,80.28807156553681,5.266841443842784e-05,3.348887800834877,761.6984298824644,1.018787885905993,0.4366201147110198,70.00000000894464,-1.1355399380652658e-10,113.70000001523856,0.635552918586145,15.288,0.0,0.0,0.0029939522895272,1.6418815498809788e-14,-9.32122351075408e-08,4.303264669380585e-11,2.5199270302492604e-10,5.3767303089717045,83.57022052969386,1.0187875312530217,80.35788377762394
0.06,31.22218596447235,131.01038409608267,3.0201664202003013,4.296730121134882,2.4863835723705905e-05,60.21296515808257,0.0001057204249726,3.347700952379021,590.4875390737208,1.721098934225416,0.7081674028809783,69.99999995523842,-3.0560354507026086e-10,113.70000004366592,1.8138247671743823,15.288,0.0,0.0,0.0050578622752421,8.328976953118383e-14,-3.2824985336199985e-07,5.923438275930214e-11,1.4991363363716091e-09,4.296730121206683,79.20467073327266,1.7211028398275985,60.305955550063224
0.07,31.22218593493329,131.01038417609837,3.038741944736831,3.8204913578752526,4.8016684030909405e-05,91.4060317508128,0.0001597686613101,3.346072557365335,855.2937749779139,2.4375792548422868,0.9844712334613328,69.99999973536046,-5.939103491363046e-10,113.7000000850886,3.6383156301599167,15.288,0.0,0.0,0.007163413150771,2.709313825263564e-13,-7.906546256197275e-07,7.920022733617308e-11,5.114174483651565e-09,3.820491358176508,74.87999294483174,2.437586797285377,91.46725557277466
0.08,31.222185894468456,131.01038428575305,3.0647976109320942,3.588632851766762,7.220043782492885e-05,19.18449428359557,0.0002119618497595,3.3440615022685813,241.2171988638848,3.1292508166901074,1.2522236515868983,69.99999919480445,-9.914748373602156e-10,113.7000001418522,5.996012698481753,15.288,0.0,0.0,0.0091960591623389,6.80386533246681e-13,-1.5973238302190878e-06,1.0839624626357699e-10,1.3263625118823921e-08,3.58863285249208,70.86684630658345,3.1292621579083604,19.473766155861934
0.09,31.22218584634549,131.01038441616095,3.0957981580345013,3.551302481506045,9.685468678862004e-05,57.102946699906326,0.0002554087225869,3.341892818148368,563.0937377043176,3.701810007254615,1.479132491047967,69.99999812344194,-1.4359264356978275e-09,113.7000002093888,8.390904013834115,15.288,0.0,0.0,0.010878666406854,1.440096519545733e-12,-2.748643691533636e-06,1.5214952332699618e-10,2.6999776649034504e-08,3.5513024828250237,67.68737872952666,3.701825221153239,57.20065357568538
0.1,31.222185790329306,131.01038456796124,3.1319266121977414,3.608446747536112,0.0001234669721807,54.26147302645416,0.0002914860332524,3.3396271157106168,538.7437595981919,4.174070299823608,1.6716491241860567,69.9999963052332,-1.902380107712657e-09,113.70000028805804,10.668380938744466,15.288,0.0,0.0,0.0122665227999911,2.687800116751415e-12,-4.315796035622946e-06,2.1749089204950437e-10,4.7802076800548326e-08,3.608446749645647,65.17160335282355,4.174089693970246,54.36414778470795
0.11,31.222185727066616,131.0103847393952,3.172681775073216,3.633547373470009,0.0001485939126744,42.987553988990406,0.0003293995000288,3.337005588796181,442.8656393052949,4.672024955140527,1.8729475711242067,69.99999349387662,-2.3433348587116544e-09,113.70000037699285,13.365573690709628,15.288,0.0,0.0,0.0137298902182575,4.5789425819531184e-12,-6.340230783164189e-06,3.1157625832417107e-10,7.860218435507205e-08,3.6335473765043056,62.62546922225161,4.672048296217748,43.116880735560244
0.12,31.22218565692512,131.0103849294629,3.2177790417108385,3.650108937861461,0.0001727442530266,46.86777100765684,0.000367618259785,3.334068179146888,475.58594813540446,5.17479364099247,2.0758708919414386,69.99998941286465,-2.702771525550512e-09,113.70000047573096,16.396890189902592,15.288,0.0,0.0,0.0152074069417046,7.288473386564583e-12,-8.86736416607888e-06,4.42271554299792e-10,1.217615295152289e-07,3.6501089419435786,60.16906436414164,5.174820775596283,46.986210423745625
0.13,31.222185580265183,131.0103851371844,3.2669395832841857,3.7280113734654137,0.0001995014041665,51.64515456841877,0.0003986198234033,3.3311573548369657,515.9156326236895,5.579364582999854,2.2451120211463422,69.99998375846928,-2.9114380666036422e-09,113.70000058383452,19.060875702782603,15.288,0.0,0.0,0.0163963474924215,1.100846422415094e-11,-1.1941028436408576e-05,6.179653149059831e-10,1.7678562106638216e-07,3.728011378795934,58.279338776943774,5.579395920607139,51.75247433579817
0.14,31.22218549718016,131.01038536230575,3.320091807147376,3.768719651034081,0.0002242721760019,48.1660778383537,0.0004326225136175,3.32784677779744,486.2390860568404,6.025734265159953,2.428648685938864,69.99997621008868,-2.890941335368725e-09,113.70000070125378,22.232643351545065,15.288,0.0,0.0,0.0177081261985351,1.5941871344608664e-11,-1.560901486259027e-05,8.477542742712431e-10,2.495765160917323e-07,3.7687196576976176,56.27980129251342,6.025769493750979,48.280903250602165
0.15,31.22218540777004,131.01038560455507,3.377159065217065,3.821894709649632,0.000249725644238,46.56959330999435,0.0004643042952466,3.324387732286376,472.54218587214,6.441023336496372,2.6014999612196745,69.99996641132823,-2.546763407193136e-09,113.70000082794672,25.402620271850456,15.288,0.0,0.0,0.0189285691155931,2.2314099732464315e-11,-1.992367942778425e-05,1.1417519574710292e-09,3.4051816697623295e-07,3.821894717796148,54.501255563441134,6.441062563308839,46.68809885900716
0.16,31.22218531193176,131.01038586421257,3.4382223512025254,3.8463320955387794,0.0002733212404609,36.974247749122085,0.0004987816203583,3.3205066466509234,391.1218908297564,6.895451966878468,2.7877331692857847,69.99995397923414,-1.77088415515292e-09,113.70000096417354,29.113317717489338,15.288,0.0,0.0,0.0202640360420561,3.0367358387834494e-11,-2.4945905791363795e-05,1.5114297685186711e-09,4.5643121540033697e-07,3.846332105235269,52.641145594326446,6.895494900078523,37.12304892183151
0.17,31.222185210004127,131.010386140357,3.503019838429153,3.8860314262554336,0.000297865039677,46.520531453299206,0.0005306403365217,3.31650761597812,471.78125980632376,7.314788342774694,2.9619016331667103,69.99993849340957,-4.3039914767238207e-10,113.70000110959404,32.761746921137856,15.288,0.0,0.0,0.0214963781445172,4.0366633128431416e-11,-3.0713078585132897e-05,1.96747427715988e-09,5.961228045584824e-07,3.886031437653654,51.00464968745696,7.314835131305714,46.63860064094784
0.18,31.22218510147516,131.01038643438045,3.571950002194137,3.9107265153396016,0.0003214293682635,38.895647526122765,0.0005639254295027,3.312149448254175,407.10156721191447,7.754626295791602,3.1430587898572058,69.9999195084231,1.6149322372810674e-09,113.70000126508234,36.81988229018681,15.288,0.0,0.0,0.0227889722876034,5.2593391349219385e-11,-3.731786027786564e-05,2.525509173087448e-09,7.6786585232224e-07,3.9107265285284982,49.36615848311875,7.754676785798701,39.036415444581515
0.19,31.222184986476247,131.0103867459258,3.644912152926752,3.920599115663931,0.0003437679584038,43.86258669386953,0.0005989384366483,3.307389681300437,448.9531328318269,8.219206165926856,3.332657190859447,69.99989653019398,4.538529095696477e-09,113.70000143063515,41.36350714675367,15.288,0.0,0.0,0.02415428010977,6.735860419174937e-11,-4.481243905342629e-05,3.199401151670645e-09,9.773118416308382e-07,3.92059913071168,47.71893898797248,8.21926016487149,43.987104227715655
0.2,31.222184864792144,131.01038707557822,3.722074668489528,3.943376465171875,0.000367328732016,40.28070981710589,0.0006315894240138,3.30251450988504,418.51563019916136,8.65238089736321,3.511445117640573,69.99986902534273,8.534090245934178e-09,113.7000016067622,45.83799876721736,15.288,0.0,0.0,0.025427299120469,8.499785987217288e-11,-5.328041996372527e-05,4.006766070954748e-09,1.2232205148646746e-06,3.9433764822533854,46.2587826635041,8.652438597225508,40.41586552155969
0.21,31.22218473678744,131.01038742234647,3.803156063113743,3.9664546506877016,0.000390962054969,38.67679184347145,0.0006636984664108,3.297405915846789,404.8187610144644,9.079179692250786,3.688002035198235,69.99983642883521,1.3827831253856693e-08,113.70000179318536,50.47126980736161,15.288,0.0,0.0,0.0266815841422463,1.0586558589671407e-10,-6.275155280099118e-05,4.961340042512481e-09,1.5117124669161171e-06,3.9664546699249135,44.88773728276958,9.079241104426773,38.817098210937615
0.22,31.2221846022986,131.01038778667507,3.8882846911135607,3.956175711337521,0.0004112685792646,46.713636108302936,0.0007011135033803,3.291572407481395,472.5421858721365,9.580256326712124,3.889976788904857,69.99979815126248,2.0662823443484168e-08,113.70000199039316,56.195522894218605,15.288,0.0,0.0,0.0281541581291438,1.3033127211465288e-10,-7.330053770532661e-05,6.0817207473359025e-09,1.8632831045819008e-06,3.956175732680424,43.35679625546934,9.580320928629488,46.8294591882524
0.23,31.222184460898035,131.01038816972698,3.977794004014759,3.9879066397329104,0.0004360962274406,38.89105719050748,0.0007308686121188,3.286096544282012,406.3406421461021,9.977039034039262,4.056142701351626,69.99975353557706,2.9316661139418326e-08,113.70000219928508,60.9462612310605,15.288,0.0,0.0,0.0293202403623685,1.5880617816859538e-10,-8.505067486192354e-05,7.393319440773217e-09,2.2514912291167663e-06,3.987906663538912,42.20670487756048,9.97710753587448,39.0296395118868
0.24,31.222184313516166,131.01038856897196,4.070963590490852,4.003523997322975,0.000459165577055,40.0792299321398,0.0007630441688766,3.280134925833028,416.2328240017114,10.408422364424831,4.234121060914368,69.99970190737699,4.010976417051318e-08,113.70000241888,66.32994780718496,15.288,0.0,0.0,0.030588009649109,1.91711512587616e-10,-9.795845222523724e-05,8.904557280909524e-09,2.7052895870113487e-06,4.003524023611085,41.011349410369874,10.408494489985014,40.21323112692186
0.25,31.22218416001652,131.01038898478134,4.167901030441617,4.0261356185860135,0.0004830526730531,41.17760020658354,0.0007934613160587,3.2740610008587527,425.36408079150686,10.816813039390448,4.4041629376391525,69.99964258149416,5.3372865854010094e-08,113.70000264972064,71.63651430352668,15.288,0.0,0.0,0.0317882126436337,2.2947426169209347e-10,-0.0001121037688082,1.0637152702866709e-08,3.217380562698304e-06,4.026135647516394,39.93186687113378,10.816888917126896,41.30755663120434
0.26,31.222184000702686,131.0103894163294,4.26837241014618,4.053359329950934,0.000507503069958,44.80261175215926,0.0008224724146494,3.2678597736729302,455.8015834241788,11.207047269494833,4.567925492611352,69.99957484039399,6.947299261165984e-08,113.70000289176392,76.89781807056055,15.288,0.0,0.0,0.0329350617559806,2.7254099134167665e-10,-0.0001275114371842,1.260720913253598e-08,3.7915697709142366e-06,4.053359361668992,38.945390435244384,11.207126987890645,44.921630958721536
0.27,31.22218383516388,131.01038986473338,4.372698316214008,4.0614460923241,0.0005296455772492,41.029837477288126,0.0008548809954683,3.2610328932384265,423.84219965987256,11.645685385842508,4.748226940060522,69.99949794024376,8.879821051920497e-08,113.70000314600205,83.0342688744587,15.288,0.0,0.0,0.0342241635563461,3.2137296827284217e-10,-0.0001442952656441,1.4842505534226832e-08,4.458527942364847e-06,4.061446126801262,37.8838346421185,11.645768582375233,41.15922617924542
0.28,31.222183663504484,131.01039032970942,4.48079961904222,4.081133040992532,0.0005533279247169,47.27661484082626,0.0008845140695959,3.254218495915602,476.3468732012221,12.047344998676092,4.915789434712848,69.99941106884992,1.1178948978424788e-07,113.70000341275257,88.85982357848233,15.288,0.0,0.0,0.0354045979054623,3.764736350660473e-10,-0.0001625146963723,1.7365685655384934e-08,5.194620655212288e-06,4.081133078439725,36.956255322213885,12.047431915223257,47.38848224631549
0.29,31.22218348566054,131.0103908114315,4.592727908358551,4.1001100265020245,0.0005770279952742,37.989969791857405,0.0009138463939581,3.247164755122801,397.97031042211177,12.446314684600782,5.082367374004485,69.99931338876085,1.3891902435864665e-07,113.70000369260468,94.8417675268915,15.288,0.0,0.0,0.0365771315767517,4.3836067907166327e-10,-0.0001822432988888,2.0202163500922312e-08,6.018074062137429e-06,4.100110067036654,36.07377590258778,12.446405323946324,38.12849176886316
0.3,31.222183301933686,131.01039130907952,4.708251093558373,4.112858061667493,0.0005998635114143,35.655053282557844,0.000944131403186,3.2397207148238625,378.1859457108711,12.860033399289696,5.253940723820665,69.99920403105713,1.707002607527005e-07,113.7000039856728,101.2505662360602,15.288,0.0,0.0,0.03779301412572,5.075709863465428e-10,-0.0002035013069687,2.3370674033523645e-08,6.94335970778e-06,4.112858105337573,35.19685285507256,12.860127625629724,35.80193592228613
0.31,31.222183112488807,131.0103918222051,4.827243246502713,4.136140889545823,0.0006242383343011,37.56633644061071,0.0009716215464757,3.232339252743767,394.1656220930212,13.2364445751808,5.4126574282679245,69.99908210036875,2.0768081583188525e-07,113.7000042923011,107.26326115439352,15.288,0.0,0.0,0.0388992619788015,5.846561731689753e-10,-0.0002263323252403,2.6893437641668458e-08,7.948283231812338e-06,4.1361409365698805,34.43286455705216,13.236542630309057,37.70514091683033
0.32,31.22218291741533,131.01039235056504,4.949637017503345,4.1622282001352975,0.0006491019906456,40.83513712643371,0.0009979686925508,3.224840963348891,421.55939346242695,13.59846554462374,5.566374262777002,69.99894668612772,2.504388718903276e-07,113.70000461297312,113.2095365840355,15.288,0.0,0.0,0.0399632243410653,6.701756367872645e-10,-0.00025078340164,3.0793566854276295e-08,9.047716714467492e-06,4.16222825066026,33.72644865222576,13.598567505326,40.96227562489027
0.33,31.222182716732533,131.01039289410716,5.075419569102976,4.187801887681037,0.0006739743721461,40.48743503284469,0.0010239291638211,3.217136801802925,418.5156301991682,13.956637761217308,5.718704299733134,69.99879684673242,2.995902922462564e-07,113.70000494831164,119.25032483364384,15.288,0.0,0.0,0.0410158804634189,7.647061680070125e-10,-0.0002769136723495,3.509664608790402e-08,1.0253455741189656e-05,4.187801941818244,33.053267359159875,13.956743628864118,40.61505097607
0.34,31.222182510255863,131.01039345333336,5.204736257784645,4.19642921746386,0.0006961879027693,31.814592723444047,0.0010535137542081,3.208669900766693,345.46563688075645,14.367047160772364,5.88887983533068,69.99863160305904,3.557915789971256e-07,113.70000529927128,126.36523219087664,15.288,0.0,0.0,0.042222056531773,8.688448410811866e-10,-0.0003048202762282,3.9835373705550826e-08,1.1618525957862828e-05,4.196429275109305,32.30947868183619,14.367156517712404,31.97598901989736
0.35,31.222182298183583,131.0103940277045,5.337435501771672,4.210915783240843,0.0007193441544952,34.813487415034444,0.0010813034848195,3.200164272309822,370.5765700527033,14.754132934586384,6.050986755458457,69.99844991734221,4.1975736284587617e-07,113.70000566632532,133.26448209504355,15.288,0.0,0.0,0.0433596939127697,9.832256819293898e-10,-0.0003345386312107,4.503361101379695e-08,1.309465610343774e-05,4.210915844572415,31.63649055965014,14.75424592890194,34.96026256388454
0.36,31.222182080444604,131.0103946174141,5.4735747500461605,4.22903876037745,0.0007431682866607,39.2632255716727,0.0011077666085529,3.1915717453569297,407.8625232777193,15.124417129017054,6.2072589919251575,69.99825073022951,4.922382611919288e-07,113.70000605036684,140.03566173682628,15.288,0.0,0.0,0.0444479595865755,1.1084921261805627e-09,-0.0003661511460057,5.0723697896912267e-08,1.4691545926915382e-05,4.229038825557203,31.017264542603208,15.124533865618538,39.39272792946638
0.37,31.22218185710795,131.01039522227452,5.613102797925907,4.249164960780052,0.0007674149135003,37.28328237034959,0.001133274451316,3.1828514669894137,391.1218908297666,15.483077353331511,6.359470679857624,69.99803294268581,5.740349991123437e-07,113.70000645214331,146.75405277514704,15.288,0.0,0.0,0.0455020695186381,1.245311285088233e-09,-0.0003997125883071,5.6934243389647934e-08,1.641828325195534e-05,4.2491650299519,30.439178816713017,15.483197898584232,37.418894813348615
0.38,31.2221816281124,131.0103958424523,5.756069531572451,4.260095806433531,0.0007900626414612,38.9278000801764,0.0011607546399008,3.1735466295306622,404.8187610144602,15.87126705947922,6.521735074464384,69.99779542676283,6.659911329739736e-07,113.70000687263192,154.20298254405043,15.288,0.0,0.0,0.0466429667223463,1.3943646956867835e-09,-0.0004353006984059,6.369875435270817e-08,1.8328108041903096e-05,4.260095879559656,29.83470194713067,15.87139116222873,39.05694584372078
0.39,31.22218139339905,131.0103964781077,5.9025231349944285,4.274091258047817,0.0008133283308351,33.320076729592266,0.0011870382950339,3.164143363712209,357.64062493382744,16.24457853509073,6.678818328235205,69.9975369905506,7.690136753559805e-07,113.70000731287368,161.54010621938565,15.288,0.0,0.0,0.0477401448128051,1.5563705124515804e-09,-0.0004730068442167,7.105463478762673e-08,2.0383860516746246e-05,4.274091335289374,29.274934656826048,16.244706292406182,33.46997636540994
0.4,31.22218115316572,131.01039712870306,6.0523126585892895,4.286421841403391,0.0008363022448449,31.88018820767003,0.0012133780841982,3.1544430614236454,345.465636880754,16.62063299903514,6.836764518435374,69.99725641601981,8.840594270905819e-07,113.70000777359816,169.10340080049767,15.288,0.0,0.0,0.0488453895716005,1.7320643186450851e-09,-0.0005128553637434,7.9027539265021e-08,2.2612406375611563e-05,4.286421922834417,28.730746964325096,16.620764365084565,32.03586915718869
0.41,31.22218090752676,131.01039779392735,6.205351877049411,4.30025870409831,0.0008595777771371,35.882550741685804,0.0012389121673015,3.1445895889870297,378.94687077668647,16.987310563534386,6.99141560549392,69.9969524610574,1.0121301778427253e-06,113.70000825570062,176.64448930727934,15.288,0.0,0.0,0.0499230826371405,1.922193031274436e-09,-0.0005548883906878,8.764667734700782e-08,2.5005077415911235e-05,4.300258789847355,28.21875643368965,16.987445585695873,36.020076248499606
0.42,31.222180656535848,131.0103984736348,6.36160173428776,4.322008670726048,0.0008844838439129,40.34064925656127,0.001261804338223,3.134918999355981,416.2328240017114,17.318628721060172,7.133856886815013,69.99662385300175,1.154276942054023e-06,113.70000876021427,183.59942989625057,15.288,0.0,0.0,0.0508968652507098,2.1275184665783874e-09,-0.0005991661829955,9.694534598491077e-08,2.752657757470936e-05,4.322008761057615,27.772396468009568,17.318767655457478,40.462275036947325
0.43,31.222180400205527,131.0103991677914,6.521055075967404,4.339436441324956,0.0009085827200945,35.541853595187746,0.0012854696362701,3.124839917627212,375.9031395134336,17.662848429084132,7.280642039343927,69.99626930133451,1.3115939750280808e-06,113.70000928827632,190.96736675963504,15.288,0.0,0.0,0.0519085689713619,2.3488101247838237e-09,-0.0006457514522491,1.0695800287133593e-07,3.0255957891170616e-05,4.339436536261635,27.322335771349252,17.662991148924057,35.67895714766603
0.44,31.22218013836212,131.0103998768696,6.683849332059896,4.342209064313268,0.0009296474314902,32.82948243168077,0.0013129688908547,3.113754688841357,353.0750125389216,18.063580761318697,7.446730341918701,69.99588746395321,1.4852372182848018e-06,113.7000098413532,199.7278270846888,15.288,0.0,0.0,0.0530863610987301,2.586862292117705e-09,-0.0006947575786514,1.1773083546077225e-07,3.329010177793299e-05,4.342209163639375,26.81344244367223,18.06372678999575,32.9768158972058
0.45,31.22217987077456,131.0104006014978,6.850166573233225,4.3420317510315165,0.0009500780330031,38.11022602597878,0.001341042003417,3.1022288449712887,397.2093853562869,18.47486275310604,7.616350301328129,69.99547690348253,1.6764536248320808e-06,113.70001042108892,208.92306716049887,15.288,0.0,0.0,0.0542951637545535,2.842521175226318e-09,-0.0007463379956615,1.2932090054593452e-07,3.657529369088674e-05,4.342031854775571,26.30944884471334,18.47501199101448,38.23628058998621
0.46,31.22217959739673,131.01040134180155,7.020045503401754,4.351169003849846,0.0009725797783515,44.3937050866137,0.0013660055515545,3.09098240974522,449.7140588976434,18.844323061800488,7.771531995684422,69.99503610583268,1.8865779683531e-06,113.70001102895836,217.3591612614144,15.288,0.0,0.0,0.0553810645782081,3.1166808800591503e-09,-0.000800596194505,1.417768495237597e-07,4.001824400409673e-05,4.351169112337076,25.873596578896564,18.844475834274814,44.50118229261506
0.47,31.22217931813738,131.01040209802923,7.193559875579052,4.358630093683735,0.0009947969928181,30.22514089990685,0.0013910994973101,3.079396422776949,331.0078106302534,19.2180591098146,7.9280875671397615,69.99456352718363,2.1170044481277104e-06,113.70001166656292,226.0625808853568,15.288,0.0,0.0,0.0564795377574197,3.4102493884459798e-09,-0.0008576351980594,1.551487523304888e-07,4.3718862242359527e-05,4.35863020698899,25.44665981168229,19.218215372160817,30.381603425148434
0.48,31.22217903348153,131.01040286886197,7.370336324605091,4.365514409145237,0.001016880998596,29.779838936311712,0.001416009414045,3.067527859335786,327.2031223011574,19.5915905767454,8.084483592791102,69.99405758812365,2.369198154608765e-06,113.70001233476164,234.93171707892955,15.288,0.0,0.0,0.057577416115756,3.7241711041759195e-09,-0.0009173883913609,1.6944871263079066e-07,4.767297940601472e-05,4.365514527349481,25.03354780044292,19.59175030803913,29.937410312943754
0.49,31.22217874361868,131.01040365378466,7.5502307795521535,4.3786401372577615,0.0010404145545081,37.2489281064929,0.0014385799934191,3.0558405437943126,389.60000969812296,19.93403005898306,8.23012235628909,69.99351671352461,2.644660619562788e-06,113.700013034871,243.21198709852868,15.288,0.0,0.0,0.0585839249886784,4.059374595909599e-09,-0.0009798792959512,1.8470833984680338e-07,5.180951737438081e-05,4.378640260624215,24.667474291142685,19.934193486919103,37.37406598941686
0.5,31.22217844858332,131.0104044527036,7.733219389747018,-2.374921457551432,-0.0007931778051241,38.25865037109666,0.0013708965942972,3.4675106069975343,397.97031042210494,19.35000683258842,8.366361539570502,69.99293932307316,2.9449363413826395e-06,113.70001376847225,229.16557187820527,15.288,0.0,2.5051569778986185,0.0568676622591666,4.416751211901175e-09,-0.0010494275467989,1.0298120881856823e-05,5.386018096618087e-05,2.374921589928693,25.048707238270275,19.349882240510144,38.415465113763915
0.51,31.222178148424067,131.01040526560752,7.919233892288799,-2.259680727799977,-0.0001164701209748,29.347213555946617,0.0013554937273368,3.465811973046825,323.3984349720841,19.686089226931195,8.516020059051684,69.99234730336012,1.914550187014963e-05,113.70003143065324,237.191034377101,15.288,0.0,2.515097903877749,0.0578554949471954,4.788627046724747e-09,-0.0010165152148429,1.0295709741726508e-05,5.307619746767801e-05,2.25968073080006,24.66588183337256,19.68607093184737,29.55115561138371
0.52,31.222177843013466,131.01040609270154,8.108277013435043,-2.1481778586315565,-7.508625902488573e-05,35.183173135615,0.0013779189538775,3.464073238095033,372.0984511843415,20.031090782603176,8.66839817004536,69.99177407504916,3.5343066288158255e-05,113.700049096886,245.573039564054,15.288,0.0,2.525002779390825,0.0588695463922235,5.1473911879733675e-09,-0.0009839086632758,1.0294696114062782e-05,5.227306542899779e-05,2.1481778599433854,24.283845639370504,20.031078988081187,35.35329513904196
0.53,31.22217753221333,131.01040693437275,8.300460153132361,-2.0407848788252503,-3.4482759556562855e-05,36.92336581617008,0.0013999692234584,3.4621640849163886,386.5562464348624,20.372447689161906,8.81948212803375,69.99121946428575,5.153864993597431e-05,113.7000667684629,254.00946257199416,15.288,0.0,2.5348732607210485,0.0598728929697424,5.493148258164963e-09,-0.0009516211793201,1.0294232516816168e-05,5.141831984153888e-05,2.0407848791164467,23.916647458044373,20.3724422726227,37.0853276283966
0.54,31.22217721592538,131.01040779088848,8.495860088431005,-1.9371061579915088,5.4094804030217575e-06,32.467787072781604,0.0014217470608578,3.460096220984431,349.2703242098436,20.711832721122647,8.96984556107855,69.99068327908925,6.773318115539544e-05,113.70008444651693,262.5381279835731,15.288,0.0,2.544716571181076,0.0608704509225154,5.826017468689425e-09,-0.0009196799366852,1.0294357408150324e-05,5.0519339577270175e-05,1.937106157999043,23.561838073655533,20.711833570841844,32.65163801838003
0.55,31.2221768944249,131.0104086615001,8.694263923693953,-1.8374394737540296,4.4606979920340245e-05,34.39025906083386,0.0014428730974802,3.4578360274201376,365.2500005919907,21.04318726969331,9.117411388279656,69.99016529840075,8.392765408877926e-05,113.70010213172148,271.00049922271137,15.288,0.0,2.554521245449584,0.0618444143566994,6.146160133410632e-09,-0.0008881736793038,1.0295110747439513e-05,4.956824785067095e-05,1.8374394742954083,23.22483149346029,21.04319427654133,34.563659388809995
0.56,31.222176567713102,131.0104095462042,8.895671385574946,-1.741868757412116,8.320048092005283e-05,32.11898357895257,0.0014630563770276,3.455363000970701,346.2265619465787,21.36184997451613,9.26058352184067,69.98966526296438,0.0001001231209011,113.7001198252001,279.2649122152938,15.288,0.0,2.564287169057564,0.0627810837786546,6.453747334603313e-09,-0.0008571444119128,1.0296531972030626e-05,4.855999220498608e-05,1.74186875939872,22.90910949458196,21.36186304361711,32.30431305188266
0.57,31.22217623586191,131.0104104448053,9.10002744136935,-1.6484511948857608,0.0001211547108375,31.76183262719496,0.001483600039482,3.4527827179099235,343.1828296833023,21.688685649001467,9.406503722911369,69.98918288259553,0.0001163206957731,113.70013752804223,287.87012603795927,15.288,0.0,2.574010113675723,0.0637417794569816,6.748977344628455e-09,-0.0008266489737973,1.0298661020862467e-05,4.754792758823472e-05,1.648451199336791,22.59383190244835,21.688704679938944,31.948954952175082
0.58,31.22217589885022,131.0104113573607,9.307349256231616,-1.556176127125154,0.0001583510583564,41.71592059379016,0.0015053964571472,3.450156010361748,426.1250058573153,22.038157419196857,9.560122340921362,69.98871784044304,0.0001325215542711,113.70015524153428,297.2159044987163,15.288,0.0,2.5836901159668204,0.0647690080478075,7.0320603707615e-09,-0.0007967296927989,1.0301539203902356e-05,4.656449158508366e-05,1.5561761351798225,22.26609618416908,22.038182292922937,41.85835173235396
0.59,31.22217555628209,131.01041228494708,9.517944720005223,-1.4687282280363516,0.0001952140503313,33.876582494579,0.0015251834559526,3.4472398578937806,360.68438819711065,22.357947112681728,9.703531171879742,69.9882698146067,0.0001487269374799,113.700172967564,305.8979385643665,15.288,0.0,2.593339367812371,0.0657090095741035,7.3031796193307e-09,-0.0007673712928765,1.030521608050076e-05,4.549852022971268e-05,1.468728241006938,21.97373781845578,22.35797777683305,34.05152429005275
0.6,31.22217520836628,131.01041322699675,9.731652789442336,-1.38121672590484,0.0002311501215089,30.14143972483539,0.0015473623385755,3.4443464955106293,329.4859594986058,22.718995791326417,9.861012649534535,69.98783845488836,0.000164938164228,113.70019070724425,315.8508509300739,15.288,0.0,2.6029491155423337,0.0667702765174988,7.562585289530105e-09,-0.0007386556090188,1.0309735140914711e-05,4.450225502339628e-05,1.381216745242964,21.65292672091191,22.7190321003026,30.33759901279848
0.61,31.222174855055385,131.01041418363857,9.948511133761842,-1.2960746748317078,0.0002664123820719,35.26391006753073,0.0015697624396332,3.4413116532825025,372.0984511843297,23.086507915925903,10.020654749034923,69.98742338762636,0.000181156623967,113.70020846212611,326.14538511597954,15.288,0.0,2.612522500532102,0.0678505468609389,7.810521916549468e-09,-0.0007106240299004,1.0315144807765756e-05,4.3505080713501845e-05,1.296074702208193,21.335566632866747,23.08654976388502,35.43142646874477
0.62,31.222174496461832,131.01041515456689,10.168433535150712,-1.2171091443152136,0.0003019366862213,43.7694699629164,0.001587827863645,3.437850542709293,442.86563930529206,23.38658388579666,10.157160166729009,69.9870242134607,0.000197383785974,113.70022623361908,334.67182405212134,15.288,0.0,2.6220635830689094,0.0687326315671697,8.047259943155282e-09,-0.0006833348513934,1.0321492151799676e-05,4.237727546728898e-05,1.217109181761289,21.08238919179792,23.386631313900423,43.90427450385492
0.63,31.22217413240609,131.0104161402698,10.391560243796713,-1.139172137324104,0.0003367930465961,24.95204927399953,0.0016069289678472,3.434309422994933,286.11251274707894,23.70624084621385,10.300313840223186,69.9866404861606,0.0002136211812029,113.70024402361196,343.87583150777635,15.288,0.0,2.631554499013208,0.0696722713925609,8.273085616335982e-09,-0.0006568232537201,1.032883186593824e-05,4.128902038542192e-05,1.1391721871032428,20.819253214303306,23.706293749541896,25.18728343365344
0.64,31.22217376345957,131.0104171391936,10.617449261100388,-1.061831937511678,0.0003706396738657,24.49985330145864,0.0016279059574608,3.430723089719775,282.30782441796754,24.059304438116367,10.454846478369388,69.98627172849841,0.0002298704254768,113.700261833019,354.18729910694987,15.288,0.0,2.64100480315501,0.0707100999675173,8.488367099561785e-09,-0.0006312122511607,1.0337194358615508e-05,4.026914730036834e-05,1.0618320021917185,20.53625531977089,24.059362658060195,24.73888993793796
0.65,31.222173389603647,131.0104181513889,10.846116163356198,-0.9888165644546832,0.0004047970905954,43.07057427652219,0.0016455058059619,3.426796251967981,436.7781447787475,24.360127280921468,10.591438301630664,69.98591742323505,0.0002461331942265,113.70027966365436,363.09178116465336,15.288,0.0,2.650400428419701,0.0715944005484288,8.693442648985789e-09,-0.000606542545583,1.0346629390477438e-05,3.917826801799416e-05,0.9888166473033292,20.300549215779203,24.360190866299767,43.20668123993795
0.66,31.222173010344672,131.01041917819805,11.077944960685931,-0.91715545381803,0.0004383883895018,36.676888694558606,0.0016636291443018,3.422749411557376,383.51251517160017,24.67244693821773,10.73190872812442,69.9855770246296,0.0002624112330307,113.70029751808048,372.4535270105632,15.288,0.0,2.659754354042543,0.0725124974975372,8.888632593196954e-09,-0.000582813774625,1.0357209389153929e-05,3.8127363351296936e-05,0.9171555585811194,20.06147836664716,24.67251580010492,36.836250903356316
0.67,31.222172625863283,131.0104202191299,11.312796820523264,-0.8462858210825362,0.0004710107707603,25.33728096533129,0.0016834116871501,3.418626938685983,289.1562440103425,25.015076510042324,10.88269694736944,69.98524997211221,0.0002787063955019,113.7003153980184,382.8613450475543,15.288,0.0,2.6690763937138624,0.0735196830449044,9.0743257595628e-09,-0.0005601011624248,1.0368981339569144e-05,3.714952431713169e-05,0.8462859521462924,19.80570498099927,25.015150496241183,25.566869571692262
0.68,31.22217223632359,131.01042127373825,11.550545775875088,-0.7775809270140442,0.0005033467937016,31.567334160694656,0.0017024441244591,3.4143026378762684,340.8999924858462,25.348557951594447,11.030291822995448,69.9849356693252,0.0002950206146443,113.70033330529677,393.12842845707615,15.288,0.0,2.6783375193944527,0.0744999898023477,9.250929452834233e-09,-0.0005384730301118,1.0381992856412715e-05,3.619030527547464e-05,0.7775810899181993,19.56275377691752,25.348637017123917,31.751441721822406
0.69,31.222171841802865,131.01042234181295,11.791133246669432,-0.7115313477814558,0.0005358877896822,38.80831690727592,0.0017194005074408,3.40973179452896,401.0140726853634,25.65089893729154,11.167166166328713,69.98463348145596,0.0003113558976665,113.70035124194636,402.55301159340166,15.288,0.0,2.6875544086965784,0.0753887814780953,9.418870133103942e-09,-0.0005179910839595,1.0396294430608036e-05,3.5228152917701195e-05,0.711531549572425,19.347304700466367,25.6509831143487,38.957819947252155
0.7,31.222171442167628,131.01042342371704,12.034664146350549,-0.6470203190678387,0.0005680464473183,32.58779498504016,0.0017362375449918,3.4050017425046466,349.27032420985284,25.954396478263348,11.30437538818558,69.98434273707724,0.0003277143244296,113.70036921037396,412.12562015372896,15.288,0.0,2.6967354572830424,0.0762809796731231,9.578578165679522e-09,-0.0004986996789874,1.0411951086199267e-05,3.4316648449940345e-05,0.6470205684132586,19.135705720619985,25.954485706790635,32.765201386043536
0.71,31.222171037469504,131.0104245193101,12.281099876196848,-0.5835285392409929,0.0005993861712705,26.82175950978918,0.0017540981756307,3.40014019297712,301.33126406340574,26.27816364228888,11.448457714010546,69.98406273584419,0.0003440980709296,113.70038721282585,422.4618459862055,15.288,0.0,2.705854506863859,0.0772327586758189,9.73052027847124e-09,-0.000480661343048,1.0429017686090856e-05,3.3487195161494034e-05,0.5835288470676735,18.915076319192124,26.278257793648496,27.0364150657909
0.72,31.22217062770971,131.01042562858893,12.530440990202653,-0.5211106551532951,0.0006297460685694,32.785049108236194,0.0017732615176114,3.395144258016749,350.79220534145287,26.627115932033647,11.601096881965995,69.98379274676167,0.0003605094082502,113.70040525172088,433.745843714764,15.288,0.0,2.714931022232768,0.0782585660113708,9.875174769476541e-09,-0.0004639328266599,1.0447555297802276e-05,3.275015790048913e-05,0.5211110356560867,18.68295983728397,26.627214852314776,32.96037701099093
0.73,31.222170212884382,131.01042675156407,12.7826920189112,-0.461365779581308,0.0006611518053208,41.410597256070986,0.0017886465501666,3.389873614575889,422.320318528234,26.91641492012841,11.733252418551825,69.98353200971181,0.0003769507164406,113.70042332960097,443.2114550506474,15.288,0.0,2.7239714999149145,0.0791090568708924,1.0013033288161521e-08,-0.0004485696377228,1.0467628614776231e-05,3.200889886251751e-05,0.4613662532967386,18.494524885466628,26.91651877361113,41.54911324476815
0.74,31.22216979293072,131.0104278884064,13.03790323567106,-0.4026207618403916,0.0006917709094164,26.010684594033044,0.0018049689775193,3.3844577445170474,294.48281347105944,27.22483787437429,11.87188707197105,69.98327972196577,0.0003934244423543,113.70044144916228,453.415652278536,15.288,0.0,2.732961358770973,0.0800157619580813,1.01446180445717e-08,-0.0004346318810847,1.0489304261134808e-05,3.136894288910493e-05,0.4026213561202897,18.297847957618792,27.22494653749464,26.229949876669654
0.75,31.222169368201072,131.01042903815772,13.29580308532671,-0.345034876277846,0.0007216974874002,30.32736938857749,0.0018218320186557,3.3788737020638635,330.24688556441487,27.54589523936955,12.014777146135744,69.98303504559797,0.0004099331329701,113.7004596126188,464.1613032413799,15.288,0.0,2.7418927959224337,0.080959608274464,1.0270511358062847e-08,-0.0004222007348417,1.0512612865669813e-05,3.083032637112759e-05,0.3450356310426831,18.097536939143456,27.54600860334577,30.5150147442992
0.76,31.222168938585728,131.01043020111652,13.556478317786263,-0.2890386114784307,0.0007518517012013,32.62739957038176,0.0018371846072571,3.3730869489967104,349.27032420986166,27.84508235637543,12.150112508547902,69.9827971061984,0.0004264794146724,113.70047782292389,474.2870748659772,15.288,0.0,2.7507820086699626,0.0818391840365551,1.0391265664065266e-08,-0.0004113283016347,1.0537630403523697e-05,3.036186697619672e-05,0.2890395893328341,17.914714286801956,27.84520045696448,32.80129451204765
0.77,31.222168504027177,131.0104313774392,13.819975252650131,-0.2343223113688347,0.0007818522902099,30.522059214518528,0.0018519794473324,3.3671188043650675,331.7687666960708,28.13844163044237,12.28338357359425,69.98256499457257,0.0004430660140757,113.7004960830634,484.3210773592929,15.288,0.0,2.7596299725685256,0.0827016390046004,1.0507462812119425e-08,-0.0004020740152844,1.056442947161248e-05,2.999068829723248e-05,0.2343236157431741,17.739006223442004,28.13856444351292,30.70722376196051
0.78,31.22216806458788,131.01043256695607,14.086247230616852,-0.1806245423797135,0.0008110033202566,25.10950605134055,0.0018676742686177,3.3609742825482054,286.8734378128899,28.45081404741251,12.423090454146957,69.98233776536759,0.0004596957560024,113.70051439595736,495.12126066666457,15.288,0.0,2.7684187148767507,0.0836199833767976,1.0619721341529844e-08,-0.0003945043819004,1.0593069129698448e-05,2.9751975502266777e-05,0.1806263630643644,17.55571839493461,28.450941439516157,25.333445201126224
0.79,31.2221676203534,131.01043376943437,14.3552297176616,-0.1280724548042358,0.0008394957213909,35.585849354047625,0.0018837868825737,3.354638787992468,373.6203323159534,28.77422275868772,12.56650254090382,69.9821144372764,0.0004763715709173,113.70053276460504,506.42853186768326,15.288,0.0,2.77715610934377,0.0845707727997972,1.0728680548394136e-08,-0.0003886847986571,1.06236079866612e-05,2.964552992845963e-05,0.1280752061562361,17.369933565217842,28.774354626367263,35.74361871992717
0.8,31.222167171105124,131.0104349854687,14.627094052275035,-0.0768468335065387,0.0008688197981653,36.05215484914071,0.0018974042418339,3.34811166910042,377.42502064505743,29.05890937931463,12.69658732130917,69.98189399352931,0.0004930965087035,113.70055119256403,516.4856328795711,15.288,0.0,2.7858553090902207,0.0854077617175864,1.083496219290704e-08,-0.000384674150014,1.0656149307979404e-05,2.962913927482288e-05,0.076851744725602,17.20960832807063,29.059045853209387,36.207288280335625
0.81,31.22216671694293,131.01043621478763,14.90176472185274,-0.0266444228970295,0.0008971289386996,23.55829183894481,0.0019121992621578,3.3413926585594846,273.9374926939919,29.367758264191966,12.834869428329691,69.98167537831318,0.0005098737180049,113.70056968304516,527.5088638244607,15.288,0.0,2.794511883521352,0.0863157746321399,1.0939256545554724e-08,-0.0003825430471056,1.06907499167755e-05,2.9777372633711244e-05,0.0266595219695622,17.039047384572726,29.36789918487612,23.794075374430395
0.82,31.22216625805132,131.01043745688943,15.179100607228136,0.0224616237765975,0.0009248037092926,30.18174161260925,0.0019273375230586,3.3344689832302365,328.72500443277005,29.686681761425472,12.976524899012908,69.98145749718663,0.0005267064519528,113.70058823925,539.0138380322247,15.288,0.0,2.803120111800764,0.0872534065259151,1.1042280269455192e-08,-0.0003823593998073,1.0727457175536009e-05,3.008549263292797e-05,0.0224806540055319,16.866471932953637,29.686827029252424,30.36537854012466
0.83,31.2221657944128,131.0104387118218,15.45911725793066,0.0706110710718064,0.0009536900925848,38.28050776915608,0.0019394411831965,3.3273765667035664,395.68750322465047,29.95724131493621,13.101546376915689,69.9812392171366,0.0005435980729512,113.70060686478269,548.8688169584059,15.288,0.0,2.811668639173865,0.0880488979542326,1.1144744750409658e-08,-0.0003841891370073,1.0766351649699627e-05,3.050414937279608e-05,0.0706175111594949,16.72284824346859,29.957391120225637,38.42484500479474
0.84,31.222165325921868,131.0104399798717,15.741898493329048,0.1178046442505478,0.0009820445765956,23.75173195975783,0.0019518089176522,3.320089708841447,275.4593748256452,30.23642599893263,13.229443363341169,69.98101936679129,0.0005605520232706,113.70062556345698,559.1316014425826,15.288,0.0,2.8201743813137368,0.0888697478351072,1.1247382240733676e-08,-0.0003881030545142,1.0807523194662558e-05,3.1101242684071785e-05,0.1178087374396414,16.577248232311057,30.23658025813399,23.982655619686792
0.85,31.22216485286893,131.0104412602495,16.027221219291366,0.1638732024403262,0.0010088185329784,25.87154863061319,0.0019661794614564,3.3125567954242694,292.96093233939376,30.55480264601063,13.370678504605843,69.98079673579402,0.0005775718514632,113.70064433863764,570.9527818803074,15.288,0.0,2.828630535070896,0.0898057974178013,1.1350991737356793e-08,-0.000394165268483,1.085099693373788e-05,3.191877111692377e-05,0.163876307591417,16.414284738509146,30.55496111085522,26.082754166977008
0.86,31.22216437508113,131.01044255342543,16.315221564110026,0.2091331900228104,0.0010363033709568,32.319160957204566,0.0019785561560806,3.304856641863912,346.2265619465587,30.84275973850912,13.501421048387396,69.98057007312006,0.0005946612479625,113.7006631944975,581.7490420630895,15.288,0.0,2.837042933188046,0.0906524471989518,1.1456331330362228e-08,-0.0004024488394918,1.0896887223047492e-05,3.2895782643388055e-05,0.20913575755651,16.269730706301505,30.842922520661965,32.487693767265974
0.87,31.22216389258155,131.0104438593368,16.605883772492106,0.2536128229159583,0.0010640326838243,30.11459462700872,0.0019898187744607,3.2969806848630605,327.964078366998,31.115509466749263,13.626877392133476,69.980338087927,0.0006118240065371,113.70068213504096,592.0670940778845,15.288,0.0,2.845411176168,0.0914544078919093,1.156421117978434e-08,-0.0004130252184149,1.0945270520893592e-05,3.4057885083862954e-05,0.2536150549671039,16.135243378871657,31.115676604612386,30.29453573080138
0.88,31.222163405404704,131.0104451778898,16.899183238287875,0.2970682071156087,0.0010908259946021,26.06660091975188,0.0020019330018269,3.2888648359526145,294.4828134710418,31.40776387740237,13.75892986064628,69.98009944966174,0.0006290640266366,113.70070116436833,603.2243903577835,15.288,0.0,2.8537332887544937,0.0923137047569866,1.1675468625403156e-08,-0.0004259647423995,1.0996216855259631e-05,3.5453786691534386e-05,0.2970702098317861,15.993610625558706,31.40793522394891,26.27326244352823
0.89,31.222162913630537,131.0104465088672,17.195060214439856,0.3394628901942631,0.0011166456048628,28.557905111327088,0.0020148867853049,3.2804876439233945,315.028134248087,31.719636526799288,13.89761539852935,69.97985278621717,0.000646385331464,113.700720286647,615.2461744644036,15.288,0.0,2.861997416774012,0.0932306721432374,1.1790963104482336e-08,-0.0004413367025851,1.104979568717765e-05,3.7096920875206187e-05,0.3394647267420449,15.845203863339608,31.719811929080723,28.74570485462593
0.9,31.222162417183977,131.01044785247322,17.49357514268577,0.3815814622968242,0.0011440503430999,31.51139419906424,0.0020246189988614,3.272019380556353,339.37814235421445,31.978927474003424,14.018216489279787,69.9795966801924,0.0006637920975082,113.70073950642691,625.3279705088377,15.288,0.0,2.870217948505572,0.0939930992710451,1.1911556731353484e-08,-0.0004592206791873,1.110611243600625e-05,3.891459324163383e-05,0.3815831773027419,15.72413551865365,31.979107181011077,31.68081563493336
0.91,31.22216191613421,131.0104492085198,17.79467665854765,0.4226881097484737,0.0011705013100959,24.049026587833435,0.0020351875741323,3.2632932535898,277.7421810230789,32.25782221666807,14.145445219722392,69.9793296784691,0.0006812885661057,113.70075882812216,636.2643580012542,15.288,0.0,2.878393273293048,0.094813154362486,1.2038157558383895e-08,-0.0004796873420092,1.1165234495938637e-05,4.10022706640088e-05,0.4226897303829878,15.595971106415094,32.2580060785839,24.269420405589265
0.92,31.222161410679767,131.01045057646732,18.09821319828404,0.4627390565021068,0.0011959580291741,28.570513694331275,0.0020465710926278,3.25428975656501,315.02813424806214,32.556249434587485,14.279276649415248,69.97905028511616,0.0006988791072839,113.7007782561,648.0724825525996,15.288,0.0,2.886519553297606,0.0956906282859387,1.2171710260179448e-08,-0.0005027935117594,1.1227197415777128e-05,4.337365063473439e-05,0.4627406019544158,15.461127400312334,32.5564372952354,28.755254454901074
0.93,31.222160900730834,131.01045195656,18.404256703868665,0.5027384789592586,0.0012229774240488,33.924701338969584,0.0020549302444077,3.245221662437216,359.1625070654728,32.805041088163414,14.396028761388264,69.97875696138374,0.0007165682152652,113.70079779526836,657.9960004543894,15.288,0.0,2.8946009878237087,0.0964222196163212,1.2313136809938069e-08,-0.0005286252203743,1.129211875867308e-05,4.5949167250565045e-05,0.5027399664456552,15.35077905631453,32.80523319300794,34.07956614746401
0.94,31.222160386178786,131.01045334909344,18.712893766665854,0.5413481159180056,0.001248155204251,24.703329726006668,0.0020653736272546,3.2357922935091947,283.0687504837787,33.0966027183456,14.52733800638248,69.97844813074659,0.0007343604753964,113.7008174506586,669.7242766447754,15.288,0.0,2.9026375037852468,0.0972795309386662,1.2463391573657472e-08,-0.0005572688072753,1.1360106487558171e-05,4.886798786761725e-05,0.5413495547732596,15.223307152251614,33.0967987781066,24.914350394587984
0.95,31.22215986730836,131.01045475329343,19.023906069727698,0.5793274471281326,0.0012733265295211,31.90535568578988,0.0020751257908638,3.2261563698108047,342.4218736174873,33.38081560653943,14.656044417853312,69.97812216469406,0.0007522606570845,113.70083722693973,681.2556591001228,15.288,0.0,2.910625898917263,0.0981152509221277,1.2623494308187416e-08,-0.0005887719994667,1.1431181638172085e-05,5.207237966113059e-05,0.5793288464261981,15.101194852634114,33.38101562020295,32.068049686025226
0.96,31.22215934383024,131.01045616994685,19.33752030028104,0.617049180003479,0.0012992552985312,31.264053072270823,0.0020831518383884,3.2163953451171468,337.09533515678345,33.638739339162505,14.775661675068616,69.97777739396763,0.0007702736357418,113.70085712970725,691.8032170664972,15.288,0.0,2.9185724544882863,0.0988737084613231,1.2794413200491077e-08,-0.0006232516430485,1.1505520927352255e-05,5.55460774941542e-05,0.617050547801828,14.992298882377828,33.63894342570754,31.42906644909103
0.97,31.222158815763663,131.01045759900143,19.653724020276147,0.6538916676937943,0.0013245351884186,20.09470402666157,0.0020914662798149,3.206364324370309,245.02188719299323,33.907288873205765,14.898828400554116,69.97741209899624,0.0007884044524641,113.7008771642951,702.8717640874164,15.288,0.0,2.926476416806569,0.0996634066089008,1.2977187685541948e-08,-0.000660788987887,1.158321567863866e-05,5.935986787792833e-05,0.653893009135552,14.880600937601235,33.907496930706614,20.348904306471997
0.98,31.222158283391767,131.0104590396875,19.972300266117976,0.6892075147240437,0.0013478818188368,29.149009122053823,0.002101769088151,3.195901643592989,319.5937466429581,34.21820850592171,15.036414362883054,69.97702451719807,0.000806658269835,113.70089733579196,715.7992066109767,15.288,0.0,2.9343324677402407,0.100577651601636,1.3172916657509057e-08,-0.0007014208979862,1.16642698492189e-05,6.358574197131788e-05,0.6892088326842795,14.753157132594849,34.21842023070269,29.323685384523728
0.99,31.2221577465684,131.01046049240256,20.29336485750989,0.7253797128720145,0.0013739744799828,31.832735661661047,0.0021076733849141,3.185556060714504,341.6609485517054,34.45303243775465,15.147853849892892,69.97661283330629,0.0008250404195871,113.700917650075,725.6349458024979,15.288,0.0,2.9421465952503123,0.1012682369558479,1.3382652114301076e-08,-0.0007452596835774,1.1748842785372804e-05,6.802138374152412e-05,0.7253810140545564,14.658889494838409,34.45324826116126,31.99173067471388
1.0,31.22215720529197,131.01046195715108,20.616921542042256,0.7600519038689881,0.0013981839914221,28.510299395773355,0.0021154875439179,3.1747723673959927,314.2672081822764,34.72911701601837,15.273331270848,69.97617520510572,0.0008435562702782,113.700938112855,737.2881780161287,15.288,0.0,2.9499164645147595,0.1020801085686226,1.3607499919169192e-08,-0.0007923839773335,1.183701994366776e-05,7.289979581011688e-05,0.7600531898353855,14.54934703720935,34.72933664224614,28.686518709956832
1.01,31.22215665973911,131.0104634334529,20.942836016887888,0.7942770615756797,0.0014224960913956,29.80853069873453,0.0021225072704152,3.1637892863245964,324.9203161036979,34.996116945410776,15.395606917842343,69.9757097290944,0.0008622114053778,113.70095872981868,748.6449691989561,15.288,0.0,2.9576410031786384,0.1028652860287967,1.3848607255647685e-08,-0.000842849636195,1.1928849532507202e-05,7.813637392819158e-05,0.7942783352897278,14.445118673304016,34.996340390574275,29.975958192703338
1.02,31.222156109834668,131.01046492151252,21.27116911294428,0.8281867628290001,0.0014471060017063,24.911411655008045,0.0021285042465876,3.1526360984901447,284.59063161540416,35.249675907201166,15.513187906013142,69.97521446457813,0.000881011498003,113.70097950710456,759.5087001809305,15.288,0.0,2.965322129020819,0.1036109644513181,1.410710749636136e-08,-0.0008967565496264,1.202445969195385e-05,8.373350679165475e-05,0.8281880270177157,14.347715055917345,35.24990321808034,25.110108513212445
1.03,31.222155555645248,131.01046642114895,21.601871814259766,0.8608087880196466,0.001470290789378,20.38149684214192,0.0021356788670796,3.141065059497783,247.30469339049705,35.53168342377224,15.640419321930285,69.97468742878011,0.0008999623386582,113.70100045077494,771.6853750179166,15.288,0.0,2.972958477065264,0.1044402716251315,1.4384178199039416e-08,-0.0009541753276642,1.2123924806164715e-05,8.980484471447245e-05,0.8608100435773187,14.240766804932273,35.53191437650935,20.622116957173994
1.04,31.222154997230668,131.01046793219976,21.934900410666888,0.8935744971550761,0.0014945016812372,32.31944295178875,0.0021408999528655,3.12942499775622,345.46563688072297,35.78262706305124,15.75691983123342,69.97412657655725,0.0009190699289009,113.70102156712592,782.5989372428462,15.288,0.0,2.980551162792202,0.1051782796114682,1.4681018780980056e-08,-0.0010151842823355,1.2227336006303723e-05,9.621859584812516e-05,0.8935757468284248,14.147279210521276,35.78286181882634,32.47059744005277
1.05,31.222154434313747,131.01046945541873,22.270472374091444,0.925168520626293,0.0015175221690109,19.551673492840035,0.0021469757756842,3.1173827709847863,240.45625879819983,36.056379665026334,15.881138199925225,69.9735298235989,0.00093834037128,113.7010428630388,794.593572304671,15.288,0.0,2.9881043916119103,0.1059833403562853,1.4998804220575183e-08,-0.0010799391108077,1.2334910600321818e-05,0.0001031357657036,0.9251697650870108,14.046568446880856,36.0566180368512,19.79863672884983
1.06,31.22215386712473,131.01047099017987,22.608411941695703,0.9556437628649666,0.0015394506196483,27.79267164095345,0.0021537147418255,3.10493206631347,308.17968365593924,36.3497717597979,16.01198995057157,69.97289501365992,0.0009577800210554,113.70106434494366,807.5512447679173,15.288,0.0,2.995614981422837,0.1068461381721622,1.5338822246310503e-08,-0.0011484747857644,1.2446665687188113e-05,0.0001105699123965,0.95564500270337,13.940134419779476,36.35001357613574,27.965571775251924
1.07,31.222153295551013,131.01047253678962,22.94880911766109,0.9868843418191612,0.0015633175292513,32.70447314192408,0.0021574512117527,3.092570010244976,348.5093681440308,36.591562845814565,16.125073525724694,69.97221992874036,0.0009773954322889,113.70108601996832,818.3035445776771,15.288,0.0,3.003087272400641,0.1075572695102717,1.570232785571269e-08,-0.0012209245838899,1.2562781174675725e-05,0.0001183230647582,0.9868855799169768,13.854160659653536,36.59180841115779,32.850366168639525
1.08,31.22215271949484,131.01047409551387,23.29174235209957,1.0173456849186335,0.0015866045284858,22.05675157168733,0.0021612643704183,3.079885879199072,261.00157857466235,36.84158686038592,16.24088124039689,69.97150231532405,0.0009971932453529,113.70110789531086,829.497087183888,15.288,0.0,3.0105217612841826,0.1082926093822693,1.6090607929512845e-08,-0.0012974083539113,1.2683409759625331e-05,0.0001265902697202,1.0173469219849236,13.76637744830306,36.84183608364243,22.270742951125023
1.09,31.22215213922305,131.01047566562733,23.637007655200662,1.045785693246308,0.0016073776863993,20.29789473954028,0.0021673684890909,3.06652079645334,246.54375332474407,37.14390833378154,16.37450856846222,69.97073986403748,0.0010171802771372,113.70112997784008,843.1386613663298,15.288,0.0,3.017914084027377,0.1091816822032876,1.6505035960735602e-08,-0.0013779397206598,1.2808539230383356e-05,0.0001355466293417,1.0457869283822046,13.661251704418788,37.14416082007806,20.528226551507657
1.1,31.22215155480928,131.01047724692975,23.98455073735241,1.074480266646744,0.0016291662856477,40.597658339698846,0.002171591192129,3.0530909225570726,413.1890617385841,37.4164662057109,16.497846275867726,69.96993020911869,0.0010373635179474,113.70115227488296,855.5292147858314,15.288,0.0,3.025265706824563,0.1099832766065267,1.69469654729093e-08,-0.0014626004801677,1.2938267962656926e-05,0.0001449255262173,1.0744815016020914,13.568202533523644,37.41672211455258,40.71229828398451
1.11,31.22215096586456,131.01047884047907,24.33467574724681,1.104344590220817,0.0016533209932123,29.757317114044127,0.0021724734705508,3.03987460283498,324.1593910376397,37.62956224979644,16.600716556861045,69.96907092175623,0.0010577501571438,113.70117479463404,865.2727654589454,15.288,0.0,3.0325836621071662,0.1106100956486006,1.7417703740770532e-08,-0.0015516251756043,1.3072924083829643e-05,0.0001546171927361,1.104345827665147,13.49703038064597,37.62982195285072,29.912184208886945
1.12,31.2221503724496,131.0104804461103,24.68733840554767,1.130575356420746,0.0016726219950719,11.306543043965473,0.0021781980719428,3.0254699123544584,172.73281794065943,37.947770900404414,16.739500345422798,69.96815953656801,0.0010783474805905,113.70119754475265,879.938926386413,15.288,0.0,3.039864780584604,0.1115458969738716,1.7918671457675553e-08,-0.0016450887912308,1.3212588469433235e-05,0.000165311361063,1.1305765935338683,13.39083085054262,37.948033635252976,11.704332041605491
1.13,31.222149775135804,131.01048206226997,25.04209892548296,1.15804987090845,0.0016942983614309,35.05279119520469,0.0021805449443361,3.011282383684347,367.5328077900705,38.20564467080872,16.857519514708027,69.9671934716075,0.0010991631925939,113.7012205326191,891.9084023488577,15.288,0.0,3.0471042561267208,0.1123043558272327,1.845141815576732e-08,-0.0017428978715881,1.3357102649012338e-05,0.000176324134421,1.1580511101705622,13.306625237799272,38.20591081057294,35.18189871117935
1.14,31.222149173283327,131.01048369069795,25.399455771771983,1.1863537937463249,0.0017177193885827,19.470156571588625,0.0021803371050756,2.9972160434622714,239.69531773195544,38.41916545776721,16.96024311825605,69.96617016244608,0.0011202048665989,113.70124376719174,901.8745600853086,15.288,0.0,3.054311699670025,0.1129324492671332,1.9017257997776413e-08,-0.0018454000448097,1.3506952653879096e-05,0.0001877309312616,1.1863550371091482,13.238297789710316,38.41943527649777,19.699500138004346
1.15,31.222148567362115,131.0104853301166,25.759047697820616,1.2107553658771388,0.0017359835394983,19.19231731310056,0.002185061036161,2.9818018223844045,237.41251153546767,38.742206859422566,17.10039806751764,69.96508699080232,0.0011414802473441,113.70126725603728,917.0731805813278,15.288,0.0,3.061478395328572,0.1138824858325298,1.9617764229566524e-08,-0.0019524989441878,1.366197432608956e-05,0.0002002892050777,1.210756610219628,13.13480260468262,38.74247954707925,19.422569107335057
1.16,31.222147957505207,131.0104869801644,26.120774581266165,1.2385458517943142,0.0017595723353392,50.01604642570891,0.0021833566828129,2.9672949817152188,490.0437743845894,38.94054127332127,17.197724892116966,69.96394121756906,0.0011629974989706,113.70129100764652,926.4546360441371,15.288,0.0,3.068607409961787,0.1144659559346353,2.0254463985069813e-08,-0.0020642680203564,1.3822259654880609e-05,0.0002128312312536,1.2385471014901033,13.073327389328272,38.940817666297335,50.103989305585515
1.17,31.22214734287263,131.01048864312537,26.4852897656104,1.264031682594515,0.0017803898737634,8.980320321999821,0.0021839779212589,2.951922997146687,153.70937929486794,39.19564417097892,17.314403772141585,69.96273012109546,0.0011847646660612,113.70131503176248,938.60010154537,15.288,0.0,3.075708159506094,0.1152163064095444,2.092870161919793e-08,-0.0021811738056914,1.3988450009338043e-05,0.0002263498244253,1.264032936231147,12.994294179004164,39.19592383396628,9.453042221241054
1.18,31.22214672457313,131.01049031598498,26.85173743843256,1.2864552916369136,0.0017973257350318,24.39727440199591,0.0021879177866795,2.9353774967467468,280.02501822196746,39.529693106886185,17.458046469183223,69.96145087183277,0.001206790175021,113.70133933577118,954.633304839391,15.288,0.0,3.0827653698059123,0.1161987298589879,2.164229058593316e-08,-0.0023028097658695,1.4159955189325091e-05,0.0002410006975833,1.2864565469603866,12.891352794904968,39.529975430152405,24.57322616348282
1.19,31.22214610210801,131.0104920000994,27.220506733363447,1.3142622637887296,0.0018222117417605,42.51814291135311,0.0021829428687631,2.9204561839530365,428.4078130529292,39.68371052057587,17.539887485454386,69.96010051824976,0.0012290903660306,113.70136394055083,962.0526886793008,15.288,0.0,3.0897866279643647,0.116651954193066,2.2396690489895533e-08,-0.0024295610721372,1.4337305366818832e-05,0.000255247503544,1.3142635268059508,12.846247993864818,39.68399675292688,42.61832406040711
1.2,31.22214547504909,131.01049369663295,27.59193196204289,1.3369153699499496,0.0018403844439801,4.513953044365298,0.0021841812705737,2.9036478612557515,117.1843741360236,39.97935225961924,17.67016936929848,69.95867626171864,0.0012516584366577,113.70138883387818,976.4057383528389,15.288,0.0,3.0967701398458862,0.1175214982822805,2.3193396352558213e-08,-0.0025617198243526,1.4520885762260952e-05,0.0002711273297095,1.3369166364469414,12.757649319982107,39.97964134653164,5.367210426241705
1.21,31.22214484450657,131.01049540256724,27.965156441505048,1.3593599624532688,0.0018586456945671,34.16627515860713,0.0021845654031533,2.886575700081827,359.92343213200894,40.26638530796673,17.79740990762916,69.95717501502295,0.0012745111623439,113.7014140348132,990.440829838918,15.288,0.0,3.103710994973792,0.1183657462426292,2.4034335905068928e-08,-0.002698834511017,1.4710066025935263e-05,0.0002876797173631,1.3593612328724007,12.672971668749566,40.26667726334966,34.28799618318754
1.22,31.22214420963641,131.01049712019727,28.340836541333783,1.3856786049225427,0.001882609274664,24.77985781984335,0.0021786124005017,2.8707092778595764,283.0687504825761,40.42490197642024,17.880492517216343,69.95559373751142,0.0012976575790821,113.70143955415963,998.2182900113996,15.288,0.0,3.110623367552272,0.1188322204820103,2.4920921982327346e-08,-0.0028414987843819,1.4905650289804624e-05,0.0003040682818375,1.3856798835468824,12.628255612110916,40.425197695993525,24.945587386870503
