Time,Latitude,Longitude,Altitude,Angle of Attack,Angle of Sideslip,X-Acceleration,Y-Acceleration,Z-Acceleration,Thrust,True Velocity,Ground Velocity,Pitch,Roll,Yaw,Dynamic Pressure,cp,parachute_deploy_gain,Wind Speed,Mach,omega_x,omega_y,omega_z,Cmq,Angle of Attack(total),Angle of Attack(gust),True Velocity(gust),Acceleration
0.0,31.222186000000004,131.010384,3.000000003643237,0.0,0.0,0.0,0.0,0.0,2.2828121974499247,0.0,0.0,69.99999999623421,0.0,113.69999999388332,0.0,15.288,0.0,0.0,0.0,0.0,0.0,0.0,-0.0,0.0,90.0,0.0,0.0
0.01,31.22218600000153,131.01038399999584,2.99999882256592,0.0,0.0,0.0,0.0,0.0,34.24218696174923,7.502283530665459e-11,7.190531319924593e-11,69.99999999623329,-4.83564628150269e-13,113.69999999388072,3.446445726795683e-21,15.288,0.0,0.0,2.204725565824978e-13,-3.659182332138578e-19,7.589415207398531e-19,4.811147140404426e-19,-1.5108918610345807e-31,0.0,89.9999999995224,7.502283530665459e-11,0.0
0.02,31.22218600000288,131.01038399999217,2.999997775701936,0.0,0.0,0.0,0.0,0.0,25.871876237766408,1.5320717031631675e-10,1.4674636035870463e-10,69.99999999623222,-9.67129256300373e-13,113.69999999387804,1.4372842949972735e-20,15.288,0.0,0.0,4.5023593667086093e-13,-7.284483346386986e-19,1.5178830414797062e-18,9.757819552369542e-19,-6.170906918166791e-31,0.0,89.99999999902465,1.5320717031631675e-10,0.0
0.03,31.22218599928065,131.01038400193067,3.000201659671132,18.81500467334555,-0.00012974450181,11.96616230539064,-1.8916256735984712e-05,3.349833086198469,180.34219359854663,0.0882870268161719,0.0553390044312322,69.99999999799445,-4.212591857125379e-12,113.69999999488518,0.0047728553458352,15.288,0.0,0.0,0.0002594525584132,3.2187251995663407e-17,-7.20264389268894e-10,1.2365134327422308e-11,1.6874092354518158e-13,18.815004673776716,89.46786891739345,0.0882666465974854,12.426199017587786
0.04,31.22218599548236,131.0103840121632,3.001799604587872,9.46752327608497,-4.6177622759613696e-05,55.21900012092241,3.931876292165237e-06,3.349616504302861,548.6359724538078,0.3767519978512604,0.1853356633749705,70.00000000507204,-2.4624598767003407e-11,113.70000000019972,0.086915163246288,15.288,0.0,0.0,0.0011071759353184,1.6174128009138757e-15,-1.3693172015529268e-08,2.7753303060112748e-11,1.3689612277852356e-11,9.467523276196548,87.63554493451223,0.3767447442872393,55.32050167054111
0.05,31.222185984749512,131.01038404118162,3.00777936418888,5.376730308971262,-2.257790939128127e-06,80.28807156553681,5.266841443842784e-05,3.348887800834877,761.6984298824644,1.018787885905993,0.4366201147110198,70.00000000894464,-1.1355399380652658e-10,113.70000001523856,0.635552918586145,15.288,0.0,0.0,0.0029939522895272,1.6418815498809788e-14,-9.32122351075408e-08,4.303264669380585e-11,2.5199270302492604e-10,5.3767303089717045,83.57022052969386,1.0187875312530217,80.35788377762394
0.06,31.22218596447235,131.01038409608267,3.0201664202003013,4.296730121134882,2.4863835723705905e-05,60.21296515808257,0.0001057204249726,3.347700952379021,590.4875390737208,1.721098934225416,0.7081674028809783,69.99999995523842,-3.0560354507026086e-10,113.70000004366592,1.8138247671743823,15.288,0.0,0.0,0.0050578622752421,8.328976953118383e-14,-3.2824985336199985e-07,5.923438275930214e-11,1.4991363363716091e-09,4.296730121206683,79.20467073327266,1.7211028398275985,60.305955550063224
0.07,31.22218593493329,131.01038417609837,3.038741944736831,3.8204913578752526,4.8016684030909405e-05,91.4060317508128,0.0001597686613101,3.346072557365335,855.2937749779139,2.4375792548422868,0.9844712334613328,69.99999973536046,-5.939103491363046e-10,113.7000000850886,3.6383156301599167,15.288,0.0,0.0,0.007163413150771,2.709313825263564e-13,-7.906546256197275e-07,7.920022733617308e-11,5.114174483651565e-09,3.820491358176508,74.87999294483174,2.437586797285377,91.46725557277466
0.08,31.222185894468456,131.01038428575305,3.0647976109320942,3.588632851766762,7.220043782492885e-05,19.18449428359557,0.0002119618497595,3.3440615022685813,241.2171988638848,3.1292508166901074,1.2522236515868983,69.99999919480445,-9.914748373602156e-10,113.7000001418522,5.996012698481753,15.288,0.0,0.0,0.0091960591623389,6.80386533246681e-13,-1.5973238302190878e-06,1.0839624626357699e-10,1.3263625118823921e-08,3.58863285249208,70.86684630658345,3.1292621579083604,19.473766155861934
0.09,31.22218584634549,131.01038441616095,3.0957981580345013,3.551302481506045,9.685468678862004e-05,57.102946699906326,0.0002554087225869,3.341892818148368,563.0937377043176,3.701810007254615,1.479132491047967,69.99999812344194,-1.4359264356978275e-09,113.7000002093888,8.390904013834115,15.288,0.0,0.0,0.010878666406854,1.440096519545733e-12,-2.748643691533636e-06,1.5214952332699618e-10,2.6999776649034504e-08,3.5513024828250237,67.68737872952666,3.701825221153239,57.20065357568538
0.1,31.222185790329306,131.01038456796124,3.1319266121977414,3.608446747536112,0.0001234669721807,54.26147302645416,0.0002914860332524,3.3396271157106168,538.7437595981919,4.174070299823608,1.6716491241860567,69.9999963052332,-1.902380107712657e-09,113.70000028805804,10.668380938744466,15.288,0.0,0.0,0.0122665227999911,2.687800116751415e-12,-4.315796035622946e-06,2.1749089204950437e-10,4.7802076800548326e-08,3.608446749645647,65.17160335282355,4.174089693970246,54.36414778470795
0.11,31.222185727066616,131.0103847393952,3.172681775073216,3.633547373470009,0.0001485939126744,42.987553988990406,0.0003293995000288,3.337005588796181,442.8656393052949,4.672024955140527,1.8729475711242067,69.99999349387662,-2.3433348587116544e-09,113.70000037699285,13.365573690709628,15.288,0.0,0.0,0.0137298902182575,4.5789425819531184e-12,-6.340230783164189e-06,3.1157625832417107e-10,7.860218435507205e-08,3.6335473765043056,62.62546922225161,4.672048296217748,43.116880735560244
0.12,31.22218565692512,131.0103849294629,3.2177790417108385,3.650108937861461,0.0001727442530266,46.86777100765684,0.000367618259785,3.334068179146888,475.58594813540446,5.17479364099247,2.0758708919414386,69.99998941286465,-2.702771525550512e-09,113.70000047573096,16.396890189902592,15.288,0.0,0.0,0.0152074069417046,7.288473386564583e-12,-8.86736416607888e-06,4.42271554299792e-10,1.217615295152289e-07,3.6501089419435786,60.16906436414164,5.174820775596283,46.986210423745625
0.13,31.222185580265183,131.0103851371844,3.2669395832841857,3.7280113734654137,0.0001995014041665,51.64515456841877,0.0003986198234033,3.3311573548369657,515.9156326236895,5.579364582999854,2.2451120211463422,69.99998375846928,-2.9114380666036422e-09,113.70000058383452,19.060875702782603,15.288,0.0,0.0,0.0163963474924215,1.100846422415094e-11,-1.1941028436408576e-05,6.179653149059831e-10,1.7678562106638216e-07,3.728011378795934,58.279338776943774,5.579395920607139,51.75247433579817
0.14,31.22218549718016,131.01038536230575,3.320091807147376,3.768719651034081,0.0002242721760019,48.1660778383537,0.0004326225136175,3.32784677779744,486.2390860568404,6.025734265159953,2.428648685938864,69.99997621008868,-2.890941335368725e-09,113.70000070125378,22.232643351545065,15.288,0.0,0.0,0.0177081261985351,1.5941871344608664e-11,-1.560901486259027e-05,8.477542742712431e-10,2.495765160917323e-07,3.7687196576976176,56.27980129251342,6.025769493750979,48.280903250602165
0.15,31.22218540777004,131.01038560455507,3.377159065217065,3.821894709649632,0.000249725644238,46.56959330999435,0.0004643042952466,3.324387732286376,472.54218587214,6.441023336496372,2.6014999612196745,69.99996641132823,-2.546763407193136e-09,113.70000082794672,25.402620271850456,15.288,0.0,0.0,0.0189285691155931,2.2314099732464315e-11,-1.992367942778425e-05,1.1417519574710292e-09,3.4051816697623295e-07,3.821894717796148,54.501255563441134,6.441062563308839,46.68809885900716
0.16,31.22218531193176,131.01038586421257,3.4382223512025254,3.8463320955387794,0.0002733212404609,36.974247749122085,0.0004987816203583,3.3205066466509234,391.1218908297564,6.895451966878468,2.7877331692857847,69.99995397923414,-1.77088415515292e-09,113.70000096417354,29.113317717489338,15.288,0.0,0.0,0.0202640360420561,3.0367358387834494e-11,-2.4945905791363795e-05,1.5114297685186711e-09,4.5643121540033697e-07,3.846332105235269,52.641145594326446,6.895494900078523,37.12304892183151
0.17,31.222185210004127,131.010386140357,3.503019838429153,3.8860314262554336,0.000297865039677,46.520531453299206,0.0005306403365217,3.31650761597812,471.78125980632376,7.314788342774694,2.9619016331667103,69.99993849340957,-4.3039914767238207e-10,113.70000110959404,32.761746921137856,15.288,0.0,0.0,0.0214963781445172,4.0366633128431416e-11,-3.0713078585132897e-05,1.96747427715988e-09,5.961228045584824e-07,3.886031437653654,51.00464968745696,7.314835131305714,46.63860064094784
0.18,31.22218510147516,131.01038643438045,3.571950002194137,3.9107265153396016,0.0003214293682635,38.895647526122765,0.0005639254295027,3.312149448254175,407.10156721191447,7.754626295791602,3.1430587898572058,69.9999195084231,1.6149322372810674e-09,113.70000126508234,36.81988229018681,15.288,0.0,0.0,0.0227889722876034,5.2593391349219385e-11,-3.731786027786564e-05,2.525509173087448e-09,7.6786585232224e-07,3.9107265285284982,49.36615848311875,7.754676785798701,39.036415444581515
0.19,31.222184986476247,131.0103867459258,3.644912152926752,3.920599115663931,0.0003437679584038,43.86258669386953,0.0005989384366483,3.307389681300437,448.9531328318269,8.219206165926856,3.332657190859447,69.99989653019398,4.538529095696477e-09,113.70000143063515,41.36350714675367,15.288,0.0,0.0,0.02415428010977,6.735860419174937e-11,-4.481243905342629e-05,3.199401151670645e-09,9.773118416308382e-07,3.92059913071168,47.71893898797248,8.21926016487149,43.987104227715655
0.2,31.222184864792144,131.01038707557822,3.722074668489528,3.943376465171875,0.000367328732016,40.28070981710589,0.0006315894240138,3.30251450988504,418.51563019916136,8.65238089736321,3.511445117640573,69.99986902534273,8.534090245934178e-09,113.7000016067622,45.83799876721736,15.288,0.0,0.0,0.025427299120469,8.499785987217288e-11,-5.328041996372527e-05,4.006766070954748e-09,1.2232205148646746e-06,3.9433764822533854,46.2587826635041,8.652438597225508,40.41586552155969
0.21,31.22218473678744,131.01038742234647,3.803156063113743,3.9664546506877016,0.000390962054969,38.67679184347145,0.0006636984664108,3.297405915846789,404.8187610144644,9.079179692250786,3.688002035198235,69.99983642883521,1.3827831253856693e-08,113.70000179318536,50.47126980736161,15.288,0.0,0.0,0.0266815841422463,1.0586558589671407e-10,-6.275155280099118e-05,4.961340042512481e-09,1.5117124669161171e-06,3.9664546699249135,44.88773728276958,9.079241104426773,38.817098210937615
0.22,31.2221846022986,131.01038778667507,3.8882846911135607,3.956175711337521,0.0004112685792646,46.713636108302936,0.0007011135033803,3.291572407481395,472.5421858721365,9.580256326712124,3.889976788904857,69.99979815126248,2.0662823443484168e-08,113.70000199039316,56.195522894218605,15.288,0.0,0.0,0.0281541581291438,1.3033127211465288e-10,-7.330053770532661e-05,6.0817207473359025e-09,1.8632831045819008e-06,3.956175732680424,43.35679625546934,9.580320928629488,46.8294591882524
0.23,31.222184460898035,131.01038816972698,3.977794004014759,3.9879066397329104,0.0004360962274406,38.89105719050748,0.0007308686121188,3.286096544282012,406.3406421461021,9.977039034039262,4.056142701351626,69.99975353557706,2.9316661139418326e-08,113.70000219928508,60.9462612310605,15.288,0.0,0.0,0.0293202403623685,1.5880617816859538e-10,-8.505067486192354e-05,7.393319440773217e-09,2.2514912291167663e-06,3.987906663538912,42.20670487756048,9.97710753587448,39.0296395118868
0.24,31.222184313516166,131.01038856897196,4.070963590490852,4.003523997322975,0.000459165577055,40.0792299321398,0.0007630441688766,3.280134925833028,416.2328240017114,10.408422364424831,4.234121060914368,69.99970190737699,4.010976417051318e-08,113.70000241888,66.32994780718496,15.288,0.0,0.0,0.030588009649109,1.91711512587616e-10,-9.795845222523724e-05,8.904557280909524e-09,2.7052895870113487e-06,4.003524023611085,41.011349410369874,10.408494489985014,40.21323112692186
0.25,31.22218416001652,131.01038898478134,4.167901030441617,4.0261356185860135,0.0004830526730531,41.17760020658354,0.0007934613160587,3.2740610008587527,425.36408079150686,10.816813039390448,4.4041629376391525,69.99964258149416,5.3372865854010094e-08,113.70000264972064,71.63651430352668,15.288,0.0,0.0,0.0317882126436337,2.2947426169209347e-10,-0.0001121037688082,1.0637152702866709e-08,3.217380562698304e-06,4.026135647516394,39.93186687113378,10.816888917126896,41.30755663120434
0.26,31.222184000702686,131.0103894163294,4.26837241014618,4.053359329950934,0.000507503069958,44.80261175215926,0.0008224724146494,3.2678597736729302,455.8015834241788,11.207047269494833,4.567925492611352,69.99957484039399,6.947299261165984e-08,113.70000289176392,76.89781807056055,15.288,0.0,0.0,0.0329350617559806,2.7254099134167665e-10,-0.0001275114371842,1.260720913253598e-08,3.7915697709142366e-06,4.053359361668992,38.945390435244384,11.207126987890645,44.921630958721536
0.27,31.22218383516388,131.01038986473338,4.372698316214008,4.0614460923241,0.0005296455772492,41.029837477288126,0.0008548809954683,3.2610328932384265,423.84219965987256,11.645685385842508,4.748226940060522,69.99949794024376,8.879821051920497e-08,113.70000314600205,83.0342688744587,15.288,0.0,0.0,0.0342241635563461,3.2137296827284217e-10,-0.0001442952656441,1.4842505534226832e-08,4.458527942364847e-06,4.061446126801262,37.8838346421185,11.645768582375233,41.15922617924542
0.28,31.222183663504484,131.01039032970942,4.48079961904222,4.081133040992532,0.0005533279247169,47.27661484082626,0.0008845140695959,3.254218495915602,476.3468732012221,12.047344998676092,4.915789434712848,69.99941106884992,1.1178948978424788e-07,113.70000341275257,88.85982357848233,15.288,0.0,0.0,0.0354045979054623,3.764736350660473e-10,-0.0001625146963723,1.7365685655384934e-08,5.194620655212288e-06,4.081133078439725,36.956255322213885,12.047431915223257,47.38848224631549
0.29,31.22218348566054,131.0103908114315,4.592727908358551,4.1001100265020245,0.0005770279952742,37.989969791857405,0.0009138463939581,3.247164755122801,397.97031042211177,12.446314684600782,5.082367374004485,69.99931338876085,1.3891902435864665e-07,113.70000369260468,94.8417675268915,15.288,0.0,0.0,0.0365771315767517,4.3836067907166327e-10,-0.0001822432988888,2.0202163500922312e-08,6.018074062137429e-06,4.100110067036654,36.07377590258778,12.446405323946324,38.12849176886316
0.3,31.222183301933686,131.01039130907952,4.708251093558373,4.112858061667493,0.0005998635114143,35.655053282557844,0.000944131403186,3.2397207148238625,378.1859457108711,12.860033399289696,5.253940723820665,69.99920403105713,1.707002607527005e-07,113.7000039856728,101.2505662360602,15.288,0.0,0.0,0.03779301412572,5.075709863465428e-10,-0.0002035013069687,2.3370674033523645e-08,6.94335970778e-06,4.112858105337573,35.19685285507256,12.860127625629724,35.80193592228613
0.31,31.222183112488807,131.0103918222051,4.827243246502713,4.136140889545823,0.0006242383343011,37.56633644061071,0.0009716215464757,3.232339252743767,394.1656220930212,13.2364445751808,5.4126574282679245,69.99908210036875,2.0768081583188525e-07,113.7000042923011,107.26326115439352,15.288,0.0,0.0,0.0388992619788015,5.846561731689753e-10,-0.0002263323252403,2.6893437641668458e-08,7.948283231812338e-06,4.1361409365698805,34.43286455705216,13.236542630309057,37.70514091683033
0.32,31.22218291741533,131.01039235056504,4.949637017503345,4.1622282001352975,0.0006491019906456,40.83513712643371,0.0009979686925508,3.224840963348891,421.55939346242695,13.59846554462374,5.566374262777002,69.99894668612772,2.504388718903276e-07,113.70000461297312,113.2095365840355,15.288,0.0,0.0,0.0399632243410653,6.701756367872645e-10,-0.00025078340164,3.0793566854276295e-08,9.047716714467492e-06,4.16222825066026,33.72644865222576,13.598567505326,40.96227562489027
0.33,31.222182716732533,131.01039289410716,5.075419569102976,4.187801887681037,0.0006739743721461,40.48743503284469,0.0010239291638211,3.217136801802925,418.5156301991682,13.956637761217308,5.718704299733134,69.99879684673242,2.995902922462564e-07,113.70000494831164,119.25032483364384,15.288,0.0,0.0,0.0410158804634189,7.647061680070125e-10,-0.0002769136723495,3.509664608790402e-08,1.0253455741189656e-05,4.187801941818244,33.053267359159875,13.956743628864118,40.61505097607
0.34,31.222182510255863,131.01039345333336,5.204736257784645,4.19642921746386,0.0006961879027693,31.814592723444047,0.0010535137542081,3.208669900766693,345.46563688075645,14.367047160772364,5.88887983533068,69.99863160305904,3.557915789971256e-07,113.70000529927128,126.36523219087664,15.288,0.0,0.0,0.042222056531773,8.688448410811866e-10,-0.0003048202762282,3.9835373705550826e-08,1.1618525957862828e-05,4.196429275109305,32.30947868183619,14.367156517712404,31.97598901989736
0.35,31.222182298183583,131.0103940277045,5.337435501771672,4.210915783240843,0.0007193441544952,34.813487415034444,0.0010813034848195,3.200164272309822,370.5765700527033,14.754132934586384,6.050986755458457,69.99844991734221,4.1975736284587617e-07,113.70000566632532,133.26448209504355,15.288,0.0,0.0,0.0433596939127697,9.832256819293898e-10,-0.0003345386312107,4.503361101379695e-08,1.309465610343774e-05,4.210915844572415,31.63649055965014,14.75424592890194,34.96026256388454
0.36,31.222182080444604,131.0103946174141,5.4735747500461605,4.22903876037745,0.0007431682866607,39.2632255716727,0.0011077666085529,3.1915717453569297,407.8625232777193,15.124417129017054,6.2072589919251575,69.99825073022951,4.922382611919288e-07,113.70000605036684,140.03566173682628,15.288,0.0,0.0,0.0444479595865755,1.1084921261805627e-09,-0.0003661511460057,5.0723697896912267e-08,1.4691545926915382e-05,4.229038825557203,31.017264542603208,15.124533865618538,39.39272792946638
0.37,31.22218185710795,131.01039522227452,5.613102797925907,4.249164960780052,0.0007674149135003,37.28328237034959,0.001133274451316,3.1828514669894137,391.1218908297666,15.483077353331511,6.359470679857624,69.99803294268581,5.740349991123437e-07,113.70000645214331,146.75405277514704,15.288,0.0,0.0,0.0455020695186381,1.245311285088233e-09,-0.0003997125883071,5.6934243389647934e-08,1.641828325195534e-05,4.2491650299519,30.439178816713017,15.483197898584232,37.418894813348615
0.38,31.2221816281124,131.0103958424523,5.756069531572451,4.260095806433531,0.0007900626414612,38.9278000801764,0.0011607546399008,3.1735466295306622,404.8187610144602,15.87126705947922,6.521735074464384,69.99779542676283,6.659911329739736e-07,113.70000687263192,154.20298254405043,15.288,0.0,0.0,0.0466429667223463,1.3943646956867835e-09,-0.0004353006984059,6.369875435270817e-08,1.8328108041903096e-05,4.260095879559656,29.83470194713067,15.87139116222873,39.05694584372078
0.39,31.22218139339905,131.0103964781077,5.9025231349944285,4.274091258047817,0.0008133283308351,33.320076729592266,0.0011870382950339,3.164143363712209,357.64062493382744,16.24457853509073,6.678818328235205,69.9975369905506,7.690136753559805e-07,113.70000731287368,161.54010621938565,15.288,0.0,0.0,0.0477401448128051,1.5563705124515804e-09,-0.0004730068442167,7.105463478762673e-08,2.0383860516746246e-05,4.274091335289374,29.274934656826048,16.244706292406182,33.46997636540994
0.4,31.22218115316572,131.01039712870306,6.0523126585892895,4.286421841403391,0.0008363022448449,31.88018820767003,0.0012133780841982,3.1544430614236454,345.465636880754,16.62063299903514,6.836764518435374,69.99725641601981,8.840594270905819e-07,113.70000777359816,169.10340080049767,15.288,0.0,0.0,0.0488453895716005,1.7320643186450851e-09,-0.0005128553637434,7.9027539265021e-08,2.2612406375611563e-05,4.286421922834417,28.730746964325096,16.620764365084565,32.03586915718869
0.41,31.22218090752676,131.01039779392735,6.205351877049411,4.30025870409831,0.0008595777771371,35.882550741685804,0.0012389121673015,3.1445895889870297,378.94687077668647,16.987310563534386,6.99141560549392,69.9969524610574,1.0121301778427253e-06,113.70000825570062,176.64448930727934,15.288,0.0,0.0,0.0499230826371405,1.922193031274436e-09,-0.0005548883906878,8.764667734700782e-08,2.5005077415911235e-05,4.300258789847355,28.21875643368965,16.987445585695873,36.020076248499606
0.42,31.222180656535848,131.0103984736348,6.36160173428776,4.322008670726048,0.0008844838439129,40.34064925656127,0.001261804338223,3.134918999355981,416.2328240017114,17.318628721060172,7.133856886815013,69.99662385300175,1.154276942054023e-06,113.70000876021427,183.59942989625057,15.288,0.0,0.0,0.0508968652507098,2.1275184665783874e-09,-0.0005991661829955,9.694534598491077e-08,2.752657757470936e-05,4.322008761057615,27.772396468009568,17.318767655457478,40.462275036947325
0.43,31.222180400205527,131.0103991677914,6.521055075967404,4.339436441324956,0.0009085827200945,35.541853595187746,0.0012854696362701,3.124839917627212,375.9031395134336,17.662848429084132,7.280642039343927,69.99626930133451,1.3115939750280808e-06,113.70000928827632,190.96736675963504,15.288,0.0,0.0,0.0519085689713619,2.3488101247838237e-09,-0.0006457514522491,1.0695800287133593e-07,3.0255957891170616e-05,4.339436536261635,27.322335771349252,17.662991148924057,35.67895714766603
0.44,31.22218013836212,131.0103998768696,6.683849332059896,4.342209064313268,0.0009296474314902,32.82948243168077,0.0013129688908547,3.113754688841357,353.0750125389216,18.063580761318697,7.446730341918701,69.99588746395321,1.4852372182848018e-06,113.7000098413532,199.7278270846888,15.288,0.0,0.0,0.0530863610987301,2.586862292117705e-09,-0.0006947575786514,1.1773083546077225e-07,3.329010177793299e-05,4.342209163639375,26.81344244367223,18.06372678999575,32.9768158972058
0.45,31.22217987077456,131.0104006014978,6.850166573233225,4.3420317510315165,0.0009500780330031,38.11022602597878,0.001341042003417,3.1022288449712887,397.2093853562869,18.47486275310604,7.616350301328129,69.99547690348253,1.6764536248320808e-06,113.70001042108892,208.92306716049887,15.288,0.0,0.0,0.0542951637545535,2.842521175226318e-09,-0.0007463379956615,1.2932090054593452e-07,3.657529369088674e-05,4.342031854775571,26.30944884471334,18.47501199101448,38.23628058998621
0.46,31.22217959739673,131.01040134180155,7.020045503401754,4.351169003849846,0.0009725797783515,44.3937050866137,0.0013660055515545,3.09098240974522,449.7140588976434,18.844323061800488,7.771531995684422,69.99503610583268,1.8865779683531e-06,113.70001102895836,217.3591612614144,15.288,0.0,0.0,0.0553810645782081,3.1166808800591503e-09,-0.000800596194505,1.417768495237597e-07,4.001824400409673e-05,4.351169112337076,25.873596578896564,18.844475834274814,44.50118229261506
0.47,31.22217931813738,131.01040209802923,7.193559875579052,4.358630093683735,0.0009947969928181,30.22514089990685,0.0013910994973101,3.079396422776949,331.0078106302534,19.2180591098146,7.9280875671397615,69.99456352718363,2.1170044481277104e-06,113.70001166656292,226.0625808853568,15.288,0.0,0.0,0.0564795377574197,3.4102493884459798e-09,-0.0008576351980594,1.551487523304888e-07,4.3718862242359527e-05,4.35863020698899,25.44665981168229,19.218215372160817,30.381603425148434
0.48,31.22217903348153,131.01040286886197,7.370336324605091,4.365514409145237,0.001016880998596,29.779838936311712,0.001416009414045,3.067527859335786,327.2031223011574,19.5915905767454,8.084483592791102,69.99405758812365,2.369198154608765e-06,113.70001233476164,234.93171707892955,15.288,0.0,0.0,0.057577416115756,3.7241711041759195e-09,-0.0009173883913609,1.6944871263079066e-07,4.767297940601472e-05,4.365514527349481,25.03354780044292,19.59175030803913,29.937410312943754
0.49,31.22217874361868,131.01040365378466,7.5502307795521535,4.3786401372577615,0.0010404145545081,37.2489281064929,0.0014385799934191,3.0558405437943126,389.60000969812296,19.93403005898306,8.23012235628909,69.99351671352461,2.644660619562788e-06,113.700013034871,243.21198709852868,15.288,0.0,0.0,0.0585839249886784,4.059374595909599e-09,-0.0009798792959512,1.8470833984680338e-07,5.180951737438081e-05,4.378640260624215,24.667474291142685,19.934193486919103,37.37406598941686
0.5,31.22217844858332,131.0104044527036,7.733219389747018,19.950189831997616,-16.415077416593586,39.240352696189206,1.5634972284580904,1.6184269906213355,397.97031042210494,25.08228119024737,8.365996061088087,69.99293932307316,2.9449363413826395e-06,113.70001376847225,385.0536036265703,15.288,0.0,10.020627911594472,0.0737142217962531,4.416566661548473e-09,-0.0010631047813644,4.472187932587112e-05,7.072571217750569e-05,25.620842123848597,19.168424842511183,22.538936170564103,39.30482297668686
0.51,31.222178148140515,131.01040526454432,7.919330465193342,19.754284065039176,-16.213008654297752,30.335456027869004,1.596373121370952,1.5735417272911472,323.3984349720841,25.42432329101904,8.50092130508163,69.99222627766977,-0.0001892671119952,113.6998096315818,395.61993859497227,15.288,0.0,10.060408485618886,0.0747196049121638,4.786618745301636e-09,-0.0014711768523171,-0.0003276307841646,9.920664206105408e-05,25.348365344408027,19.003426737512903,22.91144114243149,30.418157950949887
0.52,31.222177841644896,131.01040608851525,8.108626876821337,19.55666000766514,-16.013841533414222,36.17812703521896,1.6306172532443428,1.5272293041018203,372.0984511843415,25.775269790074944,8.638878629913853,69.99127661290123,-0.0009731502120644,113.69897582402386,406.6098660084369,15.288,0.0,10.100077422414683,0.0757511641845034,5.0917687945871635e-09,-0.0018903122888812,-0.0007082875579016,0.0001292276206393,25.07624079675628,18.835475269734623,23.29244366285812,36.24704426226125
0.53,31.22217752896361,131.01040692497426,8.30122226720455,19.36630013479392,-15.821111115763587,37.92497713204558,1.6650569959173305,1.4805251596372029,386.5562464348624,26.12320536580765,8.77526851730324,69.99008381082237,-0.0023620237341304,113.69749816210164,417.65373579976807,15.288,0.0,10.139639108079596,0.076773881872458,5.331486098835032e-09,-0.002320995913918,-0.0010976156150348,0.0001608093807925,24.81345739320717,18.673076550637305,23.66949247245424,37.99037062222679
0.54,31.2221772099882,131.01040777414846,8.497195153958307,19.181584242179497,-15.633595856459069,33.475993354492246,1.6998060058556248,1.4332868856214716,349.2703242098436,26.46963427278056,8.910659467504141,69.98864116765998,-0.0043694953951801,113.69536215185909,428.7964195161916,15.288,0.0,10.17912116825695,0.0777921789876891,5.505246794801468e-09,-0.002763611509026,-0.001495887942081,0.0001940114225952,24.558050887463157,18.514894594009657,24.044273478223342,33.549750860834216
0.55,31.22217688498391,131.0104086352499,8.696334355159363,19.006579077577108,-15.454290335881131,35.40502263252357,1.734473484534795,1.3860028683601455,365.2500005919907,26.808987774345404,9.042994379164163,69.98694190473663,-0.0070091974417974,113.69255326912304,439.85324229697295,15.288,0.0,10.218476414367014,0.0787896893125728,5.6125748109185075e-09,-0.0032177988037991,-0.0019027600622091,0.0002287880648075,24.314966975571966,18.36456029416808,24.41076207611756,35.4745687758028
0.56,31.22217655394229,131.010409508237,8.89864127338742,18.84401815080723,-15.285203239466853,33.14027770058904,1.7687415659446937,1.3390725063722584,346.2265619465787,27.136955822360783,9.170677785708945,69.98497929696582,-0.01029449369056,113.68905727195384,450.672214354727,15.288,0.0,10.257703165593709,0.0797537458644053,5.653030943916451e-09,-0.0036837578869013,-0.0023183514417344,0.0002651171558422,24.087540548156607,18.22456894389646,24.7643403434328,33.214448181124155
0.57,31.2221762169258,131.01041039287705,9.104062510099928,18.67872331075332,-15.11499217222856,32.78952419470316,1.803941441145382,1.2908134408267584,343.1828296833023,27.472549523327068,9.300859288204082,69.9827465809935,-0.0142386802580114,113.6848599862751,461.87865352399297,15.288,0.0,10.296783380694794,0.0807402210023022,5.626216264997449e-09,-0.0041615056339819,-0.0027426301577892,0.0003031981248573,23.857265526168234,18.081665418907207,25.125735371667357,32.86446867023906
0.58,31.222175873903986,131.01041128919036,9.312616856650273,18.501131051738064,-14.936526913049702,42.74981043872914,1.8410488956626625,1.23998759204555,426.1250058573153,27.829052984758743,9.438491922221525,69.98023686354489,-0.0188550964387834,113.67994719066904,473.9342763492008,15.288,0.0,10.335713434744395,0.081788156312645,5.531757419910752e-09,-0.0046512571673209,-0.0031757269665081,0.0003432710211024,23.61246605956928,17.92739385541357,25.509313604684294,42.80739799160798
0.59,31.22217552447136,131.01041219821536,9.52461384000248,18.346740294939792,-14.776226828934885,34.91670509018202,1.8766563776052072,1.1909031601948925,360.68438819711065,28.15854503655436,9.565636963953736,69.97744295142964,-0.0241578677076671,113.67430381435662,485.2134656750703,15.288,0.0,10.37453892263659,0.0827567144372437,5.369210928720692e-09,-0.005154106066329,-0.0036184904046588,0.0003848779969615,23.396436139319988,17.793117134788588,25.86314380311576,34.98737463502101
0.6,31.22217516882708,131.01041311934603,9.739894051041214,18.16816465933864,-14.598815490271976,31.187498217786345,1.9154430749259148,1.137632042279881,329.4859594986058,28.526111574054465,9.706602438841887,69.9743573764389,-0.0301611908056726,113.66791471627212,497.953281204682,15.288,0.0,10.413234575395032,0.0838371797920833,5.1382158874766415e-09,-0.005669776619145,-0.0040706459431308,0.0004289029847951,23.15136318978024,17.636928028651038,26.257667404596493,31.266966177122622
0.61,31.222174806914303,131.010414052673,9.958496772228024,17.989095858181926,-14.42191104056714,36.3157727920601,1.9551618846588792,1.0830142116709331,372.0984511843297,28.89988557714599,9.84947322995435,69.97097262757309,-0.0368795462989141,113.66076443679204,511.0772809001001,15.288,0.0,10.451806359446032,0.0849358971337317,4.838384384975465e-09,-0.0061985874657464,-0.0045324034582742,0.0004750401134673,22.906132641111167,17.479761694324555,26.65834310799423,36.38448750858581
0.62,31.22217443883586,131.01041499785163,10.180337405943948,17.85542384883219,-14.279561450641165,44.82733265121784,1.9908046121398328,1.0334088904230514,442.86563930529206,29.21169679398069,9.968944085760736,69.96728085057025,-0.0443276177998968,113.6528373059036,522.1540440289886,15.288,0.0,10.490255987722833,0.0858525158112111,4.4693705264464126e-09,-0.0067405904305344,-0.0050037528138366,0.000522139921089,22.71675647514999,17.362620479289248,26.991816826303435,44.8834155291402
0.63,31.22217406440353,131.010415955335,10.40555771916258,17.71152632581884,-14.130411248604398,26.015681876995224,2.028185587261765,0.9814296234094118,286.11251274707894,29.541632547832748,10.094806117601555,69.96327449518219,-0.0525194943993684,113.64411827201168,534.00419515302,15.288,0.0,10.5285446335464,0.0868224101250388,4.030884656901256e-09,-0.0072963082817719,-0.0054850690250418,0.0005715581875336,22.51533652117029,17.23602549594547,27.344464684074644,26.11307037495016
0.64,31.22217368417943,131.01041692353192,10.633717270838345,17.549884214078443,-13.96890226787878,25.568990918659203,2.068319353674045,0.9257805316293498,282.30782441796754,29.90259640501113,10.231841641573313,69.95894586067793,-0.0614692910776431,113.6345922517144,547.1217356335288,15.288,0.0,10.566691686547609,0.0878835036391453,3.522700726411029e-09,-0.0078645843874635,-0.0059753619532605,0.0006235882796303,22.29268490360015,17.093160917804095,27.7300393853804,25.66920939842136
0.65,31.22217329813657,131.01041790245876,10.864833109302271,17.421518188472746,-13.832782868666516,44.14531683221532,2.105289907451943,0.873988104539474,436.7781447787475,30.21528639561997,10.350702750747006,69.95428730881046,-0.0711906808898,113.62424462924136,558.6116152075945,15.288,0.0,10.604601408277247,0.0888027286857975,2.944632066298664e-09,-0.0084457310084544,-0.0064748334947682,0.0006766554590775,22.11106001506672,16.979837410136295,28.06348475275519,44.204129886448044
0.66,31.2221729057738,131.01041889342704,11.09929060931656,17.288088434704957,-13.693664747654765,37.75704201025174,2.143497379372196,0.8204530070795726,383.51251517160017,30.538698190732173,10.4731962217248,69.94929120810282,-0.0816974016391289,113.6130607043471,570.6210566604532,15.288,0.0,10.642397577924228,0.0897534733765182,2.296494284172937e-09,-0.0090410852275752,-0.0069845133037892,0.0007320907759009,21.92367443298077,16.86168622516955,28.408121715697582,37.826735855954
0.67,31.22217250726304,131.0104198959097,11.336952413315096,17.139309982464688,-13.543948399444735,26.42256796788412,2.184302845043812,0.7634269869909531,289.1562440103425,30.890346983129223,10.605789514817417,69.94394927508212,-0.093004002707921,113.60102491704744,583.8246337782267,15.288,0.0,10.680060827033971,0.0907872153553025,1.5781178440076003e-09,-0.0096504105309753,-0.0075041571780358,0.0007904101628546,21.71796210792295,16.72939311864521,28.782626670162493,26.52368936820043
0.68,31.22217210275989,131.0104209094254,11.577694010408235,16.997786813371544,-13.400297142687364,32.65764460786255,2.2249403984950726,0.7064332016710856,340.8999924858462,31.233572225198525,10.734968775315508,69.93825335525385,-0.1051249087215008,113.588121819739,596.8567614432853,15.288,0.0,10.717492446764693,0.0917962090544673,7.893483907616694e-10,-0.0102735561107323,-0.0080335893751198,0.0008507782043631,21.52149056591279,16.60335721361797,29.147795689402606,32.74097064808453
0.69,31.222171692333607,131.01042193373044,11.821458209013352,16.8751458363333,-13.271274480703848,39.90363712625525,2.2638045038306265,0.65153729874119,401.0140726853634,31.54791240806877,10.853199291143213,69.93219517988932,-0.118074171831106,113.57433636530394,608.9167053240539,15.288,0.0,10.754788379418548,0.0927203172927973,-6.989033007184981e-11,-0.0109105166427594,-0.0085727517240596,0.0009125983444962,21.348461590449244,16.49416420839472,29.48185620529205,39.97311055681145
0.7,31.222171275843497,131.01042296915773,12.068351215604892,16.75316043584009,-13.14339895921218,33.68795177275789,2.303185471408081,0.5958025994662906,349.27032420985284,31.863354502166032,10.97154631751022,69.92576657149205,-0.1318655658738434,113.55965378917784,621.1397606235225,15.288,0.0,10.791912068102029,0.0936476724813255,-9.996313110801623e-10,-0.0115618195018343,-0.0091220130850633,0.0009767223327781,21.176610240130955,16.38536045964317,29.81685363671041,33.77184831626628
0.71,31.222170853333697,131.01042401553525,12.318335746361267,16.62178590009641,-13.009265792344657,27.92649637423872,2.344504238474431,0.537396802616391,301.33126406340574,32.19771548416914,11.096571464526544,69.91895920720701,-0.1465131061299683,113.54405905455548,634.2289043711418,15.288,0.0,10.828823842726372,0.0946306396599541,-1.999902088426857e-09,-0.0122275118643602,-0.0096813560278127,0.0010437732515957,20.99366475355557,16.267811491771944,30.17173785782813,28.029889318155636
0.72,31.222170424798023,131.01042507282827,12.571413646304547,16.47910734158588,-12.8675057567336,33.894102766992695,2.3881973594304613,0.4757550320804416,350.79220534145287,32.55570517454453,11.229971648092317,69.91176439463015,-0.1620309433894053,113.52753698375622,648.3948740771588,15.288,0.0,10.865599093076604,0.0956830618332775,-3.0706849765959324e-09,-0.0129078323359588,-0.0102509156535632,0.0011140710260485,20.797298321382847,16.139712494903044,30.551429813598,33.981466005127004
0.73,31.22216999022513,131.0104261410155,12.82759074395416,16.36842772581597,-12.74987036426585,42.52404138760476,2.42793498273154,0.4190213014840052,422.320318528234,32.857987941624835,11.342630346155236,69.90417329468707,-0.1784336651066359,113.51007191129244,660.4753397317675,15.288,0.0,10.90221266471796,0.0965717671229739,-4.2119811611963476e-09,-0.0136030762464942,-0.0108308689741971,0.0011849495799362,20.640337368914267,16.040618872744997,30.87173088746229,42.59535823380514
0.74,31.22216954954576,131.0104272202394,13.086918483367922,16.24906143900174,-12.626462833899346,27.12823572146665,2.469536289189575,0.3596965878658628,294.48281347105944,33.178145373659866,11.46157964674556,69.89617710513467,-0.1957351177075926,113.4916489623847,673.3921837434383,15.288,0.0,10.938613315513328,0.0975130159733933,-5.423681980443829e-09,-0.0143135274202542,-0.0114213845545143,0.0012589536395051,20.473118889580416,15.933432204413174,31.21079974694421,27.242781878479402
0.75,31.222169103104225,131.010428309508,13.349126637201149,16.124701078141776,-12.500008787367843,31.448804403997872,2.512589595606124,0.2983108609428936,330.24688556441487,33.510181774254995,11.584624501549726,69.88776706405334,-0.2139491453602354,113.47225324075436,686.9205219939636,15.288,0.0,10.97484248209958,0.0984891867998366,-6.7056894066360234e-09,-0.0150384090063943,-0.012021790252793,0.0013359146053534,20.300152326209343,15.8214935253886,31.562223901214598,31.550426214024757
0.76,31.22216865078488,131.01042940909335,13.614303050495977,16.01210987845588,-12.382753578981248,33.75261832860631,2.5544477894405104,0.2382815288354595,349.27032420986166,33.82174551201667,11.699907729282948,69.87893423488465,-0.2330892764787602,113.45187018835315,699.7354863573107,15.288,0.0,11.01091497458869,0.0994051957098763,-8.057806053960673e-09,-0.0157782794050282,-0.0126324702787711,0.0014146357272856,20.141877996816856,15.720195407684848,31.89177352027219,33.849981176250786
0.77,31.222168192524308,131.0104305191257,13.882495124061188,15.903081109992492,-12.268647397354336,31.65091155082371,2.596294262138689,0.1780723813166827,331.7687666960708,34.12780321034197,11.812934840878295,69.8696696612078,-0.2531690648145039,113.43048519859012,712.4384445228048,15.288,0.0,11.046753994548007,0.100305030713953,-9.479820301681516e-09,-0.016533509733405,-0.0132536593074376,0.0014957229805438,19.988262938894373,15.622054336416856,32.215341828758575,31.757718048793553
0.78,31.2221677283788,131.01043163940787,14.15365730664774,15.786005390312242,-12.149236954599507,26.241795483179203,2.6400746597413063,0.1151625673829023,286.8734378128899,34.45173394082611,11.932252582754456,69.8599642227636,-0.274201928553479,113.40808380204172,726.0082219025549,15.288,0.0,11.082414549202092,0.1012574053476246,-1.0971479577763678e-08,-0.0173040690988976,-0.0138852743351659,0.0015802499782655,19.825159156108807,15.516374267248825,32.55760527664694,26.374515859195192
0.79,31.22216725842768,131.01043276967937,14.427726162336327,15.6649372070411,-12.027487091745904,36.72134404237973,2.6852377827658533,0.0502606826589148,373.6203323159534,34.78608985996436,12.055134966322132,69.84980865783182,-0.2962012876748602,113.38465151336528,740.1490194445987,15.288,0.0,11.117906015959852,0.1022404300232837,-1.2532503543209158e-08,-0.0180899212600524,-0.014527228558304,0.0016680049230572,19.65750928082803,15.406867103994584,32.910661547101185,36.819426073270506
0.8,31.22216678244788,131.0104339105133,14.704873943758672,15.56233508395127,-11.919707860129517,37.19078257087217,2.7278281227414296,-0.0114925595435827,377.42502064505743,35.0840060680008,12.16444832664288,69.83919341971776,-0.3191808173959111,113.3601735625226,752.860886780572,15.288,0.0,11.153254533168203,0.1031163634118909,-1.4162552404317104e-08,-0.0188920197627258,-0.0151802070311936,0.0017568352900809,19.51267526623544,15.31430264951942,33.22513933565452,37.29068900650715
0.81,31.22216630053337,131.0104350616117,14.985026182711968,15.449552129269454,-11.80504837118988,24.69972911887836,2.772801395385508,-0.0765526429721321,273.9374926939919,35.40466271040372,12.281839038110888,69.8281089360607,-0.3431538841624745,113.33463549409836,766.6649665604494,15.288,0.0,11.18837454778068,0.1040591430495614,-1.586127660745969e-08,-0.0197101841165577,-0.0158440082876096,0.0018496218023019,19.355731415195084,15.212229234536895,33.56342201276305,24.854997614792993
0.82,31.22216581286227,131.01043622244407,15.268042843209212,15.333243486124672,-11.68835904143199,31.325742709157364,2.819111547490716,-0.1435608644680603,328.72500443277005,35.73484618134935,12.402482486513932,69.81654555167296,-0.368133657430187,113.30802304807416,781.0102356071336,15.288,0.0,11.223304769652971,0.1050299327824486,-1.7628292870065657e-08,-0.0205440571906961,-0.0165182931590887,0.0019457996543977,19.19479154404533,15.10677702583804,33.91155112600806,31.45266532297904
0.83,31.22216531941216,131.01043739303475,15.55394039587804,15.238513163888063,-11.587785777006808,39.427018553826194,2.861977079766832,-0.2062747872844677,395.68750322465047,36.01935132550115,12.50624383572223,69.80449347380669,-0.3941332146579502,113.2803220478532,793.474075336436,15.288,0.0,11.258069604462348,0.1058664764539189,-1.946314240931925e-08,-0.0213939784998058,-0.0172032637321895,0.002042375102494,19.060415012553744,15.02127046835592,34.211529494913684,39.53129461751455
0.84,31.222164820074084,131.01043857365286,15.842803411161004,15.140423718809116,-11.485262115470055,24.90047451152129,2.905990118434429,-0.2706888171186682,275.4593748256452,36.31197322071903,12.61274645418922,69.7919430043277,-0.4211650473546733,113.25151892588178,806.3964703104365,15.288,0.0,11.292670955711678,0.1067268855652913,-2.1365285652026145e-08,-0.0222604133681392,-0.0178992191096293,0.0021422940986256,18.922229486204547,14.932588247741435,34.51993041704735,25.070933008228334
0.85,31.22216431513183,131.01043976347916,16.13440986816124,15.026476726268504,-11.371783936408285,27.022160137444928,2.9537530308870754,-0.3402206527121411,292.96093233939376,36.64166674482644,12.732565605531205,69.77888438959043,-0.4492413626419035,113.22160040121992,821.0832595628781,15.288,0.0,11.3270811462061,0.1076962636140691,-2.3334212171399093e-08,-0.0231425718640017,-0.0186054873522977,0.0022473499065535,18.76502629396685,14.82907203958878,34.86709562436834,27.185244997125267
0.86,31.222163804409767,131.0104409629682,16.428896550778408,14.925700610100064,-11.26825662549273,33.47148969743591,2.99947259621426,-0.4072934044888644,346.2265619465587,36.942536882076325,12.841685622683352,69.7653075178144,-0.4783747003558426,113.19055282258816,834.5990867464027,15.288,0.0,11.36126444867168,0.1085809343203784,-2.5369285674133272e-08,-0.0240413394217346,-0.0193226886399634,0.002353731651645,18.624111279133952,14.737771086300468,35.183911431983866,33.6080845383717
0.87,31.222163287927003,131.01044217203713,16.72624847765342,14.831441942441748,-11.169867187039785,31.268434946601328,3.044382649703909,-0.4735134951458072,327.964078366998,37.22896642559307,12.945348204320153,69.7512022574128,-0.5085772173970476,113.1583629294138,847.5669824456835,15.288,0.0,11.395273612528744,0.1094231707331003,-2.7469860358491123e-08,-0.0249568351262874,-0.0200508505236914,0.0024622358981023,18.491385610373985,14.652513819546911,35.485500613310464,31.419858445857816
0.88,31.222162765714334,131.0104433905728,17.026441771827756,14.72968142081827,-11.066539307648656,27.22162769700106,3.0914327194715785,-0.5427596409611837,294.4828134710418,37.533867704045136,13.055546525181969,69.73655843060077,-0.5398607336727493,113.12501780264402,861.4819621941534,15.288,0.0,11.429107235144716,0.1103197085379196,-2.9635247368965176e-08,-0.025889052321194,-0.0207899043452804,0.0025750526957938,18.349800680747062,14.560207287152249,35.80632796812321,27.401980927681326
0.89,31.222162237847467,131.0104446183368,17.329417460174266,14.620712062800283,-10.958500750478231,29.71379064753985,3.14067986926053,-0.6151200900578344,315.028134248087,37.85739099223518,13.172339967500648,69.7213657099256,-0.5722369320477,113.09050465102943,876.3715586382475,15.288,0.0,11.462762254857733,0.1112709899887346,-3.186471672698125e-08,-0.026837968620471,-0.0215397690002375,0.0026923674596502,18.199716625589332,14.461102329297749,36.14650940397007,29.885641994312213
0.9,31.22216170424895,131.0104458555186,17.635236548554108,14.5325425455361,-10.865778138690752,32.66804413772711,3.1858888527569897,-0.6823762910748064,339.37814235421445,38.13094688792082,13.270762237468109,69.70561344691079,-0.6057176920347954,113.05481045501976,889.0564520536824,15.288,0.0,11.496250855129032,0.1120754161572805,-3.4157457954782926e-08,-0.0278041148893498,-0.0223007834550133,0.0028093634012882,18.075152402682708,14.381464732868992,36.43436677969416,32.83011777269812
0.91,31.22216116498468,131.0104471019121,17.94384832412109,14.436967349252456,-10.76817635400578,25.20609103894641,3.233267481051108,-0.7527149075456966,277.7421810230789,38.42309493259109,13.375777984360123,69.68929122592137,-0.6403139560342188,113.01792317444064,902.7052605089492,15.288,0.0,11.529562956810066,0.1129344981271837,-3.6512634931033496e-08,-0.0287873839974078,-0.023072800957836,0.0029309130080468,17.941836556797693,14.29487047197468,36.74157366450528,25.423761008153743
0.92,31.222160620248022,131.01044835695288,18.255102042803884,14.334330730470636,-10.665955834769528,29.727649059349904,3.2828605418418646,-0.826209156143178,315.02813424806214,38.733807863832816,13.487397136024226,69.67238848626086,-0.6760364851390473,112.9798309423176,917.3365357595512,15.288,0.0,11.562682212916576,0.1138481562261261,-3.892941444515047e-08,-0.0297872035562702,-0.023855321830147,0.0030571400057287,17.80018991352907,14.201621826828474,37.06806328440744,29.919774623194346
0.93,31.22216006994815,131.01044962087516,18.569070034710048,14.250314686196743,-10.577377140458802,35.081772160602725,3.3285265475192114,-0.8947343528600012,359.1625070654728,38.997205943898265,13.581652749960128,69.65489453379904,-0.712895825246904,112.94052210100476,929.8270818803668,15.288,0.0,11.595585014665726,0.1146227538201153,-4.140678337898952e-08,-0.0308042207112988,-0.0246487699683947,0.0031829222020928,17.68136475117789,14.125900227426984,37.34513686703148,35.2506790922979
0.94,31.22215951397653,131.0104508939692,18.885839141134,14.150650975020316,-10.478071987805324,25.85988917395184,3.378486194418665,-0.9691797815139246,283.0687504837787,39.30131490288085,13.690559700326135,69.63679873959668,-0.7509018998034676,112.89998563558872,944.356895869864,15.288,0.0,11.628314424789748,0.1155170206554718,-4.394368575713108e-08,-0.0318388828301972,-0.0254534175303384,0.00331538519561,17.543790048766894,14.03544741893752,37.66458206005035,26.097650210389524
0.95,31.22215895261162,131.01045217543108,19.20519195030161,14.053926324263657,-10.381248271118574,33.06113149796909,3.428292690630448,-1.0436587156177712,342.4218736174873,39.59840317233248,13.796779652613,69.61809008714934,-0.7900648940861813,112.85821022958238,958.6587043868876,15.288,0.0,11.66085742950624,0.1163906615301301,-4.6539173729988257e-08,-0.0328904038322413,-0.0262686040066825,0.0034506638222368,17.41000825788368,13.947765674695477,37.97662807624735,33.25478657597007
0.96,31.222158385567564,131.01045346605423,19.527355028485328,13.966658707894302,-10.291503469313984,32.41881469899616,3.47620792009691,-1.1158562824153808,337.09533515678345,39.87037206880391,13.893707059842482,69.59875753710685,-0.8303945234471055,112.81518504612026,971.8423327296048,15.288,0.0,11.693238387399475,0.1171904793664268,-4.919198443113557e-08,-0.0339601171374164,-0.0270952639520507,0.0035872513006773,17.287912224611482,13.869035689263972,38.262465274822304,32.623744469858146
0.97,31.222157812862378,131.01045476577565,19.85231628599363,13.875615538126247,-10.199458900213289,21.248090475073592,3.525577507290585,-1.1902247335313505,245.02188719299323,40.15244209208386,13.9941615235329,69.57878978715604,-0.871900488349087,112.77089924064522,985.6111540822023,15.288,0.0,11.725453946312944,0.118019996967638,-5.190096300986929e-08,-0.0350481279348975,-0.0279334057612169,0.0037282546546023,17.161459337243567,13.786768710704036,38.55876308172817,21.57145522474402
0.98,31.22215723477319,131.01045607379663,20.179859590825245,13.770084491499825,-10.097572118674492,30.300490917400776,3.579391799442021,-1.2707675697339331,319.5937466429581,40.47498827890941,14.109227283111704,69.5581755044702,-0.914592005464614,112.72534246058456,1001.4781572737224,15.288,0.0,11.757482785136236,0.1189684960671125,-5.4665042556502883e-08,-0.0361534338873341,-0.0287822105760979,0.0038766036574611,17.01768097141692,13.690802306068392,38.89706320617201,30.5376267202559
0.99,31.22215665115569,131.01045739051497,20.510100757065185,13.690674639610576,-10.014448388033449,32.98219565278115,3.6266010020320087,-1.3427354793263997,341.6609485517054,40.72474147616875,14.197677140007237,69.53690306593633,-0.9584783040931792,112.67850431602712,1013.8434858852816,15.288,0.0,11.789348126645704,0.1197030439456573,-5.748283218114081e-08,-0.0372770071195406,-0.0296423325260665,0.0040216170518019,16.905735419592716,13.619632238492471,39.15967285892174,33.20813760923243
1.0,31.22215606200876,131.01045871593018,20.843043654968103,13.597187781079308,-9.921770924021612,29.65724341101658,3.67816509474689,-1.4207692811316115,314.2672081822764,41.01392153807947,14.300353271927166,69.51496120702338,-1.0035673583432323,112.63037573143444,1028.260013379415,15.288,0.0,11.82104041152065,0.1205534895762317,-6.035299654428353e-08,-0.038418849365852,-0.0305137027223685,0.00417410243664,16.77695976185167,13.535159899761291,39.46319090126293,29.91821469531075
1.01,31.22215546750517,131.01046004954097,21.17855453290592,13.506752440993656,-9.831584625328672,30.952639486248763,3.729356227331596,-1.4985558290695535,324.9203161036979,41.29437289664536,14.399750582397932,69.49233821337842,-1.0498674382497004,112.5809472896307,1042.3368940397716,15.288,0.0,11.852555070678354,0.1213782884715245,-6.327422198939067e-08,-0.0395785116076434,-0.0313959156117678,0.0043293609036666,16.652078818940502,13.453636375246848,39.757598731623474,31.212492028174577
1.02,31.22215486757196,131.01046139155292,21.51669413961084,13.42064132418218,-9.744764302946862,26.05236850397836,3.7797349391427058,-1.575504280197937,284.59063161540416,41.56190316033924,14.494338509068214,69.46902247502267,-1.0973860339278687,112.5302103801596,1055.8521457134918,15.288,0.0,11.88389931113998,0.1221651175758593,-6.624498140453267e-08,-0.0407564832939556,-0.0322892620938276,0.0044869526053615,16.532623658191724,13.376291131443736,40.03856817442468,26.372229989407074
1.03,31.22215426227515,131.01046274177628,21.85741363548928,13.325256444566644,-9.651797282108449,21.518833881392176,3.83334769257136,-1.6570542350157895,247.30469339049705,41.85667524950476,14.598755180631883,69.4450023780997,-1.1461300559550829,112.4781569844628,1070.8471841793407,15.288,0.0,11.91506742376948,0.1230320299236458,-6.926378427565103e-08,-0.0419526089638514,-0.0331935552327072,0.0046512409978504,16.402159261779996,13.290179283026264,40.34773478585373,21.920323786041067
1.04,31.222153651673835,131.01046410003855,22.200669503626347,13.239764387625923,-9.566065820136483,33.452904715942736,3.8844478994370495,-1.7354857212609316,345.46563688072297,42.1216142159673,14.692221170772465,69.42026591472329,-1.1961065617832671,112.42477889978028,1084.410553684264,15.288,0.0,11.946063476436755,0.1238112617208965,-7.232906077866478e-08,-0.0431669141907453,-0.0341087406587931,0.0048160039156267,16.283837739581426,13.21357285728959,40.625951480683234,33.72236172195069
1.05,31.222153035499595,131.01046546711936,22.54667838210188,13.146938113199312,-9.475554300008872,20.6807780758886,3.9382660810887327,-1.8178412942103888,240.45625879819983,42.408413130237854,14.793548976141082,69.39480113906491,-1.247321883420482,112.37006867055092,1099.191429710454,15.288,0.0,11.976903696386268,0.1246547582839541,-7.543895630856268e-08,-0.0444007554955448,-0.0350357409470017,0.0049872227886803,16.15685408773437,13.13004946309137,40.92677207193898,21.13076119122416
1.06,31.22215241397816,131.01046684236832,22.89526506325413,13.048058937505552,-9.381171870160289,28.916969123630647,3.9945805282711633,-1.903839200562026,308.17968365593924,42.714069998414,14.901679075710009,69.3685956039244,-1.2997826647670916,112.31401847847413,1115.0559471512854,15.288,0.0,12.007575255245552,0.1255536961380547,-7.859194456816936e-08,-0.0456532924472141,-0.0359738630232383,0.0051646976820188,16.02276058119627,13.040814997246924,41.24705422022945,29.253587482485766
1.07,31.222151787001486,131.01046822610138,23.24651913998164,12.964937984752936,-9.298048893017375,33.823738750413426,4.046260879543789,-1.983850176923319,348.5093681440308,42.97010139609692,14.991630552550804,69.34163656969382,-1.3534954520911426,112.25662058020032,1128.4253983936155,15.288,0.0,12.038094929289302,0.1263067752343882,-8.17861369633148e-08,-0.0469253889479432,-0.0369236609737327,0.0053402483330715,15.907863883827426,12.966755494084746,41.51596945772896,34.122619941704706
1.08,31.222151154477388,131.01046961859768,23.60051852087595,12.879030793577336,-9.213299009852925,23.170536440973688,4.099251647844752,-2.065902402476222,261.00157857466235,43.234000489376605,15.084360783442897,69.31391146366114,-1.4084658314191856,112.19786822796988,1142.289473382595,15.288,0.0,12.068464373466568,0.1270829907200439,-8.501963347773208e-08,-0.0482175649026456,-0.0378854342487622,0.0055208140952481,15.789787079176428,12.890144448413944,41.793007707736,23.62087161328736
1.09,31.222150516667288,131.0104710191043,23.957059810084854,12.777447341833597,-9.118030914191518,21.405597672908364,4.158061101796906,-2.1561231063089714,246.54375332474407,43.54821816967145,15.195405445398748,69.28540755094573,-1.4646990281069394,112.13775502803432,1158.9140683702367,15.288,0.0,12.098666139954064,0.1280071242554149,-8.829077995812915e-08,-0.0495286876026123,-0.038858279845941,0.0057119548144935,15.653003233602812,12.798596989533143,42.121998993275206,21.912050353863645
1.1,31.22214987364491,131.01047242741348,24.316088734269727,12.6847027337943,-9.029185137835231,41.69896994095508,4.214387850302143,-2.243269516793025,413.1890617385841,43.83377697576357,15.29595035402129,69.25611193590422,-1.5221998937122043,112.07627495489568,1174.1221058677925,15.288,0.0,12.128705720430029,0.128847027631016,-9.159762281737594e-08,-0.0508587431009418,-0.0398421089547327,0.0059036022855709,15.527052056360231,12.715640162977214,42.42133902397517,41.97138807824233
1.11,31.22214922503716,131.0104738446348,24.677907762146297,12.60891334392796,-8.952307032694174,30.8519877339034,4.265057028072464,-2.3230085922594768,324.1593910376397,44.06198896770309,15.375462156698063,69.22601147048002,-1.580973059793272,112.01342218659572,1186.3383738980283,15.288,0.0,12.158610488262427,0.1295183733368483,-9.493773605851496e-08,-0.0522098526764158,-0.0408383745374342,0.0060917777012357,15.42168715498495,12.649133946454045,42.66147862908366,31.231910404350028
1.12,31.222148570907382,131.01047527060535,25.042472311503523,12.502768100378953,-8.854870072141008,12.393749189752066,4.327184022138804,-2.4186326310953548,172.73281794065943,44.39152673902689,15.491950992799696,69.19509316309393,-1.6410221869771089,111.94919190587288,1204.1077143651391,15.288,0.0,12.188367715078725,0.130487572676137,-9.83091228147697e-08,-0.0535817207150517,-0.0418467784140245,0.0062983822041313,15.279969030063045,12.55353450505284,43.00613733360986,13.348382836288918
1.13,31.222147911809248,131.01047670369672,25.409344457219746,12.413757507877786,-8.769496760386172,36.1323132387726,4.383540814208352,-2.506702039962138,367.5328077900705,44.66286594399708,15.587162325734306,69.16334307838466,-1.7023519188972904,111.88357820941968,1218.8297480663598,15.288,0.0,12.21795827184747,0.1312857097526031,-1.0171012712442261e-07,-0.0549718988428112,-0.042865474532766,0.0065010618005823,15.15903878949613,12.474577728252251,43.29072864703839,36.483462625849576
1.14,31.222147247131023,131.0104781457467,25.77901961792501,12.336714291423595,-8.692592468397729,20.54166268886827,4.4356826017671,-2.5893093725297165,239.69531773195544,44.89133760473735,15.666615228765371,69.13074817209018,-1.7649646059709552,111.81657761453388,1231.2876982393027,15.288,0.0,12.247419664220212,0.1319578486996721,-1.0513779804531305e-07,-0.0563837676127225,-0.0438968064615635,0.00670190372617,15.052660197672248,12.40734944005386,43.531140418034575,21.17403384321307
1.15,31.22214657733021,131.01047959542268,26.15113780716907,12.229340456553158,-8.595257444159014,20.25495726336892,4.499998769038468,-2.688865976143758,237.41251153546767,45.22558425980746,15.784803266672636,69.09729532791047,-1.8288620217601008,111.74818721995648,1249.6468437441868,15.288,0.0,12.27671740945716,0.1329409232542605,-1.0859037528625185e-07,-0.0578148665436924,-0.0449389268423051,0.0069229267419392,14.910003892653412,12.310959058546535,43.880502756318734,20.922315428745275
1.16,31.2221459025378,131.01048105234707,26.525599056072547,12.155681181753438,-8.52119145495978,51.06979850344671,4.551446196138308,-2.7711191595493454,490.0437743845894,45.439290476124256,15.858828816474382,69.06297051145695,-1.8940468320006312,111.67840313481908,1261.4393811022007,15.288,0.0,12.305863331485536,0.133569678643832,-1.1206547122745709e-07,-0.0592650336906518,-0.0459916358336098,0.0071298513841502,14.808004474168063,12.247368969556693,44.10571368446168,51.347045514376106
1.17,31.222145221955127,131.0104825189513,26.90305216868417,12.066258100682465,-8.436664031503737,10.024437210996126,4.609470552148974,-2.8626883334620508,153.70937929486794,45.7078345097585,15.952884410800571,69.02776051295706,-1.960519541719368,111.60722374691044,1276.3472537414234,15.288,0.0,12.33489416064717,0.1343596413990862,-1.1555969076200641e-07,-0.0607386850438552,-0.0470579905464161,0.0073500566333992,14.687239222362225,12.168714631384905,44.38739013215342,11.39875189057434
1.18,31.222144536649328,131.01048399205573,27.2826456928586,11.95600838741675,-8.338292129901308,25.4310161804608,4.676669619578377,-2.9671899672341486,280.02501822196746,46.05279176289489,16.07505925571501,68.99165144078528,-2.0282811034115538,111.5346469260132,1295.6379036653743,15.288,0.0,12.363749722987428,0.1353742342164951,-1.1907182612753133e-07,-0.0622298896877624,-0.0481336873114156,0.0075870651118919,14.54165515155386,12.070007972984795,44.74763433225405,26.02714043077344
1.19,31.2221438461479,131.01048547310663,27.66476582353772,11.892409783257508,-8.271796826946375,43.54163672609013,4.72457267999842,-3.0454792412137577,428.4078130529292,46.22342725416638,16.133201111318808,68.95462899541482,-2.097332426764954,111.46067055295497,1305.2090131343516,15.288,0.0,12.392478372546346,0.1358764108191436,-1.2259842928237838e-07,-0.063742032263953,-0.0492210382565414,0.007799933942397,14.452171167973146,12.016849195984417,44.92860534417866,43.90296868782397
1.2,31.222143150051004,131.0104869633668,28.04974365732052,11.791727074464031,-8.18046751536059,5.526123584954239,4.788584791453467,-3.1462713975871166,117.1843741360236,46.53116835131193,16.241709274554644,68.91667996553898,-2.1676718257270178,111.38529525210328,1322.597298208612,15.288,0.0,12.421042146761568,0.1367816276832523,-1.261364093774851e-07,-0.0652771586516772,-0.0503213960036954,0.0080406658487034,14.318383685113702,11.927856073932434,45.25054480989407,7.960377496601636
1.21,31.222142449421607,131.01048845963106,28.436727466060297,11.693276396438236,-8.090928981460173,35.16667207712201,4.852181816284774,-3.246842785777249,359.92343213200894,46.83059711547331,16.34727341732457,68.87778972857592,-2.239299255323421,111.30851984962317,1339.6241312568031,15.288,0.0,12.449432642033637,0.1376624207415132,-1.2968433912785102e-07,-0.0668293148862242,-0.0514304734822662,0.0082845204371291,14.187432401934403,11.841226575376798,45.56389670116863,35.64800809910241
1.22,31.22214174346351,131.01048996436614,28.82636826363908,11.626540699176788,-8.022988092805905,25.768371294242748,4.901737860661071,-3.328344833127193,283.0687504825761,47.00535581335413,16.40691045223253,68.83794434967055,-2.312212758503845,111.2303451855147,1349.590474949344,15.288,0.0,12.477706056630792,0.1381767460486732,-1.332380531515661e-07,-0.0684037635202353,-0.0525518797160499,0.0085110228181323,14.094598373709411,11.785810478971918,45.749222186077205,26.44076157263244
