Time,Latitude,Longitude,Altitude,Angle of Attack,Angle of Sideslip,X-Acceleration,Y-Acceleration,Z-Acceleration,Thrust,True Velocity,Ground Velocity,Pitch,Roll,Yaw,Dynamic Pressure,cp,cg,parachute_deploy_gain,Wind Speed,Wind Direction,Mach,omega_x,omega_y,omega_z,Cmq,Angle of Attack(total),Angle of Attack(gust),True Velocity(gust),Acceleration
0.0,31.222216000000007,131.010392,3.000000004412624,0.0,0.0,0.0,0.0,0.0,2.2828121974499247,0.0,0.0,69.99999999623412,0.0,119.9999999935444,0.0,1.274,1.0271675151847728,0.0,0.0,0.0,0.0,0.0,0.0,0.0,-0.0,0.0,90.0,0.0,0.0
0.01,31.22221599999084,131.01039200000497,3.000002745347096,0.0,0.0,0.0,0.0,0.0,34.242186961749226,3.465174813755316e-14,2.8705476994166025e-14,69.9999999962611,-2.1713911667908447e-11,119.99999999352175,7.352495975525499e-28,1.274,1.0271659134330349,0.0,0.0,0.0,1.0183245502395064e-16,-3.3305335486039093e-18,7.169286865560398e-18,5.624298769768554e-18,-7.715917190115602e-34,0.0,89.99999999999979,3.465174813755316e-14,0.0
0.02,31.222215999994315,131.0103920000094,3.0000030495639742,0.0,0.0,0.0,0.0,0.0,25.871876237766216,3.8197434737535036e-11,2.4171837235633357e-11,69.99999999628672,-1.1921727947863515e-11,119.99999999353136,8.93414285188691e-22,1.274,1.027164492361118,0.0,0.0,0.0,1.1225230367947217e-13,-6.657678965418802e-18,1.4338573731120796e-17,1.1241821275959074e-17,-1.7010872994127372e-30,0.0,89.99999999975682,3.8197434737535036e-11,0.0
0.03,31.222215999994315,131.0103920000094,3.0000030495639742,0.0,0.0,9.81877837424427,-2.5122800045972096e-05,3.3498614629347925,180.34219359854663,1.2659015405517447e-10,1.1364406173918436e-10,69.99999999631459,-1.6431898037347223e-11,119.99999999352724,9.812605835254651e-21,1.274,1.0271551940870716,0.0,0.0,0.0,3.720154642239108e-13,-9.991600645811728e-18,2.150108433310316e-17,1.6859343782149594e-17,-8.453698244545225e-30,0.0,89.99999999919412,1.2659015405517447e-10,10.374487003414373
0.04,31.222215999994315,131.0103920000094,3.0000030495639742,18.83801224594347,-0.0001111777826462,48.68248476615645,-1.016330065874988e-05,3.3497854396877287,548.635972453808,0.1556173050466994,0.0975908358443652,69.99999999633813,-2.0932768807056278e-11,119.99999999352085,0.0148286043323172,1.274,1.027133720825283,0.0,0.0,0.0,0.0004573186944143,-1.3322134194415637e-17,-1.04744143520903e-11,1.336824254131964e-11,5.0626055458604615e-15,18.83801224625964,89.06236267790787,0.1555998412814392,48.79759610369246
0.05,31.22221599164764,131.01039201704114,3.002326315126219,5.772385609593056,-4.395076213712875e-06,71.20344550265034,4.905512691849684e-05,3.349217396035405,761.6984298824663,0.8326471944351852,0.3620326097059287,70.00000001316391,-1.0866255162484559e-10,120.00000000231074,0.4245281043148827,1.274,1.027093426565204,0.0,0.0,0.0,0.0024469331205246,-5.0245994431125096e-18,-7.32924164976824e-07,2.217344936947165e-11,1.895424184525467e-09,5.772385609594774,84.74112356985832,0.8326465040582279,71.28217104309611
0.06,31.22221596664444,131.01039206837547,3.015081730143309,4.056581213689704,3.169093567502233e-05,53.16249142470188,0.0001203825427859,3.3481235983850643,590.4875390737236,1.657216205300742,0.6755452977614796,69.99999964391398,-3.9285905645317736e-10,120.0000000287861,1.6816755551786196,1.274,1.027050317124926,0.0,0.0,0.0,0.0048701272653724,3.095757869075056e-13,-7.483541766772344e-06,3.074135420506017e-11,3.8518749565858254e-08,4.056581213813337,79.59316473687034,1.657221183301277,53.26781792157489
0.07,31.22221592883117,131.0103921460222,3.034593611434361,4.115662018628709,6.450869598349036e-05,81.18203554989698,0.0001593212642178,3.347059402768047,855.2937749779172,2.099899704220947,0.8579771146174259,69.99999543281565,-8.233801910783518e-10,120.00000006883089,2.700101932075157,1.274,1.027003201295312,0.0,0.0,0.0,0.006171060252819,3.4704292086287e-12,-2.6327204536316785e-05,1.9541142932033486e-10,1.7170712165327165e-07,4.115662019133419,76.90111966094352,2.099909837223217,81.2510043180746
0.08,31.22221588914193,131.01039222747755,3.0542761843835606,3.459696193892355,8.037433511260004e-05,16.298214211652088,0.0002413456836072,3.344878926597744,241.2171988638792,3.051964775152957,1.2149999716613011,69.99998042886442,-1.0128995578004475e-09,120.00000011111383,5.703497661025892,1.274,1.0269597189470347,0.0,0.0,0.0,0.0089689344021769,1.458982438104473e-11,-5.702803872814215e-05,7.043261397829576e-10,5.405702492731987e-07,3.459696194824858,71.30331929508368,3.051977400323993,16.63790856991177
0.09,31.2222158241468,131.01039236098703,3.0886872184095737,4.313676956300389,0.0001337561018991,50.35975918308536,0.0002293282821279,3.344215841840564,563.0937377043203,2.893161298572128,1.191209213966114,69.99994788602814,-7.098432023887522e-10,120.00000018106356,5.125380275808925,1.274,1.026918932011013,0.0,0.0,0.0,0.0085022553945842,3.8672912027154325e-11,-0.0001115933708951,2.016054215232918e-09,1.0027525988343615e-06,4.313676958370176,72.2316578138625,2.893182308931483,50.47067588835877
0.1,31.2222157788302,131.01039245392113,3.109877853389092,4.035124630954496,0.0001457499816535,47.804664812504015,0.0002878217657545,3.341734392237128,538.7437595981891,3.5677148583138303,1.4531247507621967,69.99988403958329,1.9248461973355822e-09,120.0000002323013,7.7939962029572305,1.274,1.0268846934974103,0.0,0.0,0.0,0.0104845969583028,8.579678749070606e-11,-0.0001726817043215,3.984565639703107e-09,1.913455350430327e-06,4.0351246335824245,68.43243098813296,3.567737752667411,47.92132267234452
0.11,31.222215703308,131.01039260899836,3.148841432727305,4.043401107254707,0.0001752764476999,37.67622367577205,0.0003286462930162,3.3392563999062723,442.86563930529127,4.034183355956686,1.6436552022667772,69.99978525353545,7.302513231814865e-09,120.00000031883242,9.96528118825134,1.274,1.026848594915519,0.0,0.0,0.0,0.0118554331868328,1.5870341853361987e-10,-0.0002596204409236,7.232030302688121e-09,3.252930323390323e-06,4.04340111104746,65.92012987243639,4.034210888316708,37.82391391539392
0.12,31.222215627491828,131.01039276462643,3.186995101203875,4.17874459224363,0.0002066711490009,41.15991989399172,0.0003576945202315,3.336766085769504,475.58594813540793,4.361857560629481,1.7865750500940407,69.99963665601238,1.781774420198147e-08,120.00000041104812,11.649831899889556,1.274,1.0268114448194128,0.0,0.0,0.0,0.0128183893919737,2.682972478760441e-10,-0.0003710216542429,1.2215991071490164e-08,5.026311388647148e-06,4.178744597345269,64.21681651392016,4.361890024457652,41.29495143136631
0.13,31.22221554594398,131.01039293200228,3.2277173449026786,4.202734874672792,0.0002327160860324,45.44886120763352,0.0003953741266062,3.333578629398489,515.9156326236897,4.792165672014363,1.9646716520715424,69.99942424225341,3.613383418913551e-08,120.00000051758742,14.061726603124043,1.274,1.026779572895131,0.0,0.0,0.0,0.0140829618979635,4.248908088871395e-10,-0.0005056103199642,1.908859219307828e-08,7.5253154423526356e-06,4.202734881104192,62.048594618540655,4.792202226971676,45.570952718869485
0.14,31.222215454191247,131.01039312033683,3.2737880595608355,4.184830647080848,0.000257138757548,42.32232525579263,0.0004369426767266,3.329727443445437,486.2390860568421,5.269261304374574,2.158791628597544,69.99913473613935,6.515851355725497e-08,120.00000064630268,17.000925061330125,1.274,1.0267449573927567,0.0,0.0,0.0,0.0154850332441425,6.382432869666793e-10,-0.0006690086306358,2.8426433029675884e-08,1.0948547100483978e-05,4.184830654966803,59.74181173116622,5.269301695636157,42.45310707234106
0.15,31.222215353826755,131.0103933263496,3.3242182719560263,4.21963947489699,0.0002846467688673,40.886944113003565,0.0004726792395108,3.325585650885676,472.5421858721398,5.6781946837482895,2.329510773545807,69.99875162806286,1.0876776246115984e-07,120.00000079954532,19.742017654108928,1.274,1.0267115958081523,0.0,0.0,0.0,0.0166867950518804,9.204756288136623e-10,-0.000865746478554,4.08948221429571e-08,1.526771148078443e-05,4.219639484480408,57.84996018384879,5.678239395958187,41.02196629910223
0.16,31.222215247130432,131.01039354534575,3.3775922280208457,4.253495568077899,0.0003118339050386,32.26872905470846,0.0005078415214353,3.32090791922544,391.1218908297597,6.081244877834229,2.4981889727471702,69.99825581174558,1.7187028096464329e-07,120.0000009800088,22.644030778355887,1.274,1.026675762255412,0.0,0.0,0.0,0.0178712695992133,1.2856146928958252e-09,-0.0010961187242953,5.6923362293832417e-08,2.0702404729358337e-05,4.253495579487569,56.06022383757386,6.081293860589489,32.43916312841722
0.17,31.22221513260033,131.01039378041813,3.4348437275053194,4.364838523348639,0.0003448792023946,40.840448242802736,0.0005326487904353,3.3162727284953744,471.78125980632416,6.362544479165355,2.6250789114832647,69.99762801982864,2.5997588617291615e-07,120.00000119506798,24.78723182122683,1.274,1.0266409836796937,0.0,0.0,0.0,0.0186979513961862,1.747791994374917e-09,-0.0013624931601664,7.706724512977917e-08,2.6923621797558364e-05,4.364838536947241,54.85936171416122,6.362598652663785,40.97486885600156
0.18,31.222215014088988,131.01039402363364,3.4935801365785646,4.353948305387995,0.0003681615230806,33.992183768165326,0.0005718025428208,3.310131992647221,407.1015672119096,6.81502088160835,2.810667639293692,69.99684761766231,3.794979223522764e-07,120.00000144728236,28.437950785509614,1.274,1.0266048342046536,0.0,0.0,0.0,0.020027681385988,2.3221419748804155e-09,-0.0016616990447559,1.0147209890543081e-07,3.517105786247627e-05,4.353948320923495,52.99157233768714,6.815078712285162,34.152972512863755
0.19,31.22221488419521,131.01039429023237,3.558399965607869,4.432620772533925,0.0003996774584738,38.45149959021069,0.0005986099513107,3.304145139297767,448.95313283182486,7.1223367465208405,2.946425726785696,69.99589577323147,5.440084577183829e-07,120.00000176148238,31.060341085698347,1.274,1.026566130444714,0.0,0.0,0.0,0.0209308229359413,3.022391489754689e-09,-0.0020041563310821,1.3135864879722746e-07,4.433199397898183e-05,4.432620790516937,51.77883352025967,7.122399527709208,38.59320142454953
0.2,31.222214751373183,131.01039456280608,3.624052454705669,4.443889400961181,0.0004246617145652,35.23432408779927,0.0006337972852267,3.2968110145188256,418.5156301991588,7.530482904611057,3.1167566004785483,69.99474776398331,7.478025600151903e-07,120.00000211715036,34.72195181863731,1.274,1.026529240027363,0.0,0.0,0.0,0.0221302820454282,3.866698391504749e-09,-0.0023849544920781,1.668144671071589e-07,5.57780533277244e-05,4.443889421210987,50.22448880200342,7.530549610317194,35.38822625098952
0.21,31.222214608673173,131.01039485566503,3.6948551453492566,4.493351735844891,0.0004538195602194,33.79371564104691,0.0006629296043866,3.2891790438445727,404.8187610144608,7.868284042829251,3.2629204975089228,69.99338155599101,1.0150082652278477e-06,120.00000255293388,37.906665490338085,1.274,1.0264923657015164,0.0,0.0,0.0,0.0231230169900677,4.871073773182836e-09,-0.0028117605859743,2.089322918608601e-07,6.870935089180403e-05,4.493351758715364,48.992529909481824,7.868355328639073,33.95340801819282
0.22,31.22221446109996,131.01039515850383,3.767700382407304,4.5412639153933885,0.000482649303782,41.008966751568416,0.0006914639179131,3.2808061382386606,472.5421858721387,8.20057841132235,3.4071691679735228,69.9917708347139,1.3454961520984431e-06,120.00000305929996,41.175744234065135,1.274,1.0264494137127138,0.0,0.0,0.0,0.0240995709751246,6.054779813287368e-09,-0.0032829112061357,2.580881224843564e-07,8.3609968899004e-05,4.54126394098788,47.82515604752711,8.2006542256977,41.13999323561041
0.23,31.22221430675399,131.0103954752338,3.843768625625224,4.52371495179584,0.0005047555656171,33.98493478127787,0.0007294889663961,3.2705214710765107,406.340642146096,8.647938096586296,3.5908865300848416,69.98989017772566,1.7539876018835507e-06,120.00000365514876,45.79040229326471,1.274,1.0264133390858623,0.0,0.0,0.0,0.0254142776666487,7.436335125872812e-09,-0.0038001790077148,3.1489825108822685e-07,0.0001020628978177,4.523714979897577,46.31461705147579,8.648017383405135,34.14194053232237
0.24,31.222214142622448,131.0103958120587,3.92493179063287,4.57837522350066,0.0005351929930195,35.051650311058864,0.0007555049947555,3.26053011385611,416.2328240017099,8.954297884844461,3.72617527247482,69.98771316795013,2.25257161141768e-06,120.0000043564586,49.09180568115741,1.274,1.0263750048312463,0.0,0.0,0.0,0.0263146218848643,9.034877387788232e-09,-0.0043732521010013,3.809642748985157e-07,0.00012161410144,4.578375254714954,45.32798984252032,8.954381952763216,35.20297212911011
0.25,31.22221397517227,131.0103961556623,4.0071748888306855,4.6034117733065,0.0005618935542827,36.03738579534623,0.000785606492708,3.249069743648399,425.3640807915084,9.311611941121669,3.8789349536029696,69.98520781816889,2.8559738498748624e-06,120.00000517181904,53.08749562138344,1.274,1.0263373768840591,0.0,0.0,0.0,0.0273647110956883,1.0873791100894836e-08,-0.0049950711786164,4.5609738277273444e-07,0.0001444478241125,4.603411807525074,44.2165428352526,9.311700203154778,36.183554686886296
0.26,31.22221379934012,131.01039651647062,4.09364247475714,4.621386912291471,0.0005881033207375,39.29107511182762,0.0008162761165496,3.236407051295005,455.80158342417656,9.67833954512075,4.034902068846398,69.98234620927953,3.5784678110229355e-06,120.00000612171208,57.350948423913096,1.274,1.0263006300381676,0.0,0.0,0.0,0.0284424679130479,1.2973286442992724e-08,-0.0056712051373577,5.414206381221602e-07,0.0001704578711045,4.621386949630312,43.12063533194282,9.678431924174348,39.42414126789902
0.27,31.222213616776543,131.01039689108487,4.183310605341074,4.617158109135719,0.0006115457810536,35.90419462403674,0.0008503454714941,3.221982799915672,423.8421996598744,10.088790784535757,4.205862468567124,69.97909721779352,4.436165972465058e-06,120.000007221354,62.31798301949865,1.274,1.026260090595354,0.0,0.0,0.0,0.0296487219805601,1.5355910600537293e-08,-0.0064045199323113,6.379142666348734e-07,0.0002006609239367,4.617158149547818,41.94410287616451,10.08888684592241,36.048472443180565
0.28,31.22221342607797,131.0103972823952,4.277051150896916,4.642105655370123,0.0006389739579882,41.51133203546672,0.0008785747638736,3.2071101123224945,476.3468732012228,10.432377224420517,4.35383399240675,69.97542808435722,5.446665372087172e-06,120.00000849080963,66.63429581008447,1.274,1.0262212716723291,0.0,0.0,0.0,0.0306584788590473,1.8045308789081613e-08,-0.0072006835403936,7.469524967369969e-07,0.0002332868227611,4.642105699250441,41.0023231023774,10.432477594215127,41.63503624837164
0.29,31.22221323001776,131.01039768469093,4.373143569786686,4.62134615173668,0.0006600657405645,33.17552944492765,0.0009148746278066,3.1894209319791806,397.9703104221098,10.876662296046485,4.536381530986506,69.9713027936179,6.629751536885327e-06,120.00000994797426,72.43000748232016,1.274,1.026183007522519,0.0,0.0,0.0,0.0319641703260467,2.1067646517035105e-08,-0.0080566154554079,8.688043379161898e-07,0.000272130659453,4.621346198772975,39.83162628795024,10.876765978930557,33.32848872465723
0.3,31.22221302403368,131.01039810736614,4.4744193758467325,4.664362353358112,0.0006905183788532,31.08096762732793,0.0009381960428197,3.172549142946348,378.1859457108735,11.168362145070317,4.66647911311536,69.96668711012893,8.005507138509574e-06,120.00001161892672,76.36634300732833,1.274,1.0261430389738484,0.0,0.0,0.0,0.0328214509167604,2.4447409007156216e-08,-0.0089829108229115,1.0056222251461646e-06,0.0003115527202986,4.664362404357781,39.09908960432563,11.168470611443622,31.242464973103964
0.31,31.22221281503337,131.01039853619727,4.576593712520673,4.700143580504286,0.0007196683316923,32.79732593144512,0.0009620705970519,3.154230688182399,394.1656220930229,11.470279728974068,4.800072153432283,69.96154070456518,9.597499105113692e-06,120.00001352112182,80.55022837857167,1.274,1.0261054058068628,0.0,0.0,0.0,0.0337087616009043,2.8214060606649844e-08,-0.0099686353219717,1.1565909895184251e-06,0.0003550834484269,4.700143635477137,38.36463422765983,11.47039277421126,32.94865339301887
0.32,31.222212598991007,131.01039897947376,4.68216432480395,4.718667719113184,0.0007464384342556,35.7316568886908,0.0009885845337584,3.133859770838664,421.5593934624264,11.808280530415894,4.946054328851105,69.95582953472353,1.14278227255889e-05,120.00001568218067,85.36654007972253,1.274,1.026068246703101,0.0,0.0,0.0,0.0347021168382987,3.2392058795580455e-08,-0.0110163301561155,1.3226102501723267e-06,0.0004039614423012,4.718667778018562,37.5686120062341,11.808397780690962,35.8688218659563
0.33,31.222212376029034,131.0103994369436,4.791055524254013,4.72141404831576,0.0007708346814671,35.42013590291081,0.0010176135371143,3.1111955852784385,418.5156301991632,12.181577273013426,5.104163223586657,69.94951809396906,1.351997394754887e-05,120.00001812674968,90.84831229869296,1.274,1.0260310883392356,0.0,0.0,0.0,0.0357992034445943,3.700677535501642e-08,-0.0121310534481307,1.5051409581878843e-06,0.0004588955105349,4.721414111097893,36.7208578211118,12.181698355442045,35.55651229220977
0.34,31.222212145785647,131.0103999093516,4.903491659547144,4.73024573449122,0.0007962944975467,27.63851074646407,0.0010446307681611,3.0871492806781062,345.4656368807584,12.53557620048282,5.2556261014174765,69.94256797855994,1.5899658158227497e-05,120.000020882338,96.20413272674828,1.274,1.0259901535019136,0.0,0.0,0.0,0.0368395817555172,4.208561016221623e-08,-0.0133180771902383,1.7057647550599631e-06,0.0005184333231541,4.730245801363397,35.94841996438923,12.535701282129995,27.810389570354005
0.35,31.222211909310875,131.01040039453565,5.018822212845608,4.780248518778662,0.0008286678570753,30.332092807652543,0.0010618579815451,3.063967690608957,370.5765700527057,12.774786382148209,5.367579971644358,69.93493776125636,1.8594985713558667e-05,120.00002397748868,99.9096898192772,1.274,1.025950003202184,0.0,0.0,0.0,0.0375426220587071,4.7658312175989686e-08,-0.0145774693288123,1.9252724355785177e-06,0.0005782798420984,4.780248590437683,35.44790728185619,12.774916548990808,30.486451961956565
0.36,31.22221166933814,131.0104008868675,5.135354490370708,4.798132156899578,0.0008554457330409,34.32674769697476,0.0010851169437774,3.0374319611165923,407.8625232777224,13.09301701329486,5.506730645516068,69.92658597246795,2.163521613217148e-05,120.0000274401514,104.94818266210537,1.274,1.0259105142325406,0.0,0.0,0.0,0.0384778908056978,5.3755109608570216e-08,-0.0158991451700967,2.162609490834569e-06,0.0006464142451675,4.798132232978766,34.796094028187134,13.09315138639638,34.46087058603792
0.37,31.222211421355144,131.01040139563804,5.255882891363927,4.797392186816851,0.0008791822061288,32.551601855236584,0.00111162791192,3.0078619428913056,391.1218908297639,13.457513730739372,5.661815946371007,69.91747693543164,2.5047738471809164e-05,120.0000313040604,110.87154396328836,1.274,1.025872170958032,0.0,0.0,0.0,0.0395491312153729,6.040098808671168e-08,-0.0172926678053148,2.420031948898497e-06,0.0007226353721561,4.797392267189059,34.07332166419882,13.457651832357364,32.69027405888565
0.38,31.22221116634284,131.01040191882743,5.379799334000849,4.811698494594017,0.0009057112478668,34.02947987649063,0.0011338447913587,2.9774881690446744,404.81876101445977,13.77554886562956,5.800899861213392,69.90756948297444,2.886339581486796e-05,120.00003560072224,116.17243393848278,1.274,1.02583050512925,0.0,0.0,0.0,0.0404838339452728,6.762496638941508e-08,-0.0187646375218858,2.69955777313946e-06,0.0008026686661094,4.8116985796350695,33.46655348088405,13.775691134419684,34.15949264475229
0.39,31.222210906095896,131.01040245274032,5.505993307722699,4.813508003664984,0.000929862892873,29.00025983045028,0.0011579891265804,2.9442136901860865,357.6406249338268,14.124492165837273,5.950648592462506,69.8968186645841,3.311602501056718e-05,120.00004036395212,122.13093644173792,1.274,1.02579027384009,0.0,0.0,0.0,0.0415093739609825,7.545934774906889e-08,-0.020311592409804,3.0013532510753577e-06,0.0008908380763632,4.813508093268025,32.821616487639595,14.124638228358922,29.149330452482886
0.4,31.222210638473225,131.0104030017851,5.635788650457906,4.841647069358873,0.0009592124397379,27.71178845184976,0.0011749448424961,2.91135549588368,345.4656368807565,14.390874239274588,6.07193451174791,69.8851815212744,3.783947407715338e-05,120.00004563180136,126.77947425345651,1.274,1.0257493418632293,0.0,0.0,0.0,0.0422922854866381,8.39343718693383e-08,-0.021938519432511,3.3271332720311508e-06,0.0009803271643914,4.841647164150728,32.348088166612904,14.391024912012275,27.864299944624147
0.41,31.22221036681104,131.01040355909262,5.767123077463226,4.86553909860892,0.0009876699832274,31.306062598221665,0.0011918093836199,2.876450850006428,378.9468707766882,14.663028799871563,6.195223154320929,69.87261222561014,4.307011032901644e-05,120.0000514391194,131.6183642808765,1.274,1.025708445186429,0.0,0.0,0.0,0.0430921644173401,9.308325447883581e-08,-0.0236371933433427,3.6760977501392174e-06,0.0010761942383903,4.865539198612839,31.87689439156756,14.663183942709727,31.437931330109585
0.42,31.22221008906472,131.01040412887247,5.901259531771367,4.867510642114694,0.0010118258958528,35.308283402190774,0.0012128114559048,2.8374461227958245,416.23282400171047,14.9952917972178,6.33928625560071,69.85906967380902,4.884273094936628e-05,120.00005782486392,137.64909586091787,1.274,1.0256701057426505,0.0,0.0,0.0,0.0440686959134695,1.0293499639582845e-07,-0.0254093547296826,4.049238334851429e-06,0.0011830797791891,4.867510747027452,31.315270489291198,14.995450734457847,35.422111438762386
0.43,31.222209804115888,131.01040471342728,6.038886819939341,4.854590670645608,0.0010330089741511,31.00586934514032,0.0012363751872706,2.794478603999558,375.90313951343126,15.369430568701889,6.497852263156962,69.8445117629242,5.519340856908871e-05,120.00006482835984,144.60167924299955,1.274,1.0256308158337524,0.0,0.0,0.0,0.0451682983415116,1.135186446762958e-07,-0.0272634397889413,4.449073329427772e-06,0.0013010625065656,4.854590780289497,30.70250814963406,15.369592833372094,31.13154422839874
0.44,31.22220951192321,131.01040531284193,6.180028459770617,4.866912332640401,0.0010595850174406,28.57707721036899,0.0012525768202179,2.752165534925872,353.07501253892326,15.659290812546615,6.627318538707029,69.82889155423543,6.216182865383864e-05,120.00007249162944,150.1053167542629,1.274,1.025586171750536,0.0,0.0,0.0,0.0460202245100907,1.2486676023179565e-07,-0.0292060158163984,4.8779154055816594e-06,0.001420032405556,4.866912447705031,30.24619499837236,15.659457251771938,28.709297424144207
0.45,31.222209215425703,131.01040592106523,6.322872201489905,4.881836476567178,0.0010866574689855,33.31904824532484,0.0012669045761511,2.7082028218433374,397.2093853562887,15.934249290371609,6.751662050993672,69.81215834018458,6.97909417564726e-05,120.00008085697964,155.42080512416243,1.274,1.0255397023523487,0.0,0.0,0.0,0.0468283602442113,1.3701614206272197e-07,-0.0312276295846745,5.334643585560923e-06,0.0015449645531859,4.8818365972149325,29.82567893138932,15.934419982127675,33.428929688274074
0.46,31.22220891307435,131.0104065412864,6.468371919199588,4.869610441729251,0.0011078049156487,38.95909776354321,0.0012868374716666,2.6582856015412624,449.7140588976424,16.292139278621757,6.904766425053949,69.79426683863348,7.812149592850748e-05,120.00008996920153,162.4785746623087,1.274,1.02549635315424,0.0,0.0,0.0,0.0478802236363867,1.499987870203256e-07,-0.0333272350234362,5.819761874615242e-06,0.0016858511402973,4.869610567434908,29.29014635640275,16.292313292210977,39.04968351401366
0.47,31.22220860266524,131.01040717804253,6.6178810515614845,4.838450928223533,0.0011247917292402,26.253747818137555,0.0013104398935566,2.6026193242279367,331.0078106302504,16.710658191447514,7.078951441335346,69.77517236812905,8.719457259907165e-05,120.0000998741591,170.9309671061642,1.274,1.025453319323251,0.0,0.0,0.0,0.0491102725711187,1.6384464803343264e-07,-0.0355167087264168,6.3368207228363735e-06,0.0018427306558807,4.838451058652396,28.68386015667837,16.710834873319172,26.382435512333956
0.48,31.222208284201663,131.0104078313267,6.771393590864176,4.869339340099417,0.0011561785713505,25.860860976019296,0.0013165328518772,2.5543454292827983,327.20312230115803,16.911139899671,7.177575416403102,69.75482343794755,9.70562828082882e-05,120.00011062072316,175.0543877818846,1.274,1.0254092882449153,0.0,0.0,0.0,0.0496995461609974,1.7858865391586845e-07,-0.0378054080201581,6.88909442277235e-06,0.0019849793891693,4.869339477030596,28.40887970825325,16.911321511776286,25.986704537635287
0.49,31.22220796480208,131.01040848648364,6.924537656029012,4.881367714530694,0.0011829003785372,32.565703383222065,0.0013261973190012,2.5011623511055703,389.6000096981238,17.169005224738054,7.296160258358563,69.73316318155707,0.0001077573203115,120.000122255028,180.4309832312717,1.274,1.025367445590036,0.0,0.0,0.0,0.05045746454003,1.942747077649401e-07,-0.0401641298712614,7.47069711110948e-06,0.002140948887153,4.881367857509675,28.058569663954906,17.169191034294997,32.66161128464712
0.5,31.222207637929923,131.01040915697027,7.081324512896956,4.862566137860805,0.001202418260511,33.47759680712428,0.0013425340759632,2.4399894027711366,397.970310422106,17.52898693231981,7.450304424940405,69.71015149227495,0.0001193385310595,120.0001348274002,188.0736471953394,1.274,1.0253278572281015,0.0,0.0,0.0,0.0515154948878309,2.109295159784217e-07,-0.0426011733481599,8.084173008518589e-06,0.0023184335011768,4.862566286171007,27.57768313050809,17.529175807738486,33.56639745442473
0.51,31.22220730314019,131.01040984370235,7.24202048914867,4.8479762258125,0.001223054804074,25.49162310288008,0.0013562860883156,2.3767006597692686,323.39843497208153,17.86914397471067,7.597652147346554,69.68574349602717,0.0001318441288964,120.00014838524436,195.4407439266201,1.274,1.025286455263166,0.0,0.0,0.0,0.0525152689856776,2.2858192086249162e-07,-0.0451315948093539,8.734206149830708e-06,0.002503767471626,4.847976379721193,27.13799345359824,17.86933609171003,25.602178740977283
0.52,31.222206962738102,131.01041054193402,7.405210501673173,4.865306299521403,0.0012516517170965,30.733671928447727,0.0013599291289974,2.317711624364424,372.098451184342,18.08534843773428,7.701914987606457,69.65988568649581,0.0001453248538387,120.00016298000436,200.19561780583155,1.274,1.0252426840672306,0.0,0.0,0.0,0.0531507657929359,2.4726951523704535e-07,-0.0477531686556663,9.421346966092632e-06,0.0026812161964639,4.865306460134566,26.8699055233151,18.085545046726228,30.820940596104087
0.53,31.222206619320115,131.01041124632013,7.569307468221277,4.848802699234936,0.0012715119568563,32.301199055744725,0.0013711327835325,2.2490252325653923,386.55624643486095,18.41963113311156,7.8474319110539055,69.6325258319474,0.0001598315062727,120.0001786629144,207.6614205945027,1.274,1.0251993415311351,0.0,0.0,0.0,0.0541332845214831,2.67031759303889e-07,-0.0504479325599339,1.0141887756417996e-05,0.0028848299490111,4.848802865552398,26.45837260670532,18.419830861742675,32.37940050117613
0.54,31.22220626697288,131.01041196903336,7.737918664599091,4.831496690588052,0.0012913635058467,28.31291960103712,0.0013809098107221,2.177242866245296,349.2703242098436,18.75116898748492,7.992112829440902,69.60362200959217,0.0001754082864028,120.00019548734956,215.20067397992847,1.274,1.0251561018460285,0.0,0.0,0.0,0.0551077428911958,2.878941684235108e-07,-0.0532336286085667,1.090122304443916e-05,0.003098869611663,4.831496862756785,26.061835558272342,18.751371834390056,28.396510432451375
0.55,31.222205908994248,131.01041270328463,7.909026079894722,18.22227304405061,23.92206346522504,31.14972295702412,-1.799328987810296,1.1733806144452297,365.2500005919912,24.089588654520423,8.113323699629928,69.57312211246325,0.0001921068626005,120.00021350480982,355.171872308874,1.274,1.025112921033824,0.0,11.278816046756331,0.0,0.0707969418468491,3.0989272306468813e-07,-0.0561100530405476,1.1700476995263424e-05,0.0041961578129615,29.74335228186028,46.321371547591774,27.739031214257945,31.223703290482472
0.56,31.222205546564343,131.01041344664463,8.081909946161325,-19.67673702875404,-24.654496284694744,28.851533159388456,0.7606650640327222,2.8614232930200134,346.22656194657776,19.252253158412334,8.243352958320413,69.54097415464405,0.0002099796112633,120.00023276987916,226.84839686495343,1.274,1.0250709539098009,0.0,11.31996503450294,165.0000707061107,0.0565805969155009,3.328942889008732e-07,-0.0703538438275002,0.021798850319368,0.0042047863573721,31.15507467350685,18.05701569143493,15.49794442971556,29.003057084534536
0.57,31.222205181621927,131.01041420618407,8.258620404968442,-19.35358316934657,-24.374947931674807,28.520288646797656,1.052182799854411,3.0481524753913054,343.1828296833045,19.4734162881498,8.388579798025933,69.50066143418694,0.0336209205219168,120.03589793637576,232.08630469192687,1.274,1.0250279191823897,0.0,11.360792541650731,165.0000707061107,0.0572306890489648,3.738107042463506e-07,-0.0606944002963238,0.0075249243531856,0.0036690864431976,30.751550318637413,17.78733388805396,15.759060469751685,28.702006665984154
0.58,31.222204802937306,131.0104149753101,8.436937014291319,-19.055136220073447,-24.121000676115383,37.434855244155536,1.3568997256902224,3.243045792018573,426.12500585731766,19.710333531365126,8.527393223181178,69.46588391391242,0.0450785977012813,120.04813175957284,237.763797351922,1.274,1.024981594484354,0.0,11.401752964356744,165.0000707061107,0.0579270848956387,4.0284715438785933e-07,-0.0509069155387642,-0.0069414080585079,0.0031148023397662,30.38186874539973,17.54203575911798,16.032348397108162,37.599559971169704
0.59,31.222204420472167,131.0104157571917,8.618081682034692,-18.621636811883405,-23.715258372048115,30.390693776449,1.683845986313828,3.4462846372018427,360.68438819710633,20.065379508969748,8.714072717969259,69.43671993811908,0.034415033152901,120.03674377168235,246.4024286255972,1.274,1.0249386802161349,0.0,11.442365908330023,165.0000707061107,0.0589706569729853,4.1986312334974345e-07,-0.0409733768255913,-0.0216330374416152,0.002552121329237,29.81627429584538,17.182671980372643,16.445655006059162,30.631788771146464
0.6,31.22220402619736,131.0104165593246,8.804114056107329,-18.34273404074341,-23.47300140454386,27.02729386000061,2.01355251043416,3.6587174192909946,329.4859594986072,20.29136460919103,8.848503747797464,69.41324858603656,0.0013761500595918,120.00145400706576,251.9793660580424,1.274,1.024891335813742,0.0,11.482906757589031,165.0000707061107,0.05963493551573,4.2469135496112163e-07,-0.0308174039991638,-0.0366450086228882,0.0019411170735331,29.466502041949248,16.949907204150815,16.706512574230754,27.348038691308847
0.61,31.22220362795465,131.01041736684712,8.990687290370982,-18.0790453585623,-23.24352344191308,31.603207260524385,2.352305384847962,3.877829009117928,372.0984511843332,20.50500072471704,8.977828699788937,69.3955825818989,-0.054473985730534,119.94179074816851,257.30857945247567,1.274,1.0248423929069768,0.0,11.523812760832882,165.0000707061107,0.060262924315356,4.17095722106673e-07,-0.0205296522215031,-0.0518643943377815,0.0013067064173802,29.135320773156803,16.72848318204411,16.953240758745217,31.927004363065485
0.62,31.22220322222332,131.01041818703268,9.179934079595848,-17.73496055229152,-22.92052022609049,39.20661222922334,2.7119535566264164,4.106652910166641,442.86563930529206,20.79418659977508,9.13747733489778,69.3837720497979,-0.1334375822803907,119.85742776586788,264.61269191807474,1.274,1.0247996097896497,0.0,11.564124085784515,165.0000707061107,0.0611129541229745,3.969382907704157e-07,-0.010121215975397,-0.0672768186414299,0.0006532860428666,28.684743966220857,16.43822830988629,17.289102007441976,39.5142725190603
0.63,31.22220280709317,131.01041902380908,9.372992392385994,-17.314217274889145,-22.505323720390663,22.31076618667341,3.098786085782677,4.349227257978166,286.11251274707456,21.16500072820163,9.329536397046072,69.37784965534674,-0.2358350547171172,119.74802214714325,274.1292145308393,1.274,1.024756158874558,0.0,11.604288199147511,165.0000707061107,0.0622028916290818,3.640935584996776e-07,0.0004535028978755,-0.0829395750717161,-2.9793330473346304e-05,28.117640035323557,16.082032964307924,17.720077259332964,22.940979507932745
0.64,31.222202381711742,131.0104198789649,9.5703729926876,-17.149605542542115,-22.376540997422445,21.8812235009326,3.4574528759076912,4.587233641762936,282.3078244179702,21.28000400822512,9.419274727332192,69.37786236424888,-0.362115839770542,119.61309599782578,277.11110220459807,1.274,1.024708534665538,0.0,11.644560810276136,165.0000707061107,0.0625410198483889,3.183901703398329e-07,0.0112432639663735,-0.0989151793022588,-0.0007426369961464,27.92174742082424,15.939423452569068,17.853777797256566,22.622657553236515
0.65,31.222201956049663,131.01042073181551,9.766044822120522,-16.914387971891273,-22.16454369472125,38.49862119364604,3.834446412112296,4.833355935778794,436.7781447787504,21.46464294089739,9.536552830881725,69.38387219479817,-0.5128686916579446,119.45202556359934,281.9354533691285,1.274,1.0246641738210605,0.0,11.685030769789687,165.0000707061107,0.0630838050124307,2.596197973043463e-07,0.0220763807038636,-0.1149833120140104,-0.0014708075534706,27.620041305025204,15.736612596031485,18.069233112668957,38.98984666167772
0.66,31.22220152122897,131.01042160088056,9.96540430759728,-16.47050552380488,-21.70774808490089,32.729055247935506,4.267996730757534,5.104771938890862,383.5125151715984,21.873388393596795,9.742492103011008,69.39583059225986,-0.6883898796063475,119.2645027113464,292.76972854204035,1.274,1.0246195561629028,0.0,11.724469638533048,165.0000707061107,0.0642852376138407,1.8775668540425285e-07,0.0329945181206015,-0.1311964560299459,-0.0022400300729248,27.006071127060792,15.356903287237063,18.54453679259376,33.39858604887726
0.67,31.22220107334709,131.0104224944806,10.170853303114708,-16.167921176788653,-21.40952193034563,22.5252150393098,4.686605960469324,5.374624407368501,289.15624401033847,22.13286455079915,9.88896369737845,69.413699399798,-0.8891006814591306,119.05008885394813,299.7510585892626,1.274,1.024572383541697,0.0,11.763982809340268,165.0000707061107,0.065047981084056,1.0273116571237353e-07,0.0441357528008948,-0.1477333644389932,-0.0030319050140881,26.59746318039437,15.095131068398928,18.847580955701748,23.62702214660443
0.68,31.22220062202385,131.0104233924146,10.376518551292747,-15.960387912905576,-21.21930711827341,28.067521364169902,5.0893961480238845,5.639882496509454,340.89999248584934,22.28242518419861,9.991846972632215,69.43750354378892,-1.1157451950213035,118.808003811099,303.8098219240023,1.274,1.0245245285832842,0.0,11.804008610805992,165.0000707061107,0.0654876882988881,4.3334449025914115e-09,0.0553981912395567,-0.1644615850176965,-0.0038312182407038,26.328309616095943,14.912961006053076,19.024976728582374,29.07741362731713
0.69,31.22220016583563,131.01042429767287,10.583273754134703,-15.64783088294499,-20.90201331738809,34.507799841528296,5.530531807432777,5.923832322819475,401.0140726853658,22.553149683814883,10.141881348028807,69.46719487417542,-1.3689132133519548,118.5376356878983,311.2308782877721,1.274,1.024479631064582,0.0,11.843397294258551,165.0000707061107,0.0662834978447434,-1.075307356792557e-07,0.0667075330113124,-0.1812829163444036,-0.0046693057115406,25.89857145781606,14.641576416748556,19.342212248675743,35.44667574491135
0.7,31.222199699522296,131.01042522166873,10.79441968635275,-15.286071655848792,-20.521496331758232,28.875775277010163,6.002001389935331,6.22448165771496,349.270324209851,22.88739153211001,10.316110214222284,69.50266798431312,-1.6490908765550505,118.2384866642074,320.51773594787494,1.274,1.0244351749185203,0.0,11.882377586420928,165.0000707061107,0.0672659917697974,-2.328677204342701e-07,0.0781334689396902,-0.1982883443341071,-0.005550023564221,25.39037185065483,14.328213472616133,19.73236252174199,30.142637416795615
0.71,31.222199224645127,131.01042616126543,11.00903886571127,-15.007935140222054,-20.237048159559897,23.64775237423078,6.457145656439949,6.519933134485052,301.3312640634036,23.117887581456245,10.44950405783639,69.54383947252556,-1.956955292095364,117.90985839529628,326.99929222671494,1.274,1.0243880468141104,0.0,11.921558595445894,165.0000707061107,0.06794358364429,-3.7175442173152404e-07,0.0897077393661873,-0.2155198178309523,-0.0064362148226895,25.00577957185216,14.085440062400004,20.00474286977669,25.365733785159357
0.72,31.22219874507133,131.01042710807872,11.224705939166975,-14.761362933931215,-19.987724445543183,28.92709376064544,6.9073634212798165,6.814357276254524,350.7922053414578,23.304058493654377,10.565335351320336,69.59062497226707,-2.293301757061444,117.55092994491184,332.28034052371146,1.274,1.024337302174265,0.0,11.960665755860944,165.0000707061107,0.0684909075018073,-5.243021893844204e-07,0.1013593977747008,-0.2328826046767742,-0.0073305921948682,24.66691704345316,13.869544374988765,20.22768922686685,30.511045343600564
0.73,31.22219825952268,131.0104280649792,11.442251068874688,-14.44208154810244,-19.64628163756963,36.582575099910265,7.397322163487344,7.12974579683719,422.3203185282354,23.58725009542677,10.717825314035409,69.64288207427352,-2.6588289745433915,117.16098706101413,340.39805871615954,1.274,1.024292465384646,0.0,11.9993587231269,165.0000707061107,0.0693233811563638,-6.905373170437892e-07,0.1130548671779246,-0.2503310160225061,-0.0082756283801668,24.21315593472647,13.59268461544228,20.561338287417023,37.99787429920933
0.74,31.22219776491203,131.0104290391619,11.6637460579279,-14.06766399086896,-19.23217964724609,22.69860520679821,7.928632873366237,7.468090577954857,294.4828134710563,23.953011030060964,10.900906562049048,69.70043074662789,-3.0542133781446057,116.7393426755654,351.0293601676109,1.274,1.0242470321640116,0.0,12.037791320990005,165.0000707061107,0.0703985354857632,-8.704339457330156e-07,0.1248442909232632,-0.2679318727485648,-0.0092801280431876,23.669761422603106,13.270057533978784,20.98843807381325,25.17662158541627
0.75,31.222197261267564,131.01043003094415,11.88927613430144,-13.845048659605729,-19.00288566680692,26.480900257645555,8.391380006627955,7.772910590738499,330.24688556441737,24.09486375939628,10.998475730278688,69.76309711650734,-3.4802886532387727,116.28514541636774,355.19165832780374,1.274,1.0241984712898409,0.0,12.076306226150695,165.0000707061107,0.0708156246070444,-1.0640136386855233e-06,0.1367671532898163,-0.2857385882767201,-0.0102263827598661,23.35995616198959,13.076958656928936,21.16432178882804,28.845649167987577
0.76,31.222196756247182,131.01043102256898,12.113724911899018,-13.543204549115984,-18.671379363474188,28.44561525876035,8.903544886023871,8.103954111103036,349.2703242098581,24.353943230343884,11.139521886084262,69.83070517772062,-3.9380279546967,115.7973987786994,362.8632833198772,1.274,1.0241522053390697,0.0,12.114847898453004,165.0000707061107,0.0715772492378835,-1.271367431587792e-06,0.1486832495991014,-0.3035602325643986,-0.0112366727882614,22.923258924023667,12.818568765625542,21.472685066210733,30.888512609410725
0.77,31.222196241520727,131.0104320338463,12.342798383807736,-13.232821759944612,-18.3257328245112,26.453958099164726,9.429547841820622,8.443374143071093,331.76876669606884,24.624459031867566,11.284026952829414,69.90298218860288,-4.4281444642797805,115.27538665572024,370.96103142302826,1.274,1.0241065975906936,0.0,12.152627485294875,165.0000707061107,0.072372493437471,-1.4923863678889616e-06,0.1606524341290168,-0.3214777037258058,-0.012275829719896,22.470131878618044,12.555081916464898,21.794689538088186,29.32607778980047
0.78,31.222195720662487,131.010433056664,12.574156203088371,-12.943560882651465,-18.003205359434222,21.49138201250091,9.949910975783164,8.78072651642676,286.8734378128874,24.86022577970344,11.414737682334284,69.97966289951233,-4.951528682600021,114.71820702140752,378.0901662371758,1.274,1.0240588105546735,0.0,12.190607653365484,165.0000707061107,0.0730656141931623,-1.7270334998021438e-06,0.1726704603062843,-0.3394850397839182,-0.013320186744867,22.04727608652917,12.31207423895646,22.07859398088045,25.258293437790645
0.79,31.222195194229432,131.01043408983284,12.807456594901796,-12.685874238062553,-17.71821502875611,30.758111062806847,10.451132028819956,9.108216106026951,373.6203323159581,25.037989750313823,11.523323011123644,70.06045430356582,-5.50910656189096,114.12492307605928,383.5080014839576,1.274,1.0240083170932772,0.0,12.228392428756235,165.0000707061107,0.0735882662820431,-1.975268475097887e-06,0.1847080615897485,-0.357541527931231,-0.0143503593432433,21.672264608692608,12.09887695578472,22.298966575724844,33.73791868906373
0.8,31.22219466312396,131.0104351312291,13.042089086975064,-12.339528039715493,-17.315361534072167,31.04236133886336,11.027346538820307,9.476899203926443,377.42502064505805,25.36990131964267,11.687256075795055,70.14502218703889,-6.101777498450553,113.49462896805548,393.73433210835606,1.274,1.0239625010683884,0.0,12.265879871292148,165.0000707061107,0.0745639731677022,-2.2370184261575003e-06,0.1967232677509069,-0.3755885855740859,-0.0154861046773951,21.152012141458485,11.814778761611317,22.69122372650596,34.27888836734897
0.81,31.22219412269076,131.01043619344253,13.281670646799387,-12.014431743159992,-16.93609302961334,19.70585826680233,11.5967500828491,9.842818090024547,273.9374926939922,25.664998123208395,11.836590900251585,70.2329849478631,-6.730376611403276,112.82648944828,402.9379856343104,1.274,1.0239149950770308,0.0,12.30299746599012,165.0000707061107,0.0754314878882468,-2.512108890547091e-06,0.2087891123728848,-0.3937275983796215,-0.0166267273653293,20.66245204768592,11.553200189910656,23.043254264976603,24.89350378047809
0.82,31.2221935771391,131.0104372658709,13.523153069964712,-11.770620515751627,-16.660204009992366,25.49096247967945,12.095262135597707,10.16989043019854,328.725004432774,25.801924845210102,11.928160202433345,70.3239677846125,-7.395942492066624,112.1194549171388,407.23948333148894,1.274,1.0238644186635044,0.0,12.34034136051852,165.0000707061107,0.0758341331135344,-2.800482345758608e-06,0.2208725848854572,-0.4119126890910745,-0.0176824133716667,20.30202261632541,11.365459017018784,23.221668271945248,29.99185232078027
0.83,31.222193028858168,131.0104383418636,13.764628080875443,-11.45495608440749,-16.286572100573927,32.58354528932594,12.663570231010707,10.535534901742512,395.6875032246518,26.07536656975429,12.067424944650492,70.41754937760267,-8.099462809032227,111.37253163679136,415.9072010869804,1.274,1.0238188483711983,0.0,12.377430668981676,165.0000707061107,0.0766380112545951,-3.1020765768505143e-06,0.2328790692680049,-0.4300105978367924,-0.0188407604395263,19.821852940334583,11.12321839282854,23.551390727660404,36.51096999920887
0.84,31.222192472371937,131.010439437404,14.010686512435845,-11.103129047163524,-15.861034521188866,19.39178346022608,13.277986453277952,10.927366258760294,275.45937482564227,26.42424540867355,12.23188302344854,70.51323489979616,-8.84170809818755,110.5849573685532,427.100933661886,1.274,1.0237739661568126,0.0,12.413980604220669,165.0000707061107,0.0776636153341131,-3.4166285327033543e-06,0.2448679245425631,-0.4481047766609044,-0.0200752878157766,19.278972597217003,10.857545530121742,23.96449952394829,25.91820833651168
0.85,31.222191909303007,131.01044054881976,14.260272784547483,-10.85163369610252,-15.566759046814736,21.10928663093964,13.78134393561441,11.256856699423032,292.9609323393965,26.555641642346124,12.319159666777653,70.61052645109416,-9.62359924358132,109.75581052648651,431.3487282028747,1.274,1.0237227741398531,0.0,12.450688407385496,165.0000707061107,0.0780500223637879,-3.743947005365153e-06,0.2568628261893705,-0.4662292814341233,-0.0211628879548904,18.89876321275403,10.684784618677975,24.140392794764285,27.608771169507136
0.86,31.22219134490544,131.0104416600618,14.508780019036411,-10.55702422695202,-15.21159990698095,26.690196144523764,14.331954159990756,11.612425508500973,346.2265619465616,26.77604147971574,12.436305506747578,70.70890349512504,-10.44611664567586,108.8841063113968,438.5279743217365,1.274,1.023674789281455,0.0,12.487350337889747,165.0000707061107,0.0786980229666156,-4.0839734318656025e-06,0.2687421193996687,-0.4842109244084122,-0.0223248537240422,18.444692929153835,10.484523076409664,24.414580554957556,32.44410434066121
0.87,31.22219077386073,131.01044278823244,14.761121013448324,-10.228843103545284,-14.807764188038671,24.50670212891385,14.926326239539833,11.99255513338966,327.9640783669946,27.07031566623382,12.577401062034273,70.80776176060128,-11.309911627169049,107.96920770554048,448.2091046509394,1.274,1.0236288969245204,0.0,12.52331428737251,165.0000707061107,0.0795631568971429,-4.436388127493035e-06,0.280537575707589,-0.5020949235689748,-0.0235602745654448,17.931933997848386,10.266060886343007,24.770124732174764,31.099759530772527
0.88,31.22219019728828,131.01044393092883,15.016606680640548,-9.923049844882676,-14.431186480042824,20.661594210772808,15.49128167225132,12.355653900425311,294.4828134710421,27.309867318420256,12.698482108997675,70.9064802068744,-12.215681159612668,107.01042712442536,456.1656286133368,1.274,1.0235805388426191,0.0,12.55931802516408,165.0000707061107,0.0802674615425682,-4.800900029454849e-06,0.2922694240642145,-0.5199109610050174,-0.0247621474743432,17.4536773003063,10.078031980267864,25.06691380847773,28.62766959580827
0.89,31.22218961700541,131.01044508236387,15.2735767397902,-9.631927915320578,-14.071956445083998,22.663568719074448,16.03020811490434,12.703223199106176,315.02813424808807,27.507674495337163,12.804320665591325,71.00441405673658,-13.164128869636608,106.00706708277704,462.7862147216799,1.274,1.0235293752791452,0.0,12.595257872673344,165.0000707061107,0.0808490784869952,-5.177294425776106e-06,0.30389716852354,-0.5376010278517371,-0.025933142378666,16.99757569318839,9.915319943537266,25.319412007102475,30.528295054550036
0.9,31.22218903287274,131.01044624334855,15.5322660274075,-9.31981547302708,-13.68068638354466,25.065292643201268,16.597447067706973,13.06628797588036,339.3781423542166,27.75545021096014,12.925397162794244,71.10087150353641,-14.15578516812756,104.95860955235734,471.14916283184783,1.274,1.0234837388140003,0.0,12.630901509131816,165.0000707061107,0.081577565656343,-5.565302422198924e-06,0.3153875916575444,-0.5551172977723003,-0.027155431227663,16.50334092435211,9.748494617955307,25.62685447960219,32.77914010347572
0.91,31.222188444008143,131.0104474182835,15.793941507616209,-8.996709723132865,-13.270863788578705,18.125042935569944,17.18115412544071,13.438145984584567,277.7421810230785,28.03133306927569,13.054102222253068,71.19511953328308,-15.191002618953751,103.86471949028684,480.54986620277646,1.274,1.023436404813438,0.0,12.666286305336298,165.0000707061107,0.0823886713402447,-5.964560765152208e-06,0.3267477773651016,-0.5724706376098325,-0.0284124905599126,15.987545542545382,9.587306888670629,25.965339655085224,28.360060049326567
0.92,31.22218785097745,131.01044860608863,16.058295738129953,-8.709605277887803,-12.909092690830809,21.909199394028693,17.691482583890153,13.766636207773242,315.0281342480675,28.19890418634132,13.146363340761775,71.28640015598369,-16.270045759630637,102.72514864502163,486.3001406194375,1.274,1.0233859136578225,0.0,12.701586589258806,165.0000707061107,0.0828814374617073,-6.374716604628644e-06,0.3379737060720494,-0.5896560196599397,-0.0295635804729479,15.531001068661295,9.474817686924638,26.18826093900831,31.345204522870304
0.93,31.2221872555942,131.0104497990571,16.32311460909921,-8.390413614154083,-12.498861783855949,26.423926635350888,18.25605783704473,14.125442237263371,359.16250706547066,28.457745796946632,13.266390881166467,71.3739275198289,-17.393040614826262,101.53978775880152,495.2561501498272,1.274,1.0233407575091376,0.0,12.73675923100747,165.0000707061107,0.0836424674665058,-6.795498845807722e-06,0.3490041010752559,-0.6065840486848684,-0.0308078836498478,15.01661515210521,9.351515317494911,26.5099638244114,35.086117838515456
0.94,31.222186655748967,131.01045100849066,16.591652846899798,-8.054950190940946,-12.0621882242568,17.871792025457285,18.85134396745357,14.501107146536537,283.06875048378083,28.767254632916416,13.400571264160275,71.45687408280376,-18.559785160255345,100.30886527782242,506.0745767914208,1.274,1.0232914783978162,0.0,12.771513731941424,165.0000707061107,0.0845524261623364,-7.226426875053619e-06,0.3598608891950564,-0.6232878604124977,-0.0321109167970162,14.471211629225436,9.232413470547147,26.886495481451583,29.74989458898602
0.95,31.222186052345705,131.01045223195095,16.863213405885045,-7.761425376351751,-11.683258986844145,24.01952418232868,19.342615329857725,14.81494090905372,342.421873617488,28.93444830708721,13.488862027400677,71.53440002624407,-19.76996456754331,99.03271877605737,511.96087320301007,1.274,1.0232418269359267,0.0,12.806281289723824,165.0000707061107,0.0850441007103293,-7.66706019162621e-06,0.3705461532896907,-0.63977194848987,-0.0332556796214723,13.996428353517627,9.17326582859694,27.111937761748017,34.21340064774434
0.96,31.222185447203582,131.0104534591288,17.13482942607543,-7.428421354866457,-11.243922085668704,23.127422363642985,19.920011970139456,15.17766278552733,337.09533515678265,29.23610702495624,13.616851041828628,71.60564913277555,-21.023075097206576,97.71187417762872,522.6778741250168,1.274,1.0231951201821403,0.0,12.840967251297966,165.0000707061107,0.0859309990550609,-8.117112487282235e-06,0.3809879643290826,-0.6559299868050396,-0.0345483875477402,13.449767276800015,9.097593375022072,27.481230508628112,34.088795662328906
0.97,31.222184838190127,131.01045470591143,17.41108369317296,-7.105737356538366,-10.816876265918388,12.796427655203717,20.462604232051994,15.51864853512308,245.0218871929888,29.498787610834057,13.731124934449552,71.66973673602399,-22.31817790054742,96.34730402089492,532.0982632832362,1.274,1.0231476260761452,0.0,12.875194463012948,165.0000707061107,0.0867033421866498,-8.575984275517126e-06,0.3912195460820486,-0.6718129246972245,-0.0357939949687938,12.91876177604954,9.054777022902876,27.8097518901438,28.693120866317983
0.98,31.22218422714361,131.0104559616258,17.68890388833194,-6.818222703211576,-10.439388673486665,20.569525655868823,20.8893496299474,15.790049109249258,319.593746642963,29.61870216210378,13.801376738391356,71.72578100091212,-23.654194302238988,94.9401150447972,536.4187733804987,1.274,1.0230935628253934,0.0,12.90953182287949,165.0000707061107,0.0870560699880564,-9.04325535979472e-06,0.4012073162547059,-0.6873718872374373,-0.0368560460259847,12.44800954918945,9.072382205551376,27.98794472679016,33.29858802625319
0.99,31.222183614631145,131.01045722067303,17.966675473431668,-6.4881927961789225,-9.996003465547442,22.621435474392687,21.427647879474485,16.12510358218165,341.66094855170127,29.9065887984706,13.91948493034712,71.77289333512107,-25.029687325240754,93.49177755144346,546.8825831303121,1.274,1.0230490803133316,0.0,12.94361163897649,165.0000707061107,0.0879025094805367,-9.51857234547256e-06,0.4108862778104557,-0.7025093708259638,-0.0381110403255073,11.899092162848133,9.068658804547306,28.34437344013331,35.08407618998891
1.0,31.22218299950191,131.0104584997389,18.24922344304125,-6.159243870456621,-9.551502472747456,19.28531440727445,21.95253729963292,16.45053411620242,314.2672081822764,30.1907604922804,14.034426723797369,71.81018406749169,-26.44274520300649,92.00424719124368,557.3097666813034,1.274,1.022999484445133,0.0,12.977245759232106,165.0000707061107,0.0887380399366673,-1.000120393007182e-05,0.4202952048806319,-0.7172859983807764,-0.0393531036825802,11.34967567551847,9.090029987243163,28.69735360055955,33.532928866824946
1.01,31.222182382991367,131.0104597889809,18.533710421452167,-5.842441402775481,-9.122577723585309,20.077974466060585,22.422369803888337,16.741675193515352,324.92031610370094,30.420093884631395,14.13184606713939,71.83678694183374,-27.891297615297503,90.47963151543392,565.7932764101447,1.274,1.0229507481225095,0.0,13.01101658842769,165.0000707061107,0.0894123939636688,-1.0490624311769195e-05,0.4294130509368087,-0.7316716919775632,-0.04051113632587,10.819723508465756,9.1497267136338,28.993169526359555,34.44083934179409
1.02,31.222181765259435,131.01046108736764,18.81984118075948,-5.518743654719466,-8.680529851331734,15.312940209779974,22.90242294520996,17.036784274915476,284.59063161543185,30.681681551047006,14.236518730884368,71.85185618274365,-29.372927288570448,88.92038827978205,575.5500066722885,1.274,1.0229039803623294,0.0,13.044583568706123,165.0000707061107,0.0901815578140352,-1.0986343805570384e-05,0.4382046997636646,-0.7456138620026221,-0.0416948955074858,10.274950216910264,9.225091508285956,29.323357421286552,32.39226964971092
1.03,31.222181146490524,131.01046239932654,19.10890331597094,-5.207802197207561,-8.255854640186486,10.870958559419988,23.310581775313555,17.287335554080343,247.3046933904342,30.87337825860341,14.320129747005604,71.85457564714396,-30.884826415439782,87.32937146885557,582.7482766204041,1.274,1.022853416101322,0.0,13.077916063103176,165.0000707061107,0.0907453010006094,-1.1487736443404896e-05,0.4466607323314486,-0.7590998527955914,-0.0427638276968468,9.75152681488428,9.34239223233662,29.58103453974412,30.99052973512356
1.04,31.22218052697625,131.0104637181535,19.39895853670156,-4.90246245338294,-7.8378269127352125,21.166826253489543,23.66859627470968,17.505975460082833,345.4656368807608,31.027150434381788,14.391967243848969,71.8441707399209,-32.423890144164446,85.7097334833616,588.5513687753671,1.274,1.0228049544826707,0.0,13.11116509496697,165.0000707061107,0.0911975779546712,-1.1994290359818328e-05,0.454744090364817,-0.7720736918443059,-0.0437533690812535,9.236638492397208,9.492800177023817,29.799823686366107,36.258739085489964
1.05,31.222179906853803,131.0104650449596,19.690332640413,-4.567454745883441,-7.370655233256007,9.332000750361937,24.152710874002096,17.79664059197999,240.4562587980608,31.35953496087791,14.509593978744892,71.81991740185865,-33.98664597485567,84.06500047611712,601.2120342628368,1.274,1.022755494436122,0.0,13.144112166902236,165.0000707061107,0.0921748532186374,-1.25054241906089e-05,0.4624293316215854,-0.7844969687730085,-0.0449681869806184,8.664464619146914,9.618186649430177,30.20494581720432,31.419104012177126
1.06,31.222179287232606,131.010466391754,19.986523446339568,-4.2667320579162205,-6.955973381353801,16.30742200868984,24.434487649503566,17.96539427862642,308.1796836557233,31.470193862324425,14.567110303271434,71.78115373060142,-35.56931834358907,82.3990058762151,605.44530992234,1.274,1.0227013895379469,0.0,13.176800831602293,165.0000707061107,0.0925004212761682,-1.3020238920085048e-05,0.4697417959301914,-0.7964125965788716,-0.0458391608143185,8.154814862128667,9.824717834906252,30.38023423143132,34.434453543649376
1.07,31.22217866678569,131.01046773602948,20.28099033666972,-3.9421399398597528,-6.500507183943517,20.292117841675285,24.831872055737875,18.19981952769988,348.5093681440431,31.747275501027552,14.665976655342314,71.72728502268792,-37.16803080204991,80.71567942683453,616.136193813508,1.274,1.0226540159946436,0.0,13.209616596909328,165.0000707061107,0.0933151581076974,-1.3538414430142244e-05,0.4766136032658391,-0.8077139336495589,-0.0469179088984802,7.598046012460956,10.006182813150051,30.72836742100788,36.873097878179664
1.08,31.22217804778237,131.01046910051218,20.580353816533744,-3.6148331773887032,-6.038307809852348,10.342514318774247,25.232815555695986,18.4336610553445,261.0015785751465,32.05359795953946,14.7699987459251,71.6577975797642,-38.77854222643462,79.01932720385561,628.065420845166,1.274,1.0226061614050743,0.0,13.24182835347662,165.0000707061107,0.0942158537479381,-1.4059018669495036e-05,0.4830645303928567,-0.8184351597414004,-0.0480103864105531,7.034184690427539,10.198873957310216,31.10685758796483,32.91599069153393
1.09,31.22217742999,131.01047047661194,20.88212241604029,-3.308070517774245,-5.607722994398147,8.354203268534127,25.47167968610117,18.569088671211222,246.54375332456465,32.1966930238206,14.831512535490049,71.57225949833949,-40.396583374705926,77.31427984449202,633.6672450892231,1.274,1.0225512795791307,0.0,13.274180298861296,165.0000707061107,0.0946367785100656,-1.4581333718720243e-05,0.4890798754354906,-0.828555885110671,-0.0488238180033242,6.508065378608436,10.45559813919572,31.317239598607987,32.60997136402653
1.1,31.222176812058446,131.01047185504467,21.18358869244151,-2.9982745162212177,-5.170244336302739,26.11071707020773,25.70459698879207,18.6981942390848,413.1890617384087,32.363943580488964,14.897556719098896,71.47032749655325,-42.017796664755885,75.60495874743593,640.2491645912297,1.274,1.0224981043155532,0.0,13.306397900059668,165.0000707061107,0.0951287070752408,-1.5104936680324004e-05,0.4946143058065772,-0.8380030452222103,-0.0496313641101361,5.974668056453057,10.722585542026248,31.55290524086617,41.135365807042476
1.11,31.222176195631818,131.01047324483443,21.48739272904151,-2.6629106314212208,-4.68652445585537,15.981524073271432,26.153609257141788,18.951757146714847,324.1593910379213,32.81037293318613,15.02839063202809,71.35175954425974,-43.63769079210015,73.89592708737808,658.0150250679176,1.274,1.0224548851875197,0.0,13.338197750932352,165.0000707061107,0.0964412463573992,-1.5629079441407648e-05,0.4996582723954825,-0.8467629270342601,-0.0508276088507851,5.388764323025034,10.92224927069712,32.07503599166079,36.03594716152004
1.12,31.22217558447496,131.01047466006696,21.79767087573057,-2.3511112574551087,-4.2410557067911965,-0.9496042825898297,26.373598561132702,19.06721568308725,172.7328179403806,33.02192419755207,15.101343967982343,71.21641306142226,-45.251817697327766,72.19170653244889,666.5078767418848,1.274,1.0223979224661404,0.0,13.369866661555845,165.0000707061107,0.0970634099064577,-1.6152573240262506e-05,0.5042326325630418,-0.8548763629658224,-0.0516221171611084,4.848110697181721,11.206004307456704,32.3563488968093,32.55805834601723
1.13,31.222174973051548,131.01047607424786,22.106669975576125,-2.054729353288504,-3.82129861634472,19.899215328946127,26.39036336422541,19.06004730194961,367.5328077894322,33.035301166505235,15.12731829057194,71.06423496117738,-46.855927977084185,70.49661616818925,667.0281848461466,1.274,1.0223460397860296,0.0,13.401830697464124,165.0000707061107,0.0971030682545305,-1.6675130531657994e-05,0.5082872547529316,-0.8622596920454407,-0.052056754472745,4.337968830708818,11.564260236857036,32.435497880722195,38.1538392872352
1.14,31.222174361211188,131.0104774890402,22.41487200747549,-1.7320983865357629,-3.351358272865637,5.536611046440447,26.72952870674228,19.239438966839245,239.6953177322812,33.449002052759226,15.24263618678126,70.89528293950586,-48.445790056858655,68.81496650056371,683.8189285267454,1.274,1.0223022138470996,0.0,13.433290233100648,165.0000707061107,0.0983194313638189,-1.719639608972359e-05,0.5117900828902124,-0.8688563791696426,-0.0530703281010956,3.772047795966583,11.807743614948622,32.92287205782393,33.39577486034511
1.15,31.222173758288715,131.0104789345577,22.731135254389564,-1.4300354046382466,-2.9180895244000364,4.89168708332071,26.761546745407447,19.235008730104248,237.4125115347709,33.548190744908645,15.28558514896532,70.709724592628,-50.01730085070296,67.15094582261729,687.8595990402563,1.274,1.0222426194541194,0.0,13.46430949798052,165.0000707061107,0.0986113368620291,-1.7714889895774613e-05,0.5147644485458648,-0.874716204212501,-0.0535354179293076,3.249381353521559,12.162488102338616,33.09001645005253,33.31808139096459
1.16,31.222173152757943,131.01048037139347,23.04388208891921,-1.1261239273776047,-2.4786852557048378,32.087278435654106,26.82059685378324,19.24339318658379,490.043774385954,33.71352826991404,15.341820805095022,70.50780965913643,-51.56671359430696,65.50838159024448,694.6354770009491,1.274,1.02219674531104,0.0,13.495776724681075,165.0000707061107,0.0990976786619587,-1.823050369281001e-05,0.517170786847796,-0.8797670442987054,-0.0540491281694279,2.722360087529012,12.50423865760096,33.324298736257305,46.03526946085816
