Time,Latitude,Longitude,Altitude,Angle of Attack,Angle of Sideslip,X-Acceleration,Y-Acceleration,Z-Acceleration,Thrust,True Velocity,Ground Velocity,Pitch,Roll,Yaw,Dynamic Pressure,cp,parachute_deploy_gain,Wind Speed,Mach,omega_x,omega_y,omega_z,Cmq
0,31.2221860000000042,131.010383999999988,3.00000000364323682,0,0,0,0,0,2.2828121974499247,0,0,69.9999999962342088,0,113.699999993883324,0,15.2880000000000003,0,0,0,0,0,0,-0
0.01,31.2221859999997946,131.010384000000556,3.00000016469923247,0,0,0,0,0,34.2421869617492334,9.11367326775851009e-12,8.66229497295429822e-12,69.9999999962370651,-4.92863947922479589e-13,113.699999993882884,5.08594204168408172e-23,15.2880000000000003,0,0,2.67827100510624443e-14,-3.65918233213857746e-19,7.58941520739853104e-19,4.81114714040442593e-19,-1.83541113936281872e-32
0.02,31.2221859999996028,131.010384000001039,3.00000030885429547,0,0,0,0,0,25.8718762377664078,1.96992978605390895e-11,1.88456988716431921e-11,69.9999999962400494,-1.04152381447771591e-12,113.699999993882386,2.37621641206600858e-22,15.2880000000000003,0,0,5.78911013494094702e-14,-7.28448334638698292e-19,1.51788304147970621e-18,9.75781955236953991e-19,-7.93451985123442364e-32
0.03,31.222185999409362,131.010384001586402,3.00018176030779937,18.6493779029494604,-0.000129237623237530007,10.7928899806483045,-1.97644583900689674e-05,3.34983967390763571,180.342193598546658,0.0785672533977095078,0.0490694047558625918,69.9999999976775626,-4.2497891361524094e-12,113.699999994705607,0.00377978965327356543,15.2880000000000003,0,0,0.000230888677896110966,2.88330015245363835e-17,-7.25223402354589416e-10,1.08188208080271277e-11,1.51197624781400831e-13
0.04,31.2221859959356287,131.010384010943454,3.00162780953569674,9.74253989061216075,-4.88763086122285772e-05,51.6475445943311158,1.54548216767323456e-06,3.34965665682309899,548.635972453807767,0.346420694310776434,0.171860503977579737,70.0000000036447574,-2.28205307288861013e-11,113.699999999565534,0.0734838809649275282,15.2880000000000003,0,0,0.00101804013696402693,1.80009747884589399e-15,-1.58734069119923437e-08,2.61929145365345784e-11,1.45916869803439425e-11
0.05,31.222185985910329,131.010384038045004,3.00715844163023283,5.5769968489095687,-4.21135943534799539e-06,75.3242160169835273,4.73080294831520123e-05,3.34902689347595528,761.698429882464552,0.947854334293939504,0.409211128642743283,70.0000000010935537,-1.04766136577077691e-10,113.700000013612069,0.55013262299765131,15.2880000000000003,0,0,0.00278549703395658196,1.95473045844392346e-14,-1.13584749331540247e-07,4.14067569904437612e-11,2.85688606727574374e-10
0.06,31.222185966868647,131.010384089593572,3.01868664272593046,4.48500474963244322,2.31139019787050305e-05,56.3605563030587007,9.71465785775115924e-05,3.34799244711343214,590.487539073720654,1.60618980149218604,0.665693519146445256,69.9999999197690244,-2.82941102348924619e-10,113.700000040305838,1.57971028663545732,15.2880000000000003,0,0,0.00472017413217633904,1.01936766184118274e-13,-4.07864410983111553e-07,5.76522069423461223e-11,1.73837509686130208e-09
0.07,31.2221859390775336,131.010384164863126,3.03600551209402658,4.00448286551149391,4.63712119495135773e-05,85.8192455386477917,0.000147926970097503541,3.34656708333141317,855.293774977913927,2.27788210706903049,0.926660947343454056,69.9999996219982279,-5.49831570978999292e-10,113.700000079276109,3.1772067926123353,15.2880000000000003,0,0,0.00669410445039518576,3.35900025920073467e-13,-9.92070622953462368e-07,7.83315922772719921e-11,5.99658406989250883e-09
0.08,31.2221859009658012,131.01038426812616,3.06033476575187802,3.77263127792190334,7.06371256062416025e-05,17.6076228145981588,0.000196957592070898702,3.34480227118667583,241.217198863884818,2.92612482887636283,1.17954495655796454,69.9999989088305909,-9.15694670892462832e-10,113.700000132739973,5.24285298735243899,15.2880000000000003,0,0,0.00859912396431777512,8.49635706706491564e-13,-2.01744800413265681e-06,1.10032289818440005e-10,1.56647792516492608e-08
0.09,31.2221858556197738,131.010384390989856,3.0892797608365723,3.74258231141200604,9.5325675231994802e-05,53.4176180048964397,0.000237730218002333866,3.34289666486112669,563.093737704317618,3.46187703891102627,1.39384941462988121,69.9999975134546446,-1.31671842773002699e-09,113.70000019638816,7.33844512707370811,15.2880000000000003,0,0,0.0101735644468633635,1.80613395740032365e-12,-3.4856561047658452e-06,1.59232278560273843e-10,3.20202005890100843e-08
0.1,31.2221858028175774,131.010384534057465,3.12301320909491364,3.81071421019783685,0.000121971080758598364,50.732831688561788,0.000271545837515448313,3.34090447591365036,538.7437595981919,3.9029133825176725,1.57567038389986336,69.999995157830341,-1.72222432289554893e-09,113.700000270567642,9.32732681847184431,15.2880000000000003,0,0,0.0114696609641860067,3.37914451533694905e-12,-5.48904943388414521e-06,2.34452541412924053e-10,5.68476506314615152e-08
0.11,31.2221857431700727,131.010384695667796,3.16106164078641116,3.84323765504598036,0.000147145408783231387,40.0848474374385688,0.000307099758177995722,3.33859717034531034,442.865639305294906,4.36819921201157246,1.76578242121538631,69.9999915253729768,-2.07703942468805025e-09,113.700000354470319,11.6837607126815346,15.2880000000000003,0,0,0.0128370221364947634,5.76365694334259916e-12,-8.08162139954488366e-06,3.4437809457680147e-10,9.36754562129998513e-08
0.12,31.2221856770245907,131.01038487487628,3.20315617196047642,3.86558564807459826,0.000171348089099210797,43.7480799143332604,0.000342946594964391399,3.33600966231316054,475.585948135404465,4.83801864946757032,1.95742650583495204,69.9999862600106582,-2.3147200577597177e-09,113.700000447673773,14.3321420062794882,15.2880000000000003,0,0,0.0142177082532951912,9.17772063248746377e-12,-1.13223702306849879e-05,4.98555567062495836e-10,1.45354343598177095e-07
0.13,31.2221856047215205,131.010385070757366,3.24903338361815308,3.95285669440916232,0.000198169826234992146,48.2585391180499741,0.000371981107240517913,3.33344523512332414,515.915632623689476,5.21512035057569623,2.1172615234944101,69.9999789703044399,-2.35265113573284059e-09,113.700000549782459,16.6533950244453948,15.2880000000000003,0,0,0.0153259223232261182,1.38588880633063252e-11,-1.52681962163171846e-05,7.07166414280215559e-10,2.11287244421402401e-07
0.14,31.2221855263490333,131.010385283071088,3.29862557546706325,3.99981420118284792,0.000223008237377726162,44.9721767850953427,0.000403855591455553264,3.33052592490198407,486.239086056840392,5.63167615200940475,2.29059513099545553,69.9999692426645623,-2.0964169591742506e-09,113.700000660771011,19.4199179783547713,15.2880000000000003,0,0,0.0165500839355928395,2.00553635588333716e-11,-1.99811439493909854e-05,9.81252131659242702e-10,2.9859131057555361e-07
0.15,31.2221854420015994,131.010385511560628,3.35186028506811029,4.05975476911301225,0.000248539990764711958,43.4637160193537753,0.000433543226731567866,3.32747422849243879,472.54218587214001,6.01888316560526437,2.45383766868271946,69.99995661705006,-1.43188768134039915e-09,113.700000780625842,22.182048585914238,15.2880000000000003,0,0,0.0176879988684610287,2.80404916713566325e-11,-2.55291719775422389e-05,1.33309260321839681e-09,4.07727088477750495e-07
0.16,31.2221853515819241,131.010385756490507,3.40881389436676407,4.08854462484130732,0.000272210944932510383,34.4023069357135967,0.000465877824565354701,3.32404684464906053,391.12189082975641,6.44303061809316624,2.62971580822363071,69.9999405987561403,-2.27841984783363582e-10,113.700000909623355,25.4183784408083007,15.2880000000000003,0,0,0.0189344747787753703,3.81042963600432359e-11,-3.19913711614788564e-05,1.77662362644707755e-09,5.46937370926295155e-07
0.17,31.2221852554099399,131.010386016990765,3.46923909377793649,4.13347468842419552,0.00029684158695823977,43.4155809381403728,0.000495744973995866601,3.3205135250562221,471.78125980632376,6.83404379119085981,2.79420112365087148,69.9999206448319882,1.67575894446247236e-09,113.700001047478835,28.5969980778046526,15.2880000000000003,0,0,0.0200835795555658371,5.05622819343119236e-11,-3.94162603380559734e-05,2.32482468580976756e-09,7.14768170397066036e-07
0.18,31.2221851530022434,131.010386294375877,3.53351204963262022,4.16207877285686756,0.000320492787063832857,36.2151660219171347,0.000526966735016640565,3.31665933612355879,407.101567211914528,7.2444022294323478,2.96528531587496236,69.9998961790314524,4.45070668055043651e-09,113.700001195059045,32.1341903991183955,15.2880000000000003,0,0,0.0212895378539265934,6.5741708189353534e-11,-4.79243856484647045e-05,2.99669991322666987e-09,9.21230820748327094e-07
0.19,31.2221850444828668,131.010386588308563,3.60153760019172342,4.17456309251139679,0.000342914278589344943,40.9041800427263027,0.00055982867240863632,3.31244583927210501,448.953132831826849,7.67810673790947895,3.14433961722118216,69.9998665624008964,8.30674092292676784e-09,113.700001352409558,36.0967170721845179,15.2880000000000003,0,0,0.0225641073333706747,8.40032927522686365e-11,-5.75836346763551867e-05,3.80911503044151526e-09,1.17316671380156179e-06
0.2,31.2221849296486234,131.01038689934137,3.67347464118590317,4.20078915399145636,0.000366573034254704516,37.5214898208491761,0.000590466919182690893,3.30812712915434881,418.515630199161365,8.08216006412957277,3.31318683933006453,69.9998311045104487,1.34800080829191884e-08,113.700001520067786,39.9955165273270055,15.2880000000000003,0,0,0.0237515420632470921,1.05728805481567758e-10,-6.85028882131185225e-05,4.78351733027568889e-09,1.4690610466811608e-06
0.21,31.2221848088436893,131.01038722653837,3.74905730552401684,4.22722562033261262,0.000390310433246848657,36.0064697775761644,0.000620601272787201603,3.30359776763142721,404.818761014464428,8.48018829437500621,3.47992805775657654,69.9997890742529592,2.02433263776548733e-08,113.700001697833756,44.0315784885794201,15.2880000000000003,0,0,0.0249212734096428447,1.31320595517854955e-10,-8.07208291683553139e-05,5.93661589182972911e-09,1.81631626331753899e-06
0.22,31.2221846819136672,131.010387570319409,3.82840670130281646,4.2176244726165093,0.000410696285369717819,43.5935627685881499,0.000655758920494764063,3.29841875767922987,472.542185872136486,8.94831461811120121,3.67066782999472752,69.9997397083127737,2.88926538075102191e-08,113.700001886238866,49.0266756129506618,15.2880000000000003,0,0,0.0262970098082033268,1.61186003536399267e-10,-9.43348117723774896e-05,7.29106197993283208e-09,2.23980539128825791e-06
0.23,31.2221845484548304,131.01038793178239,3.91183756115468473,4.25320537954326383,0.0004356497720089569,36.207459360748949,0.000683686922722525747,3.29355466128287455,406.340642146102141,9.31799902525197865,3.82760028360492655,69.9996821549030983,3.9766623706965518e-08,113.70000208621326,53.1608354775167555,15.2880000000000003,0,0,0.0273834518362109196,1.95767624418301473e-10,-0.000109505708778552874,8.87784718088286285e-09,2.70740355927931971e-06
0.24,31.2221844093456014,131.010388308538637,3.99866964940866776,4.27135264557773553,0.00045883378920767232,37.3286080087975947,0.000713911697673520317,3.2882529474867046,416.232824001711379,9.7203332459195213,3.9956861712714935,69.9996155408946805,5.32509871046438109e-08,113.700002296918697,57.8502398901668755,15.2880000000000003,0,0,0.0285658473732890855,2.35534745143307651e-10,-0.00012617657385590063,1.07071802425012536e-08,3.25424194465518317e-06
0.25,31.2221842644570167,131.010388700938847,4.08900446593793809,4.29698686981540234,0.000482848983334858658,38.3649566400252979,0.000742483922667206905,3.28284626589867479,425.364080791506922,10.1009615935159527,4.1562806652626314,69.9995389781877293,6.97479781374676735e-08,113.700002518962805,62.4689963611702623,15.2880000000000003,0,0,0.0296844577155840929,2.80933085873043406e-10,-0.000144451636124542286,1.28055329635332884e-08,3.87142965072796435e-06
0.26,31.2221841140756986,131.010389108203611,4.18262110402873155,4.32755423691547136,0.000507438991606541483,41.7865661614553829,0.000769736419800412888,3.27732087646770287,455.80158342417883,10.4644497354123782,4.31094871887776954,69.9994515368878751,8.97024502886333285e-08,113.700002752408935,67.0452443356678742,15.2880000000000003,0,0,0.0307527002093570291,3.32431765373287754e-10,-0.00016436315770221847,1.51925047864838523e-08,4.56355359993810651e-06
0.27,31.2221839578137299,131.010389531387915,4.27982215321117465,4.33742811840656994,0.000529702335486379188,38.2242911032538473,0.000800211178185602123,3.27123004841987974,423.842199659872563,10.8736118498261902,4.48123226393084195,69.9993522521519935,1.13587393208351198e-07,113.700002998306658,72.3900346549699947,15.2880000000000003,0,0,0.0319551720828357214,3.90484337603431509e-10,-0.000186059811616844751,1.79019946498730075e-08,5.36790267753501075e-06
0.28,31.2221837957695953,131.010389970223883,4.38053283172365671,4.35979025650862262,0.000553527510562852902,44.1207307275094038,0.000828072271385077072,3.26514386100193477,476.346873201222195,11.2478718916014184,4.63949182586423614,69.9992400702920463,1.41938296327408329e-07,113.700003257081931,77.4582454645660761,15.2880000000000003,0,0,0.0330550782151640757,4.55595825375374429e-10,-0.000209619220926101062,2.09616181379585756e-08,6.25569396794615011e-06
0.29,31.2221836278828384,131.010390424876022,4.48480177698289584,4.38135974025744623,0.00057737648726709299,35.3536197607625553,0.000855659611391794222,3.2588361863853601,397.970310422111766,11.6195889013503368,4.79682445966682813,69.9991139044831527,1.7532937395312496e-07,113.700003529427192,82.6616578528940948,15.2880000000000003,0,0,0.0341475147840558241,5.28268525040872464e-10,-0.000235137545717689308,2.44023887909330158e-08,7.24907222782668121e-06
0.3,31.2221834544381096,131.010390894570321,4.59240982688131272,4.39617507281761988,0.000600356665334356751,33.1490797613948018,0.000884158719714270942,3.25217107922164672,378.185945710871067,12.0052186882677852,4.95887519756831807,69.998972627127344,2.14383684192303281e-07,113.700003815596887,88.2385269149682756,15.2880000000000003,0,0,0.0352808420099011907,6.09029939588318471e-10,-0.000262641159892275291,2.82471356422800846e-08,8.36561857411674722e-06
0.31,31.2221832755909574,131.01039137888381,4.7032380575360353,4.42235615181669761,0.000624899913490765827,34.9528590290802086,0.000910025197609511073,3.24555398289468222,394.16562209302117,12.3556398803864607,5.10879227158949156,69.9988150759387651,2.59766173767152649e-07,113.700004116072961,93.4639131761651498,15.2880000000000003,0,0,0.0363107024397255479,6.98403788157463991e-10,-0.000292187019282257228,3.25229566712151178e-08,9.57826248689966157e-06
0.32,31.2221830914257232,131.010391877587324,4.81722282885169673,4.45155794779377789,0.000649944303128982049,38.0379859115142835,0.000934821026682707218,3.23882361682650144,421.559393462426954,12.6924793110791878,5.25399282922068878,69.9986400687318024,3.12179641788393281e-07,113.700004431478234,98.6283237403037703,15.2880000000000003,0,0,0.0373006526995305274,7.96905013945712519e-10,-0.000323836613651358495,3.72580440687311147e-08,1.09050644159405278e-05
0.33,31.22218290196043,131.01039239063175,4.9343519698327194,4.48019701204722054,0.000675004219851668761,37.7093551175013246,0.000959261610436717115,3.23189933669563656,418.515630199168186,13.0256844327599097,5.39788776638052958,69.9984463826819052,3.72372687880250348e-07,113.700004762578004,103.87354288045799,15.2880000000000003,0,0,0.0382799263433428877,9.05047894999210997e-10,-0.000357667290238851605,4.24836225249657193e-08,1.23603484615852587e-05
0.34,31.222182707020778,131.010392918491164,5.05476263450916541,4.49049305198152204,0.000697378143373914754,29.5227085089536203,0.000987142430045659337,3.22427911658814059,345.465636880756449,13.4081741031825317,5.55863100914667463,69.9982327456812641,4.41143957445642244e-07,113.700005110463266,110.062177258613033,15.2880000000000003,0,0,0.0394040418267209702,1.02333461745717641e-09,-0.000393806243978271305,4.82396483202145133e-08,1.40087103268591529e-05
0.35,31.2221825067937928,131.010393460657156,5.17831168393457641,4.50711781535187139,0.000720712543856854714,32.3530371383660977,0.00101333646443235357,3.21661305844837253,370.576570052703289,13.7686530554979374,5.71176159517965232,69.9979978091806316,5.19362042776584697e-07,113.700005475786654,116.058400304168075,15.2880000000000003,0,0,0.0404634764462946869,1.15232390415689195e-09,-0.000432299813734132244,5.45552399130644805e-08,1.57912776608867467e-05
0.36,31.2221823012122108,131.010394017312592,5.30505329869157727,4.52767240178778962,0.000744729708600240731,36.5526511043957356,0.00103828652712813154,3.20885713174522058,407.862523277719447,14.1132764952183631,5.85938873702120233,69.9977401961163537,6.07939829707116331e-07,113.700005859608282,121.939407863977465,15.2880000000000003,0,0,0.0414763190843316643,1.29254043868676357e-09,-0.000473255972436325862,6.14699225552327593e-08,1.77198251922661022e-05
0.37,31.222182090341061,131.010394588280832,5.43493909097431604,4.55039311415752579,0.00076918150115683735,34.6835787828593496,0.00106234372950533948,3.20097384516078431,391.121890829766642,14.446930470491731,6.00318739776240751,69.9974584775585669,7.0785096329375243e-07,113.700006262864989,127.771540530283914,15.2880000000000003,0,0,0.042456928843506235,1.4445318520011827e-09,-0.000516746496826029863,6.90186481791334769e-08,1.98053803654614999e-05
0.38,31.2221818741223878,131.010395173719473,5.56801609611825477,4.56315131642791805,0.000792019287104061913,36.2353933787001239,0.00108827974821363053,3.19255015153205646,404.818761014460279,14.8084413239345949,6.1564787166299757,69.9971511865591651,8.20121521966083772e-07,113.700006686723384,134.244380272309172,15.2880000000000003,0,0,0.0435194095147296359,1.60882660749176723e-09,-0.000562873331420229127,7.72423853301427293e-08,2.21128406351508731e-05
0.39,31.2221816525004634,131.010395773780147,5.704329739781131,4.57922628245169783,0.000815489716137310881,30.9425419640016202,0.00111309493143926189,3.18402316666385765,357.640624933827439,15.1559126959619999,6.30488433186772657,69.9968167722787769,9.45855271408966431e-07,113.700007132429306,140.616382889747683,15.2880000000000003,0,0,0.0445406353688629561,1.78596578656278109e-09,-0.000611756345505213715,8.61868943159197994e-08,2.45968452142520012e-05
0.4,31.2221814256617982,131.010396387955836,5.84373750626454935,4.59349479979191955,0.000838670682925170751,29.5834243852937959,0.00113797512888990423,3.17521289611434332,345.465636880754005,15.505969085398343,6.45410901523083158,69.9964536498379317,1.08621525395706341e-06,113.700007600947828,147.185065961143067,15.2880000000000003,0,0,0.045569462889951777,1.97653506559195414e-09,-0.000663427505461186432,9.58835144134294998e-08,2.72901174189528038e-05
0.41,31.2221811937141673,131.010397015953487,5.98615797249314241,4.60939449845229365,0.000862163931524819621,33.360545626359837,0.00116210409424792778,3.16624854525325983,378.946870776686467,15.8471768437686258,6.60022848408685459,69.9960602026584695,1.24241947051318175e-06,113.700008093413757,153.73182724817184,15.2880000000000003,0,0,0.0465722905345462151,2.18109996727848554e-09,-0.000717942131686907965,1.06367950505874699e-07,3.01820283711074823e-05
0.42,31.2221809567080335,131.010397657635991,6.13155423418529733,4.63387609959193458,0.000887317919769279608,37.5676427387571721,0.001183742077125155,3.15743374731593907,416.232824001711379,16.155026338188506,6.73482947265292431,69.9956347739890248,1.41574639558456e-06,113.700008611107208,159.760443802515937,15.2880000000000003,0,0,0.0474770882933877245,2.400206535531791e-09,-0.00077537935552726017,1.17680930846389008e-07,3.32294321368729263e-05
0.43,31.222180714655078,131.010398312971745,6.27991949833728835,4.65367427313455995,0.000911660169575580258,33.0386483003103493,0.00120612360190941372,3.14823214930187856,375.903139513433644,16.4750454055619109,6.87353555569934649,69.9951756835756242,1.60752723178871754e-06,113.700009155418982,166.15023929888028,15.2880000000000003,0,0,0.0484176551665520677,2.63438237315801404e-09,-0.000835821567166909188,1.29864614855892046e-07,3.65287677570896608e-05
0.44,31.2221804673911407,131.010398982407111,6.43138341412837455,4.65757387742934892,0.000932929976641759203,30.4788052564327749,0.00123214974254881528,3.13809943757763454,353.075012538921555,16.8483715860516412,7.03046484016701978,69.9946811832270441,1.81916859536649675e-06,113.700009728069276,173.762989227436179,15.2880000000000003,0,0,0.0495148886868988364,2.88411342836306464e-09,-0.000899417740154189794,1.42975581697416844e-07,4.01983191819108926e-05
0.45,31.2221802146980103,131.010399666535704,6.58611776122768511,4.65827001030579346,0.000953562143933252499,35.4620561517945134,0.00125873275223327787,3.12754579585638304,397.209385356286873,17.2316459864824161,7.19073264961644831,69.9941493995125938,2.05218870761162579e-06,113.700010330973456,181.755888424112015,15.2880000000000003,0,0,0.0506413642318551335,3.14987863732273609e-09,-0.000966369542842942814,1.57083782729145849e-07,4.41725079750487196e-05
0.46,31.2221799565319174,131.010400365476642,6.74415901717088939,4.66907507286434065,0.00097630283571516251,41.3913707355688842,0.0012823814722795761,3.11722412848720953,449.71405889764344,17.5754687869478978,7.33738035579407555,69.9935783582983362,2.30821229426708146e-06,113.700010965912341,189.078525726536213,15.2880000000000003,0,0,0.0516519027755614896,3.43223060675433133e-09,-0.00103681314204437207,1.7224885851047691e-07,4.83373548649469587e-05
0.47,31.2221796928065203,131.010401079464799,6.90557672428163105,4.67806301106434042,0.000998761260684927557,28.0209900204918974,0.00130616618884544979,3.10657060381263461,331.007810630253402,17.9233234115620377,7.48533101007974988,69.9929660462147325,2.5889364060732201e-06,113.700011634803886,196.634049649816575,15.2880000000000003,0,0,0.0526742959306323727,3.73170463860384924e-09,-0.0011108841623615434,1.88532207060213475e-07,5.28148505664365441e-05
0.48,31.2221794239793269,131.010401807256216,7.07001851744381948,4.68642527483421745,0.00102109091231145262,27.6007969606275125,0.00132978852885184593,3.09563681785184297,327.203122301157407,18.2709832353803314,7.63313726727991071,69.9923104035261474,2.89614261094227829e-06,113.700012338884164,204.33305198470137,15.2880000000000003,0,0,0.0536961221459722679,4.04904859899578719e-09,-0.00118849531779471017,2.05948560519311644e-07,5.75998398329450787e-05
0.49,31.2221791502289392,131.010402548365278,7.23734841566291642,4.70156796398202914,0.00104489945272251677,34.6487244505178253,0.00135120419031512233,3.08484494341801163,389.60000969812296,18.589315545984995,7.7707981814672209,69.9916093757078812,3.23165731652504743e-06,113.700013079832303,211.511801733856089,15.2880000000000003,0,0,0.0546317638991248022,4.38486615800834454e-09,-0.00126967773493266863,2.2453662401782158e-07,6.26054017926546362e-05
0.5,31.2221788715876762,131.010403302704333,7.40754387012007864,4.72212438923579736,0.00106996435823571525,35.6033845714535389,0.00137072557486675028,3.0741588573465477,397.970310422105001,18.8826594549893159,7.8998011517407587,69.9908609011483378,3.5973597360057951e-06,113.700013859590555,218.236320199079358,15.2880000000000003,0,0,0.0554939729313439212,4.73968531279909998e-09,-0.00135450679800636423,2.44344941868023912e-07,6.78409867869358833e-05
0.51,31.2221785881337617,131.010404070060673,7.5805467220577798,4.73558879650721298,0.00109346949398930206,27.1956639286467201,0.00139183542187690463,3.06284319292573448,323.39843497208409,19.200774511812984,8.03722958125224807,69.9900628955037689,3.99519228958782199e-06,113.700014680103109,225.647740475438098,15.2880000000000003,0,0,0.0564289867670437692,5.11403675587933804e-09,-0.00144303978709531136,2.65418546512062939e-07,7.34915902759761199e-05
0.52,31.2221782998839075,131.01040485046758,7.75636900758130832,4.74484123710442152,-17.7878104764138847,33.0232813988700684,1.06290430660479274,3.05081100975747121,372.098451184341457,20.5083793470298872,8.17730637591392906,69.9892123481260029,1.00885073862370502e-05,113.700021568590088,257.423888595035521,15.2880000000000003,0,6.26610767645119093,0.0602720146223491432,5.50868867095635024e-09,-0.00155031876326201324,-1.04461828889467048e-06,8.43306806397701184e-05
0.53,31.2221780061358665,131.010405644064036,7.93513739756277925,4.75491076841361071,-17.5479649231669974,34.6674534465810567,1.0901842404313522,3.03879448942743569,386.55624643486243,20.8230430847196288,8.31731044058609115,69.9883001706950836,-0.000258066910433438646,113.699736593392771,265.379335841532679,15.2880000000000003,0,6.28993865864945167,0.0611969023517421676,5.8243702629038913e-09,-0.0016466669396356967,-0.000379204681359309804,9.09443596357917841e-05
0.54,31.2221777064274413,131.010406450964467,8.11693224562251814,4.76475265546688664,-17.3159454483818855,30.4657158869320099,1.11779494481486985,3.02651911178985511,349.270324209843579,21.1361569617766563,8.45658541811234699,69.9873317317640868,-0.00112793832484445232,113.698811241249118,273.415528984543812,15.2880000000000003,0,6.31372250548930403,0.0621172410333886982,5.94827257700223386e-09,-0.00174717968257140583,-0.00076708438691082024,9.79448985068524938e-05
0.55,31.2221774009902511,131.010407270444659,8.30155289458145873,4.77571270602904985,-17.0957495352060178,32.2818454293310779,1.14541652811086614,3.01407931941707918,365.250000591990727,21.4422462212117964,8.59317607051373322,69.9863046401611086,-0.00261446618460968189,113.697229603048484,281.386971185389086,15.2880000000000003,0,6.33742004854706131,0.063016940745034819,5.88229056698875963e-09,-0.00185182443646376028,-0.00116429092989848776,0.000105312667858848029
0.56,31.2221770898120639,131.010408102487816,8.4889995110019747,4.78875420333133395,-16.8900029359578667,30.1411606266271157,1.17279455075197925,3.00155595188373914,346.226561946578727,21.7370835251966632,8.72557660766280918,69.9852164795469918,-0.00473233710030982347,113.694976039137686,289.173278540409456,15.2880000000000003,0,6.36103154262373938,0.0638835776307541542,5.62844078208694465e-09,-0.00196071085752204171,-0.0015709661956449484,0.000113036196695760353
0.57,31.2221767729476447,131.010408946896177,8.67922059288824421,4.79932718536488157,-16.6831392265392786,29.806454974147087,1.20101736394058234,2.98861335519176441,343.182829683302316,22.0394250074128806,8.86052825352921047,69.9840647844076784,-0.0074962219198265144,113.692034925414276,297.268025030291255,15.2880000000000003,0,6.38455580148203783,0.0647722744450579674,5.18900923981939336e-09,-0.00207390142818841177,-0.00198707694991971575,0.000121222474944691715
0.58,31.2221764503641452,131.010409803710786,8.87223275513975551,4.80446291399855685,-16.465507642165786,39.1998855372748238,1.23088293572604579,2.97499207995942783,426.12500585731533,22.3623295503747777,9.00270292050974241,69.9828470254038564,-0.0109209149826387866,113.688390505257686,306.036844698464279,15.2880000000000003,0,6.40799081661022019,0.0657214106195588982,4.56637985765478115e-09,-0.00219151107111487673,-0.00241277762893106484,0.000129971292943085824
0.59,31.2221761216744795,131.010410673933933,9.06832688728351677,4.81526594140704134,-16.2729746243433624,31.8060464609551552,1.25962408207275089,2.96156488730656875,360.68438819711065,22.6586274763369531,9.1351951140901626,69.9815605232170981,-0.0150221530898840185,113.684026018186856,314.194551941350142,15.2880000000000003,0,6.43137118350880321,0.0665923579813898769,3.76266206798979625e-09,-0.00231389400412130002,-0.00284905043773621067,0.0001390450746294063
0.6,31.2221757870622802,131.010411557016312,9.26735147548352067,4.81691784702876458,-16.0577321249854172,28.2844123931971225,1.29105678152901215,2.9471094710556609,329.48595949860578,22.992332359464541,9.28092408266973301,69.9802024846340061,-0.0198158614680722378,113.6789245037466,323.5111168683801,15.2880000000000003,0,6.45467284516799467,0.0675732484954547213,2.78047114224413906e-09,-0.00244103860678715175,-0.00329558120927021369,0.000148842832620622401
0.61,31.2221754464694641,131.010412453065982,9.46934247163249765,4.81684941349393547,-15.8436841574678091,33.1191444963994144,1.32335098120911643,2.9321990373093354,372.09845118432969,23.3320740785482563,9.42864876669278296,69.9787701298593277,-0.025318354268839962,113.673068577980231,333.135888454609585,15.2880000000000003,0,6.47789823997392045,0.0685718876906387942,1.62233397812879552e-09,-0.00257309464461289404,-0.00375261859744119644,0.000159210216766249307
0.62,31.222175099988597,131.010413361780763,9.67421896320593255,4.82988753565935625,-15.6763650348593817,41.1452481626599962,1.35241564486044363,2.91817949698821932,442.86563930529212,23.6109565385473736,9.55449741528942731,69.9772604713171091,-0.0315462767062371363,113.666440511101584,341.140551956810327,15.2880000000000003,0,6.50104589109051467,0.0693916707381519726,2.90898857231686831e-10,-0.00271013975051046137,-0.00422016279405373115,0.000169690898873446985
0.63,31.2221747474379896,131.01041428360881,9.88211363952963318,4.83834810587122721,-15.5002502462261198,23.3955283983179996,1.38301780200841251,2.90349372916787418,286.112512747078938,23.9076565012112106,9.68657641468993624,69.9756705659193869,-0.0385156595619296285,113.659023223126042,349.761118561335252,15.2880000000000003,0,6.52411923987429176,0.0702638250271211823,-1.21081484986937968e-09,-0.00285238494344114846,-0.00469864556131676259,0.000180838024917143062
0.64,31.2221743893438948,131.010415217070943,10.0926099505106421,4.8397051189810707,-15.3078326572183823,22.9711984881640916,1.41596251217020375,2.88785167426855072,282.307824417967538,24.2347415414111005,9.82936125653617232,69.9739973557564099,-0.0462426636816649361,113.650799495671791,359.389612867140215,15.2880000000000003,0,6.54705209862700688,0.071225286462200707,-2.8797735985132758e-09,-0.00299956429075099243,-0.00518693893481408583,0.000192766872461908739
0.65,31.2221740256768712,131.01041616220283,10.3057229838401891,4.85073708209664911,-15.1496293978813252,40.4917234908788828,1.4464366397027868,2.87287672265374239,436.778144778747503,24.5145690874035935,9.95518054940106367,69.9722378807035739,-0.0547430690897659986,113.641752505823291,367.729419313818994,15.2880000000000003,0,6.56990631069028375,0.072047865692545246,-4.71278032347120855e-09,-0.00315182626537917343,-0.00568528760189410554,0.000204886564610251473
0.66,31.2221736559603364,131.010417120260513,10.5218153305270565,4.85892337996686052,-14.9875658161353904,34.4623614352569518,1.47803248487232453,2.85735717032000869,383.512515171600171,24.8049001979205883,10.0846195721548657,69.9703889519823008,-0.0640327696680466907,113.631865319580385,376.483376423943582,15.2880000000000003,0,6.59265533996137609,0.0729013211852757026,-6.70622075679724156e-09,-0.00330962117846726831,-0.00619487756020266258,0.000217687607211667467
0.67,31.2221732803523437,131.010418090767985,10.7407564158776907,4.86080596880442606,-14.8116899289069401,23.7677259906023401,1.51187412598728321,2.84089380214342269,289.156244010342505,25.1228583600283208,10.223760394856896,69.9684473406808678,-0.0741287754381886599,113.621119800315924,386.188916748174449,15.2880000000000003,0,6.61530930896682179,0.0738359790027603158,-8.85695407938430143e-09,-0.00347294538958315205,-0.00671543511809242263,0.000231353358381497146
0.68,31.2221728989955842,131.010419073291871,10.9624278040323659,4.86396741054098847,-14.644229022148826,29.6465159379453205,1.54571039692765577,2.82425749267753057,340.899992485846269,25.4326137161857382,10.3598541170984291,69.966409607495649,-0.0850479953886349727,113.609497928079662,395.762327591507642,15.2880000000000003,0,6.63788308389809423,0.0747465356672559061,-1.11617635112338208e-08,-0.00364181874615354282,-0.00724677208503397667,0.000245588983539687391
0.69,31.2221725119514488,131.010420067622277,11.1867746106662374,4.8724077394657197,-14.4961170491549876,36.4786296852107128,1.57819508936914232,2.80792202729563867,401.014072685363431,25.7141231132852219,10.4857972224092766,69.9642723899693522,-0.0968070925102302166,113.596981933651591,404.563355833209243,15.2880000000000003,0,6.66032385523996862,0.0755740839930482411,-1.36172799353995156e-08,-0.00381630321008362893,-0.00778883488109368294,0.000260198503738494986
0.7,31.2221721190836163,131.010421074091425,11.4138961319451262,4.88005643409653356,-14.3496742094918783,30.6129875864321939,1.61122950184806046,2.79122533201182321,349.270324209852845,25.9967465503453674,10.6120231942853387,69.9620322443970082,-0.109422508208251279,113.583554284173402,413.496305585964308,15.2880000000000003,0,6.68266142405686114,0.076404913083846282,-1.62196924900041297e-08,-0.0039966219566994754,-0.00834205301415202709,0.000275481729896886096
0.71,31.2221717204299374,131.010422092555928,11.6437563087337352,4.88348330906320438,-14.1952941685426097,25.176197656975507,1.6459960893797112,2.77373933760048486,301.331264063405797,26.2978952816597484,10.7447062419024224,69.9596856068965138,-0.122911072841151062,113.569197029842144,423.122412811604875,15.2880000000000003,0,6.70491243297470074,0.0772901951386889968,-1.89654739202180299e-08,-0.00418285521403589326,-0.00890641732851616894,0.000291652006714977307
0.72,31.2221713159807877,131.010423123001971,11.876356014719855,4.88194766699376181,-14.0310998638526048,30.8027814805792879,1.68284246785103764,2.75532148491273521,350.79220534145287,26.6220850036039849,10.8854378595873236,69.9572288022171591,-0.137289948896023639,113.55389186416302,433.609190101761726,15.2880000000000003,0,6.72705626922640132,0.0782432024474615934,-2.18510314434349645e-08,-0.00437514170659489884,-0.00948209349159160816,0.000308813042664352532
0.73,31.222170905721562,131.010424165428475,12.1116998665256244,4.89056215932189264,-13.8985067717416495,38.9401395006123749,1.7165505489272479,2.73786463040892736,422.320318528233997,26.891954059334914,11.0068015196152889,69.9546579665163222,-0.152576893144713371,113.537619847686102,442.434773127061646,15.2880000000000003,0,6.74907696741442731,0.0790365665230128439,-2.48727870449224275e-08,-0.00457364004964096529,-0.0100693008635003699,0.000326088867497408149
0.74,31.2221704895834478,131.010425219987127,12.3498355990921258,4.89525063571664543,-13.7586177502138565,24.4169353228328347,1.7519490998906786,2.71961783706816274,294.482813471059444,27.1793183809001668,11.1342522130403001,69.9519693504763609,-0.168789019389539302,113.520362713756171,451.930572993248859,15.2880000000000003,0,6.7710132873772455,0.0798813567754516757,-2.80269011250420229e-08,-0.00477850727891762899,-0.0106682403830318778,0.000344328135617817947
0.75,31.2221700678872516,131.010426285762122,12.5905074505372454,4.89726138958335788,-13.6149018754939153,28.490094275261356,1.78867609407816541,2.70070020727558235,330.246885564414924,27.4782751909470306,11.2656983491566027,69.9491589659061219,-0.185943525434473039,113.502102113256072,461.916525772760565,15.2880000000000003,0,6.79284200761104096,0.0807602248652760507,-3.13106703704786344e-08,-0.00498956547973696853,-0.0112781579199928202,0.000363482792431484025
0.76,31.2221696405205265,131.010427363026224,12.8337975377148901,4.90256581132886726,-13.4831861271330631,30.6610635626701544,1.82454216615470255,2.68192125830609251,349.270324209861712,27.7573098252594441,11.3899868821657311,69.9462228721223767,-0.204057462829476011,113.482819841511116,471.334426797841843,15.2880000000000003,0,6.81454422863872278,0.0815805475635554556,-3.47199654509825373e-08,-0.00520705794277329884,-0.0118995084659452195,0.000383169822386346078
0.77,31.2221692074202224,131.010428451918415,13.0797498416342908,4.90833986511451581,-13.3557028025605966,28.6770842180930217,1.86055366760444474,2.66290955180138589,331.76876669607077,28.031057348533313,11.5123014065686924,69.9431569928038073,-0.223148039032088658,113.462497526293063,480.66568474331541,15.2880000000000003,0,6.83612637337128159,0.0823853380327133483,-3.82508125099536407e-08,-0.00543117171203439525,-0.012532572760275227,0.000403593599461466357
0.78,31.2221687686359886,131.010429552269244,13.3283206591102132,4.91039714138174688,-13.221484604400418,23.5740621631485858,1.89833001456787254,2.64304873818746744,286.873437812889904,28.3222310524436374,11.6406718599241898,69.939957153049221,-0.243232495107381208,113.441116755960849,490.691702915891824,15.2880000000000003,0,6.8576079230168947,0.0832413523960276874,-4.18997423483631463e-08,-0.00566196800322462876,-0.0131772760172808329,0.000425104558348857805
0.79,31.2221683242391421,131.010430663849803,13.5794494321929538,4.91017114077159356,-13.0843658721189762,33.4558814439226211,1.9373977534619502,2.62250609486459574,373.620332315953419,28.6235585387274583,11.7725230135164853,69.9366190933872502,-0.264328260790631542,113.418658911517056,501.176349376142355,15.2880000000000003,0,6.87898438810391433,0.0841272168693059097,-4.56634271175265002e-08,-0.00589950367973922276,-0.0138335362269098629,0.000447640649838047106
0.8,31.2221678740164492,131.010431787214429,13.8332979951836901,4.91588882335912825,-12.9653470774827415,33.8970597829574558,1.97447179164576259,2.60254536504157929,377.42502064505743,28.8894955132294946,11.8917629518039281,69.9331383191868667,-0.286453223720454564,113.395104888435128,510.519866351604662,15.2880000000000003,0,6.90027223474274987,0.0849090727719031962,-4.95370234523040062e-08,-0.00614416314906090534,-0.0145021556433293283,0.000470524807921216307
0.81,31.2221674180531998,131.010432922098005,14.0897954179878528,4.91713764881666648,-12.8375621072567458,22.1159473903269976,2.01368918496126792,2.58156492487850109,273.937492693991885,29.177585801521964,12.0187264461153376,69.929510374176985,-0.309625131083278049,113.370435718022676,520.739765184437942,15.2880000000000003,0,6.92141726119581513,0.0857560466742402217,-5.35175038801697896e-08,-0.00639595848672155215,-0.015182915510351341,0.000494679738251998743
0.82,31.2221669565136608,131.010434068017446,14.3488089246743122,4.91632012806382068,-12.7072877725895399,28.3636576629291248,2.05417345462566692,2.55989529199253196,328.725004432770049,29.4749566998821102,12.1488621901568496,69.9257306796527871,-0.333861691718101372,113.344632469573042,531.395144799111904,15.2880000000000003,0,6.94245393580673209,0.0866303047236223478,-5.76022400727454781e-08,-0.0066548413047170657,-0.0158754457225770904,0.000519935184776117707
0.83,31.2221664893736168,131.01043522501007,14.6103534390654524,4.92281519800895673,-12.5977588909562375,36.0023346947186695,2.09192640782369921,2.53911008623172441,395.68750322465047,29.7280311556770975,12.2632660677220215,69.9217945074655347,-0.359180699052334573,113.317676120171328,540.545949226603511,15.2880000000000003,0,6.96338873753993592,0.0873743776331977751,-6.17873528846774761e-08,-0.00692099688600918486,-0.0165799987735962169,0.00054535866956716215
0.84,31.222166016527872,131.010436393341422,14.8745082042222503,4.92739492074600882,-12.4857847697792348,22.3026467061752989,2.13079764375943315,2.51769794447091133,275.459374825645227,29.9890332541854505,12.3803696356346773,69.9176970726556988,-0.385599469739818346,113.289548150860782,550.06528420671043,15.2880000000000003,0,6.98422306660388958,0.0881417579265029172,-6.60686039360211931e-08,-0.00719465550700539892,-0.0172969300777505754,0.000571885220120414684
0.85,31.2221655382402155,131.010437572256166,15.1410631524858452,4.92531477881279933,-12.3598657512603118,24.3029409385120019,2.17296493580010353,2.49477387964295572,292.960932339393764,30.2860218800051548,12.5100688763476509,69.9134336438700927,-0.413135235793082034,113.260230115764003,560.999728544708887,15.2880000000000003,0,7.00493995054274876,0.0890149147112883621,-7.044447194252856e-08,-0.00747561839751763584,-0.0180254867748941873,0.000600087584425108476
0.86,31.2221650543428133,131.010438762193587,15.4101468415685847,4.92756520384567231,-12.2468055331182875,30.3841042028427921,2.21358922966402183,2.47226903986078561,346.226561946558718,30.5551335898618674,12.6298397791829267,69.9089991455758906,-0.441805795321428552,113.22970297240802,570.998987696770882,15.2880000000000003,0,7.0255524675207397,0.0898061448540349166,-7.49099263121643809e-08,-0.0077642625608144002,-0.0187664009176304637,0.000628779628474178073
0.87,31.2221645648508996,131.010439963088288,15.6817446272038215,4.93167880298712547,-12.1403033581417077,28.3062878986822888,2.25368599313610796,2.44978006806086235,327.964078366998024,30.8102986468878157,12.7446021986061577,69.9043885045485354,-0.471628745582027165,113.197947879389105,580.560458074765393,15.2880000000000003,0,7.04603084361101129,0.0905563909306455611,-7.94616077062188062e-08,-0.00806070396779585453,-0.0195197228001071227,0.000658220818986653285
0.88,31.2221640697908285,131.01044117484571,15.9558335242457385,4.93229725455820756,-12.0275572787667517,24.4902198504662962,2.2957475589393197,2.42629286065686678,294.482813471041823,31.0834006862112133,12.8655910422196147,69.8995965458722424,-0.50262151963997681,113.164946164501643,590.882677886577312,15.2880000000000003,0,7.06640205419436285,0.0913593639927210849,-8.40965456702464037e-08,-0.00836501443725558985,-0.0202853899543209669,0.000689106782658446392
0.89,31.2221635692310535,131.010442397254167,16.2323574187106061,4.92949330441214517,-11.9088783838325121,26.8403395973476364,2.33982971287053276,2.40176834589908994,315.028134248086985,31.3745620859834418,12.9928461769748065,69.8946179705635302,-0.534801626919531148,113.130679067017724,601.988253579288767,15.2880000000000003,0,7.08666438854034997,0.0922154242299913079,-8.88119056358923969e-08,-0.00867726023119047389,-0.0210633288833134667,0.000721506194999816763
0.9,31.2221630630963283,131.010443630502266,16.5113734654235245,4.93417540021886314,-11.8097298003359583,29.6260657442638689,2.38066528485848572,2.37837923961312114,339.378142354214447,31.6174148687749152,13.1029929121471884,69.889447291805439,-0.568187046499872062,113.095127318778438,611.327242607646212,15.2880000000000003,0,7.10682559752809073,0.0929295043533877596,-9.36034084741613334e-08,-0.00899770629690960742,-0.0218539532338461392,0.000753921802277619725
0.91,31.2221625514462104,131.01044487440717,16.7928334289680024,4.93540865017933772,-11.7044193727111665,22.5905061923414259,2.42350540317384233,2.35395579051934245,277.742181023078899,31.8783076041084534,13.2194017157036168,69.8840790329893622,-0.602794915421945743,113.058272540266614,621.440864981553432,15.2880000000000003,0,7.12687960429369927,0.0936966145238323361,-9.84685392820199392e-08,-0.00932639058584986899,-0.0226571102600172762,0.000787889384271024348
0.92,31.2221620344594122,131.010446128451179,17.0765946493986505,4.93329075823824592,-11.5932935048904824,26.854523223461122,2.46839001693822535,2.32846399104987256,315.028134248062145,32.1571937701707355,13.3420568723444237,69.8785075901347312,-0.638642412333470855,113.020096299334227,632.344497920380377,15.2880000000000003,0,7.14681680035888256,0.0945166184207280186,-1.03406229554828792e-07,-0.00966318187341208383,-0.0234722489419143046,0.000823460654393299023
0.93,31.2221615120486931,131.010447392862716,17.3627250719788186,4.93801582616685142,-11.4995524114604653,31.9034044255160545,2.51011807289414879,2.30409116437543693,359.162507065472823,32.3904204196494518,13.4485524071345104,69.8727272346845751,-0.675746718560199522,112.980580152850962,641.532547303823321,15.2880000000000003,0,7.16664750985428167,0.0952024269574478221,-1.08411717024744093e-07,-0.0100083913771794198,-0.0242998814926940233,0.000859040199706535747
0.94,31.2221609841107757,131.010448667920542,17.6513064245331677,4.93598616002083723,-11.3922504007607603,23.2094221815234647,2.55567467924330005,2.27788565667240661,283.068750483778672,32.6630329651968125,13.5688196713053042,69.8667321855238868,-0.714124549852052759,112.939706144688131,652.358771381891074,15.2880000000000003,0,7.18637146091605583,0.096004006589765184,-1.13481064278094234e-07,-0.0103622596404822753,-0.0251403339375392866,0.000896874269785823326
0.95,31.2221604509037469,131.010449952883476,17.9421331499985008,4.93459111484391588,-11.2881268298269042,30.0002625869671355,2.60127204697321135,2.25144021638088976,342.421873617487279,32.9289037886248437,13.6866295529690465,69.8605164377442236,-0.753793199495947586,112.897455693816156,663.003625996685173,15.2880000000000003,0,7.20598062548285245,0.096785778391894603,-1.18614220494830225e-07,-0.0107245758330657883,-0.0259928763666323615,0.000935762964676618782
0.96,31.2221599121587623,131.010451248499095,18.2354189443061649,4.9364956351455449,-11.192988079782852,29.3958817162245367,2.64543477857257425,2.22539259199573003,337.095335156783449,33.1705727319208563,13.7958359069958778,69.8540738599037496,-0.794769669637322429,112.853810523295962,672.752103805094976,15.2880000000000003,0,7.22549048926049675,0.0974964227904644293,-1.23804251322489847e-07,-0.0110959129181145335,-0.0268586030788051516,0.000975241630706569717
0.97,31.2221593678909919,131.010452554715613,18.5311521971246229,4.93638327464619131,-11.0949678432628875,18.8654870441611386,2.69102222659650847,2.19851241562711586,245.021887192993233,33.4220442759371394,13.9084029320510751,69.8473982501016906,-0.837071251404156058,112.808752029265804,682.971858555081667,15.2880000000000003,0,7.24489909604331839,0.0982358869418169522,-1.29048538272459633e-07,-0.0114763925492226901,-0.0277375436848253352,0.00101630085704466628
0.98,31.2221588183572152,131.010453870796226,18.8291286122497148,4.9298499339109636,-10.9845422984722916,27.4020467044789058,2.74059263878492532,2.16966888626216425,319.593746642958081,33.712599110326444,14.0346336835112933,69.8404832008185252,-0.880714931251772692,112.762261929858852,694.878432436658841,15.2880000000000003,0,7.26418870796194849,0.0990902346495337177,-1.34348436836077926e-07,-0.0118657184813328979,-0.0286287810739101756,0.00105988253151173117
0.99,31.2221582634210471,131.010455197118432,19.1294573972543844,4.93353655566128069,-10.8978200127094187,29.932094767733453,2.7846845231330537,2.14298878740413112,341.660948551705417,33.9330002214836242,14.1361081288930936,69.8333221431693403,-0.925718003002411471,112.714321602614589,703.973567233193762,15.2880000000000003,0,7.28337632293448944,0.0997383897324237295,-1.39697980063628683e-07,-0.0122643407289944571,-0.0295330990763125016,0.00110261881313322902
1,31.2221577030803417,131.010456533686209,19.4321421283627345,4.93097256693364194,-10.7990701591255345,26.7996418080048535,2.8326884629987128,2.1143645839292402,314.26720818227642,34.1914676400091651,14.2508856189155821,69.8259085602972647,-0.972096574629288557,112.664913676705737,714.717955892578971,15.2880000000000003,0,7.30246025297827028,0.100498439572721115,-1.45095132585673539e-07,-0.0126723411136295469,-0.030450431540844293,0.00114794452963127409
1.01,31.2221571374944347,131.010457880039382,19.7370563775597461,4.92920880009904305,-10.7034857831068564,28.0233359330238763,2.88055130832130635,2.08556656618527914,324.920316103697928,34.4415699206715402,14.3626420618424788,69.818235672972591,-1.01986739392865644,112.614020087609504,725.190935857776026,15.2880000000000003,0,7.32143779298588537,0.101233909551489823,-1.50539364868445668e-07,-0.0130896288457324882,-0.0313803368952843345,0.00119438367364888714
1.02,31.2221565665942329,131.010459236373464,20.0442574850874244,4.92880658310918207,-10.6121630959637923,23.4063018141241557,2.92790323911191885,2.05676093357235779,284.590631615404163,34.6792777174983939,14.4699604159026762,69.8102966543237784,-1.06904657855380636,112.561623430135597,735.213988968025888,15.2880000000000003,0,7.34031355422171572,0.101932956061904459,-1.5602662037578476e-07,-0.0135164753793972445,-0.0323231735643733156,0.00124180748669281294
1.03,31.2221559904401929,131.010460602515849,20.353699324419491,4.92407109979665236,-10.5131236820129619,19.1355005651288117,2.97823503939973389,2.02638089834869017,247.30469339049705,34.9432672683003389,14.5864406616589299,69.8020845852986724,-1.11964986294670799,112.507706694435612,746.427767287489473,15.2880000000000003,0,7.35908411642242744,0.102709260361630306,-1.61555516536034913e-07,-0.0139529043808344633,-0.0332787493990222075,0.00129162366319907182
1.04,31.2221554090859676,131.01046197831073,20.6653407686226416,4.9230702485384823,-10.4232091260279791,30.3889945590499657,3.0265826300997869,1.9966475583767711,345.465636880722968,35.1785836734935771,14.6927639444990739,69.7935922970669793,-1.17169346212178871,112.452252345352264,756.492223748778997,15.2880000000000003,0,7.37775213041700084,0.10340129295672297,-1.67123859347491772e-07,-0.0143990110708608361,-0.0342470331982357434,0.00134185590408438774
1.05,31.2221548222819223,131.010463364483059,20.979386609659894,4.91853249808007131,-10.3273042366363654,18.352234771888277,3.07748880312900042,1.96551062616578842,240.456258798199826,35.4349859128119249,14.8064181540477708,69.7848125515771756,-1.2251930360135761,112.39524342581997,767.536781194272749,15.2880000000000003,0,7.396327805723244,0.104155311585004032,-1.72724339309355429e-07,-0.0148554146304218232,-0.0352291044973764428,0.00139443671149816744
1.06,31.2221542302364909,131.010464760433194,21.295671351245236,4.91096554816484865,-10.2265582123443135,26.1201656027660931,3.13075674314156238,1.93303841668127063,308.179683655939243,35.7095638243007514,14.9263858892599508,69.775737810189284,-1.28016493746512872,112.336662225323849,779.454135025821301,15.2880000000000003,0,7.41480328016117873,0.104962762798022885,-1.78358853395137044e-07,-0.0153218733449858209,-0.0362241959738072578,0.00144932233763441854
1.07,31.2221536328486842,131.010466166456609,21.614279745436324,4.9097306572746735,-10.1399672012127429,30.7493681738462037,3.18020418547450712,1.90205511792052073,348.509368144030759,35.9364594821419487,15.0295134487914481,69.766360314900794,-1.33662572201320873,112.276490802709191,789.366622752169405,15.2880000000000003,0,7.43318372105107361,0.105630067405028893,-1.84021944208044249e-07,-0.0157988214992854231,-0.0372329774607223357,0.00150388719573603608
1.08,31.2221530300330237,131.010467582812055,21.9352856145376016,4.90690944654336381,-10.051340652541116,20.7112123172763027,3.23099574684460489,1.87020074228179323,261.001578574662346,36.1709739995685808,15.1352400967896177,69.756672273776914,-1.3945911231438739,112.214712077218337,799.678095970250183,15.2880000000000003,0,7.45147057273148761,0.106319774313361023,-1.89709946249301634e-07,-0.0162865605028868002,-0.0382558162133797078,0.00156038394052641981
1.09,31.2221524220308879,131.010469008804648,22.2584968725022883,4.89687527260537703,-9.94952758659496439,19.0522111838362527,3.28706548022762535,1.83563442368119389,246.543753324744074,36.4538828232372794,15.2579084734990573,69.7466657239328356,-1.45407677251942147,112.151309059955906,812.211057021849001,15.2880000000000003,0,7.46965623798695599,0.107151738037827987,-1.95426595065046076e-07,-0.0167847275208041248,-0.0392917006514559436,0.00162063979027657801
1.1,31.2221518089097145,131.010470444244021,22.5838623994472165,4.89026221098632696,-9.85578722141216446,38.1858051600999815,3.34117432693860028,1.80169855084127084,413.189061738584087,36.7092850448466592,15.370837443943163,69.7363325301180055,-1.51509817926849721,112.08626487611393,823.60616886232026,15.2880000000000003,0,7.48774427405090215,0.107902857862153145,-2.01170081196397371e-07,-0.0172934096212226072,-0.0403405657220922489,0.0016814013476091226
1.11,31.2221511903252988,131.010471890153411,22.9116684105264028,4.89070793005841331,-9.77706348995232588,27.9660150438065713,3.3905548357804336,1.76970891349178672,324.159391037639693,36.9096652785415031,15.464342566016084,69.7256643440329924,-1.57767091489098821,112.019562567595244,832.595918358665472,15.2880000000000003,0,7.50575202512001827,0.108492254587763529,-2.06929251837574974e-07,-0.0178135670087530736,-0.0414041127867199391,0.00174137441981508001
1.12,31.2221505663368397,131.010473346379996,23.241873116246925,4.87739372628738543,-9.67258283583918121,10.5730472687111039,3.45019455904053585,1.73261756841102543,172.73281794065943,37.207368220939415,15.5919917622526398,69.7146527731793242,-1.64180971846332469,111.951186045004349,846.054216075914042,15.2880000000000003,0,7.52367156448677044,0.109367730023069862,-2.12704949471437943e-07,-0.0183451779209165972,-0.0424820149082076326,0.00180774957383888005
1.13,31.222149937453139,131.01047481142578,23.5740625883506993,4.8712523066663751,-9.58322640900657952,32.9539546686618792,3.5049768617657393,1.69752468781498944,367.532807790070478,37.4492355000895429,15.6999481144455153,69.7032889098926063,-1.70753086160128542,111.881117565627207,857.062206445027527,15.2880000000000003,0,7.54149091863102417,0.110079089901721133,-2.18506788474596118e-07,-0.0188873341131922251,-0.0435721976158983948,0.0018732129402183851
1.14,31.2221493031124879,131.01047628697853,23.9087057820916051,4.87009255393952945,-9.50448503571930203,18.2643926009262962,3.55627970913210767,1.66380912086133415,239.695317731955441,37.6500278714892787,15.7933824833180338,69.6915641140987674,-1.77484816207514329,111.809341985077296,866.249657931791944,15.2880000000000003,0,7.55923381465683875,0.110669721258030748,-2.24317225801657212e-07,-0.0194415343567731561,-0.0446773856823655738,0.00193845359682077762
1.15,31.2221486637360961,131.010477771809292,24.2454626302407306,4.85498418279240873,-9.4001678342738284,18.0006493718023748,3.61852034302448411,1.62457335008042136,237.412511535467729,37.9523103880908934,15.922449883194405,69.6794695995849764,-1.84377507947691655,111.73584451958024,880.18682223391113,15.2880000000000003,0,7.57687859688831278,0.111558684311008752,-2.30147529933903445e-07,-0.0200068536659703186,-0.0457954724054515164,0.00201077064616392125
1.16,31.2221480194436012,131.010479265571234,24.5842388651096861,4.85467500223369974,-9.32497830119365467,47.0505317895408339,3.66961393760455401,1.59038938173002853,490.043774384589426,38.1390456241933364,16.0108158349200771,69.6669960646127748,-1.91432648972455821,111.660608854929436,888.840702127732357,15.2880000000000003,0,7.59443279180352349,0.112108010646444586,-2.35995955847640045e-07,-0.0205833261931399024,-0.0469262826871415517,0.00207881942853014494
1.17,31.2221473695054073,131.01048077048813,24.9256489358948379,4.8469147416744196,-9.2367052257669009,8.37121732179144118,3.726772138403045,1.55299344539766127,153.709379294867944,38.3784056034673497,16.1176130727631808,69.6541344492488861,-1.98651495499235065,111.58362112423562,900.002893188072221,15.2880000000000003,0,7.61191963886183842,0.11281203319589829,-2.41840669570591031e-07,-0.021172915384583782,-0.0480733497057907744,0.00215171494851301194
1.18,31.222146714898745,131.010482283641721,25.2688876109974352,4.82929191826779114,-9.13111340481684408,22.8994215555483294,3.79226362073253043,1.51122867793836213,280.025018221967457,38.6910030327458259,16.2501348454098569,69.6408752704563199,-2.06035393695895941,111.504866476734222,914.693740312927616,15.2880000000000003,0,7.62930125719321151,0.113731343370888416,-2.47709878387920569e-07,-0.0217732159461399809,-0.0492317529672880588,0.00223067035830214937
1.19,31.2221460551918462,131.010483806354159,25.614320818141568,4.83264971954528999,-9.06539171923590814,39.9751279992059096,3.84086168384519855,1.4773934544317624,428.407813052929214,38.8366456491151979,16.3238414240551073,69.6272087413455694,-2.13585716048982555,111.424329760246692,921.562393915320172,15.2880000000000003,0,7.64660820731231272,0.11415990163442713,-2.53583843999319666e-07,-0.0223857752994230386,-0.0504042133422741567,0.00230198383637060435
1.2,31.2221453900229911,131.010485339770554,25.9622626940974186,4.81867740289333479,-8.96861301290918789,4.1543650873017075,3.90402784443736328,1.43611249462222301,117.184374136023607,39.1136643928106764,16.4437167446652452,69.6131254350267312,-2.21303548548908324,111.341998855048146,934.72490437540489,15.2880000000000003,0,7.66381284697906207,0.114974646712958831,-2.5945310661494735e-07,-0.0230115766961518468,-0.051592292770204197,0.00238313575935456597
1.21,31.222144720361257,131.010486880958325,26.3119074237477797,4.80535686136752993,-8.87406864928416184,32.097459727203244,3.96703282115070621,1.39456785288208662,359.923432132008998,39.3827349066541643,16.5607601594432587,69.5986151625265421,-2.29190213573525625,111.257859093565997,947.597620731049119,15.2880000000000003,0,7.68091274758192455,0.115766036496913374,-2.65345761824263966e-07,-0.0236481665886385146,-0.0527911024839514131,0.00246582734009619673
1.22,31.2221440454835175,131.0104884321631,26.6638720253240571,4.80645811046279903,-8.80652565062137072,23.247821594571036,4.01775609408513734,1.35879079464046204,283.068750482576149,39.5325327628747161,16.6357389390440957,69.5836679167514518,-2.37246827206871336,111.171897986701012,954.787694308417144,15.2880000000000003,0,7.69794445378783365,0.116206830734419467,-2.71232437999563967e-07,-0.024297933542286921,-0.0540048503657924242,0.002543130294413826
1.23,31.2221433656932348,131.010489992500595,27.0179125124495201,4.79129013947951776,-8.71053417933099006,9.04625182015437623,4.08287870843278977,1.31552831408517634,159.796873822227951,39.8087492407800596,16.7551896699412808,69.5682738774751357,-2.45474302096733643,111.084105189112123,968.143711864886768,15.2880000000000003,0,7.7148880998512821,0.117019243271656623,-2.77125116159760061e-07,-0.0249600013852674767,-0.0552316102519771687,0.00263058899862276272
1.24,31.222142681400026,131.010491560731822,27.3736899859091061,4.78147935078030972,-8.62505125670688066,38.8521326457521283,4.14350178736921926,1.27416714283180643,418.515630199805003,40.0383024923648208,16.8581692223324069,69.5524226022247518,-2.5387371058768764,110.994468625343444,979.307845698078154,15.2880000000000003,0,7.73173769213678419,0.117694495837999416,-2.83033632550802345e-07,-0.0256334050224432536,-0.0564693571262071675,0.00271704589982800938
1.25,31.222141991944234,131.010493138948675,27.7317758332787037,4.77984566882683115,-8.55482966815053025,18.7718138204753657,4.19676747906847059,1.23618246597469206,244.260946125734876,40.1964698209452038,16.9359281051328416,69.5361037884483011,-2.62445939645805382,110.902978173146664,987.026491844294469,15.2880000000000003,0,7.74852177744572845,0.118159913746166259,-2.88929920196491323e-07,-0.0263204430983880744,-0.057722012844985994,0.00280079414498542482
1.26,31.2221412977831889,131.010494725778585,28.0917933787894754,4.76121780159890307,-8.4555388952516779,11.0490983033279768,4.26587839600435537,1.18984830872715319,177.298446336408631,40.4903304669511215,17.0614779205721447,69.5193071427014928,-2.71191751807617676,110.809625009386252,1001.4761354932682,15.2880000000000003,0,7.76521664966721126,0.119024218201878654,-2.94832398362932565e-07,-0.02701969982540392,-0.0589867128281275216,0.00289612232467458333
1.27,31.2221405990705314,131.010496320769136,28.4536196127509733,4.75604851834355813,-8.38055188731137335,37.3668747855836472,4.32252759865130276,1.14947467888666743,405.579686079964688,40.6688680062924206,17.1463345835569037,69.5020215473139586,-2.80112142623744553,110.71439779607222,1010.29228187932051,15.2880000000000003,0,7.781787880054444,0.119549530237709797,-3.00739857959532041e-07,-0.0277310897148120086,-0.0602630547138523417,0.00298537564033706741
1.28,31.2221398952922158,131.010497925599168,28.8177096622016791,4.74754563519561579,-8.30050388919372217,12.0934096116997321,4.38237607143414909,1.10713107438650238,186.429688124688823,40.8704232144958226,17.2392506305254614,69.4842364864362736,-2.89207723142220985,110.617289271948593,1020.29544188727868,15.2880000000000003,0,7.79829055787858483,0.120142512269558563,-3.06631705675484083e-07,-0.028456384344842843,-0.0615539024097295981,0.00307853168330579673
1.29,31.2221391871130507,131.010499538214759,29.1835036000001544,4.73043934722610704,-8.20647960519328024,19.9005163262196341,4.45074302178594827,1.06005004808999281,254.153128984572163,41.1406387796532087,17.3563698051702566,69.4659410143054146,-2.98479163969027717,110.518291508904156,1033.79511748721211,15.2880000000000003,0,7.81470198921512704,0.120937336008285448,-3.12533000198677755e-07,-0.0291934986579993686,-0.0628552807551180787,0.00317904510393910138
