Time,Latitude,Longitude,Altitude,Angle of Attack,Angle of Sideslip,X-Acceleration,Y-Acceleration,Z-Acceleration,Thrust,True Velocity,Ground Velocity,Pitch,Roll,Yaw,Dynamic Pressure,cp,cg,parachute_deploy_gain,Wind Speed,Wind Direction,Mach,omega_x,omega_y,omega_z,Cmq,Angle of Attack(total),Angle of Attack(gust),True Velocity(gust),Acceleration
0.0,31.222216000000007,131.010392,3.000000004412624,0.0,0.0,0.0,0.0,0.0,2.2828121974499247,0.0,0.0,69.99999999623412,0.0,119.9999999935444,0.0,1.274,1.0271675151847728,0.0,0.0,0.0,0.0,0.0,0.0,0.0,-0.0,0.0,90.0,0.0,0.0
0.01,31.22221599999084,131.01039200000497,3.000002745347096,0.0,0.0,0.0,0.0,0.0,34.242186961749226,3.465174813755316e-14,2.8705476994166025e-14,69.9999999962611,-2.1713911667908447e-11,119.99999999352175,7.352495975525499e-28,1.274,1.0271659134330349,0.0,0.0,0.0,1.0183245502395064e-16,-3.3305335486039093e-18,7.169286865560398e-18,5.624298769768554e-18,-7.715917190115602e-34,0.0,89.99999999999979,3.465174813755316e-14,0.0
0.02,31.222215999994315,131.0103920000094,3.0000030495639742,0.0,0.0,0.0,0.0,0.0,25.871876237766216,3.8197434737535036e-11,2.4171837235633357e-11,69.99999999628672,-1.1921727947863515e-11,119.99999999353136,8.93414285188691e-22,1.274,1.027164492361118,0.0,0.0,0.0,1.1225230367947217e-13,-6.657678965418802e-18,1.4338573731120796e-17,1.1241821275959074e-17,-1.7010872994127372e-30,0.0,89.99999999975682,3.8197434737535036e-11,0.0
0.03,31.222215999994315,131.0103920000094,3.0000030495639742,0.0,0.0,9.81877837424427,-2.5122800045972096e-05,3.3498614629347925,180.34219359854663,1.2659015405517447e-10,1.1364406173918436e-10,69.99999999631459,-1.6431898037347223e-11,119.99999999352724,9.812605835254651e-21,1.274,1.0271551940870716,0.0,0.0,0.0,3.720154642239108e-13,-9.991600645811728e-18,2.150108433310316e-17,1.6859343782149594e-17,-8.453698244545225e-30,0.0,89.99999999919412,1.2659015405517447e-10,10.374487003414373
0.04,31.222215999994315,131.0103920000094,3.0000030495639742,18.83801224594347,-0.0001111777826462,48.68248476615645,-1.016330065874988e-05,3.3497854396877287,548.635972453808,0.1556173050466994,0.0975908358443652,69.99999999633813,-2.0932768807056278e-11,119.99999999352085,0.0148286043323172,1.274,1.027133720825283,0.0,0.0,0.0,0.0004573186944143,-1.3322134194415637e-17,-1.04744143520903e-11,1.336824254131964e-11,5.0626055458604615e-15,18.83801224625964,89.06236267790787,0.1555998412814392,48.79759610369246
0.05,31.22221599164764,131.01039201704114,3.002326315126219,5.772385609593056,-4.395076213712875e-06,71.20344550265034,4.905512691849684e-05,3.349217396035405,761.6984298824663,0.8326471944351852,0.3620326097059287,70.00000001316391,-1.0866255162484559e-10,120.00000000231074,0.4245281043148827,1.274,1.027093426565204,0.0,0.0,0.0,0.0024469331205246,-5.0245994431125096e-18,-7.32924164976824e-07,2.217344936947165e-11,1.895424184525467e-09,5.772385609594774,84.74112356985832,0.8326465040582279,71.28217104309611
0.06,31.22221596664444,131.01039206837547,3.015081730143309,4.056581213689704,3.169093567502233e-05,53.16249142470188,0.0001203825427859,3.3481235983850643,590.4875390737236,1.657216205300742,0.6755452977614796,69.99999964391398,-3.9285905645317736e-10,120.0000000287861,1.6816755551786196,1.274,1.027050317124926,0.0,0.0,0.0,0.0048701272653724,3.095757869075056e-13,-7.483541766772344e-06,3.074135420506017e-11,3.8518749565858254e-08,4.056581213813337,79.59316473687034,1.657221183301277,53.26781792157489
0.07,31.22221592883117,131.0103921460222,3.034593611434361,4.115662018628709,6.450869598349036e-05,81.18203554989698,0.0001593212642178,3.347059402768047,855.2937749779172,2.099899704220947,0.8579771146174259,69.99999543281565,-8.233801910783518e-10,120.00000006883089,2.700101932075157,1.274,1.027003201295312,0.0,0.0,0.0,0.006171060252819,3.4704292086287e-12,-2.6327204536316785e-05,1.9541142932033486e-10,1.7170712165327165e-07,4.115662019133419,76.90111966094352,2.099909837223217,81.2510043180746
0.08,31.22221588914193,131.01039222747755,3.0542761843835606,3.459696193892355,8.037433511260004e-05,16.298214211652088,0.0002413456836072,3.344878926597744,241.2171988638792,3.051964775152957,1.2149999716613011,69.99998042886442,-1.0128995578004475e-09,120.00000011111383,5.703497661025892,1.274,1.0269597189470347,0.0,0.0,0.0,0.0089689344021769,1.458982438104473e-11,-5.702803872814215e-05,7.043261397829576e-10,5.405702492731987e-07,3.459696194824858,71.30331929508368,3.051977400323993,16.63790856991177
0.09,31.2222158241468,131.01039236098703,3.0886872184095737,4.313676956300389,0.0001337561018991,50.35975918308536,0.0002293282821279,3.344215841840564,563.0937377043203,2.893161298572128,1.191209213966114,69.99994788602814,-7.098432023887522e-10,120.00000018106356,5.125380275808925,1.274,1.026918932011013,0.0,0.0,0.0,0.0085022553945842,3.8672912027154325e-11,-0.0001115933708951,2.016054215232918e-09,1.0027525988343615e-06,4.313676958370176,72.2316578138625,2.893182308931483,50.47067588835877
0.1,31.2222157788302,131.01039245392113,3.109877853389092,4.035124630954496,0.0001457499816535,47.804664812504015,0.0002878217657545,3.341734392237128,538.7437595981891,3.5677148583138303,1.4531247507621967,69.99988403958329,1.9248461973355822e-09,120.0000002323013,7.7939962029572305,1.274,1.0268846934974103,0.0,0.0,0.0,0.0104845969583028,8.579678749070606e-11,-0.0001726817043215,3.984565639703107e-09,1.913455350430327e-06,4.0351246335824245,68.43243098813296,3.567737752667411,47.92132267234452
0.11,31.222215703308,131.01039260899836,3.148841432727305,4.043401107254707,0.0001752764476999,37.67622367577205,0.0003286462930162,3.3392563999062723,442.86563930529127,4.034183355956686,1.6436552022667772,69.99978525353545,7.302513231814865e-09,120.00000031883242,9.96528118825134,1.274,1.026848594915519,0.0,0.0,0.0,0.0118554331868328,1.5870341853361987e-10,-0.0002596204409236,7.232030302688121e-09,3.252930323390323e-06,4.04340111104746,65.92012987243639,4.034210888316708,37.82391391539392
0.12,31.222215627491828,131.01039276462643,3.186995101203875,4.17874459224363,0.0002066711490009,41.15991989399172,0.0003576945202315,3.336766085769504,475.58594813540793,4.361857560629481,1.7865750500940407,69.99963665601238,1.781774420198147e-08,120.00000041104812,11.649831899889556,1.274,1.0268114448194128,0.0,0.0,0.0,0.0128183893919737,2.682972478760441e-10,-0.0003710216542429,1.2215991071490164e-08,5.026311388647148e-06,4.178744597345269,64.21681651392016,4.361890024457652,41.29495143136631
0.13,31.22221554594398,131.01039293200228,3.2277173449026786,4.202734874672792,0.0002327160860324,45.44886120763352,0.0003953741266062,3.333578629398489,515.9156326236897,4.792165672014363,1.9646716520715424,69.99942424225341,3.613383418913551e-08,120.00000051758742,14.061726603124043,1.274,1.026779572895131,0.0,0.0,0.0,0.0140829618979635,4.248908088871395e-10,-0.0005056103199642,1.908859219307828e-08,7.5253154423526356e-06,4.202734881104192,62.048594618540655,4.792202226971676,45.570952718869485
0.14,31.222215454191247,131.01039312033683,3.2737880595608355,4.184830647080848,0.000257138757548,42.32232525579263,0.0004369426767266,3.329727443445437,486.2390860568421,5.269261304374574,2.158791628597544,69.99913473613935,6.515851355725497e-08,120.00000064630268,17.000925061330125,1.274,1.0267449573927567,0.0,0.0,0.0,0.0154850332441425,6.382432869666793e-10,-0.0006690086306358,2.8426433029675884e-08,1.0948547100483978e-05,4.184830654966803,59.74181173116622,5.269301695636157,42.45310707234106
0.15,31.222215353826755,131.0103933263496,3.3242182719560263,4.21963947489699,0.0002846467688673,40.886944113003565,0.0004726792395108,3.325585650885676,472.5421858721398,5.6781946837482895,2.329510773545807,69.99875162806286,1.0876776246115984e-07,120.00000079954532,19.742017654108928,1.274,1.0267115958081523,0.0,0.0,0.0,0.0166867950518804,9.204756288136623e-10,-0.000865746478554,4.08948221429571e-08,1.526771148078443e-05,4.219639484480408,57.84996018384879,5.678239395958187,41.02196629910223
0.16,31.222215247130432,131.01039354534575,3.3775922280208457,4.253495568077899,0.0003118339050386,32.26872905470846,0.0005078415214353,3.32090791922544,391.1218908297597,6.081244877834229,2.4981889727471702,69.99825581174558,1.7187028096464329e-07,120.0000009800088,22.644030778355887,1.274,1.026675762255412,0.0,0.0,0.0,0.0178712695992133,1.2856146928958252e-09,-0.0010961187242953,5.6923362293832417e-08,2.0702404729358337e-05,4.253495579487569,56.06022383757386,6.081293860589489,32.43916312841722
0.17,31.22221513260033,131.01039378041813,3.4348437275053194,4.364838523348639,0.0003448792023946,40.840448242802736,0.0005326487904353,3.3162727284953744,471.78125980632416,6.362544479165355,2.6250789114832647,69.99762801982864,2.5997588617291615e-07,120.00000119506798,24.78723182122683,1.274,1.0266409836796937,0.0,0.0,0.0,0.0186979513961862,1.747791994374917e-09,-0.0013624931601664,7.706724512977917e-08,2.6923621797558364e-05,4.364838536947241,54.85936171416122,6.362598652663785,40.97486885600156
0.18,31.222215014088988,131.01039402363364,3.4935801365785646,4.353948305387995,0.0003681615230806,33.992183768165326,0.0005718025428208,3.310131992647221,407.1015672119096,6.81502088160835,2.810667639293692,69.99684761766231,3.794979223522764e-07,120.00000144728236,28.437950785509614,1.274,1.0266048342046536,0.0,0.0,0.0,0.020027681385988,2.3221419748804155e-09,-0.0016616990447559,1.0147209890543081e-07,3.517105786247627e-05,4.353948320923495,52.99157233768714,6.815078712285162,34.152972512863755
0.19,31.22221488419521,131.01039429023237,3.558399965607869,4.432620772533925,0.0003996774584738,38.45149959021069,0.0005986099513107,3.304145139297767,448.95313283182486,7.1223367465208405,2.946425726785696,69.99589577323147,5.440084577183829e-07,120.00000176148238,31.060341085698347,1.274,1.026566130444714,0.0,0.0,0.0,0.0209308229359413,3.022391489754689e-09,-0.0020041563310821,1.3135864879722746e-07,4.433199397898183e-05,4.432620790516937,51.77883352025967,7.122399527709208,38.59320142454953
0.2,31.222214751373183,131.01039456280608,3.624052454705669,4.443889400961181,0.0004246617145652,35.23432408779927,0.0006337972852267,3.2968110145188256,418.5156301991588,7.530482904611057,3.1167566004785483,69.99474776398331,7.478025600151903e-07,120.00000211715036,34.72195181863731,1.274,1.026529240027363,0.0,0.0,0.0,0.0221302820454282,3.866698391504749e-09,-0.0023849544920781,1.668144671071589e-07,5.57780533277244e-05,4.443889421210987,50.22448880200342,7.530549610317194,35.38822625098952
0.21,31.222214608673173,131.01039485566503,3.6948551453492566,4.493351735844891,0.0004538195602194,33.79371564104691,0.0006629296043866,3.2891790438445727,404.8187610144608,7.868284042829251,3.2629204975089228,69.99338155599101,1.0150082652278477e-06,120.00000255293388,37.906665490338085,1.274,1.0264923657015164,0.0,0.0,0.0,0.0231230169900677,4.871073773182836e-09,-0.0028117605859743,2.089322918608601e-07,6.870935089180403e-05,4.493351758715364,48.992529909481824,7.868355328639073,33.95340801819282
0.22,31.22221446109996,131.01039515850383,3.767700382407304,4.5412639153933885,0.000482649303782,41.008966751568416,0.0006914639179131,3.2808061382386606,472.5421858721387,8.20057841132235,3.4071691679735228,69.9917708347139,1.3454961520984431e-06,120.00000305929996,41.175744234065135,1.274,1.0264494137127138,0.0,0.0,0.0,0.0240995709751246,6.054779813287368e-09,-0.0032829112061357,2.580881224843564e-07,8.3609968899004e-05,4.54126394098788,47.82515604752711,8.2006542256977,41.13999323561041
0.23,31.22221430675399,131.0103954752338,3.843768625625224,4.52371495179584,0.0005047555656171,33.98493478127787,0.0007294889663961,3.2705214710765107,406.340642146096,8.647938096586296,3.5908865300848416,69.98989017772566,1.7539876018835507e-06,120.00000365514876,45.79040229326471,1.274,1.0264133390858623,0.0,0.0,0.0,0.0254142776666487,7.436335125872812e-09,-0.0038001790077148,3.1489825108822685e-07,0.0001020628978177,4.523714979897577,46.31461705147579,8.648017383405135,34.14194053232237
0.24,31.222214142622448,131.0103958120587,3.92493179063287,4.57837522350066,0.0005351929930195,35.051650311058864,0.0007555049947555,3.26053011385611,416.2328240017099,8.954297884844461,3.72617527247482,69.98771316795013,2.25257161141768e-06,120.0000043564586,49.09180568115741,1.274,1.0263750048312463,0.0,0.0,0.0,0.0263146218848643,9.034877387788232e-09,-0.0043732521010013,3.809642748985157e-07,0.00012161410144,4.578375254714954,45.32798984252032,8.954381952763216,35.20297212911011
0.25,31.22221397517227,131.0103961556623,4.0071748888306855,4.6034117733065,0.0005618935542827,36.03738579534623,0.000785606492708,3.249069743648399,425.3640807915084,9.311611941121669,3.8789349536029696,69.98520781816889,2.8559738498748624e-06,120.00000517181904,53.08749562138344,1.274,1.0263373768840591,0.0,0.0,0.0,0.0273647110956883,1.0873791100894836e-08,-0.0049950711786164,4.5609738277273444e-07,0.0001444478241125,4.603411807525074,44.2165428352526,9.311700203154778,36.183554686886296
0.26,31.22221379934012,131.01039651647062,4.09364247475714,4.621386912291471,0.0005881033207375,39.29107511182762,0.0008162761165496,3.236407051295005,455.80158342417656,9.67833954512075,4.034902068846398,69.98234620927953,3.5784678110229355e-06,120.00000612171208,57.350948423913096,1.274,1.0263006300381676,0.0,0.0,0.0,0.0284424679130479,1.2973286442992724e-08,-0.0056712051373577,5.414206381221602e-07,0.0001704578711045,4.621386949630312,43.12063533194282,9.678431924174348,39.42414126789902
0.27,31.222213616776543,131.01039689108487,4.183310605341074,4.617158109135719,0.0006115457810536,35.90419462403674,0.0008503454714941,3.221982799915672,423.8421996598744,10.088790784535757,4.205862468567124,69.97909721779352,4.436165972465058e-06,120.000007221354,62.31798301949865,1.274,1.026260090595354,0.0,0.0,0.0,0.0296487219805601,1.5355910600537293e-08,-0.0064045199323113,6.379142666348734e-07,0.0002006609239367,4.617158149547818,41.94410287616451,10.08888684592241,36.048472443180565
0.28,31.22221342607797,131.0103972823952,4.277051150896916,4.642105655370123,0.0006389739579882,41.51133203546672,0.0008785747638736,3.2071101123224945,476.3468732012228,10.432377224420517,4.35383399240675,69.97542808435722,5.446665372087172e-06,120.00000849080963,66.63429581008447,1.274,1.0262212716723291,0.0,0.0,0.0,0.0306584788590473,1.8045308789081613e-08,-0.0072006835403936,7.469524967369969e-07,0.0002332868227611,4.642105699250441,41.0023231023774,10.432477594215127,41.63503624837164
0.29,31.22221323001776,131.01039768469093,4.373143569786686,4.62134615173668,0.0006600657405645,33.17552944492765,0.0009148746278066,3.1894209319791806,397.9703104221098,10.876662296046485,4.536381530986506,69.9713027936179,6.629751536885327e-06,120.00000994797426,72.43000748232016,1.274,1.026183007522519,0.0,0.0,0.0,0.0319641703260467,2.1067646517035105e-08,-0.0080566154554079,8.688043379161898e-07,0.000272130659453,4.621346198772975,39.83162628795024,10.876765978930557,33.32848872465723
0.3,31.22221302403368,131.01039810736614,4.4744193758467325,4.664362353358112,0.0006905183788532,31.08096762732793,0.0009381960428197,3.172549142946348,378.1859457108735,11.168362145070317,4.66647911311536,69.96668711012893,8.005507138509574e-06,120.00001161892672,76.36634300732833,1.274,1.0261430389738484,0.0,0.0,0.0,0.0328214509167604,2.4447409007156216e-08,-0.0089829108229115,1.0056222251461646e-06,0.0003115527202986,4.664362404357781,39.09908960432563,11.168470611443622,31.242464973103964
0.31,31.22221281503337,131.01039853619727,4.576593712520673,4.700143580504286,0.0007196683316923,32.79732593144512,0.0009620705970519,3.154230688182399,394.1656220930229,11.470279728974068,4.800072153432283,69.96154070456518,9.597499105113692e-06,120.00001352112182,80.55022837857167,1.274,1.0261054058068628,0.0,0.0,0.0,0.0337087616009043,2.8214060606649844e-08,-0.0099686353219717,1.1565909895184251e-06,0.0003550834484269,4.700143635477137,38.36463422765983,11.47039277421126,32.94865339301887
0.32,31.222212598991007,131.01039897947376,4.68216432480395,4.718667719113184,0.0007464384342556,35.7316568886908,0.0009885845337584,3.133859770838664,421.5593934624264,11.808280530415894,4.946054328851105,69.95582953472353,1.14278227255889e-05,120.00001568218067,85.36654007972253,1.274,1.026068246703101,0.0,0.0,0.0,0.0347021168382987,3.2392058795580455e-08,-0.0110163301561155,1.3226102501723267e-06,0.0004039614423012,4.718667778018562,37.5686120062341,11.808397780690962,35.8688218659563
0.33,31.222212376029034,131.0103994369436,4.791055524254013,4.72141404831576,0.0007708346814671,35.42013590291081,0.0010176135371143,3.1111955852784385,418.5156301991632,12.181577273013426,5.104163223586657,69.94951809396906,1.351997394754887e-05,120.00001812674968,90.84831229869296,1.274,1.0260310883392356,0.0,0.0,0.0,0.0357992034445943,3.700677535501642e-08,-0.0121310534481307,1.5051409581878843e-06,0.0004588955105349,4.721414111097893,36.7208578211118,12.181698355442045,35.55651229220977
0.34,31.222212145785647,131.0103999093516,4.903491659547144,4.73024573449122,0.0007962944975467,27.63851074646407,0.0010446307681611,3.0871492806781062,345.4656368807584,12.53557620048282,5.2556261014174765,69.94256797855994,1.5899658158227497e-05,120.000020882338,96.20413272674828,1.274,1.0259901535019136,0.0,0.0,0.0,0.0368395817555172,4.208561016221623e-08,-0.0133180771902383,1.7057647550599631e-06,0.0005184333231541,4.730245801363397,35.94841996438923,12.535701282129995,27.810389570354005
0.35,31.222211909310875,131.01040039453565,5.018822212845608,4.780248518778662,0.0008286678570753,30.332092807652543,0.0010618579815451,3.063967690608957,370.5765700527057,12.774786382148209,5.367579971644358,69.93493776125636,1.8594985713558667e-05,120.00002397748868,99.9096898192772,1.274,1.025950003202184,0.0,0.0,0.0,0.0375426220587071,4.7658312175989686e-08,-0.0145774693288123,1.9252724355785177e-06,0.0005782798420984,4.780248590437683,35.44790728185619,12.774916548990808,30.486451961956565
0.36,31.22221166933814,131.0104008868675,5.135354490370708,4.798132156899578,0.0008554457330409,34.32674769697476,0.0010851169437774,3.0374319611165923,407.8625232777224,13.09301701329486,5.506730645516068,69.92658597246795,2.163521613217148e-05,120.0000274401514,104.94818266210537,1.274,1.0259105142325406,0.0,0.0,0.0,0.0384778908056978,5.3755109608570216e-08,-0.0158991451700967,2.162609490834569e-06,0.0006464142451675,4.798132232978766,34.796094028187134,13.09315138639638,34.46087058603792
0.37,31.222211421355144,131.01040139563804,5.255882891363927,4.797392186816851,0.0008791822061288,32.551601855236584,0.00111162791192,3.0078619428913056,391.1218908297639,13.457513730739372,5.661815946371007,69.91747693543164,2.5047738471809164e-05,120.0000313040604,110.87154396328836,1.274,1.025872170958032,0.0,0.0,0.0,0.0395491312153729,6.040098808671168e-08,-0.0172926678053148,2.420031948898497e-06,0.0007226353721561,4.797392267189059,34.07332166419882,13.457651832357364,32.69027405888565
0.38,31.22221116634284,131.01040191882743,5.379799334000849,4.811698494594017,0.0009057112478668,34.02947987649063,0.0011338447913587,2.9774881690446744,404.81876101445977,13.77554886562956,5.800899861213392,69.90756948297444,2.886339581486796e-05,120.00003560072224,116.17243393848278,1.274,1.02583050512925,0.0,0.0,0.0,0.0404838339452728,6.762496638941508e-08,-0.0187646375218858,2.69955777313946e-06,0.0008026686661094,4.8116985796350695,33.46655348088405,13.775691134419684,34.15949264475229
0.39,31.222210906095896,131.01040245274032,5.505993307722699,4.813508003664984,0.000929862892873,29.00025983045028,0.0011579891265804,2.9442136901860865,357.6406249338268,14.124492165837273,5.950648592462506,69.8968186645841,3.311602501056718e-05,120.00004036395212,122.13093644173792,1.274,1.02579027384009,0.0,0.0,0.0,0.0415093739609825,7.545934774906889e-08,-0.020311592409804,3.0013532510753577e-06,0.0008908380763632,4.813508093268025,32.821616487639595,14.124638228358922,29.149330452482886
0.4,31.222210638473225,131.0104030017851,5.635788650457906,4.841647069358873,0.0009592124397379,27.71178845184976,0.0011749448424961,2.91135549588368,345.4656368807565,14.390874239274588,6.07193451174791,69.8851815212744,3.783947407715338e-05,120.00004563180136,126.77947425345651,1.274,1.0257493418632293,0.0,0.0,0.0,0.0422922854866381,8.39343718693383e-08,-0.021938519432511,3.3271332720311508e-06,0.0009803271643914,4.841647164150728,32.348088166612904,14.391024912012275,27.864299944624147
0.41,31.22221036681104,131.01040355909262,5.767123077463226,4.86553909860892,0.0009876699832274,31.306062598221665,0.0011918093836199,2.876450850006428,378.9468707766882,14.663028799871563,6.195223154320929,69.87261222561014,4.307011032901644e-05,120.0000514391194,131.6183642808765,1.274,1.025708445186429,0.0,0.0,0.0,0.0430921644173401,9.308325447883581e-08,-0.0236371933433427,3.6760977501392174e-06,0.0010761942383903,4.865539198612839,31.87689439156756,14.663183942709727,31.437931330109585
0.42,31.22221008906472,131.01040412887247,5.901259531771367,4.867510642114694,0.0010118258958528,35.308283402190774,0.0012128114559048,2.8374461227958245,416.23282400171047,14.9952917972178,6.33928625560071,69.85906967380902,4.884273094936628e-05,120.00005782486392,137.64909586091787,1.274,1.0256701057426505,0.0,0.0,0.0,0.0440686959134695,1.0293499639582845e-07,-0.0254093547296826,4.049238334851429e-06,0.0011830797791891,4.867510747027452,31.315270489291198,14.995450734457847,35.422111438762386
0.43,31.222209804115888,131.01040471342728,6.038886819939341,4.854590670645608,0.0010330089741511,31.00586934514032,0.0012363751872706,2.794478603999558,375.90313951343126,15.369430568701889,6.497852263156962,69.8445117629242,5.519340856908871e-05,120.00006482835984,144.60167924299955,1.274,1.0256308158337524,0.0,0.0,0.0,0.0451682983415116,1.135186446762958e-07,-0.0272634397889413,4.449073329427772e-06,0.0013010625065656,4.854590780289497,30.70250814963406,15.369592833372094,31.13154422839874
0.44,31.22220951192321,131.01040531284193,6.180028459770617,4.866912332640401,0.0010595850174406,28.57707721036899,0.0012525768202179,2.752165534925872,353.07501253892326,15.659290812546615,6.627318538707029,69.82889155423543,6.216182865383864e-05,120.00007249162944,150.1053167542629,1.274,1.025586171750536,0.0,0.0,0.0,0.0460202245100907,1.2486676023179565e-07,-0.0292060158163984,4.8779154055816594e-06,0.001420032405556,4.866912447705031,30.24619499837236,15.659457251771938,28.709297424144207
0.45,31.222209215425703,131.01040592106523,6.322872201489905,4.881836476567178,0.0010866574689855,33.31904824532484,0.0012669045761511,2.7082028218433374,397.2093853562887,15.934249290371609,6.751662050993672,69.81215834018458,6.97909417564726e-05,120.00008085697964,155.42080512416243,1.274,1.0255397023523487,0.0,0.0,0.0,0.0468283602442113,1.3701614206272197e-07,-0.0312276295846745,5.334643585560923e-06,0.0015449645531859,4.8818365972149325,29.82567893138932,15.934419982127675,33.428929688274074
0.46,31.22220891307435,131.0104065412864,6.468371919199588,4.869610441729251,0.0011078049156487,38.95909776354321,0.0012868374716666,2.6582856015412624,449.7140588976424,16.292139278621757,6.904766425053949,69.79426683863348,7.812149592850748e-05,120.00008996920153,162.4785746623087,1.274,1.02549635315424,0.0,0.0,0.0,0.0478802236363867,1.499987870203256e-07,-0.0333272350234362,5.819761874615242e-06,0.0016858511402973,4.869610567434908,29.29014635640275,16.292313292210977,39.04968351401366
0.47,31.22220860266524,131.01040717804253,6.6178810515614845,4.838450928223533,0.0011247917292402,26.253747818137555,0.0013104398935566,2.6026193242279367,331.0078106302504,16.710658191447514,7.078951441335346,69.77517236812905,8.719457259907165e-05,120.0000998741591,170.9309671061642,1.274,1.025453319323251,0.0,0.0,0.0,0.0491102725711187,1.6384464803343264e-07,-0.0355167087264168,6.3368207228363735e-06,0.0018427306558807,4.838451058652396,28.68386015667837,16.710834873319172,26.382435512333956
0.48,31.222208284201663,131.0104078313267,6.771393590864176,4.869339340099417,0.0011561785713505,25.860860976019296,0.0013165328518772,2.5543454292827983,327.20312230115803,16.911139899671,7.177575416403102,69.75482343794755,9.70562828082882e-05,120.00011062072316,175.0543877818846,1.274,1.0254092882449153,0.0,0.0,0.0,0.0496995461609974,1.7858865391586845e-07,-0.0378054080201581,6.88909442277235e-06,0.0019849793891693,4.869339477030596,28.40887970825325,16.911321511776286,25.986704537635287
0.49,31.22220796480208,131.01040848648364,6.924537656029012,4.881367714530694,0.0011829003785372,32.565703383222065,0.0013261973190012,2.5011623511055703,389.6000096981238,17.169005224738054,7.296160258358563,69.73316318155707,0.0001077573203115,120.000122255028,180.4309832312717,1.274,1.025367445590036,0.0,0.0,0.0,0.05045746454003,1.942747077649401e-07,-0.0401641298712614,7.47069711110948e-06,0.002140948887153,4.881367857509675,28.058569663954906,17.169191034294997,32.66161128464712
0.5,31.222207637929923,131.01040915697027,7.081324512896956,4.862566137860805,0.001202418260511,33.47759680712428,0.0013425340759632,2.4399894027711366,397.970310422106,17.52898693231981,7.450304424940405,69.71015149227495,0.0001193385310595,120.0001348274002,188.0736471953394,1.274,1.0253278572281015,0.0,0.0,0.0,0.0515154948878309,2.109295159784217e-07,-0.0426011733481599,8.084173008518589e-06,0.0023184335011768,4.862566286171007,27.57768313050809,17.529175807738486,33.56639745442473
0.51,31.22220730314019,131.01040984370235,7.24202048914867,4.8479762258125,0.001223054804074,25.49162310288008,0.0013562860883156,2.3767006597692686,323.39843497208153,17.86914397471067,7.597652147346554,69.68574349602717,0.0001318441288964,120.00014838524436,195.4407439266201,1.274,1.025286455263166,0.0,0.0,0.0,0.0525152689856776,2.2858192086249162e-07,-0.0451315948093539,8.734206149830708e-06,0.002503767471626,4.847976379721193,27.13799345359824,17.86933609171003,25.602178740977283
0.52,31.222206962738102,131.01041054193402,7.405210501673173,4.865306299521403,0.0012516517170965,30.733671928447727,0.0013599291289974,2.317711624364424,372.098451184342,18.08534843773428,7.701914987606457,69.65988568649581,0.0001453248538387,120.00016298000436,200.19561780583155,1.274,1.0252426840672306,0.0,0.0,0.0,0.0531507657929359,2.4726951523704535e-07,-0.0477531686556663,9.421346966092632e-06,0.0026812161964639,4.865306460134566,26.8699055233151,18.085545046726228,30.820940596104087
0.53,31.222206619320115,131.01041124632013,7.569307468221277,4.848802699234936,0.0012715119568563,32.301199055744725,0.0013711327835325,2.2490252325653923,386.55624643486095,18.41963113311156,7.8474319110539055,69.6325258319474,0.0001598315062727,120.0001786629144,207.6614205945027,1.274,1.0251993415311351,0.0,0.0,0.0,0.0541332845214831,2.67031759303889e-07,-0.0504479325599339,1.0141887756417996e-05,0.0028848299490111,4.848802865552398,26.45837260670532,18.419830861742675,32.37940050117613
0.54,31.22220626697288,131.01041196903336,7.737918664599091,4.831496690588052,0.0012913635058467,28.31291960103712,0.0013809098107221,2.177242866245296,349.2703242098436,18.75116898748492,7.992112829440902,69.60362200959217,0.0001754082864028,120.00019548734956,215.20067397992847,1.274,1.0251561018460285,0.0,0.0,0.0,0.0551077428911958,2.878941684235108e-07,-0.0532336286085667,1.090122304443916e-05,0.003098869611663,4.831496862756785,26.061835558272342,18.751371834390056,28.396510432451375
0.55,31.222205908994248,131.01041270328463,7.909026079894722,18.22227304405061,23.92206346522504,31.14972295702412,-1.799328987810296,1.1733806144452297,365.2500005919912,24.089588654520423,8.113323699629928,69.57312211246325,0.0001921068626005,120.00021350480982,355.171872308874,1.274,1.025112921033824,0.0,11.278816046756331,0.0,0.0707969418468491,3.0989272306468813e-07,-0.0561100530405476,1.1700476995263424e-05,0.0041961578129615,29.74335228186028,46.321371547591774,27.739031214257945,31.223703290482472
0.56,31.222205546564343,131.01041344664463,8.081909946161325,22.4230462750909,18.476114849258465,29.150698247694496,-1.9930719904334195,0.3977042632842556,346.22656194657776,25.174015090282783,8.243352958320413,69.54097415464405,0.0002099796112633,120.00023276987916,387.862295302456,1.274,1.0250709539098009,0.0,11.31996503450294,345.0001478400497,0.0739841092285683,3.328942889008732e-07,-0.0703538438275002,0.021798850319368,0.0054981281588668,28.74774995859873,43.23561667128372,28.02619876214921,29.22145980214239
0.57,31.222205181621927,131.01041420618407,8.258620404968442,22.21116292428833,18.29194427283244,28.86758576050469,-2.390050708877005,-0.0369491618862825,343.1828296833045,25.44861171031693,8.355624900412392,69.50066143418694,0.0336209205219168,120.03589793637576,396.3632753389496,1.274,1.0250279191823897,0.0,11.360792541650731,345.0001478400497,0.0747912724696017,3.7359610816788106e-07,-0.0904913121427649,0.04083679396459,0.0071488823880164,28.47609985457995,42.82894759716714,28.273342391959925,28.96638077619744
0.58,31.22220481195909,131.01041497370312,8.437265183823829,21.990864907647573,18.09448127477445,37.82880255894719,-2.800433072394153,-0.4884000567443139,426.12500585731766,25.72888250804633,8.471980204572326,69.44878806012804,0.0959606300238262,120.10246352317508,405.1348615196338,1.274,1.024981594484354,0.0,11.401752964356747,345.0001478400497,0.0756151165305964,4.330069001785936e-07,-0.1109485676550644,0.0601119109257736,0.0088614000847501,28.189826773994064,42.40719462207626,28.524146379311983,37.93546181414161
0.59,31.222204438380505,131.0104157539925,8.618734131681801,21.64536541651255,17.80505466988403,30.830584691827298,-3.242613996726569,-0.9834348922225948,360.68438819710633,26.129207365332928,8.636026577661747,69.38513504167683,0.1872550918067327,120.1999833875474,417.83293681812165,1.274,1.0249386802161349,0.0,11.442439974744197,345.0001478400497,0.0767917962961745,5.113544508588944e-07,-0.1317291206334084,0.0796163629710551,0.0106846470871107,27.752828093928503,41.78802518653824,28.88122107640517,31.0162319142565
0.6,31.22220405686334,131.0104165538332,8.80523207265055,21.42102751749415,17.603966720369854,27.513460526894992,-3.681336799802735,-1.4684421101828236,329.4859594986072,26.397486486951195,8.747486950941097,69.30946436053316,0.3074134295192013,120.3283939995396,426.44946661044287,1.274,1.024891335813742,0.0,11.483051169560744,345.0001478400497,0.0775804118944438,6.088611059544742e-07,-0.1529447030475793,0.0994352717475702,0.0125326061968916,27.46080195592503,41.37395063604146,29.11940942168892,27.797465226699156
0.61,31.222203674673853,131.01041735845598,8.992391319849698,21.19993643615237,17.405075928097347,32.13476691118862,-4.129598987782405,-1.9647929481310948,372.0984511843332,26.653158973499377,8.853924637706449,69.22145645583393,0.4563658267955043,120.48766201105184,434.7423989032093,1.274,1.0248423929069768,0.0,11.52405555149452,345.0001478400497,0.0783319812774074,7.258594378311345e-07,-0.1744525487756992,0.1194498334499956,0.0144331983558052,27.17237604355055,40.97204334658609,29.34528693283617,32.45854654117066
0.62,31.22220328821973,131.0104181751508,9.182342855944857,20.89966963418745,17.147377264745785,39.78172006562556,-4.605871059799997,-2.4981564002038894,442.86563930529206,26.98527562309457,8.99106608915657,69.12085668062035,0.6337548903510202,120.6774544676168,445.6361496382848,1.274,1.0247996097896497,0.0,11.56448730865448,345.0001478400497,0.0793082214613606,8.625558324229753e-07,-0.1962303163650277,0.1396381246789464,0.016436964320496,26.7879492221221,40.44668780026236,29.638750659466886,40.125304796339904
0.63,31.222202895517967,131.0104190078548,9.376222880762018,20.521472561175383,16.83149095623728,22.927206093951767,-5.117812026889112,-3.077451079912314,286.11251274707456,27.39996748773328,9.1612682814497,69.00740666233327,0.8390853250087316,120.89729851926292,459.42931870329727,1.274,1.024756158874558,0.0,11.604796961717131,345.0001478400497,0.0805271538744787,1.0191317469609037e-06,-0.2183416300527367,0.1600462630270147,0.0185697971914377,26.308598224582216,39.79789560148603,30.00598873207685,23.692181924980304
0.64,31.22220249560045,131.01041985837395,9.574539097058448,20.358893110213344,16.67459033208501,22.538337233697625,-5.58063743467857,-3.5902105355310834,282.3078244179702,27.55462929079856,9.227925527258602,68.88079505003935,1.0718257254491592,121.14669030102388,464.6216965622469,1.274,1.024708534665538,0.0,11.645230943702408,345.0001478400497,0.0809818784675984,1.195820330277117e-06,-0.2408550028669416,0.180724713682398,0.0205997779375216,26.089462976709992,39.515846183904415,30.13705071876014,23.4948881914057
0.65,31.22220209885973,131.01042070593004,9.771272205247882,20.12524691778029,16.464735908284556,39.19306249063189,-6.067856039536116,-4.135700682134352,436.7781447787504,27.780102379282148,9.323147067220347,68.74065473212917,1.3314129154577885,121.42509973929644,472.2476665613859,1.274,1.0246641738210605,0.0,11.685879878492056,345.0001478400497,0.0816447154463379,1.3929549782172891e-06,-0.2634987135369127,0.2014510706009141,0.0227204239828747,25.78393356220887,39.122078793179305,30.330928835866303,39.87504287700914
0.66,31.222201695882177,131.0104215691572,9.971803907548066,19.69720660919485,16.109695366868017,33.45610499668998,-6.633642719310147,-4.782610219289141,383.5125151715984,28.23252396423955,9.510107774959522,68.5867621863469,1.6168647482969425,121.73155491342013,487.7454031090464,1.274,1.0246195561629028,0.0,11.725516806139666,345.0001478400497,0.0829745538209676,1.61060206070244e-06,-0.2863292741148211,0.2222664783323597,0.0250906079929134,25.24170809056786,38.40777994697528,30.729819021709385,34.44110244731794
0.67,31.22220128219056,131.0104224564848,10.178519834090272,19.38503120316628,15.840021717075512,23.282185698263767,-7.1703624026063055,-5.391858129413374,289.15624401033847,28.53328548057221,9.636539643752153,68.41884845911736,1.9271727378295973,122.0650621330645,498.1827854669231,1.274,1.024572383541697,0.0,11.765243289014828,345.0001478400497,0.0838586785941698,1.848846480558804e-06,-0.3095516291542901,0.2433301102363371,0.0274139731083551,24.839286966087307,37.89544374459342,30.98985618200281,24.950879783303616
0.68,31.22220086819304,131.0104233475392,10.385568546186413,19.1490555491838,15.626744482463096,28.85082689347612,-7.679187729937536,-5.966757361338099,340.89999248584934,28.72274567534376,9.718389966640633,68.23651220064234,2.2614647683912854,122.42478100230936,504.81055195563096,1.274,1.0245245285832842,0.0,11.805483636418169,345.0001478400497,0.084415694986971,2.108010237799273e-06,-0.3329987583959201,0.2645035666161224,0.0296856825668503,24.529095255577754,37.51991690838393,31.14707005599359,30.445727615513324
0.69,31.22220045235684,131.01042424533406,10.593820678686448,18.810223162825167,15.335847171997791,35.31172547681501,-8.23847705746555,-6.606486188272075,401.0140726853658,29.03483193710378,9.850666826628208,68.03943906707299,2.6185936283342426,122.8095818940994,515.8298460729907,1.274,1.024479631064582,0.0,11.845116290664835,345.0001478400497,0.0853331120530038,2.388274359145711e-06,-0.3565457051464457,0.2856826352704315,0.0321295256089871,24.09277858374912,36.97551204242383,31.41512021000512,36.856968406695664
0.7,31.22220002841525,131.01042516148564,10.8065481626077,18.417846690176265,15.003903506136483,29.694539064619484,-8.834505400153537,-7.293126192189467,349.270324209851,29.41108034203192,10.009953177918042,67.82738021491733,2.997205184243647,123.21811765839092,529.2744351633497,1.274,1.0244351749185203,0.0,11.884355367263671,345.0001478400497,0.0864391102039602,2.6896615698572127e-06,-0.3802899405935074,0.3069407321457822,0.0347125669920912,23.59007013738596,36.3448698264977,31.741044010893276,31.827721023987163
0.71,31.222199597833168,131.0104260928677,11.02283007977718,18.092262430390026,14.721303612918735,24.47623440298366,-9.400805485958,-7.944317633362002,301.3312640634036,29.68218529151204,10.126993323266232,67.60002242521449,3.395988409164905,123.64909222734089,539.0656839208206,1.274,1.0243880468141104,0.0,11.92377531226846,345.0001478400497,0.0872361000013267,3.0122848499282832e-06,-0.4042690839219004,0.3283034057691179,0.0372407396588071,23.168171161667235,35.83652416998146,31.969243464521316,27.396594259038206
0.72,31.222199165183174,131.01042703094458,11.240260742455698,17.787139306916213,14.453355601901524,29.75922600478517,-9.954597369784336,-8.582157798108781,350.7922053414578,29.90837255280804,10.226290240675116,67.35702438962029,3.8136139612109297,124.10119421058492,547.3012478199456,1.274,1.024337302174265,0.0,11.96315422495092,345.0001478400497,0.0879010811818102,3.356338320443539e-06,-0.4283607737520394,0.349668465651671,0.0397599019133755,22.770578859557222,35.37125622582878,32.15469833700119,32.53242956912438
0.73,31.222198728804926,131.0104279786626,11.459658914630342,17.407607864599484,14.12844569164034,37.41072619267229,-10.557569972075967,-9.282637728672196,422.3203185282354,30.23278438903614,10.367226505565045,67.09811459539577,4.24858234917904,124.57293167682336,559.2268546608719,1.274,1.024292465384646,0.0,12.002129618759316,345.0001478400497,0.0888547515604782,3.721898085810303e-06,-0.4525003901935798,0.3709801019635712,0.0424551894478083,22.280781050774443,34.781823950027025,32.429652844484615,39.96488560198997
0.74,31.22219828431935,131.0104289434766,11.683058068560296,16.969025380365714,13.757895210277637,23.514699345199936,-11.209753767446578,-10.04545274401701,294.4828134710563,30.640776356871065,10.544246208030252,66.82305974699099,4.699303540388033,125.06271660019652,574.4099286751734,1.274,1.0242470321640116,0.0,12.040852765983862,345.0001478400497,0.0900540749943194,4.108930475125933e-06,-0.4767516936402626,0.3922850801163128,0.0453331994527865,21.71726717942559,34.09311886343198,32.78115400332555,27.919720372063328
0.75,31.22219783121353,131.01042992580676,11.91052627002292,16.661441616624796,13.485588997472888,27.27883143989672,-11.760515884008663,-10.68715668593858,330.24688556441737,30.821835144734088,10.627199755782245,66.53158892818703,5.164234723109344,125.56901338498989,581.2057578011173,1.274,1.0241984712898409,0.0,12.079616474485464,345.0001478400497,0.0905864441642617,4.517449697383909e-06,-0.5011604407910272,0.4136158672369706,0.047934715135887,21.314095398463337,33.64619570812068,32.92064222353991,31.569917589599747
0.76,31.22219738015759,131.01043090726876,12.137034698059017,16.273325643233402,13.151450299738208,29.21614438398805,-12.371998264973008,-11.405606160494749,349.2703242098581,31.12185791916737,10.761311180109525,66.22340520829867,5.641866481508622,126.09032355818483,592.5629673663972,1.274,1.0241522053390697,0.0,12.118443906491368,345.0001478400497,0.0914684552630822,4.9476494658394105e-06,-0.5254948042283664,0.4347832549543047,0.0507503884273222,20.810803610452087,33.06090900151632,33.16959033591463,33.71553478180121
0.77,31.222196918854333,131.01043190848722,12.368171509391704,15.870075121735905,12.804691104759607,27.18830476705894,-12.99410542449206,-12.13993057441052,331.76876669606884,31.433219027801503,10.901760171144073,65.89835811113034,6.130482444398665,126.62492212817044,604.4655479675223,1.274,1.0241065975906936,0.0,12.15652172827079,345.0001478400497,0.0923837996228187,5.399361443706193e-06,-0.5498309315671533,0.4558446839344678,0.0536307432463138,20.28770393623691,32.45504481690905,33.42787406483562,32.487360715219715
0.78,31.222196452022768,131.0104329211034,12.601628275391324,15.478513833379468,12.465950204762075,22.180793533254445,-13.600291446230294,-12.85810941190398,286.8734378128874,31.709506994817847,11.028456214736588,65.55625727084391,6.628462509208084,127.17118669299578,615.1245761252637,1.274,1.0240588105546735,0.0,12.194792547729683,345.0001478400497,0.0931960692137448,5.872526807553141e-06,-0.5741450012269472,0.4767771316524745,0.0564933241951151,19.778107233356884,31.877309726928523,33.65224142876063,29.022172676003443
0.79,31.22219598029164,131.01043394390788,12.83706408308361,15.108713902522856,12.142822404004692,31.39382341828941,-14.172912726333168,-13.539069592843736,373.6203323159581,31.926941665500195,11.130961351587231,65.19693499992864,7.134198651523636,127.7275048038806,623.5753189703606,1.274,1.0240083170932772,0.0,12.232839288414858,345.0001478400497,0.0938353714926774,6.367088510362012e-06,-0.5983742930115811,0.4975274558215535,0.0592797658565628,19.294497491847377,31.34771175264551,33.82008528993189,37.01013387447902
0.8,31.22219550494829,131.0104349746918,13.073878772479809,14.650683390033826,11.75145010184062,31.613391170604128,-14.835807782948864,-14.332497474268386,377.42502064505805,32.30075709742876,11.303308825597096,64.82027218569992,7.646076346849104,128.29225221164097,638.2485065206075,1.274,1.0239625010683884,0.0,12.27057869935206,345.0001478400497,0.0949342931602148,6.882950779772556e-06,-0.6224367266485217,0.5180271714659012,0.0623841509824979,18.70047521188261,30.659054491285666,34.13375586551485,37.748220855136296
0.81,31.222195017074927,131.01043602691192,13.315557598728178,14.20519998402984,11.368577259928246,20.202584075464348,-15.47895572859454,-15.105706658376077,273.9374926939922,32.63713476012896,11.46117725804885,64.42621252567938,8.16247530565784,128.86379196525294,651.5959456857312,1.274,1.0239149950770308,0.0,12.307978277448928,345.0001478400497,0.0959231933222906,7.419787516228317e-06,-0.6464228896030692,0.5383451706830832,0.0654613606932285,18.12088049641856,30.000471473094663,34.41121206275399,29.596027561531002
0.82,31.22219452365248,131.01043708938752,13.559134144432576,13.826964500481516,11.036204320349793,25.90493507090812,-16.019673799298413,-15.759147708358448,328.725004432774,32.81314117315648,11.549132226995932,64.01465492494407,8.681915568070877,129.44063496246312,658.6273775767062,1.274,1.0238644186635044,0.0,12.34558306046078,345.0001478400497,0.0964407555123454,7.97747500982169e-06,-0.6702615529909934,0.5584216970505917,0.0682398768226313,17.62394077335086,29.478951043603857,34.53600426418201,34.293532133009464
0.83,31.222194029484285,131.01043815496988,13.802773683278518,13.376908986754016,10.648005668531878,32.903557262411255,-16.6412770736493,-16.513868395655905,395.6875032246518,33.127742287285926,11.700833141881548,63.58555589286295,9.202934561344785,130.0213034572387,671.3015994151683,1.274,1.0238188483711983,0.0,12.382925313667174,345.0001478400497,0.0973656639537314,8.555931765008022e-06,-0.6937902620945071,0.5781256862165921,0.0713109129122598,17.03670792582091,28.82540279507464,34.79071589397612,40.40153502717174
0.84,31.222193522549205,131.01043924097337,14.050861518359916,12.888030418392717,10.229090786637515,19.60697436098317,-17.310075630375778,-17.329462007477506,275.45937482564227,33.51879650991228,11.889602082352424,63.138989546668206,9.724038451127544,130.60427486292167,687.2274383534927,1.274,1.0237739661568126,0.0,12.419731503483932,345.0001478400497,0.0985152861813002,9.154674164171224e-06,-0.717075522003117,0.5975073245880645,0.0745725381751947,16.400035998862474,28.101644780885614,35.11705631796988,31.37486916929196
0.85,31.222193004980447,131.0104403436089,14.302353327568564,12.4834159014399,9.873722112469032,21.211966286569226,-17.824665441457125,-17.963295188838806,292.9609323393965,33.689065378011925,11.978999843589792,62.67500276560779,10.243878122203611,131.18817679992165,694.2103646434921,1.274,1.0237227741398531,0.0,12.45661542534771,345.0001478400497,0.0990160053357508,9.773302747780083e-06,-0.7401279804730713,0.6165721691380796,0.0773590107026687,15.86743491632748,27.554273068371916,35.23236086155296,33.02039045625876
0.86,31.2221924892046,131.01044144536095,14.552867010088416,12.034129053664136,9.483365788149392,26.67002480975945,-18.38847847427384,-18.66041934859209,346.2265619465616,33.949832322652135,12.11178685075638,62.19365033149754,10.76120607445258,131.7717392768691,704.9819328923115,1.274,1.023674789281455,0.0,12.49345483743118,345.0001478400497,0.0997827111541905,1.0411718095032602e-05,-0.7627463649047332,0.635159931639681,0.0803382659420997,15.278275620928037,26.924795784096084,35.43268365124142,37.384991831179086
0.87,31.22219196150157,131.01044256503616,14.807046667756945,11.549800290447092,9.065286688413714,24.35377823720741,-18.99454727066356,-19.412683884038334,327.9640783669946,34.28546063831056,12.282047460778385,61.69513232702746,11.274746766250928,132.3536475159125,718.9721967052257,1.274,1.0236288969245204,0.0,12.529628294125686,345.0001478400497,0.1007694528265473,1.1069321868100188e-05,-0.784953549404472,0.6532869740289874,0.083492606349645,14.644429170945894,26.23068198078296,35.703498857869135,36.47946869166479
0.88,31.222191423175016,131.01044370018113,15.064203515958967,11.07994103735127,8.657497839009062,20.367602733244183,-19.549708294387884,-20.10781358886343,294.4828134710421,34.56555659711452,12.428328240769265,61.17965031642512,11.783352210642535,132.93271611208797,730.7494587574024,1.274,1.0235805388426191,0.0,12.565811479046184,345.0001478400497,0.1015929862442319,1.1745523668418025e-05,-0.8067530720848418,0.6709538047898621,0.0865102424370461,14.02780435287204,25.57422262468365,35.92030419894026,34.66056120173756
0.89,31.222190878813784,131.01044484443946,15.322763485632404,10.61776246566026,8.254794778245222,22.220710999795102,-20.058819516325897,-20.751561129997928,315.02813424808807,34.803249388249995,12.556303787406584,60.64741922552478,12.285985282588475,133.507870629063,740.8157316812718,1.274,1.0235293752791452,0.0,12.601901791105652,345.0001478400497,0.1022918968823205,1.2439873489704364e-05,-0.8280615607061222,0.688093828780791,0.0894035946862088,13.419970908424412,24.94270689115922,36.095428349470986,36.424490759061996
0.9,31.22219032757192,131.0104459987593,15.582936002037531,10.132614081290988,7.833886478992081,24.46550276572065,-20.588781917732,-21.424728181317576,339.3781423542166,35.091660484444226,12.711119138144262,60.09872373382558,12.78167012330242,134.07809089458382,753.1259214689395,1.274,1.0234837388140003,0.0,12.637679799038576,345.0001478400497,0.103139882509613,1.3151827489704062e-05,-0.8488071635017619,0.7046499572150505,0.092400573411955,12.78271227277911,24.269791431424338,36.31837404999964,38.489969395658875
0.91,31.222189765145,131.01044716822238,15.845871288897566,9.63368587812848,7.401897932131058,17.36112650129378,-21.12334225219444,-22.10783454256027,277.7421810230785,35.4085643734812,12.882590059498328,59.53391095394036,13.26950364057792,134.64242343326427,766.7705583002032,1.274,1.023436404813438,0.0,12.673179944285213,345.0001478400497,0.1040716213839161,1.3880641049166142e-05,-0.8689732084831348,0.7206078000437721,0.0954476961944933,12.12757789779372,23.57419657034472,36.56802038547819,35.16192044610887
0.92,31.2221891920218,131.010448351753,16.11125391339459,9.16100017826829,6.989120930037473,20.976551351356896,-21.55302528566324,-22.66826815944349,315.0281342480675,35.6153441222604,13.001620179756262,58.95335392606132,13.748684909213132,135.2000152832026,775.7325454226615,1.274,1.0233859136578225,0.0,12.708561524365583,345.0001478400497,0.1046796946733019,1.4625560105988945e-05,-0.8885265488064353,0.7359402505202439,0.0981628660125259,11.504536204728298,22.947306140268264,36.71047205056628,37.661638133636615
0.93,31.222188615253938,131.01044954058656,16.377041748186397,8.657472298397403,6.552637400354376,25.31673397716821,-22.032663098590792,-23.293457273173807,359.16250706547066,35.914872457950906,13.169678670645167,58.357461786353696,14.218503131860937,135.75010054034956,788.8152421104189,1.274,1.0233407575091376,0.0,12.74377888924185,345.0001478400497,0.1055603771423846,1.538600119494369e-05,-0.907359333409618,0.7505639292457257,0.1010839559057472,10.842570111775832,22.25783458936954,36.94191606468126,40.85291194301676
0.94,31.222188023617672,131.010450747842,16.64617824823483,8.137304882774323,6.103307042008706,16.58559728305814,-22.53126299603144,-23.946181763955764,283.06875048378083,36.265681191459215,13.367109327739128,57.74672875203944,14.678302160237584,136.29195890830843,804.2796682702891,1.274,1.0232914783978162,0.0,12.778544684397588,345.0001478400497,0.1065917918396671,1.6160956629028716e-05,-0.9254726802453452,0.7644783630346875,0.1041062509813204,10.159483692659029,21.53665638107185,37.22257435957376,36.82607052761031
0.95,31.222187418831044,131.01045197090275,16.917986064569057,7.647686268044105,5.676368475711682,22.55356979334904,-22.888633779505746,-24.43163355799375,342.421873617488,36.47182734221735,13.492447295867803,57.12166152741337,15.127529270774335,136.82497303856786,813.4280059888903,1.274,1.0232418269359267,0.0,12.813275078092053,345.0001478400497,0.1071980236687143,1.6949452214014786e-05,-0.9428395646025088,0.777661129151859,0.1066599436089616,9.514019076429593,20.89999562399823,37.36201133670807,40.36654289170531
0.96,31.222186811233662,131.01045319775767,17.1897872487055,7.123747020973838,5.223917589986484,21.478969528002416,-23.329888664139723,-25.023460701184234,337.09533515678265,36.8145394580962,13.691978701616364,56.482797078329455,15.565715542032592,137.348606478826,828.7651519656558,1.274,1.0231951201821403,0.0,12.847880964029152,345.0001478400497,0.1082056552324388,1.7750827493074596e-05,-0.9593430953324436,0.79002399411862,0.1095438542193147,8.825884942017629,20.18573169596013,37.633974112771696,40.39558667143879
0.97,31.22218618385429,131.01045444723167,17.46564674374781,6.605603744391481,4.775601704844683,10.96631789979194,-23.71095016459342,-25.54646662697652,245.0218871929888,37.11737150891823,13.873802639062964,55.83076174256516,15.992438026095376,137.86235894163588,842.4335593664424,1.274,1.0231476260761452,0.0,12.88202898434712,345.0001478400497,0.1090960817355889,1.85637940660774e-05,-0.9749941033506172,0.8015729873071525,0.1122438069043093,8.14488742320933,19.495579408817445,37.86665299653309,36.53890040915784
0.98,31.22218554745548,131.0104557068682,17.7427944748621,6.111360245633634,4.344475150197392,18.56186513262428,-23.94009517466481,-25.88804541593858,319.593746642963,37.27522285355084,13.979992141580416,55.1661856713648,16.407366118662168,138.36582224421264,849.591519958088,1.274,1.0230935628253934,0.0,12.916230715966664,345.0001478400497,0.1095603840099136,1.9387381983794705e-05,-0.9897234497026824,0.8122552973458533,0.114420998667044,7.49343231963753,18.882054858907164,37.95699766619127,39.84798476248756
0.99,31.22218490824432,131.01045696995567,18.01981311017998,5.584047176316056,3.8897977590150026,20.438200872308148,-24.27919521437736,-26.368201128169527,341.66094855170127,37.60343469568513,14.181733586887164,54.48975526863366,16.810225824254413,138.8586383679529,864.595851753847,1.274,1.0230490803133316,0.0,12.950143593140078,345.0001478400497,0.1105254189625842,2.022077925610097e-05,-1.0034325682786904,0.8219992439194606,0.1170242263089835,6.801776156088844,18.185236543747717,38.21397344880206,41.26113674985534
1.0,31.22218424686944,131.0104582567483,18.300875853322445,5.056648911899813,3.4354255202823527,16.932312425099408,-24.58225940190838,-26.80875322057358,314.2672081822764,37.92753144395522,14.385044549058392,53.80223202093425,17.200789668009236,139.34048743098103,879.5399043331204,1.274,1.022999484445133,0.0,12.983604311918263,345.0001478400497,0.1114783697608189,2.1062420239578764e-05,-1.016135222753744,0.830811764464422,0.1195238104520982,6.110743101245741,17.496794635340155,38.466843536772366,40.12106592060464
1.01,31.222183573914705,131.0104595555494,18.58346826829688,4.53651980122144,2.9866081365930754,17.56350795583161,-24.802996269086133,-27.15257553132755,324.92031610370094,38.19591978984566,14.560407594772428,53.104377120240514,17.578906669774963,139.81112530457128,892.0075945315984,1.274,1.0229507481225095,0.0,13.01711859195536,345.0001478400497,0.1122675872878501,2.1911092045308537e-05,-1.0277797853228547,0.8386534680133924,0.1217456925027785,5.429658308149232,16.840971867249756,38.66484267709585,40.75448188387761
1.02,31.222182890426662,131.01046086514938,18.86732338838019,4.011332060450246,2.5349914417599986,12.646232139600889,-25.01489604665865,-27.489816872263432,284.59063161543185,38.49676589118248,14.75747942871698,52.39699421027974,17.944475666383134,140.27035210994413,906.0898359003,1.274,1.0229039803623294,0.0,13.050386791801312,345.0001478400497,0.1131522134186504,2.2765654971484e-05,-1.038303483618727,0.8454788536347949,0.1239576337342241,4.744097630333682,16.178689020078572,38.89483151534208,39.26018648993395
1.03,31.2221821905854,131.010462191134,19.15350410828088,3.493772874103513,2.089023698425944,8.064855615173462,-25.127653107396803,-27.70897133403788,247.3046933904342,38.7265551145696,14.91680254684481,51.6809359245612,18.29743939895993,140.71800562350825,916.9139127773108,1.274,1.022853416101322,0.0,13.08338325617968,345.0001478400497,0.1138279925100078,2.3624702474694302e-05,-1.0476689263750956,0.851259013390904,0.1258188503501305,4.070019432459689,15.555202561059277,39.05462549142016,38.26523146630367
1.04,31.22218148234925,131.0104635253008,19.44034629508312,2.9792443262119472,1.6456706724680388,18.23610794015232,-25.167489099011405,-27.84176697020373,345.4656368807608,38.91780373550888,15.056185753875322,50.95708648238817,18.63778619195775,141.15396428667967,925.9670058206752,1.274,1.0228049544826707,0.0,13.116235024353232,345.0001478400497,0.1143904950284404,2.448704705942164e-05,-1.0558189139289975,0.8559540355090565,0.1274202872127268,3.4031878212471334,14.9566759294732,39.17626953887566,41.726755545775084
1.05,31.22218076411735,131.01046486909382,19.72810811777348,2.4501221613125046,1.195108759914,6.290542842276266,-25.322892049434028,-28.121982345412977,240.4562587980608,39.289423764592286,15.305951532357724,50.226373835557965,18.96554229322893,141.57813849458338,943.7091816949528,1.274,1.022755494436122,0.0,13.14875686022822,345.0001478400497,0.1154831669773565,2.535138421043048e-05,-1.062711434660048,0.8595352558669027,0.1294731839663558,2.725896698638167,14.30261376885326,39.47713739716457,38.36229505691131
1.06,31.222180019397985,131.01046623788963,20.01962145552705,1.9388891826990289,0.755677128040447,13.176823949306597,-25.24300093791918,-28.11410174051417,308.1796836557233,39.43658692455012,15.424414513995792,49.48975877132678,19.280771748523776,141.99047144026585,950.7653486042824,1.274,1.0227013895379469,0.0,13.180986076855175,345.0001478400497,0.1159161040626277,2.6215771038232524e-05,-1.0683342351266911,0.8619864626492504,0.1306420909736627,2.080894324031744,13.745395439078894,39.55528496890039,40.01550327584035
1.07,31.22217927801105,131.01046760319556,20.309506814876848,1.4191043420084584,0.3141138782037558,17.090652623849895,-25.266179275966834,-28.238397615156085,348.5093681440431,39.75173618514538,15.647925348745511,48.74821576283182,19.58357298288072,142.39093586998817,965.9948551021548,1.274,1.0226540159946436,0.0,13.213239899908244,345.0001478400497,0.1168428056346144,2.7079369599356287e-05,-1.0726267800471496,0.8632739127102196,0.1322115208393318,1.4534457282816151,13.14649191351314,39.8010768305898,41.56774377069384
1.08,31.22217850860776,131.01046899416073,20.60311195498897,0.9017750088674612,-0.1234529634196536,7.092541346204695,-25.27129449138458,-28.344835642175106,261.0015785751465,40.095819972007774,15.893803595676893,48.00276194232021,19.874073846702224,142.7795288087729,982.7624672135707,1.274,1.0226061614050743,0.0,13.244932941249928,345.0001478400497,0.1178545661324857,2.7940196434136728e-05,-1.0755722058904036,0.8633782689131752,0.1337183432186709,0.9101854439248688,12.559456776201523,40.07642804086534,38.63123316178022
1.09,31.222177722203806,131.01047040001836,20.898357352649576,0.3932683097706455,-0.5557975471619337,5.082664856689839,-25.090892891948968,-28.223190836858983,246.54375332456465,40.2751588401652,16.039936627186005,47.25443009355983,20.152426991566536,143.15626646036722,991.5453254022698,1.274,1.0225512795791307,0.0,13.276637831678473,345.0001478400497,0.1183820953926346,2.8796635132600047e-05,-1.0771346039056122,0.8622717197954342,0.1345077292939117,0.6808568320187294,12.04646636004493,40.187855734826414,38.10426339892226
1.1,31.22217693208413,131.01047180871208,21.193094658204085,-0.113083690540503,-0.9842875671886364,22.844056988067173,-24.888055324757048,-28.07692594025768,413.1890617384087,40.478623905868496,16.203871241046787,46.50428014543255,20.418805056342663,143.52117879069948,1001.5606033525306,1.274,1.0224981043155532,0.0,13.308128668721988,345.0001478400497,0.1189805426469735,2.964765048145876e-05,-1.0772845512503386,0.859943621329575,0.1352022373589383,0.9907616655750244,11.549680156409154,40.32401998107867,43.92698496114823
1.11,31.22217612487368,131.01047323210207,21.489381660205336,-0.6155773483569063,-1.4017240064737049,12.744778251113384,-24.87907092398872,-28.179713700019256,324.1593910379213,40.962397319612926,16.552685015974586,45.753391841975954,20.673405559971368,143.87431733458044,1025.6144367102393,1.274,1.0224548851875197,0.0,13.339198235844304,345.0001478400497,0.1204029209908091,3.0491633131597486e-05,-1.0760023086636847,0.8563801368308039,0.1366513467737476,1.5309115122021657,11.00338316665624,40.74223699087345,39.692490560885275
1.12,31.2221752782902,131.01047468912938,21.790324698376487,-1.1120589926040505,-1.8176297252215,-4.122605771603936,-24.622858492358944,-27.97547413886447,172.7328179403806,41.20963391826449,16.752323579226328,45.00285964200015,20.916443088850805,144.21574577472245,1038.0023899788544,1.274,1.0223979224661404,0.0,13.370073323044922,345.0001478400497,0.1211300478309666,3.132611000671036e-05,-1.0732404358151286,0.8515286663028337,0.1371192967914748,2.130736521560661,10.553756221082557,40.92416919569341,37.49544228272377
1.13,31.22217443228975,131.01047614475715,22.08993960108582,-1.60781088956413,-2.235460999047341,16.82448822804951,-24.15675934026616,-27.50837094791033,367.5328077894322,41.25800405627602,16.822345945187667,44.25381503058967,21.148131264484288,144.54551539303984,1040.410605756047,1.274,1.0223460397860296,0.0,13.401077121214188,345.0001478400497,0.1212726352144392,3.215027262951354e-05,-1.068992699796082,0.8454022560382057,0.1367329706275395,2.7533669976144486,10.186450755021228,40.90694774601263,40.29048148343663
1.14,31.222173584907235,131.0104776010217,22.38864572004537,-2.085693621207847,-2.62781440929405,2.588582598961392,-23.98064108455364,-27.41427289218509,239.6953177322812,41.70730670450999,17.16395797644195,43.50739087826403,21.3687070982108,144.86370022742537,1063.1637816324394,1.274,1.0223022138470996,0.0,13.431595905346288,345.0001478400497,0.1225937162145316,3.2963279977276425e-05,-1.0632795794894805,0.8380343812511095,0.1374793449650325,3.3544709843962037,9.758052478858488,41.29467528009011,36.51457606086947
1.15,31.222172687179675,131.01047909883124,22.692978423803154,-2.5677787637376768,-3.028690630913255,2.109981067640456,-23.499232632641736,-26.935260178052253,237.4125115347709,41.841084861959146,17.296148536353478,42.76470233963113,21.57843143694922,145.17039985369726,1069.9637386865336,1.274,1.0222426194541194,0.0,13.461687367309803,345.0001478400497,0.1229873637232599,3.376221391765108e-05,-1.056021253911396,0.8293374098999496,0.1369748191338962,3.969925877943815,9.442923585634553,41.36556077754389,35.80746005077968
1.16,31.222171802286784,131.01048058492057,22.994321132352848,-3.039458003684783,-3.417431057274096,29.506738339077792,-23.0305206347818,-26.475868186979632,490.043774385954,42.04109660212693,17.475778974504923,42.026925175372845,21.77754514094278,145.46567655273614,1080.1863563624152,1.274,1.02219674531104,0.0,13.492010418515784,345.0001478400497,0.1235756969209399,3.4546650077332274e-05,-1.04727056096113,0.819378366932415,0.1364851812554945,4.572327635668914,9.153602553176473,41.50460602007662,45.847836201659874
