Time,Latitude,Longitude,Altitude,Angle of Attack,Angle of Sideslip,X-Acceleration,Y-Acceleration,Z-Acceleration,Thrust,True Velocity,Ground Velocity,Pitch,Roll,Yaw,Dynamic Pressure,cp,parachute_deploy_gain,Wind Speed,Mach,omega_x,omega_y,omega_z,Cmq,Angle of Attack(total),Angle of Attack(gust),True Velocity(gust),Acceleration
0.0,31.222216000000007,131.010392,3.000000004412624,0.0,0.0,0.0,0.0,0.0,2.2828121974499247,0.0,0.0,71.99999999612658,-1.0292491154817412e-14,119.99999999354436,0.0,15.288,0,0.0,0.0,0.0,0.0,0.0,-0.0,0.0,90.0,0.0,0.0
0.01,31.22221599999862,131.01039200000284,3.0000009727369523,0.0,0.0,0.0,0.0,0.0,34.24218696174923,5.916279387578309e-11,5.734623670548936e-11,71.99999999613168,-5.86671995824671e-13,119.9999999935449,2.1432944861733093e-21,15.288,0,0.0,1.7386402909615473e-13,-3.4220131069073734e-19,7.115076756936125e-19,5.488773498207866e-19,-1.1574302492039043e-31,0.0,89.99999999962336,5.916279387578309e-11,0.0
0.02,31.22221599999738,131.01039200000537,3.0000018317022668,0.0,0.0,0.0,0.0,0.0,25.871876237766408,1.2265415415436536e-10,1.1895038237325684e-10,71.9999999961369,-1.1836364828043265e-12,119.99999999354544,9.211895886571454e-21,15.288,0,0.0,3.6044858651615574e-13,-6.979551485375437e-19,1.4162390878091906e-18,1.0909784360635388e-18,-4.776231873571785e-31,0.0,89.99999999921916,1.2265415415436536e-10,0.0
0.03,31.22221599921969,131.01039200159065,3.0001883335529382,18.80143492628821,-0.0001350810307892,10.931161642028636,-1.75114298675875e-05,3.026590975169265,180.34219359854663,0.0798232026864394,0.0478175828508887,71.99999999765336,-5.341802909786072e-12,119.99999999436793,0.0039016003969354,15.288,0,0.0,0.0002345795854893,3.788270153300133e-17,-7.771883375645477e-10,1.1422790048099072e-11,1.7057759223764537e-13,18.80143492675591,89.51882325913425,0.079801984207741,11.342422482672777
0.04,31.222215995131297,131.01039200995308,3.001692634342189,9.19442604083399,-4.49173898918486e-05,52.29595764159784,6.445392950801871e-06,3.026413589912948,548.6359724538078,0.3504174083926908,0.1601447499964056,72.00000000319055,-3.111420077280171e-11,119.99999999870242,0.0751892535633216,15.288,0,0.0,0.0010297854387864,2.0082066977226968e-15,-1.520937588847922e-08,2.5623342884322286e-11,1.4654248781413086e-11,9.19442604094277,87.798916624545,0.3504103527855857,52.383455068075136
0.05,31.222215983575865,131.01039203366796,3.0074067499493786,5.158590039700252,1.707592688632746e-06,76.26884281015512,5.843947534199429e-05,3.0258124765658088,761.6984298824644,0.9592973585397016,0.3772700771701255,72.0000000004862,-1.3608731808076822e-10,120.0000000109612,0.5634958029902841,15.288,0,0.0,0.0028191251099456,2.086299069701397e-14,-1.0551247853743037e-07,3.973493515691201e-11,2.783064866637575e-10,5.158590039700515,83.94063169874748,0.959297626767734,76.32884071402438
0.06,31.222215961742712,131.0103920785344,3.019291017943491,4.109521257467909,3.140103977270004e-05,57.06876634333886,0.0001151069734147,3.024834864051463,590.4875390737208,1.6257536642597354,0.6118982818704327,71.99999992547217,-3.5903296759057166e-10,120.00000003412836,1.6184272268450337,15.288,0,0.0,0.0047776672697797,1.0694899894620088e-13,-3.741090980393931e-07,5.521401959501359e-11,1.6723176417636091e-09,4.109521257587776,79.78719176344794,1.6257585967235286,57.148873286519276
0.07,31.222215929936205,131.01039214392435,3.0371334573469446,3.649087515174788,5.707077112564807e-05,86.89643797254193,0.0001728541558773,3.0234947746384675,855.2937749779139,2.3057260079826607,0.8506307413593818,71.99999965378231,-6.907496536790437e-10,120.00000006788592,3.255354923652711,15.288,0,0.0,0.0067759305364855,3.495199904512709e-13,-9.036515915819006e-07,7.594816279105379e-11,5.728932851326001e-09,3.6490875156204896,75.6601668283889,2.305734972638426,86.94902215090157
0.08,31.222215886364623,131.01039223353447,3.0621840248716574,3.4254446680114707,8.413075603463509e-05,17.831756866644035,0.0002285946601282,3.021841001032126,241.2171988638848,2.961944911520492,1.0819695676346892,71.99999900671328,-1.141745983122182e-09,120.00000011415082,5.371998197385977,15.288,0,0.0,0.0087043901031071,8.800530155962314e-13,-1.829098470920821e-06,1.0943386634701918e-10,1.4896287129277132e-08,3.4254446690434226,71.81713637501419,2.9619581267487467,18.085991154451033
0.09,31.22221583454733,131.01039234010327,3.0919888289029,3.389560809024919,0.0001118726864415,54.09031716446879,0.0002748660999733,3.020060228038602,563.0937377043176,3.504225426410036,1.2780161667917422,71.99999774508822,-1.634190085504106e-09,120.00000016921716,7.519080503822694,15.288,0,0.0,0.0102980157586766,1.865782139518716e-12,-3.1503298654458527e-06,1.6284478329871028e-10,3.03536411425607e-08,3.389560810868955,68.76526501308032,3.504242999330529,54.17456206384468
0.1,31.22221577423132,131.0103924641528,3.1267248829165366,3.4447939461814814,0.0001419149103147,51.372195336549765,0.0003131602029306,3.0182021883815127,538.7437595981919,3.950569597142709,1.4443465951180965,71.99999562056465,-2.1287748602259068e-09,120.00000023339832,9.55649523509932,15.288,0,0.0,0.0116097108366932,3.485956000178229e-12,-4.949356763187612e-06,2.4573266549165286e-10,5.3761299442583966e-08,3.444793949101151,66.34639928474206,3.9505918890846927,51.460781166288626
0.11,31.222215706113143,131.01039260424562,3.165907002780892,3.4691423802630394,0.0001702373452339,40.591037561894986,0.0003534470100582,3.016051659024047,442.8656393052949,4.421478635995476,1.6182620895289603,71.99999235067894,-2.5564479031457968e-09,120.00000030601664,11.970509656144712,15.288,0,0.0,0.0129935974697161,5.942887149865172e-12,-7.273722517324353e-06,3.67769289312894e-10,8.842679949465076e-08,3.4691423844348632,63.88798785789768,4.421505376815134,40.70293476011277
0.12,31.222215630588888,131.0103927595646,3.2092596514826863,3.4852659299808075,0.0001974376474727,44.30042894095728,0.000394069215595,3.013641598889868,475.58594813540446,4.896982486381051,1.793579340340896,71.99998761802138,-2.8337988279882726e-09,120.00000038673312,14.683611096353944,15.288,0,0.0,0.0143909889875706,9.464337642181618e-12,-1.017558359402848e-05,5.395790443954697e-10,1.3700793350599625e-07,3.4852659355662303,61.5068242157714,4.897013499814194,44.40281567867803
0.13,31.222215548046687,131.0103929293088,3.256512891171917,3.5606043721293616,0.0002276507019012,48.86766833507025,0.0004268800875964,3.0112558910133567,515.9156326236895,5.278566579338586,1.939796541405244,71.99998107389406,-2.8573058577484587e-09,120.00000047523812,17.061052093156064,15.288,0,0.0,0.0155123760833565,1.4300406003001044e-11,-1.3705268062305584e-05,7.724776992181392e-10,1.989112774124932e-07,3.560604379397528,59.67313531776262,5.27860233862722,48.960358155653
0.14,31.222215458587108,131.01039311327068,3.30759734332425,3.6000732663755977,0.0002555702913645,45.540290862247225,0.0004629468001456,3.0085404980032777,486.2390860568404,5.70011779273801,2.098362647205908,71.99997235012626,-2.508533681468686e-09,120.00000057154703,19.894788765881632,15.288,0,0.0,0.0167512184495524,2.071534240530911e-11,-1.7917736259613292e-05,1.0787346240473087e-09,2.8081526258393346e-07,3.6000732754351943,57.72385750323359,5.700157937625502,45.639559681930805
0.15,31.222215362317904,131.01039331122794,3.3624387479639086,3.651605404442164,0.0002842753491325,44.01308509501,0.0004965057129938,3.005703619811542,472.54218587214,6.091938849578711,2.2476968067377374,71.99996103728932,-1.6446954747148112e-09,120.00000067569304,22.723773683610247,15.288,0,0.0,0.0179026934683374,2.9002783512213203e-11,-2.287326399669318e-05,1.47199345427166e-09,3.831202693354572e-07,3.651605415492516,55.98561718911576,6.091983503446133,44.115597174664394
0.16,31.22221525912812,131.01039352340948,3.421115382839859,3.67540086436193,0.0003108411545024,34.83804992586084,0.0005330990866742,3.002517946501868,391.1218908297564,6.521183188362317,2.4085903880902046,71.99994669525161,-1.0153513453738144e-10,120.00000078796704,26.03872642002185,15.288,0,0.0,0.019164148528834,3.9478358970291335e-11,-2.864207894220033e-05,1.9677461746207517e-09,5.135466997084602e-07,3.6754008774883777,54.15946979122355,6.521232015176687,34.96719658394182
0.17,31.2222151493826,131.01039374906244,3.4833737923187487,3.7139589864597298,0.0003384978477213,43.96471427482637,0.0005668629535037,2.999235483723449,471.78125980632376,6.916861975403744,2.559060925010733,71.99992884100092,2.3206494032971838e-09,120.0000009081849,29.29426197817256,15.288,0,0.0,0.0203269651395979,5.248754693205839e-11,-3.5267097947693114e-05,2.580363454062817e-09,6.706952682968329e-07,3.713959001863866,52.549031795895466,6.916915146521327,44.06689817851128
0.18,31.22221503253009,131.01039398932429,3.549599475912623,3.7380363034619775,0.0003650282082698,36.67395661481795,0.0006021794701355,2.9956556354306425,407.10156721191447,7.332140201215607,2.71556808256092,71.99990696207136,5.837017536380516e-09,120.00000103716444,32.917216366714264,15.288,0,0.0,0.0215473823438242,6.839750892601699e-11,-4.285557247677198e-05,3.331016495775474e-09,8.639362741436378e-07,3.738036321259578,50.93050624815799,7.332197539712479,36.796100973258795
0.19,31.22221490871209,131.01039424390297,3.619694897703461,3.747799769666444,0.0003901520189829,41.42208371271829,0.0006393759928961,2.991742733214697,448.9531328318269,7.771071983754382,2.879366399937307,71.99988049019642,1.0709144790974043e-08,120.00000117502664,36.97605053227239,15.288,0,0.0,0.0228373144884866,8.761416506509219e-11,-5.146771415177372e-05,4.238406957677133e-09,1.0996552116864756e-06,3.747799789945131,49.29705748437159,7.771133268690212,41.529983675580546
0.2,31.22221477769685,131.01039451327668,3.693822889232993,3.7700519460961166,0.0004166800650969,37.99697972290605,0.0006740224661302,2.987733789228414,418.51563019916136,8.179966026035371,3.0338260708461373,71.99984881140107,1.723179577184912e-08,120.0000013223286,40.969302182777255,15.288,0,0.0,0.024038975990988,1.1057590044953188e-10,-6.120032215177249e-05,5.3263847350253015e-09,1.376394225587184e-06,3.7700519690893857,47.8457752505109,8.180031477986942,38.11426270718793
0.21,31.222214639876928,131.01039479663547,3.771710975053407,3.7926098867321474,0.0004432924407074,36.46301043881366,0.0007080907240332,2.983530483977461,404.8187610144644,8.582757448615462,3.1863584283669346,71.99981127559042,2.5745201416596626e-08,120.00000147900325,45.103059028532826,15.288,0,0.0,0.0252227064089584,1.3774582723633048e-10,-7.20875523136271e-05,6.61341033873124e-09,1.7010673350603349e-06,3.792609912601061,46.47936953648762,8.582827080829217,36.584868250565684
0.22,31.22221449507626,131.01039509434258,3.8534832466471007,3.782921298925821,0.0004660920499522,44.14577847155813,0.0007479176313898,2.978724032883548,472.5421858721365,9.056569122268344,3.360845972992861,71.99976720416048,3.661811567390422e-08,120.00000164562512,50.21995530074818,15.288,0,0.0,0.0266151520780326,1.6960703048385348e-10,-8.421592474264931e-05,8.124635526119773e-09,2.0969540034515424e-06,3.7829213275976334,44.9464484092354,9.056642335836344,44.24615863872642
0.23,31.22221434283448,131.01039540734791,3.9394622486964206,3.813874679301352,0.0004940771488601,36.66675459308932,0.000779455230549,2.974212905336642,406.3406421461021,9.430647902846331,3.5044030163419806,71.99971583979395,5.0272885112871524e-08,120.00000182313076,54.45382429059888,15.288,0,0.0,0.0277145095638672,2.0669790509245914e-10,-9.77285871729516e-05,9.894576563683824e-09,2.5339062472561444e-06,3.813874711257219,43.79476959007253,9.430725512303388,36.78718303164376
0.24,31.222214184153326,131.01039573358457,4.028950821673608,3.829256049377765,0.0005200487408944,37.802126339316736,0.0008136255607606,2.9692962675112065,416.2328240017114,9.837806876534357,3.658163422426286,71.9996564062533,6.718950080713476e-08,120.0000020109434,59.25679777340223,15.288,0,0.0,0.0289110855155543,2.4956955046738006e-10,-0.0001125744417092,1.1934277804843484e-08,3.0448209172448607e-06,3.829256084638984,42.59361542722471,9.83788856559955,37.91856374864305
0.25,31.22221401888584,131.01039607335582,4.122052964664892,3.851417709838087,0.0005469594058717,38.85163035360012,0.0008459008130282,2.964283881833675,425.36408079150686,10.22297576958679,3.8050691648373967,71.99958811418384,8.786880969336211e-08,120.00000220974424,63.98709205399403,15.288,0,0.0,0.0300430411774988,2.987811646313829e-10,-0.0001288461362054,1.4273117985167728e-08,3.621333387698252e-06,3.8514177486178034,41.50703126619192,10.223061685769354,38.96455005232871
0.26,31.222213847358866,131.0103964259872,4.218542267117083,3.8780574625554745,0.0005745172425185,42.3164797140743,0.0008766626387865,2.959162938653076,455.8015834241788,10.590779679138215,3.946551912391076,71.99951013710364,1.1286401474734325e-07,120.00000241975916,68.67355887153568,15.288,0,0.0,0.0311239685467471,3.5491769188178554e-10,-0.0001465721578858,1.6932703957058654e-08,4.267712643344226e-06,3.8780575050466,40.51245375834074,10.590869924095635,42.41981967733593
0.27,31.22221366913008,131.0103967923915,4.318728802515264,3.886188503202341,0.0005994342651313,38.70936050721014,0.0009111181036949,2.953518013741325,423.84219965987256,11.004860953238978,4.102320296019413,71.99942161756776,1.4276417094868828e-07,120.0000026420792,74.14786134434608,15.288,0,0.0,0.0323408987462391,4.1858405402174807e-10,-0.0001658847815307,1.995072923688136e-08,5.018832267232506e-06,3.886188549362022,39.43841359495857,11.00495511215316,38.8218734782956
0.28,31.22221348431185,131.01039717233687,4.422535913956003,3.90556090261878,0.0006261175699806,44.68030766832924,0.0009425767186621,2.947879457547137,476.3468732012221,11.38358114165448,4.247086834352694,71.999321619057,1.7823531611327881e-07,120.000002877279,79.33831935330025,15.288,0,0.0,0.033453914386159,4.904408325040897e-10,-0.0001868529238516,2.3357766479368094e-08,5.847713054408178e-06,3.9055609527288775,38.49894431917428,11.383679491972384,44.77744842575601
0.29,31.222213292835256,131.0103975659655,4.530013412817602,3.9242599519377537,0.0006528240665589,35.802573724660256,0.0009737210635801,2.942037024315898,397.97031042211177,11.759725774384751,4.391004157029451,71.99920917567837,2.1999186079018322e-07,120.00000312617878,84.66717879828003,15.288,0,0.0,0.0345593650464213,5.711677680739745e-10,-0.0002095620322847,2.7188189988316943e-08,6.77505090435382e-06,3.9242600061534456,37.60352534239979,11.759828319749328,35.92324968749781
0.3,31.222213095024976,131.0103979726075,4.64093665799555,3.936939025755682,0.0006785438093183,33.570228713727204,0.0010059102294455,2.93586442972183,378.1859457108711,12.149968255527943,4.539237002744259,71.99908328532703,2.6880857935396905e-07,120.00000338923812,90.3787563598417,15.288,0,0.0,0.0357062504417728,6.614698865958865e-10,-0.0002340353597042,3.1467140861055e-08,7.817263716758327e-06,3.9369390841381695,36.71173884615234,12.150074840940263,33.698361337808635
0.31,31.22221289105846,131.01039839189684,4.755183729044857,3.9598342215431432,0.0007060286581592,35.396825578217346,0.0010350810412898,2.9297385597941448,394.1656220930212,12.504537499407316,4.6763673222047455,71.99894291513503,3.255120771695107e-07,120.00000366712923,95.72967338626896,15.288,0,0.0,0.0367483036680869,7.620720834468404e-10,-0.0002603234137215,3.622454560346964e-08,8.948994505138873e-06,3.9598342843844345,35.934338386209795,12.504648402129598,35.5178635353378
0.32,31.222212681031937,131.01039882363492,4.872689374180126,3.985461429033668,0.0007340760463279,38.52097867048992,0.0010630242168685,2.9235095146848846,421.55939346242695,12.84534566718622,4.809181081594425,71.99878701464397,3.909756427278764e-07,120.0000039606604,101.01782231644016,15.288,0,0.0,0.0377499198995686,8.737098716736534e-10,-0.0002884807530145,4.1491545539590986e-08,1.0187112828155184e-05,3.98546149652875,35.21473736963424,12.845460975581933,38.631757748577954
0.33,31.22221246496604,131.01039926777932,4.9934410812554,4.010606629086,0.0007621365968788,38.18822026147908,0.0010905599149574,2.917102431053817,418.5156301991682,13.18247167592885,4.940798912752974,71.99861449732019,4.661299779655886e-07,120.000004270781,106.38859400029033,15.288,0,0.0,0.0387407190563976,9.971421990244511e-10,-0.0003185760672934,4.7302669734505256e-08,1.154498667827874e-05,4.010606701382261,34.52805863348922,13.182591392065536,38.299473293007864
0.34,31.222212242662028,131.01039972474007,5.117579377337869,4.019339771238816,0.0007871574969313,29.898022638335373,0.0011220389395318,2.910051232417875,345.46563688075645,13.569536737955724,5.0878303926024735,71.99842423285973,5.519675040347761e-07,120.0000045987411,112.72655675097128,15.288,0,0.0,0.0398782837956187,1.1331556132162459e-09,-0.0003507224668667,5.37022358302301e-08,1.308298593306914e-05,4.019339848191799,33.76700548046532,13.5696603843662,30.039310197084795
0.35,31.22221201433324,131.01040019407705,5.2449575244483055,4.033762873683395,0.000813261106463,32.76415525156106,0.0011515840876071,2.902959820469776,370.5765700527033,13.934300103976534,5.227895396154902,71.99821502296155,6.495674834876441e-07,120.000004945438,118.8669740701126,15.288,0,0.0,0.040950312688979,1.2825853697215452e-09,-0.0003849609961885,6.072234695821837e-08,1.4746020857580124e-05,4.033762955530055,33.07785186209504,13.934427850732408,32.89250745069162
0.36,31.22221177990305,131.01040067594835,5.375631006350063,4.051723629010647,0.0008401329464575,37.01692984301412,0.0011797030485285,2.8957873473716007,407.8625232777193,14.282998147928636,5.362923567977223,71.9979856440668,7.600645476620651e-07,120.00000531213882,124.88900300695136,15.288,0,0.0,0.0419751331662584,1.4462801652534363e-09,-0.0004213876232777,6.84067806399068e-08,1.654507199147348e-05,4.051723715967022,32.44322602189087,14.283130115703262,37.13002398000203
0.37,31.222211539445663,131.01040117020102,5.509550188388412,4.071639898917391,0.0008674922629137,35.12417761390579,0.0012067983861697,2.88849906286036,391.1218908297666,14.620581431527652,5.494447309446232,71.99773482653193,8.846681943540367e-07,120.00000570002652,130.86067091914967,15.288,0,0.0,0.0429672939311924,1.6251202388969355e-09,-0.0004600660652957,7.679415042686734e-08,1.849041957573993e-05,4.071639991174516,31.85023865502424,14.620717696893658,35.24274792557624
0.38,31.222211292895075,131.01040167697127,5.646763233102716,4.08264881385344,0.0008930259828975,36.695642158537446,0.0012360471443664,2.880711738179021,404.8187610144602,14.986392916850402,5.634654729559426,71.99746126698146,1.0246533537040716e-06,120.0000061105033,137.4891296153862,15.288,0,0.0,0.0440424171304414,1.8200057922063743e-09,-0.0005010869196581,8.592980519823866e-08,2.0642694281337543e-05,4.082648911356968,31.228847973200924,14.986533193043764,36.808540518115166
0.39,31.22221104018777,131.0104021963902,5.787316652586672,4.096641430700089,0.0009192713382325,31.335681548387896,0.0012640110027448,2.872831219844713,357.64062493382744,15.337978856701952,5.770390286512262,71.99716358743511,1.1813915463769678e-06,120.00000654506955,144.01394309468844,15.288,0,0.0,0.0450757388736732,2.031886352449547e-09,-0.00054455673306,9.586443829735616e-08,2.295945663566148e-05,4.096641533664766,30.65298398882095,15.338123255506089,31.4670954954126
0.4,31.222210781536543,131.01040272801887,5.931064331106764,4.109028969993624,0.0009451871856381,29.95928076777898,0.0012920492774571,2.8646905607053603,345.465636880754,15.692185018814769,5.906873567965718,71.99684037970908,1.3563276523471372e-06,120.00000700500496,150.74021066990193,15.288,0,0.0,0.0461167659598875,2.2617341782092324e-09,-0.0005905037520737,1.0663253249436129e-07,2.5471259834659164e-05,4.1090290785164525,30.09246700352443,15.692333488470696,30.095929256306363
0.41,31.222210517064383,131.01040327160345,6.077922766619747,4.122888296344507,0.0009714525997821,33.78425365340317,0.0013192264430821,2.85640971467756,378.94687077668647,16.03742529732769,6.0405139809190125,71.99649020751959,1.5509747261474075e-06,120.0000074917568,157.44375780268788,15.288,0,0.0,0.0471314487675864,2.5105374204052982e-09,-0.0006389770219162,1.1827345344180344e-07,2.816813594418537e-05,4.122888410595805,29.56469007160549,16.037577892745222,33.904791300285986
0.42,31.22221024682894,131.0104038270252,6.227854084363214,4.14444025865494,0.0009995884754813,38.04468161607466,0.0013435485656724,2.8482703202464488,416.2328240017114,16.348862540904037,6.163613566771559,71.99611159893284,1.766920641656551e-06,120.00000800692096,163.6157044470786,15.288,0,0.0,0.0480467946810589,2.779304965995011e-09,-0.0006900467934588,1.308321832549104e-07,3.100973487310896e-05,4.144440378988911,29.104646754454564,16.34901955589459,38.15115260238947
0.43,31.222209970843565,131.0104043942566,6.380851271439565,4.1618082623168045,0.0010268052928652,33.45815353250911,0.0013687230309017,2.8397750580998298,375.9031395134336,16.67263197205097,6.290467308135904,71.99570306121484,2.005818691215035e-06,120.00000855220898,170.15779512382937,15.288,0,0.0,0.0489983878509763,3.0690566816849196e-09,-0.0007437862329608,1.443552931671376e-07,3.4086145072160934e-05,4.161808388761201,28.640125213458976,16.672793262249197,33.57845085853367
0.44,31.22220968892116,131.01040497368373,6.537047157143216,4.164954087655709,0.0010505545842624,30.86574023822051,0.0013980747538988,2.830419582421933,353.0750125389216,17.050421620730056,6.433992917638883,71.99526304125902,2.269416145406482e-06,120.00000912964636,177.9537948947602,15.288,0,0.0,0.050108743779844,3.380847125286677e-09,-0.0008003278134917,1.589055036683518e-07,3.750784460406397e-05,4.164954219916419,28.113519280259386,17.050586641458253,30.99524475496968
0.45,31.22220940081287,131.01040556582012,6.696617751072218,4.165241899529329,0.0010735835484822,35.912216710755274,0.0014280646808282,2.820677244966047,397.2093853562869,17.438293672974723,6.580571293039616,71.99478987454265,2.5595995397253085e-06,120.00000974147088,186.13940823302417,15.288,0,0.0,0.0512487363629523,3.7158016249566814e-09,-0.000859850913876,1.745604864109677e-07,4.121350642664912e-05,4.1652420376426775,27.591357195572936,17.43846231108416,36.02281959036367
0.46,31.222209106468902,131.0104061707686,6.859600379555308,4.174585124444534,0.0010989881252456,41.916816790010685,0.0014546917035209,2.811153314474766,449.7140588976434,17.786187321601275,6.714685486378061,71.99428180697711,2.8783880229668832e-06,120.0000103898448,193.6374175079873,15.288,0,0.0,0.0522712438446989,4.0751091178509895e-09,-0.0009224765531151,1.9138630415982226e-07,4.50966024037632e-05,4.1745852688465686,27.13985967570823,17.786359950252297,42.01097612387663
0.47,31.22220880579083,131.01040678873238,7.026066274755745,4.1823089530633855,0.0011240727220223,28.37640408484148,0.0014814747534716,2.801325368441072,331.0078106302534,18.138167428286582,6.849989708801916,71.99373704967608,3.2278903746588286e-06,120.00001107707628,201.37401505997488,15.288,0,0.0,0.0533057667609836,4.459978104761035e-09,-0.0009883252835099,2.094509673354327e-07,4.927107017839778e-05,4.182309103852639,26.69716826759888,18.13834399721685,28.514342615617974
0.48,31.222208499300592,131.0104074186346,7.195654207463586,4.189479568102716,0.0011490100608361,27.95074823096412,0.0015080719422187,2.7912412472910484,327.2031223011574,18.48995085190441,6.98515976370584,71.99315377257649,3.6103201777021456e-06,120.00001180491516,209.25751230436188,15.288,0,0.0,0.0543397174489847,4.8716620260348906e-09,-0.0010573190976925,2.2877013380347535e-07,5.373205427420879e-05,4.189479725385959,26.268461765425428,18.4901313379827,28.089773168283216
0.49,31.222208187201936,131.01040806005494,7.368224738812109,4.202723284133339,0.001175611380853,35.08821363242469,0.0015321405723077,2.781292092003844,389.60000969812296,18.812014261754847,7.111044804193205,71.99253015042137,4.027946338669921e-06,120.0000125755114,216.60722913930897,15.288,0,0.0,0.0552863302793499,5.311396446020465e-09,-0.0011294854492155,2.4938633613154685e-07,5.8398320167141767e-05,4.202723448262914,25.88860807032205,18.81219892635871,35.1982716047702
0.5,31.22220786953184,131.01040871291724,7.5437546994244835,4.220815778795054,0.0012036252596423,36.05491615971072,0.0015540388599792,2.7714444106710974,397.97031042210494,19.10875420627192,7.229005658018125,71.99186435180009,4.483102820610566e-06,120.00001339126192,223.4908652241728,15.288,0,0.0,0.0561585257949344,5.7804122391526605e-09,-0.0012048912160576,2.713531252030471e-07,6.327866493526626e-05,4.220815950099865,25.54902500917784,19.108943271285572,36.161276053538906
0.51,31.222207546379583,131.0104093770373,7.722184419225251,4.232567510615346,0.0012298790840397,27.54004661432325,0.0015777580800203,2.761017323676155,323.3984349720841,19.430597746636646,7.354673636736509,71.99115452520388,4.978202222778502e-06,120.00001425458936,231.07869697977367,15.288,0,0.0,0.0571045034845869,6.2799518101633574e-09,-0.0012835871653678,2.947201005874635e-07,6.854585242460463e-05,4.232567688976395,25.189423168613605,19.430790935591396,27.678103017910345
0.52,31.22220721770113,131.01041005212596,7.903559908602626,20.551401360641144,-16.884928542673098,34.066516431884125,1.4642508508947338,1.4076293040169998,372.0984511843415,24.456139850236365,7.475991715804143,71.99035005955929,-6.332507223364151e-05,119.9999427805458,366.06300680289326,15.288,0,10.057168034639412,0.0718741954809481,6.8229202593367204e-09,-0.0016642817663246,-0.0002360671392858,0.0001118605255398,26.363959008370305,19.67867511610348,21.842085376982155,34.127012652966044
0.53,31.22220688277187,131.01041073725497,8.088081414050903,20.350291793349705,-16.68713785366077,35.73581870433442,1.4977313320219123,1.363605743259712,386.5562464348624,24.78139120159725,7.593149482457649,71.98925814394342,-0.0008720645103203,119.99909272545624,375.8579118246223,15.288,0,10.095887955275652,0.0728302288912871,7.343971564632444e-09,-0.0022061479640217,-0.000733312304525,0.000150250081622,26.090624604995444,19.50983272445075,22.197081754682625,35.79317474372773
0.54,31.222206541394183,131.01041143250163,8.27582856704573,20.155172293785128,-16.49464631616996,31.484693725699664,1.5316316313797675,1.318958337380868,349.2703242098436,25.10526949874077,7.709436654284221,71.98785190347131,-0.002565962130282,119.997311898828,385.739644318476,15.288,0,10.134543595569117,0.0737822336784465,7.819308750050536e-09,-0.0027630365887394,-0.0012420499196852,0.0001906330036315,25.824931906619003,19.345357669487807,22.549937731515445,31.549508483510508
0.55,31.222206193858568,131.01041213721822,8.466596923357587,19.970352056488444,-16.310622585738372,33.328109426194445,1.5655966937907455,1.2741309188926728,365.2500005919907,25.422502827549767,7.823078530429042,71.98612281098904,-0.0051646472834437,119.99457964117887,395.5424993361449,15.288,0,10.173086170763083,0.0747147160116911,8.249092421775794e-09,-0.0033344842758088,-0.0017618420006219,0.0002329622701384,25.57210645058425,19.18904706774996,22.89490096738171,33.389180590881196
0.56,31.2222058401607,131.0104128513668,8.66038763241335,19.798731207959587,-16.137203428020882,31.1642632015742,1.5993381271273956,1.2294844271529055,346.2265619465787,25.72900814568088,7.932698152190774,71.98406240479619,-0.0086873441953999,119.99087571345832,405.1301383279642,15.288,0,10.211512111546142,0.0756156760980409,8.63350921477337e-09,-0.0039207449569168,-0.0022928471299546,0.0002772184731246,25.335682849526695,19.043516803572185,23.227562094424425,31.229486311793327
0.57,31.22220548037252,131.01041357475336,8.857148851865746,19.6241987496418,-15.96241826586143,30.829332526295275,1.6340624898500038,1.1834894142954206,343.1828296833023,26.04276504604344,8.044469732453859,71.98166213093045,-0.0131531504834808,119.9861800059273,415.0634042017126,15.288,0,10.249801966470615,0.0765379546061178,8.972793922063257e-09,-0.0045218381744587,-0.0028350292426882,0.0003236118629854,25.096112838661146,18.89488962636982,23.567704017131877,30.895283643808355
0.58,31.22220511446592,131.01041430739087,9.05689854530811,19.436603500805205,-15.778726590374276,40.346549734584144,1.6706658274797423,1.1350100085834545,426.1250058573153,26.376348070348296,8.162670801051142,71.97891343345239,-0.0185812375469101,119.98047231698312,425.75647208897226,15.288,0,10.2879534037536,0.077518507611482,9.267191378230869e-09,-0.0051380371336452,-0.0033885615543328,0.0003724139141966,24.841051461370785,18.7343065821643,23.92904138210531,40.397072264112964
0.59,31.222204742009257,131.01041505012338,9.259935836380098,19.273643983719783,-15.614087591521743,32.862316669949614,1.7060564349358212,1.0879577505643028,360.68438819711065,26.684418829754087,8.271811171300996,71.97580710572058,-0.0249918280622886,119.9737313404288,435.7515675309363,15.288,0,10.326022901328791,0.0784240887571482,9.516940774497821e-09,-0.0057707388004024,-0.0039545416497722,0.0004231503395468,24.61630009366877,18.594633475072747,24.26200916028205,32.92455219957056
0.6,31.222204363221792,131.01041580245234,9.466106350701736,19.084999368490863,-15.431166258868457,29.299464913286062,1.7445050121766814,1.0369222931136937,329.4859594986058,27.028566946535875,8.392881922066051,71.9723337758356,-0.0324052644399221,119.9659356357832,447.0549450663286,15.288,0,10.363972416354864,0.0794357065383078,9.722365051994072e-09,-0.0064195884252381,-0.0045326216202137,0.0004767899968855,24.360697325559407,18.43195194861702,24.63384243245887,29.369663766961082
0.61,31.22220397804714,131.01041656444815,9.675447865010248,18.89581500393897,-15.248595672535169,34.19961993989167,1.7839700974033343,0.9844851547046592,372.0984511843297,27.37863794251652,8.515595528005433,71.96848390016517,-0.0408422385692051,119.9570633819946,458.7011303033449,15.288,0,10.40180644133005,0.0804647390123019,9.883783787041671e-09,-0.0070849916566684,-0.0051230769488499,0.0005330149393537,24.104783322595065,18.26818905724878,25.011569836740147,34.260265094731814
0.62,31.22220358660088,131.0104173358258,9.887878361884088,18.754803986385376,-15.102462464301748,42.332139452678895,1.819846260298562,0.9364776986475448,442.86563930529206,27.67007875369545,8.618100678698816,71.96424764483986,-0.050323740875674,119.9470924376708,468.5091363570593,15.288,0,10.439523075408422,0.0813214669692682,1.0001562426347534e-08,-0.0077670135772768,-0.0057259001357504,0.0005905324950258,23.90784176182713,18.146325180713056,25.32516473037859,42.38158634987888
0.63,31.222203188684905,131.01041811695217,10.1035347125751,18.60292862256057,-14.948979211921465,24.359233976990897,1.857477305311121,0.8861239546861694,286.11251274707894,27.97871485838461,8.726122841001645,71.95961541303619,-0.0608698341300591,119.93600162794688,479.0091451349896,15.288,0,10.477091967342831,0.0822287385583678,1.0076108865146176e-08,-0.0084663197022511,-0.0063415792168283,0.0006508677807784,23.698045502968764,18.0145103957281,25.65708562007517,24.44601639426355
0.64,31.222202784908948,131.01041890652448,10.321990822846969,18.4322007928716,-14.7822369977069,23.932942606706288,1.897804536897504,0.8322295911384286,282.30782441796754,28.316777993465248,8.843796031829932,71.95457741642358,-0.0725005792669165,119.9237697722137,490.6443950063888,15.288,0,10.51453734700092,0.0832225027030573,1.0107935563652783e-08,-0.0091814287960955,-0.0069688417244685,0.0007143570635354,23.465652447617515,17.865589429502702,26.020463918783182,24.022489670484454
0.65,31.22220237524827,131.0104197045533,10.54326297990782,18.29675378628569,-14.642255281897572,41.68114828154356,1.9353538598923656,0.7817272129996329,436.7781447787475,28.609135038363185,8.945775092453127,71.94912412650207,-0.0852353971222767,119.91037634474328,500.81738656905856,15.288,0,10.551732060886549,0.0840819447073306,1.0097532910687538e-08,-0.0099127386371592,-0.0076079523891731,0.000779202598794,23.276548366720498,17.74757568287611,26.334088316124998,41.73337769779204
0.66,31.22220195916744,131.0104205121076,10.767723622245404,18.155936908593407,-14.498974617429807,35.57813333427104,1.9742128175956235,0.729438680957629,383.51251517160017,28.91169098801829,9.05089156316028,71.94324567894346,-0.0990936846446325,119.8958008462766,511.4551645219864,15.288,0,10.588842544473907,0.0849713686073159,1.0045421838150353e-08,-0.0106619562589286,-0.0082602445716215,0.0008469407676202,23.08126539656961,17.624472628245535,26.658426888251643,35.640330646468534
0.67,31.22220153685608,131.01042132875415,10.9952397271554,17.99878740486466,-14.344278185692888,24.749878366453768,2.0156493904036563,0.6737444098653904,289.1562440103425,29.241027336506704,9.164734158418153,71.93693171021107,-0.1140960378098046,119.88002149578897,523.1621871341217,15.288,0,10.625818963424408,0.0859395076817666,9.952180219429472e-09,-0.0114287772872267,-0.008925408167727,0.0009181751961697,22.866428517428933,17.486473012723614,27.011297187156277,24.84095918335513
0.68,31.22220110848605,131.01042215409703,11.22569070006592,17.849324590685516,-14.195886503167705,30.707113678071984,2.05709727773948,0.6178966445769997,340.8999924858462,29.562419901790964,9.275632237607336,71.93017173135011,-0.1302627564677564,119.86301681614756,534.7138646785845,15.288,0,10.662580915543678,0.0868843077298791,9.818437266119289e-09,-0.0122130066841029,-0.0096032203862084,0.0009919416486357,22.66127463981666,17.354989872457054,27.355279838360083,30.782142159237363
0.69,31.222200674136143,131.01042298793496,11.459021042823109,17.71988151307322,-14.06290073358564,37.62994487554084,2.0970485142032613,0.5638172009415511,401.0140726853634,29.85646771777389,9.37707717452915,71.92295536069895,-0.1476136070416107,119.8447658747872,545.391798279251,15.288,0,10.6992119304756,0.0877487487856809,9.644860259964124e-09,-0.0130146355923515,-0.0102936103446393,0.0010675402448239,22.480847974879715,17.241129000834466,27.6695850380588,37.69254904677106
0.7,31.22220023365884,131.01042383053817,11.695333251240047,17.591117068381934,-13.931012648798296,31.69225889804816,2.1376471848966485,0.5087750437203945,349.27032420985284,30.15159180108009,9.47862733891551,71.915272223798,-0.1661678720123187,119.82524823569626,556.214602024672,15.288,0,10.735688089549583,0.0886163605535622,9.432152304209362e-09,-0.0138343352917033,-0.0109970584594663,0.0011459680381491,22.30157279603048,17.127634646226053,27.984810933605328,31.76834370238905
0.71,31.222199787105648,131.01042468176416,11.934591075830545,17.45233949117534,-13.792320276558389,26.188689415540463,2.180228396380529,0.4510618776737407,301.33126406340574,30.464670921744247,9.585953618682554,71.90711160870201,-0.1859450881644118,119.80444318395304,567.8124365876761,15.288,0,10.77195105833144,0.0895367504148141,9.181076764760866e-09,-0.0146721637083864,-0.0117135465876051,0.001227961187489,22.110402004532585,17.004896776110023,28.319041329424923,26.283156316955456
0.72,31.22219933447394,131.01042554158306,12.176796107564032,17.30152112121998,-13.64536209755904,31.890119655712475,2.225217666456206,0.3901351728086634,350.79220534145287,30.80018217498148,9.700524965016236,71.89846250113912,-0.2069649666079846,119.78232980874688,580.3745865722085,15.288,0,10.808082321284624,0.0905230772681391,8.892437055286284e-09,-0.0155284227280057,-0.0124432528317885,0.0013139066604207,21.90486891267933,16.871022281035756,28.67697815023399,31.970041144356234
0.73,31.2221988757556,131.01042640997557,12.421953774776854,17.184682686733282,-13.523991124239684,40.13465565734701,2.266652976524873,0.3335949017903848,422.320318528234,31.08292228481047,9.7971807537823,71.88931361962365,-0.2292477567227924,119.7588866082098,591.0650466933628,15.288,0,10.844086578537494,0.0913543154423335,8.567052335209613e-09,-0.0164034870860286,-0.0131864094280374,0.001400656635015,21.74106712458711,16.76757612716022,28.97824980184025,40.19999485084925
0.74,31.222198410879702,131.01042728705727,12.67011363016528,17.058554280488984,-13.396315343343073,25.42774055306992,2.310015268672028,0.274438310055529,294.48281347105944,31.382620764520304,9.89928101895706,71.87965379703027,-0.25281258769994,119.73409325066928,602.5036195335767,15.288,0,10.879859178042915,0.0922354030031195,8.205824114696873e-09,-0.0172977165273536,-0.0139432386107251,0.0014912185383019,21.56622943040506,16.65555335097627,29.29745266499959,25.53392795011689
0.75,31.22219794022105,131.01042817201545,12.921014209054464,16.927079398532342,-13.26525640177995,29.555590142168462,2.354920303822291,0.2131583255359869,330.24688556441487,31.693611040545736,10.004933022663884,71.8694717338968,-0.2776784652407834,119.70792951485504,614.4891604129497,15.288,0,10.915465437609097,0.093149685737536,7.809722470252004e-09,-0.0182101154488947,-0.0147128742685867,0.0015853942128517,21.38516816677976,16.53847852840361,29.628474921220644,29.65002520675059
0.76,31.22219746365861,131.01042906507183,13.17474026123206,16.8080619311832,-13.14387374625395,31.75680261526136,2.398860611616376,0.1529554876883531,349.27032420986166,31.98521159514413,10.103887377322431,71.85875610624124,-0.3038639083406511,119.68037567459214,625.8332788527283,15.288,0,10.950920076498068,0.0940069887697012,7.379736031697135e-09,-0.0191413936822364,-0.0154958158950329,0.0016817639833076,21.21958285590243,16.432523521969866,29.9386381040652,31.847644182260158
0.77,31.222196981127524,131.01042996633248,13.43133741942367,16.692838620990855,-13.02577949485098,29.7496013143764,2.442979761368785,0.0923646680811079,331.7687666960708,32.271640699945216,10.200902654527493,71.8474953911839,-0.3313873489014832,119.65141207701323,637.0765015765571,15.288,0,10.986198241759912,0.0948491004523606,6.916909838260354e-09,-0.020092022187778,-0.0162923704999184,0.0017810505949358,21.058902992967237,16.329867521182727,30.24313576905137,29.8498820719733
0.78,31.222196492691964,131.01043087563562,13.690761448068958,16.56897392615148,-12.90184720008564,24.58305991374152,2.489125169348858,0.0290124453142634,286.8734378128899,32.57502217366904,10.303370199710407,71.8356779293898,-0.3602669601611145,119.6210193222566,649.0947786126643,15.288,0,11.021257055812889,0.0957410446654332,6.42235002952209e-09,-0.0210619668943569,-0.0171024409362293,0.0018845357835501,20.88795983789417,16.219191129856462,30.56548829633287,24.708772137710003
0.79,31.222195998440803,131.01043179276755,13.952950830364951,16.44082124761241,-12.775285144848688,34.59371890183854,2.536770972934824,-0.0364288906942638,373.6203323159534,32.888320411800315,10.408936106357103,71.8232918439974,-0.3905208307435147,119.58917807963374,661.6238167700026,15.288,0,11.05615196024255,0.0966621435022178,5.8972127031981406e-09,-0.0220511799059075,-0.0179259188247009,0.0019919724827325,20.71206497953822,16.104429597335695,30.898169843794257,34.68662453298999
0.8,31.222195498136948,131.01043271819765,14.21807188453347,16.332233718228206,-12.663516145083952,35.04241923468918,2.5821259231127383,-0.099099255432505,377.42502064505743,33.167070639900686,10.50278002978843,71.81032488171553,-0.4221673222347443,119.55586871078984,672.8696111569918,15.288,0,11.090908899921622,0.0974817105719318,5.34268605569392e-09,-0.0230608754210078,-0.0187636935345083,0.0021007852302701,20.56028620070926,16.0074152662924,31.19404586364752,35.137563102255
0.81,31.222194991884976,131.01043365168204,14.486052411436992,16.212851549557904,-12.544342549425291,23.111430645663702,2.629968736203857,-0.1651346187545609,273.9374926939919,33.467456630381164,10.603626522468332,71.7967647450672,-0.4552242489036958,119.52107213145396,685.0952004875244,15.288,0,11.125509798465474,0.0983648758218829,4.760038840469742e-09,-0.0240908183655928,-0.0196155065932439,0.0022144293850564,20.395617992680915,15.900394269821614,31.51270048330416,23.261174335898094
0.82,31.22219447988016,131.01043459278625,14.756756852073655,16.089613450643483,-12.422811741698728,29.440885705400955,2.6792664264933626,-0.2332217564331408,328.72500443277005,33.77687761083886,10.70730650129537,71.78259901886855,-0.4897090353482901,119.48476964503716,697.8036174532542,15.288,0,11.159869394993668,0.0992746044655089,4.150596238968996e-09,-0.025140548654886,-0.0204809210278869,0.002332225472631,20.22649820514432,15.78971067955156,31.840760148887934,29.563467524806534
0.83,31.222193962101453,131.01043554153048,15.030200926992633,15.989232632081972,-12.318381349598146,37.17924253824804,2.725405240437613,-0.2974239540022376,395.68750322465047,34.04296912610648,10.796395991810527,71.767815099831,-0.5256388637943558,119.4469427870996,708.822791253313,15.288,0,11.194063809542548,0.100056990478209,3.515730020582202e-09,-0.0262104944493941,-0.0213601990735948,0.0024505723157081,20.0854767988831,15.699928450133022,32.12287468983325,37.28018737145632
0.84,31.222193438434143,131.01043649813678,15.306466190988283,15.885229070301891,-12.21174629480956,23.304523338750737,2.7728102649526325,-0.3634346309319723,275.4593748256452,34.31678537765739,10.887874984903537,71.75240049468066,-0.5630299541801403,119.4075740823862,720.2520218974917,15.288,0,11.228099911382872,0.100862088667395,2.856876989906504e-09,-0.0273012374528569,-0.0222537241483803,0.0025730148138416,19.940288047570533,15.606743568710565,32.41305881588257,23.471714243803437
0.85,31.222192909187207,131.01043746193403,15.585337846865809,15.764326731720386,-12.093267717807398,25.331550157777063,2.824028809753196,-0.4345440726978153,292.96093233939376,34.62581430334705,10.99090461794326,71.73634263165489,-0.6018979882732508,119.366646597101,733.2627933472189,15.288,0,11.2619502658251,0.1017706904297303,2.1755437719939434e-09,-0.0284117579753607,-0.0231606219077886,0.0027017168204093,19.77475999246628,15.497892967264912,32.740281260322305,25.492183128665307
0.86,31.222192374173986,131.01043843329654,15.866947926169672,15.657409009904953,-11.985372877604476,31.49192346608009,2.873457144448176,-0.5035342571280532,346.2265619465587,34.90753818324493,11.084694085437423,71.71962846985491,-0.6422590021352281,119.32414299928726,745.2231810750172,15.288,0,11.29563751741119,0.1025990470229491,1.4732787380271702e-09,-0.0295431797384118,-0.0240816958281231,0.0028320860021267,19.62650101271141,15.40186213368743,33.038580441274995,31.626753647861612
0.87,31.22219183341772,131.01043941215804,16.15128175919688,15.557334615754437,-11.882841682284315,29.388099835123768,2.92226871837885,-0.5719193488585363,327.964078366998,35.17556703507959,11.173779456888278,71.70224493067543,-0.6841283530925972,119.28004664488004,756.6904748127052,15.288,0,11.329139961704715,0.1033871599706556,7.517016423314272e-10,-0.030695648456222,-0.0250169822208241,0.0029650774321377,19.4868017581938,15.312106721802206,33.32236674887067,29.5385706851773
0.88,31.22219128695413,131.01044039842748,16.438316086832454,15.449194660360732,-11.77486465794186,25.52335806008158,2.97333960662738,-0.6434205975656327,294.4828134710418,35.46113656820587,11.26854992647216,71.68417886390745,-0.7275207821679615,119.23434151145602,769.0053891380771,15.288,0,11.362434628729911,0.1042268364555842,1.2496049022468236e-11,-0.0318691478357711,-0.0259663911739668,0.003103339218506,19.33750634936191,15.214840852664878,33.624537092066255,25.704018073928484
0.89,31.22219073486749,131.01044139191114,16.727993717888545,15.333336457239898,-11.661718156465437,27.904017723922205,3.02674637818448,-0.718144319100768,315.028134248087,35.764414043753504,11.36906254748059,71.66541691549507,-0.772450697985067,119.18701189836516,782.193543829885,15.288,0,11.395556002568872,0.1051185686006928,-7.425921615869641e-10,-0.0330636413407993,-0.026929816212053,0.0032471014755853,19.179045082970624,15.1103544167189,33.945217150972134,28.076878922662935
0.9,31.222190177076605,131.01044239276692,17.02037343492213,15.239495950500592,-11.564860634275872,30.725852661721017,3.076367491213277,-0.7881678977079835,339.37814235421445,36.020268016648124,11.453681808483331,71.64594530822366,-0.818932652300371,119.13804192503824,793.4027177578303,15.288,0,11.428516173780627,0.1058709224507496,-1.511752482074582e-09,-0.0342797980253346,-0.0279076950905822,0.0033905258906307,19.047593716053704,15.02627205089648,34.215974006942155,30.88953329795968
0.91,31.222189613654773,131.01044340082828,17.31540603862489,15.137724630315676,-11.462656068574171,23.59947472254819,3.1282991663690374,-0.8613884923027055,277.7421810230789,36.29380021569904,11.544042394071754,71.62575055006728,-0.8669797046887046,119.08741725257276,805.4755956266268,15.288,0,11.461305154998888,0.1066752445467496,-2.293105516926251e-09,-0.0355174720700409,-0.028899835735353,0.0035395174424012,18.906707338418894,14.934801630922372,34.505237396588086,23.821491409841823
0.92,31.22218904481307,131.01044441563337,17.612945656525756,15.028387343082954,-11.355379464003288,27.91815487890514,3.1825919226957726,-0.9378832098646902,315.02813424806214,36.58498918519414,11.64016020618362,71.60481895118771,-0.916604507042358,119.03512394061954,818.4288870570527,15.288,0,11.49390733160396,0.1075314722398478,-3.0847098112647914e-09,-0.0367759246886526,-0.0299055879577751,0.0036942279255812,18.756830197025405,14.836259382967825,34.81294435904873,28.11462053993063
0.93,31.2221884704554,131.01044543737808,17.913062016680755,14.938781170089165,-11.2626510044431,33.03176599266082,3.2331878197547064,-1.0097882707088457,359.1625070654728,36.83128247562627,11.72125015209248,71.5831366385952,-0.9678192509555624,118.9811485024432,829.4615377758649,15.288,0,11.52633891624774,0.1082557499376918,-3.884549211881735e-09,-0.0380559713945238,-0.030925498365784,0.0038484361893903,18.631147570268126,14.756106339897595,35.073520588948426,33.204980656873985
0.94,31.22218789046623,131.0104464663054,18.215838860310487,14.832489664213742,-11.158296116959892,24.22478358376324,3.2882166352104645,-1.0876709710237824,283.0687504837787,37.116267023058114,11.815079690241914,71.56068981042361,-1.020635079364912,118.92547852392713,842.3227329105474,15.288,0,11.55859920899474,0.109093758851995,-4.690537902343364e-09,-0.0393581714982076,-0.0319599168655452,0.004010801898699,18.48538581604888,14.660382934694512,35.37458439565812,24.471116371376432
0.95,31.22218730514852,131.01044750175606,18.52106589687101,14.729238912105428,-11.05647826705016,31.102324322948693,3.343268999117075,-1.1658075283055036,342.4218736174873,37.394606330903805,11.906614539189784,71.53746415754334,-1.075063352479148,118.8681013279847,854.9783955117981,15.288,0,11.590675141205462,0.1099122444860082,-5.500530163734228e-09,-0.0406815126702071,-0.0330079829298149,0.0041766235691461,18.343518792668885,14.567496149330855,35.668617618807026,31.303212823660722
0.96,31.22218671419484,131.01044854438857,18.828961896464687,14.63593958537704,-10.962128775501853,30.48898298260293,3.396616315741189,-1.2419462654061144,337.09533515678345,37.649101482836414,11.990116806534871,71.51344532938919,-1.1311145931338,118.80900508637124,866.6297603175585,15.288,0,11.62258553418552,0.1106606548208184,-6.3122854489950505e-09,-0.0420276818115124,-0.0340709038554938,0.0043440667027149,18.213936461580225,14.48394353857319,35.9376604010132,30.702728156239903
0.97,31.222186117626247,131.01044959415543,19.139514984666008,14.538535583538012,-10.8651723040963,19.82107763627548,3.451587021164535,-1.3204293365919446,245.02188719299323,37.91320554214172,12.07671409624982,71.48861862775881,-1.1887991357381464,118.74817813362984,878.8048071518334,15.288,0,11.65431430661034,0.111437316913491,-7.1234999431772365e-09,-0.0433967997923392,-0.0351486854353902,0.004516912627371,18.07955659278224,14.396580455504768,36.21671889213096,20.162641326494505
0.98,31.22218551574416,131.0104506504017,19.45251612682704,14.42568084167444,-10.757528602469822,28.466152728084023,3.51117955006972,-1.4051824457859872,319.5937466429581,38.21579476200267,12.176042511378164,71.46296930434242,-1.24812645040585,118.68560967885652,892.8616078912936,15.288,0,11.685861734900008,0.1123271063995675,-7.931813940649202e-09,-0.0447875765146646,-0.0362402597196761,0.0046987342522923,17.92660881100829,14.294732996501264,36.53591661629503,28.716280585712667
0.99,31.22218490839396,131.01045171346038,19.76807705383377,14.340455372657594,-10.669910641059108,31.027036870922952,3.564334574667355,-1.4817598167795856,341.6609485517054,38.44923995288447,12.25228738320924,71.43648222846838,-1.309105850470622,118.6212890595671,903.7758104016468,15.288,0,11.717250843439407,0.1130136707222063,-8.734756533086e-09,-0.0462012366723676,-0.0373464688422501,0.0048765044097751,17.80738428799128,14.2188862013734,36.782884890753465,31.26622954729918
1.0,31.222184295575463,131.01045278333677,20.086201321354768,14.240213592691424,-10.571914533238925,27.851772862190813,3.622034248346933,-1.5645193753952713,314.2672081822764,38.72017496397734,12.340931902891766,71.40914271765618,-1.3717446762770196,118.55520765599732,916.5297091766683,15.288,0,11.74847215368248,0.1138104372726831,-9.529804505553928e-09,-0.0476377664755804,-0.0384672163089746,0.0050634053249621,17.670117342246947,14.128972880981769,37.06894937864221,28.129843663612032
1.01,31.222183677477084,131.01045385962126,20.406759507546848,14.143122921603656,-10.476473801991585,29.0887027309484,3.679533198793141,-1.647261982498432,324.9203161036979,38.98284011307532,12.426769147522892,71.38093550448377,-1.4360505117626736,118.48735655239932,928.9781663847114,15.288,0,11.77952113442778,0.114582904950752,-1.0314357333066927e-08,-0.0490965791027884,-0.0396019683928953,0.0052537007282179,17.536851715658717,14.04208242992484,37.34635412708396,29.366733954757215
1.02,31.222183054020714,131.01045494248987,20.729810125975888,14.050530232813388,-10.384529437779792,24.409077279698074,3.73638624559378,-1.7294051575674871,284.59063161540416,39.23324918429864,12.508465618411476,71.35184544556019,-1.5020296435483511,118.41772816230043,940.9220183922336,15.288,0,11.810404928052453,0.1153193568398007,-1.1085721471520337e-08,-0.0505782808307914,-0.0407510939991403,0.0054468508743258,17.409214688725772,13.95950698154066,37.61096712333328,24.753878040047706
1.03,31.22218242527881,131.0104560317915,21.05530580982601,13.948016572714424,-10.285860573019992,20.079762441648125,3.796680979840199,-1.8163199682049511,247.30469339049705,39.50957684439647,12.598757524132216,71.32185738400891,-1.5696873468248596,118.346315926052,954.1930685400706,15.288,0,11.841117871793216,0.1161320007949515,-1.1841139706284746e-08,-0.0520826558836437,-0.0419143413575621,0.0056481870183077,17.269724076341063,13.867635993839489,37.9025421817358,20.51610743787922
1.04,31.22218179131628,131.0104571273891,21.38320432906005,13.855899899688712,-10.194846261451628,31.47551814342864,3.85459998611526,-1.9003713897341297,345.46563688072297,39.75757234050895,12.67956685556174,71.2909556511458,-1.639028918538869,118.27311321976876,966.1788772574984,15.288,0,11.87166399429964,0.1168613757776096,-1.2577759328825808e-08,-0.0536097188891671,-0.0430916300867247,0.0058500998344905,17.143003001620652,13.785679549444586,38.16460643703344,31.767555695539205
1.05,31.222181151842705,131.01045822993666,21.713714792149712,13.755918284184016,-10.098574056886545,19.279063794476496,3.9154596119952574,-1.9885537049974489,240.45625879819983,40.02637389024538,12.767265084458057,71.25912465019366,-1.7100584314767429,118.19811466999448,979.2566552655932,15.288,0,11.902059376052575,0.1176519161037688,-1.3292618241511597e-08,-0.0551611744546605,-0.0442841459335375,0.0060599055472336,17.00692348830652,13.69637363034626,38.4482938714464,19.772897375000955
1.06,31.222180507103552,131.010459338901,22.046667745727355,13.649431430836424,-9.998019151372194,27.143437180113704,3.97903382669197,-2.080584598769676,308.17968365593924,40.31313210413776,12.860941090758976,71.22634813701339,-1.782780208561054,118.12131459532448,993.3063931153908,15.288,0,11.932291295630424,0.1184952468887117,-1.3982708011649826e-08,-0.0567359330653053,-0.0454909782306902,0.0062773588676122,16.86313638827524,13.600987401322516,38.750604929961696,27.512319502676895
1.07,31.22217985698231,131.01046045455166,22.38214954951765,13.55954575419302,-9.909445767591595,31.82827553073048,4.0380643273092085,-2.166898967164005,348.5093681440308,40.55273538569865,12.938829400199545,71.19260948765427,-1.857198234711132,118.04270762705328,1005.1166342766446,15.288,0,11.962376374839987,0.1191999810579333,-1.4644879493606433e-08,-0.058335071379192,-0.046712833211413,0.0064924424260687,16.73961274895163,13.5214715738558,39.0039118603688,32.15650070989504
1.08,31.22217920137916,131.01046157712912,22.72023526864133,13.46661019354542,-9.81900217595924,21.655290666736786,4.098605291265008,-2.2554800398343144,261.00157857466235,40.79984384698288,13.019185069705776,71.15789228680894,-1.9333149305228776,117.96229000334216,1017.3702914338232,15.288,0,11.992316246017582,0.1199267847624904,-1.5275914856408083e-08,-0.0599592256568886,-0.0479500855105977,0.0067136490155297,16.61255607552742,13.43919503070395,39.265017139274896,22.154849794221892
1.09,31.22217854057816,131.01046270601472,23.060728220802428,13.356976438328935,-9.717127684408792,19.969556387457303,4.165275222000685,-2.3524484622177497,246.54375332474407,41.09482826641,13.115567740245444,71.12217990829916,-2.011132004321744,117.88005866849376,1032.1009688955098,15.288,0,12.022093608259803,0.1207943240999941,-1.587255000875989e-08,-0.0616069317270413,-0.0492015493961751,0.0069477896667134,16.465460703518108,13.34114740492671,39.57577197127832,20.534524921561744
1.1,31.222177874659685,131.01046384104302,23.40357580326067,13.256604926869969,-9.622035596931283,39.34585362722935,4.229573680115312,-2.4465761211875234,413.1890617385841,41.36258976330834,13.20285443421644,71.08545551783918,-2.0906504318957,117.7960112943668,1045.5600702502247,15.288,0,12.051713897569895,0.1215818538475682,-1.6431390922801853e-08,-0.0632781471476769,-0.0504670944403822,0.0071825240273151,16.329729058911067,13.25204906303621,39.85825828300357,39.64809233604621
1.11,31.222177203218457,131.01046498314773,23.74906997102745,13.174076919307916,-9.539688923061112,28.98783356146118,4.288236254018355,-2.533526798087215,324.1593910376397,41.57583792461046,13.271833784593108,71.04770195691998,-2.1718706723183367,117.71014605184496,1056.3337433008055,15.288,0,12.081204231997765,0.1222091553555636,-1.6948880679641522e-08,-0.064975537882357,-0.0517485881273435,0.0074129674372529,16.2157199696854,13.180151557649571,40.084261007250255,29.412620127997414
1.12,31.22217652632281,131.01046613220356,24.097167448709136,13.059322382177807,-9.43511207103783,11.362811591528311,4.358871247664131,-2.636656822726798,172.73281794065943,41.88548398406402,13.373154829957231,71.00890226716825,-2.25479160743861,117.62246273032316,1072.0910890194025,15.288,0,12.110551986220926,0.1231198210976187,-1.742145796467169e-08,-0.0666986967458815,-0.0530456251453488,0.0076659779046481,16.062923741862644,13.077623271752415,40.41010926880745,12.452518019224666
1.13,31.222175844575062,131.01046728685813,24.447445076637283,12.962586745256672,-9.343375344214977,34.027696153435166,4.423715856460044,-2.7324142275835808,367.5328077900705,42.13980052542141,13.455961797870543,70.96903828512879,-2.339413298177341,117.5329598223554,1085.1129558376351,15.288,0,12.139727936268889,0.1238678586668797,-1.7845472413905035e-08,-0.06844448901148,-0.0543557941955788,0.0079141271904379,15.932047727885417,12.992490857412472,40.67864272681489,34.42265903442532
1.14,31.222175157309284,131.01046844865775,24.800381132357742,12.878384388420043,-9.260606344102136,19.14059393141996,4.484371424496471,-2.822908188108,239.69531773195544,42.35335685528765,13.52504820569789,70.92809298899978,-2.4257323627824388,117.44163941290248,1096.1019477521904,15.288,0,12.168762091205084,0.1244960927882713,-1.8217056499305728e-08,-0.0702171709024083,-0.055682113283584,0.0081599689517062,15.81644725905467,12.919584118158305,40.90502941359601,19.86053206132299
1.15,31.222174465022466,131.01046961649857,25.15562774069741,12.762003387156152,-9.155742374974777,18.865903297604863,4.557794387204276,-2.9307156982508897,237.41251153546767,42.66756381084244,13.628070477931958,70.886049269834,-2.5137444067268246,117.34850460765594,1112.3876229854147,15.288,0,12.197634590272049,0.1254201950773958,-1.8532432685528145e-08,-0.0720135861729993,-0.0570221659425999,0.0084305286162876,15.662154877944635,12.815992833973988,41.23549609337749,19.62867523330556
1.16,31.222173767857143,131.01047079007245,25.513088169009468,12.681148525335953,-9.075772650073088,48.28567259597138,4.618015814100467,-3.021254287125011,490.0437743845894,42.86712165687028,13.69252980974849,70.8428888513516,-2.6034460839436706,117.25355735265076,1122.778762644902,15.288,0,12.226357288258477,0.1260072984968363,-1.8787583612576863e-08,-0.0738334981908904,-0.0583756721042957,0.0086837113368679,15.550869558016036,12.746748857486049,41.44745690363959,48.600002320700504
1.17,31.22217306494217,131.01047197143015,25.873388734328334,12.583517391778194,-8.984425913028248,9.095582171915591,4.685255751276662,-3.121476186058848,153.70937929486794,43.1188765036564,13.774569261732736,70.79859451896782,-2.694830809578596,117.15680297186933,1135.9661345718227,15.288,0,12.2549670297277,0.1267478436828902,-1.8978325606807823e-08,-0.0756824622903101,-0.0597465676336339,0.0089531377803845,15.41949034368604,12.661622513277118,41.71338262324044,10.69695517804353
1.18,31.222172357439383,131.010473157915,26.235707021556923,12.463779833349172,-8.878069684300579,23.80384595377149,4.762197773617872,-3.235007517084099,280.02501822196746,43.44337013993335,13.881319779676968,70.75314819707317,-2.787892427578748,117.05824628186346,1153.087895762884,15.288,0,12.283403412497892,0.1277022141841072,-1.910064517160048e-08,-0.0775529258045476,-0.0611292519723692,0.0092431320704029,15.261609658004971,12.555395096923288,42.05438009515824,24.49013849412708
1.19,31.22217164483328,131.01047435075057,26.600415761703484,12.39318514086959,-8.805854620022776,41.092906339165566,4.81915677988564,-3.322146573775623,428.4078130529292,43.60201418828571,13.9320350751765,70.70653130042072,-2.8826245158788604,116.95789233031532,1161.484143032401,15.288,0,12.311714945503187,0.1281690774600851,-1.9150097091766164e-08,-0.0794491386736647,-0.0625266951145835,0.0095033777687388,15.163083792380704,12.496862863521777,42.2242328530261,41.507684605699225
1.2,31.22217092668568,131.01047555101343,26.96783438776093,12.283353425873043,-8.706849065217057,4.796706766974554,4.893138764696184,-3.432421304468039,117.1843741360236,43.89117293346,14.026957796931478,70.65872664817809,-2.979016828407724,116.85575016352315,1176.8990896390665,15.288,0,12.33990478440047,0.129019600921422,-1.912228878424993e-08,-0.0813736404003927,-0.0639406170365763,0.0097977838043155,15.01743058588638,12.400708268746309,42.52876209115188,7.663727473643491
1.21,31.2221702041556,131.0104767560165,27.33714035558113,12.175769809547027,-8.60964733625306,33.09338004844081,4.966820287480997,-3.542659479771729,359.92343213200894,44.17245635061349,14.11939448254564,70.60971527300894,-3.077061216097885,116.75182655189316,1191.989820167145,15.288,0,12.367927274691011,0.1298469843126916,-1.9012835722035683e-08,-0.0833188550250794,-0.0653654389794755,0.0100959305923714,14.874626978398082,12.306972034269387,42.82513991725047,33.65102588314789
1.22,31.22216947637252,131.0104779678493,27.708961980461247,12.101511786005023,-8.53552772641163,24.118527149519007,5.0259222278385804,-3.633669216116748,283.0687504825761,44.33511164467063,14.171588123209126,70.55947910450811,-3.176746668980172,116.64613124729044,1200.7415710013754,15.288,0,12.395837275217776,0.1303256639795744,-1.8816967444644825e-08,-0.085291393909888,-0.0668058019600766,0.0103726331667453,14.772055756105974,12.245877005651668,42.99930781736237,24.90314835667414
1.23,31.222168743694937,131.0104791857191,28.08304945823421,11.9910405490227,-8.436827834214434,9.721170987509772,5.101829409700979,-3.7476292593486455,159.79687382222795,44.6234933227276,14.26663616414674,70.50800098257842,-3.2780593585874933,116.53867693719084,1216.3693224475635,15.288,0,12.423594927125231,0.1311739326596622,-1.853011263839252e-08,-0.0872883433963122,-0.0682594978626766,0.010684155760341,14.626050805274984,12.14995361100869,43.30302349349236,11.600627300263449
