Time,Latitude,Longitude,Altitude,Angle of Attack,Angle of Sideslip,X-Acceleration,Y-Acceleration,Z-Acceleration,Thrust,True Velocity,Ground Velocity,Pitch,Roll,Yaw,Dynamic Pressure,cp,parachute_deploy_gain,Wind Speed,Mach,omega_x,omega_y,omega_z,Cmq,Angle of Attack(total),Angle of Attack(gust),True Velocity(gust),Acceleration
0.0,31.222216000000007,131.010392,3.000000004412624,0.0,0.0,0.0,0.0,0.0,2.2828121974499247,0.0,0.0,71.99999999612658,-1.0292491154817412e-14,119.99999999354436,0.0,15.288,0.0,0.0,0.0,0.0,0.0,0.0,-0.0,0.0,90.0,0.0,0.0
0.01,31.22221599999862,131.01039200000284,3.0000009727369523,0.0,0.0,0.0,0.0,0.0,34.24218696174923,5.916279387578309e-11,5.734623670548936e-11,71.99999999613168,-5.86671995824671e-13,119.9999999935449,2.1432944861733093e-21,15.288,0.0,0.0,1.7386402909615473e-13,-3.4220131069073734e-19,7.115076756936125e-19,5.488773498207866e-19,-1.1574302492039043e-31,0.0,89.99999999962336,5.916279387578309e-11,0.0
0.02,31.22221599999738,131.01039200000537,3.0000018317022668,0.0,0.0,0.0,0.0,0.0,25.871876237766408,1.2265415415436536e-10,1.1895038237325684e-10,71.9999999961369,-1.1836364828043265e-12,119.99999999354544,9.211895886571454e-21,15.288,0.0,0.0,3.6044858651615574e-13,-6.979551485375437e-19,1.4162390878091906e-18,1.0909784360635388e-18,-4.776231873571785e-31,0.0,89.99999999921916,1.2265415415436536e-10,0.0
0.03,31.22221599921969,131.01039200159065,3.0001883335529382,18.80143492628821,-0.0001350810307892,10.931161642028636,-1.75114298675875e-05,3.026590975169265,180.34219359854663,0.0798232026864394,0.0478175828508887,71.99999999765336,-5.341802909786072e-12,119.99999999436793,0.0039016003969354,15.288,0.0,0.0,0.0002345795854893,3.788270153300133e-17,-7.771883375645477e-10,1.1422790048099072e-11,1.7057759223764537e-13,18.80143492675591,89.51882325913425,0.079801984207741,11.342422482672777
0.04,31.222215995131297,131.01039200995308,3.001692634342189,9.19442604083399,-4.49173898918486e-05,52.29595764159784,6.445392950801871e-06,3.026413589912948,548.6359724538078,0.3504174083926908,0.1601447499964056,72.00000000319055,-3.111420077280171e-11,119.99999999870242,0.0751892535633216,15.288,0.0,0.0,0.0010297854387864,2.0082066977226968e-15,-1.520937588847922e-08,2.5623342884322286e-11,1.4654248781413086e-11,9.19442604094277,87.798916624545,0.3504103527855857,52.383455068075136
0.05,31.222215983575865,131.01039203366796,3.0074067499493786,5.158590039700252,1.707592688632746e-06,76.26884281015512,5.843947534199429e-05,3.0258124765658088,761.6984298824644,0.9592973585397016,0.3772700771701255,72.0000000004862,-1.3608731808076822e-10,120.0000000109612,0.5634958029902841,15.288,0.0,0.0,0.0028191251099456,2.086299069701397e-14,-1.0551247853743037e-07,3.973493515691201e-11,2.783064866637575e-10,5.158590039700515,83.94063169874748,0.959297626767734,76.32884071402438
0.06,31.222215961742712,131.0103920785344,3.019291017943491,4.109521257467909,3.140103977270004e-05,57.06876634333886,0.0001151069734147,3.024834864051463,590.4875390737208,1.6257536642597354,0.6118982818704327,71.99999992547217,-3.5903296759057166e-10,120.00000003412836,1.6184272268450337,15.288,0.0,0.0,0.0047776672697797,1.0694899894620088e-13,-3.741090980393931e-07,5.521401959501359e-11,1.6723176417636091e-09,4.109521257587776,79.78719176344794,1.6257585967235286,57.148873286519276
0.07,31.222215929936205,131.01039214392435,3.0371334573469446,3.649087515174788,5.707077112564807e-05,86.89643797254193,0.0001728541558773,3.0234947746384675,855.2937749779139,2.3057260079826607,0.8506307413593818,71.99999965378231,-6.907496536790437e-10,120.00000006788592,3.255354923652711,15.288,0.0,0.0,0.0067759305364855,3.495199904512709e-13,-9.036515915819006e-07,7.594816279105379e-11,5.728932851326001e-09,3.6490875156204896,75.6601668283889,2.305734972638426,86.94902215090157
0.08,31.222215886364623,131.01039223353447,3.0621840248716574,3.4254446680114707,8.413075603463509e-05,17.831756866644035,0.0002285946601282,3.021841001032126,241.2171988638848,2.961944911520492,1.0819695676346892,71.99999900671328,-1.141745983122182e-09,120.00000011415082,5.371998197385977,15.288,0.0,0.0,0.0087043901031071,8.800530155962314e-13,-1.829098470920821e-06,1.0943386634701918e-10,1.4896287129277132e-08,3.4254446690434226,71.81713637501419,2.9619581267487467,18.085991154451033
0.09,31.22221583454733,131.01039234010327,3.0919888289029,3.389560809024919,0.0001118726864415,54.09031716446879,0.0002748660999733,3.020060228038602,563.0937377043176,3.504225426410036,1.2780161667917422,71.99999774508822,-1.634190085504106e-09,120.00000016921716,7.519080503822694,15.288,0.0,0.0,0.0102980157586766,1.865782139518716e-12,-3.1503298654458527e-06,1.6284478329871028e-10,3.03536411425607e-08,3.389560810868955,68.76526501308032,3.504242999330529,54.17456206384468
0.1,31.22221577423132,131.0103924641528,3.1267248829165366,3.4447939461814814,0.0001419149103147,51.372195336549765,0.0003131602029306,3.0182021883815127,538.7437595981919,3.950569597142709,1.4443465951180965,71.99999562056465,-2.1287748602259068e-09,120.00000023339832,9.55649523509932,15.288,0.0,0.0,0.0116097108366932,3.485956000178229e-12,-4.949356763187612e-06,2.4573266549165286e-10,5.3761299442583966e-08,3.444793949101151,66.34639928474206,3.9505918890846927,51.460781166288626
0.11,31.222215706113143,131.01039260424562,3.165907002780892,3.4691423802630394,0.0001702373452339,40.591037561894986,0.0003534470100582,3.016051659024047,442.8656393052949,4.421478635995476,1.6182620895289603,71.99999235067894,-2.5564479031457968e-09,120.00000030601664,11.970509656144712,15.288,0.0,0.0,0.0129935974697161,5.942887149865172e-12,-7.273722517324353e-06,3.67769289312894e-10,8.842679949465076e-08,3.4691423844348632,63.88798785789768,4.421505376815134,40.70293476011277
0.12,31.222215630588888,131.0103927595646,3.2092596514826863,3.4852659299808075,0.0001974376474727,44.30042894095728,0.000394069215595,3.013641598889868,475.58594813540446,4.896982486381051,1.793579340340896,71.99998761802138,-2.8337988279882726e-09,120.00000038673312,14.683611096353944,15.288,0.0,0.0,0.0143909889875706,9.464337642181618e-12,-1.017558359402848e-05,5.395790443954697e-10,1.3700793350599625e-07,3.4852659355662303,61.5068242157714,4.897013499814194,44.40281567867803
0.13,31.222215548046687,131.0103929293088,3.256512891171917,3.5606043721293616,0.0002276507019012,48.86766833507025,0.0004268800875964,3.0112558910133567,515.9156326236895,5.278566579338586,1.939796541405244,71.99998107389406,-2.8573058577484587e-09,120.00000047523812,17.061052093156064,15.288,0.0,0.0,0.0155123760833565,1.4300406003001044e-11,-1.3705268062305584e-05,7.724776992181392e-10,1.989112774124932e-07,3.560604379397528,59.67313531776262,5.27860233862722,48.960358155653
0.14,31.222215458587108,131.01039311327068,3.30759734332425,3.6000732663755977,0.0002555702913645,45.540290862247225,0.0004629468001456,3.0085404980032777,486.2390860568404,5.70011779273801,2.098362647205908,71.99997235012626,-2.508533681468686e-09,120.00000057154703,19.894788765881632,15.288,0.0,0.0,0.0167512184495524,2.071534240530911e-11,-1.7917736259613292e-05,1.0787346240473087e-09,2.8081526258393346e-07,3.6000732754351943,57.72385750323359,5.700157937625502,45.639559681930805
0.15,31.222215362317904,131.01039331122794,3.3624387479639086,3.651605404442164,0.0002842753491325,44.01308509501,0.0004965057129938,3.005703619811542,472.54218587214,6.091938849578711,2.2476968067377374,71.99996103728932,-1.6446954747148112e-09,120.00000067569304,22.723773683610247,15.288,0.0,0.0,0.0179026934683374,2.9002783512213203e-11,-2.287326399669318e-05,1.47199345427166e-09,3.831202693354572e-07,3.651605415492516,55.98561718911576,6.091983503446133,44.115597174664394
0.16,31.22221525912812,131.01039352340948,3.421115382839859,3.67540086436193,0.0003108411545024,34.83804992586084,0.0005330990866742,3.002517946501868,391.1218908297564,6.521183188362317,2.4085903880902046,71.99994669525161,-1.0153513453738144e-10,120.00000078796704,26.03872642002185,15.288,0.0,0.0,0.019164148528834,3.9478358970291335e-11,-2.864207894220033e-05,1.9677461746207517e-09,5.135466997084602e-07,3.6754008774883777,54.15946979122355,6.521232015176687,34.96719658394182
0.17,31.2222151493826,131.01039374906244,3.4833737923187487,3.7139589864597298,0.0003384978477213,43.96471427482637,0.0005668629535037,2.999235483723449,471.78125980632376,6.916861975403744,2.559060925010733,71.99992884100092,2.3206494032971838e-09,120.0000009081849,29.29426197817256,15.288,0.0,0.0,0.0203269651395979,5.248754693205839e-11,-3.5267097947693114e-05,2.580363454062817e-09,6.706952682968329e-07,3.713959001863866,52.549031795895466,6.916915146521327,44.06689817851128
0.18,31.22221503253009,131.01039398932429,3.549599475912623,3.7380363034619775,0.0003650282082698,36.67395661481795,0.0006021794701355,2.9956556354306425,407.10156721191447,7.332140201215607,2.71556808256092,71.99990696207136,5.837017536380516e-09,120.00000103716444,32.917216366714264,15.288,0.0,0.0,0.0215473823438242,6.839750892601699e-11,-4.285557247677198e-05,3.331016495775474e-09,8.639362741436378e-07,3.738036321259578,50.93050624815799,7.332197539712479,36.796100973258795
0.19,31.22221490871209,131.01039424390297,3.619694897703461,3.747799769666444,0.0003901520189829,41.42208371271829,0.0006393759928961,2.991742733214697,448.9531328318269,7.771071983754382,2.879366399937307,71.99988049019642,1.0709144790974043e-08,120.00000117502664,36.97605053227239,15.288,0.0,0.0,0.0228373144884866,8.761416506509219e-11,-5.146771415177372e-05,4.238406957677133e-09,1.0996552116864756e-06,3.747799789945131,49.29705748437159,7.771133268690212,41.529983675580546
0.2,31.22221477769685,131.01039451327668,3.693822889232993,3.7700519460961166,0.0004166800650969,37.99697972290605,0.0006740224661302,2.987733789228414,418.51563019916136,8.179966026035371,3.0338260708461373,71.99984881140107,1.723179577184912e-08,120.0000013223286,40.969302182777255,15.288,0.0,0.0,0.024038975990988,1.1057590044953188e-10,-6.120032215177249e-05,5.3263847350253015e-09,1.376394225587184e-06,3.7700519690893857,47.8457752505109,8.180031477986942,38.11426270718793
0.21,31.222214639876928,131.01039479663547,3.771710975053407,3.7926098867321474,0.0004432924407074,36.46301043881366,0.0007080907240332,2.983530483977461,404.8187610144644,8.582757448615462,3.1863584283669346,71.99981127559042,2.5745201416596626e-08,120.00000147900325,45.103059028532826,15.288,0.0,0.0,0.0252227064089584,1.3774582723633048e-10,-7.20875523136271e-05,6.61341033873124e-09,1.7010673350603349e-06,3.792609912601061,46.47936953648762,8.582827080829217,36.584868250565684
0.22,31.22221449507626,131.01039509434258,3.8534832466471007,3.782921298925821,0.0004660920499522,44.14577847155813,0.0007479176313898,2.978724032883548,472.5421858721365,9.056569122268344,3.360845972992861,71.99976720416048,3.661811567390422e-08,120.00000164562512,50.21995530074818,15.288,0.0,0.0,0.0266151520780326,1.6960703048385348e-10,-8.421592474264931e-05,8.124635526119773e-09,2.0969540034515424e-06,3.7829213275976334,44.9464484092354,9.056642335836344,44.24615863872642
0.23,31.22221434283448,131.01039540734791,3.9394622486964206,3.813874679301352,0.0004940771488601,36.66675459308932,0.000779455230549,2.974212905336642,406.3406421461021,9.430647902846331,3.5044030163419806,71.99971583979395,5.0272885112871524e-08,120.00000182313076,54.45382429059888,15.288,0.0,0.0,0.0277145095638672,2.0669790509245914e-10,-9.77285871729516e-05,9.894576563683824e-09,2.5339062472561444e-06,3.813874711257219,43.79476959007253,9.430725512303388,36.78718303164376
0.24,31.222214184153326,131.01039573358457,4.028950821673608,3.829256049377765,0.0005200487408944,37.802126339316736,0.0008136255607606,2.9692962675112065,416.2328240017114,9.837806876534357,3.658163422426286,71.9996564062533,6.718950080713476e-08,120.0000020109434,59.25679777340223,15.288,0.0,0.0,0.0289110855155543,2.4956955046738006e-10,-0.0001125744417092,1.1934277804843484e-08,3.0448209172448607e-06,3.829256084638984,42.59361542722471,9.83788856559955,37.91856374864305
0.25,31.22221401888584,131.01039607335582,4.122052964664892,3.851417709838087,0.0005469594058717,38.85163035360012,0.0008459008130282,2.964283881833675,425.36408079150686,10.22297576958679,3.8050691648373967,71.99958811418384,8.786880969336211e-08,120.00000220974424,63.98709205399403,15.288,0.0,0.0,0.0300430411774988,2.987811646313829e-10,-0.0001288461362054,1.4273117985167728e-08,3.621333387698252e-06,3.8514177486178034,41.50703126619192,10.223061685769354,38.96455005232871
0.26,31.222213847358866,131.0103964259872,4.218542267117083,3.8780574625554745,0.0005745172425185,42.3164797140743,0.0008766626387865,2.959162938653076,455.8015834241788,10.590779679138215,3.946551912391076,71.99951013710364,1.1286401474734325e-07,120.00000241975916,68.67355887153568,15.288,0.0,0.0,0.0311239685467471,3.5491769188178554e-10,-0.0001465721578858,1.6932703957058654e-08,4.267712643344226e-06,3.8780575050466,40.51245375834074,10.590869924095635,42.41981967733593
0.27,31.22221366913008,131.0103967923915,4.318728802515264,3.886188503202341,0.0005994342651313,38.70936050721014,0.0009111181036949,2.953518013741325,423.84219965987256,11.004860953238978,4.102320296019413,71.99942161756776,1.4276417094868828e-07,120.0000026420792,74.14786134434608,15.288,0.0,0.0,0.0323408987462391,4.1858405402174807e-10,-0.0001658847815307,1.995072923688136e-08,5.018832267232506e-06,3.886188549362022,39.43841359495857,11.00495511215316,38.8218734782956
0.28,31.22221348431185,131.01039717233687,4.422535913956003,3.90556090261878,0.0006261175699806,44.68030766832924,0.0009425767186621,2.947879457547137,476.3468732012221,11.38358114165448,4.247086834352694,71.999321619057,1.7823531611327881e-07,120.000002877279,79.33831935330025,15.288,0.0,0.0,0.033453914386159,4.904408325040897e-10,-0.0001868529238516,2.3357766479368094e-08,5.847713054408178e-06,3.9055609527288775,38.49894431917428,11.383679491972384,44.77744842575601
0.29,31.222213292835256,131.0103975659655,4.530013412817602,3.9242599519377537,0.0006528240665589,35.802573724660256,0.0009737210635801,2.942037024315898,397.97031042211177,11.759725774384751,4.391004157029451,71.99920917567837,2.1999186079018322e-07,120.00000312617878,84.66717879828003,15.288,0.0,0.0,0.0345593650464213,5.711677680739745e-10,-0.0002095620322847,2.7188189988316943e-08,6.77505090435382e-06,3.9242600061534456,37.60352534239979,11.759828319749328,35.92324968749781
0.3,31.222213095024976,131.0103979726075,4.64093665799555,3.936939025755682,0.0006785438093183,33.570228713727204,0.0010059102294455,2.93586442972183,378.1859457108711,12.149968255527943,4.539237002744259,71.99908328532703,2.6880857935396905e-07,120.00000338923812,90.3787563598417,15.288,0.0,0.0,0.0357062504417728,6.614698865958865e-10,-0.0002340353597042,3.1467140861055e-08,7.817263716758327e-06,3.9369390841381695,36.71173884615234,12.150074840940263,33.698361337808635
0.31,31.22221289105846,131.01039839189684,4.755183729044857,3.9598342215431432,0.0007060286581592,35.396825578217346,0.0010350810412898,2.9297385597941448,394.1656220930212,12.504537499407316,4.6763673222047455,71.99894291513503,3.255120771695107e-07,120.00000366712923,95.72967338626896,15.288,0.0,0.0,0.0367483036680869,7.620720834468404e-10,-0.0002603234137215,3.622454560346964e-08,8.948994505138873e-06,3.9598342843844345,35.934338386209795,12.504648402129598,35.5178635353378
0.32,31.222212681031937,131.01039882363492,4.872689374180126,3.985461429033668,0.0007340760463279,38.52097867048992,0.0010630242168685,2.9235095146848846,421.55939346242695,12.84534566718622,4.809181081594425,71.99878701464397,3.909756427278764e-07,120.0000039606604,101.01782231644016,15.288,0.0,0.0,0.0377499198995686,8.737098716736534e-10,-0.0002884807530145,4.1491545539590986e-08,1.0187112828155184e-05,3.98546149652875,35.21473736963424,12.845460975581933,38.631757748577954
0.33,31.22221246496604,131.01039926777932,4.9934410812554,4.010606629086,0.0007621365968788,38.18822026147908,0.0010905599149574,2.917102431053817,418.5156301991682,13.18247167592885,4.940798912752974,71.99861449732019,4.661299779655886e-07,120.000004270781,106.38859400029033,15.288,0.0,0.0,0.0387407190563976,9.971421990244511e-10,-0.0003185760672934,4.7302669734505256e-08,1.154498667827874e-05,4.010606701382261,34.52805863348922,13.182591392065536,38.299473293007864
0.34,31.222212242662028,131.01039972474007,5.117579377337869,4.019339771238816,0.0007871574969313,29.898022638335373,0.0011220389395318,2.910051232417875,345.46563688075645,13.569536737955724,5.0878303926024735,71.99842423285973,5.519675040347761e-07,120.0000045987411,112.72655675097128,15.288,0.0,0.0,0.0398782837956187,1.1331556132162459e-09,-0.0003507224668667,5.37022358302301e-08,1.308298593306914e-05,4.019339848191799,33.76700548046532,13.5696603843662,30.039310197084795
0.35,31.22221201433324,131.01040019407705,5.2449575244483055,4.033762873683395,0.000813261106463,32.76415525156106,0.0011515840876071,2.902959820469776,370.5765700527033,13.934300103976534,5.227895396154902,71.99821502296155,6.495674834876441e-07,120.000004945438,118.8669740701126,15.288,0.0,0.0,0.040950312688979,1.2825853697215452e-09,-0.0003849609961885,6.072234695821837e-08,1.4746020857580124e-05,4.033762955530055,33.07785186209504,13.934427850732408,32.89250745069162
0.36,31.22221177990305,131.01040067594835,5.375631006350063,4.051723629010647,0.0008401329464575,37.01692984301412,0.0011797030485285,2.8957873473716007,407.8625232777193,14.282998147928636,5.362923567977223,71.9979856440668,7.600645476620651e-07,120.00000531213882,124.88900300695136,15.288,0.0,0.0,0.0419751331662584,1.4462801652534363e-09,-0.0004213876232777,6.84067806399068e-08,1.654507199147348e-05,4.051723715967022,32.44322602189087,14.283130115703262,37.13002398000203
0.37,31.222211539445663,131.01040117020102,5.509550188388412,4.071639898917391,0.0008674922629137,35.12417761390579,0.0012067983861697,2.88849906286036,391.1218908297666,14.620581431527652,5.494447309446232,71.99773482653193,8.846681943540367e-07,120.00000570002652,130.86067091914967,15.288,0.0,0.0,0.0429672939311924,1.6251202388969355e-09,-0.0004600660652957,7.679415042686734e-08,1.849041957573993e-05,4.071639991174516,31.85023865502424,14.620717696893658,35.24274792557624
0.38,31.222211292895075,131.01040167697127,5.646763233102716,4.08264881385344,0.0008930259828975,36.695642158537446,0.0012360471443664,2.880711738179021,404.8187610144602,14.986392916850402,5.634654729559426,71.99746126698146,1.0246533537040716e-06,120.0000061105033,137.4891296153862,15.288,0.0,0.0,0.0440424171304414,1.8200057922063743e-09,-0.0005010869196581,8.592980519823866e-08,2.0642694281337543e-05,4.082648911356968,31.228847973200924,14.986533193043764,36.808540518115166
0.39,31.22221104018777,131.0104021963902,5.787316652586672,4.096641430700089,0.0009192713382325,31.335681548387896,0.0012640110027448,2.872831219844713,357.64062493382744,15.337978856701952,5.770390286512262,71.99716358743511,1.1813915463769678e-06,120.00000654506955,144.01394309468844,15.288,0.0,0.0,0.0450757388736732,2.031886352449547e-09,-0.00054455673306,9.586443829735616e-08,2.295945663566148e-05,4.096641533664766,30.65298398882095,15.338123255506089,31.4670954954126
0.4,31.222210781536543,131.01040272801887,5.931064331106764,4.109028969993624,0.0009451871856381,29.95928076777898,0.0012920492774571,2.8646905607053603,345.465636880754,15.692185018814769,5.906873567965718,71.99684037970908,1.3563276523471372e-06,120.00000700500496,150.74021066990193,15.288,0.0,0.0,0.0461167659598875,2.2617341782092324e-09,-0.0005905037520737,1.0663253249436129e-07,2.5471259834659164e-05,4.1090290785164525,30.09246700352443,15.692333488470696,30.095929256306363
0.41,31.222210517064383,131.01040327160345,6.077922766619747,4.122888296344507,0.0009714525997821,33.78425365340317,0.0013192264430821,2.85640971467756,378.94687077668647,16.03742529732769,6.0405139809190125,71.99649020751959,1.5509747261474075e-06,120.0000074917568,157.44375780268788,15.288,0.0,0.0,0.0471314487675864,2.5105374204052982e-09,-0.0006389770219162,1.1827345344180344e-07,2.816813594418537e-05,4.122888410595805,29.56469007160549,16.037577892745222,33.904791300285986
0.42,31.22221024682894,131.0104038270252,6.227854084363214,4.14444025865494,0.0009995884754813,38.04468161607466,0.0013435485656724,2.8482703202464488,416.2328240017114,16.348862540904037,6.163613566771559,71.99611159893284,1.766920641656551e-06,120.00000800692096,163.6157044470786,15.288,0.0,0.0,0.0480467946810589,2.779304965995011e-09,-0.0006900467934588,1.308321832549104e-07,3.100973487310896e-05,4.144440378988911,29.104646754454564,16.34901955589459,38.15115260238947
0.43,31.222209970843565,131.0104043942566,6.380851271439565,4.1618082623168045,0.0010268052928652,33.45815353250911,0.0013687230309017,2.8397750580998298,375.9031395134336,16.67263197205097,6.290467308135904,71.99570306121484,2.005818691215035e-06,120.00000855220898,170.15779512382937,15.288,0.0,0.0,0.0489983878509763,3.0690566816849196e-09,-0.0007437862329608,1.443552931671376e-07,3.4086145072160934e-05,4.161808388761201,28.640125213458976,16.672793262249197,33.57845085853367
0.44,31.22220968892116,131.01040497368373,6.537047157143216,4.164954087655709,0.0010505545842624,30.86574023822051,0.0013980747538988,2.830419582421933,353.0750125389216,17.050421620730056,6.433992917638883,71.99526304125902,2.269416145406482e-06,120.00000912964636,177.9537948947602,15.288,0.0,0.0,0.050108743779844,3.380847125286677e-09,-0.0008003278134917,1.589055036683518e-07,3.750784460406397e-05,4.164954219916419,28.113519280259386,17.050586641458253,30.99524475496968
0.45,31.22220940081287,131.01040556582012,6.696617751072218,4.165241899529329,0.0010735835484822,35.912216710755274,0.0014280646808282,2.820677244966047,397.2093853562869,17.438293672974723,6.580571293039616,71.99478987454265,2.5595995397253085e-06,120.00000974147088,186.13940823302417,15.288,0.0,0.0,0.0512487363629523,3.7158016249566814e-09,-0.000859850913876,1.745604864109677e-07,4.121350642664912e-05,4.1652420376426775,27.591357195572936,17.43846231108416,36.02281959036367
0.46,31.222209106468902,131.0104061707686,6.859600379555308,4.174585124444534,0.0010989881252456,41.916816790010685,0.0014546917035209,2.811153314474766,449.7140588976434,17.786187321601275,6.714685486378061,71.99428180697711,2.8783880229668832e-06,120.0000103898448,193.6374175079873,15.288,0.0,0.0,0.0522712438446989,4.0751091178509895e-09,-0.0009224765531151,1.9138630415982226e-07,4.50966024037632e-05,4.1745852688465686,27.13985967570823,17.786359950252297,42.01097612387663
0.47,31.22220880579083,131.01040678873238,7.026066274755745,4.1823089530633855,0.0011240727220223,28.37640408484148,0.0014814747534716,2.801325368441072,331.0078106302534,18.138167428286582,6.849989708801916,71.99373704967608,3.2278903746588286e-06,120.00001107707628,201.37401505997488,15.288,0.0,0.0,0.0533057667609836,4.459978104761035e-09,-0.0009883252835099,2.094509673354327e-07,4.927107017839778e-05,4.182309103852639,26.69716826759888,18.13834399721685,28.514342615617974
0.48,31.222208499300592,131.0104074186346,7.195654207463586,4.189479568102716,0.0011490100608361,27.95074823096412,0.0015080719422187,2.7912412472910484,327.2031223011574,18.48995085190441,6.98515976370584,71.99315377257649,3.6103201777021456e-06,120.00001180491516,209.25751230436188,15.288,0.0,0.0,0.0543397174489847,4.8716620260348906e-09,-0.0010573190976925,2.2877013380347535e-07,5.373205427420879e-05,4.189479725385959,26.268461765425428,18.4901313379827,28.089773168283216
0.49,31.222208187201936,131.01040806005494,7.368224738812109,4.202723284133339,0.001175611380853,35.08821363242469,0.0015321405723077,2.781292092003844,389.60000969812296,18.812014261754847,7.111044804193205,71.99253015042137,4.027946338669921e-06,120.0000125755114,216.60722913930897,15.288,0.0,0.0,0.0552863302793499,5.311396446020465e-09,-0.0011294854492155,2.4938633613154685e-07,5.8398320167141767e-05,4.202723448262914,25.88860807032205,18.81219892635871,35.1982716047702
0.5,31.22220786953184,131.01040871291724,7.5437546994244835,4.220815778795054,0.0012036252596423,36.05491615971072,0.0015540388599792,2.7714444106710974,397.97031042210494,19.10875420627192,7.229005658018125,71.99186435180009,4.483102820610566e-06,120.00001339126192,223.4908652241728,15.288,0.0,0.0,0.0561585257949344,5.7804122391526605e-09,-0.0012048912160576,2.713531252030471e-07,6.327866493526626e-05,4.220815950099865,25.54902500917784,19.108943271285572,36.161276053538906
0.51,31.222207546379583,131.0104093770373,7.722184419225251,4.232567510615346,0.0012298790840397,27.54004661432325,0.0015777580800203,2.761017323676155,323.3984349720841,19.430597746636646,7.354673636736509,71.99115452520388,4.978202222778502e-06,120.00001425458936,231.07869697977367,15.288,0.0,0.0,0.0571045034845869,6.2799518101633574e-09,-0.0012835871653678,2.947201005874635e-07,6.854585242460463e-05,4.232567688976395,25.189423168613605,19.430790935591396,27.678103017910345
0.52,31.22220721768701,131.01041005246208,7.903524172451531,-0.6803401896626816,-5.295940844626196,33.13400913497927,0.2967797671339247,3.037758475014964,372.0984511843415,19.240676541639527,7.484478567886201,71.99040453950194,-7.0630458017798814e-06,120.00000194129974,226.57954640737228,15.288,0.0,2.5142906001810066,0.0565464605146434,6.803462042838419e-09,-0.0013152144892637,-4.6115737786275935e-05,6.954709848843508e-05,5.339338279971476,19.68921060269549,18.40997614136342,33.27429362345045
0.53,31.22220688302665,131.01041073957384,8.087875851234957,-0.5988641362427135,-5.219737037002698,34.7971206498433,0.304515169938245,3.034293346179854,386.5562464348624,19.56293177026489,7.6142900814982974,71.98965486454807,-0.000167648752971,119.9998334360642,234.2287595917892,15.288,0.0,2.523962468929052,0.057493656579588,7.280146281042668e-09,-0.0013029660922667,-0.0001465939594223,7.00521484110815e-05,5.253884302081995,19.403485720825916,18.74415106996354,34.930491996522825
0.54,31.222206542257844,131.01041143859115,8.275312944295004,-0.5201568907390131,-5.1462251456316,30.539847867179606,0.3123381866531018,3.0306807263438404,349.2703242098436,19.88330696139436,7.743469397120042,71.98891194261336,-0.000507386278999,119.99947655332032,241.95898620788404,15.288,0.0,2.5336114280611155,0.0584353333496824,7.695875793045939e-09,-0.0012917989705837,-0.0002497307222287,7.058788018432818e-05,5.172375514846019,19.126952073777463,19.076026267797097,30.69144650482197
0.55,31.222206195672985,131.0104121488989,8.465629604820617,-0.4441727088406717,-5.076692877137778,32.377137659008945,0.3201544289031782,3.026918467004154,365.2500005919907,20.19603092420252,7.870224030281226,71.9881751333986,-0.0010308590637188,119.99892647158316,249.6253226168556,15.288,0.0,2.543225614294028,0.059354529679266,8.049828097459272e-09,-0.0012817885262287,-0.0003554155986609,7.114117905956695e-05,5.096036047290007,18.863822978561814,19.39962889884229,32.519898174112605
0.56,31.22220584326964,131.0104128704904,8.658825611478028,-0.370783765972992,-5.01196289142178,30.20717835274153,0.3278885504696718,3.02300996788537,346.2265619465787,20.49666372297588,7.993175919345914,71.98744375760867,-0.0017425740549552,119.9981784500772,257.10757987737406,15.288,0.0,2.552804441390492,0.0602381968663849,8.34122270963427e-09,-0.0012729933960347,-0.0004636876983222,7.170342849579763e-05,5.025624516672477,18.6168514813678,19.71039007941186,30.359837354666443
0.57,31.22220548512157,131.01041360320238,8.854847784968479,-0.2994544104346034,-4.946962788814792,29.8662462620742,0.3358630402769107,3.018951531054784,343.1828296833023,20.80507344340017,8.118492132613396,71.98671709945887,-0.0026470368249122,119.99722774934844,264.89811045847165,15.288,0.0,2.5623433280122385,0.0611447257092968,8.569320777289841e-09,-0.0012654771414256,-0.0005745371174922,7.235124002212942e-05,4.955995443639181,18.37016195086225,20.0289714569833,30.02031875439605
0.58,31.22220512120244,131.01041434707795,9.053712763871651,-0.230025287800074,-4.878582484970368,39.377634154666346,0.3443137077453313,3.014727788501548,426.1250058573153,21.13503554370386,8.250447247341251,71.98599440786276,-0.0037487954646602,119.99606958529428,273.36192619685323,15.288,0.0,2.571841950334937,0.062114601703482,8.733397097064403e-09,-0.0012592996733117,-0.0006880064372187,7.313852556823737e-05,4.883989226312337,18.11383003122424,20.36963524913553,39.494369309901
0.59,31.222204751082305,131.01041510299268,9.255718333900145,-0.1630295275501741,-4.81839396175918,31.887527802370247,0.3524203455541334,3.0103666325186884,360.68438819711065,21.43672590620823,8.373576933194505,71.98527490030699,-0.0050526969552984,119.9946988598998,281.2163368908037,15.288,0.0,2.5813146659198347,0.0630013951538485,8.832633562849927e-09,-0.0012545121806235,-0.0008043696222385,7.389908159178004e-05,4.8211447095919,17.884613270888572,20.68074617155936,32.031249377897794
0.6,31.22220437498209,131.0104158704791,9.460708800647511,-0.0977823385413478,-4.750985720923628,28.31906427977261,0.3613124937106368,3.0058119257822367,329.4859594986058,21.77770781412294,8.50884923030063,71.98455775548612,-0.0065636545640128,119.99311040469004,290.22807518581453,15.288,0.0,2.59075218320186,0.0640036708229522,8.866278989341996e-09,-0.0012511875489005,-0.0009235380401463,7.487412076622996e-05,4.751989560393584,17.633418994568054,21.032279641728987,28.480429310900128
0.61,31.22220399284704,131.01041664963876,9.66872062481075,-0.0346103999057731,-4.684070103833351,33.213718928384566,0.3704475338022112,3.0010783659978126,372.0984511843297,22.124844642309004,8.645978504631122,71.98384211385327,-0.0082867008802936,119.9912989259512,299.5483096232107,15.288,0.0,2.600155828600688,0.0650240424107413,8.833559126457888e-09,-0.00124939133327,-0.0010455806994924,7.595689430859433e-05,4.684197684508697,17.384772664536968,21.38989194120738,33.35108435700242
0.62,31.22220360479432,131.01041744021816,9.879670481882396,0.0266115342727033,-4.632216045920552,41.34055515000279,0.3786175111019865,2.9962616972752687,442.86563930529206,22.40774624402911,8.763121578272976,71.98312707552145,-0.0102269847455658,119.98925900747165,307.2514716230256,15.288,0.0,2.609525314784852,0.0658556357402673,8.733710157033247e-09,-0.0012491912186775,-0.0011704974499823,7.691424538043406e-05,4.632292318735926,17.1857521095988,21.68091185521033,41.45072297908318
0.63,31.222203210627228,131.01041824261253,10.093694017561296,0.0861706326522454,-4.57758948121128,23.362168619007463,0.3872299899494887,2.991261107494032,286.11251274707894,22.70929098194605,8.885996595593609,71.98241170024129,-0.0123894662586302,119.98698543177912,315.57009536531365,15.288,0.0,2.618854186209697,0.0667420270424656,8.566050918195249e-09,-0.001250658572704,-0.0012984078910218,7.80392518321217e-05,4.57839874091788,16.979083997374357,21.991009615060907,23.55607167295217
0.64,31.222202810957096,131.0104190555494,10.310363865328869,0.1438972994331102,-4.517864464397557,22.93062968132274,0.3965257193353303,2.986037896255892,282.30782441796754,23.042653590204186,9.018690604672129,71.98169500675847,-0.0147791553516022,119.98447292805268,324.89620378706365,15.288,0.0,2.628145158336736,0.0677219367824852,8.329975766441557e-09,-0.0012538572082457,-0.0014289966848029,7.938570276927497e-05,4.520150751802852,16.756985381916106,22.33372426992067,23.127633526712803
0.65,31.22220240576056,131.01041987906677,10.529695126617325,0.2003691111259179,-4.469069378576326,40.673500897664994,0.4050788920734618,2.980736396571757,436.7781447787475,23.326246376206385,9.135886433777584,71.98097597537205,-0.0174009425092369,119.98171635167893,332.9355917629055,15.288,0.0,2.63737600076155,0.068555580418362,8.024899370035207e-09,-0.0012588518208143,-0.001562332568941,8.068114366516888e-05,4.473549758130061,16.571730131379194,22.62495821061392,40.78458720701984
0.66,31.22220199450321,131.01042071425795,10.752059147609536,0.2552773521571976,-4.419116288203673,34.56532033650163,0.413953981774254,2.9752498674213927,383.51251517160017,23.620784356061865,9.25642342155489,71.98025354716268,-0.0202597708442945,119.97871050316428,341.38926790390934,15.288,0.0,2.6465751129748054,0.0694213984388175,7.65023099919313e-09,-0.0012657252911405,-0.0016987452315775,8.214423215280309e-05,4.426468798488203,16.38392799563346,22.927319211812723,34.695602597989144
0.67,31.222201577375944,131.01042156071836,10.977321710893456,0.3083663102131173,-4.364845439738977,23.732149329009413,0.4234805443967133,2.969523555182775,289.1562440103425,23.94419443278628,9.385862704759631,71.97952661642522,-0.023360930745809,119.975449816949,350.7941168629856,15.288,0.0,2.6557438103552258,0.0703720783044066,7.205362211168999e-09,-0.0012745459386436,-0.0018381580858059,8.384740595064217e-05,4.375703540036056,16.183120151363553,23.25922909978445,23.92095979869265
0.68,31.22220115455192,131.0104224180802,11.2053610520499,0.3601263965170847,-4.313259027763159,29.68456769720305,0.4329901833991677,2.963633993286942,340.8999924858462,24.25888330210869,9.51253817350516,71.97879403524801,-0.026709699559975,119.97192874109984,360.0675144993718,15.288,0.0,2.6648502861203265,0.0712971335091667,6.689720847715925e-09,-0.0012853802214989,-0.0019805184245136,8.566961503456178e-05,4.328238599631987,15.992403932564232,23.581997918136068,29.835283915440066
0.69,31.22220072611101,131.0104232861687,11.436120556771124,0.4109759374793751,-4.267884430399762,36.602598204361165,0.4420948156929614,2.957649553106381,401.0140726853634,24.54389833008571,9.629950369707174,71.97805461535782,-0.0303112792723322,119.96814180291632,368.5698391182592,15.288,0.0,2.673918330270709,0.0721349837067667,6.1027893961891665e-09,-0.0012982962494967,-0.0021258108931247,8.754515563424982e-05,4.28758979261599,15.823284974068187,23.874120396106747,36.72456036516919
0.7,31.22220029190659,131.01042416527747,11.66970169818268,0.4605442668001858,-4.223092882032377,30.66026921097567,0.4513519896752857,2.9514896306444327,349.27032420985284,24.83001082718203,9.74764543517824,71.97730712860618,-0.0341708146617903,119.9640835899758,377.2044286264676,15.288,0.0,2.6829520190385585,0.0729760660813912,5.444093679199878e-09,-0.001313376078666,-0.0022741550761366,8.959237363797613e-05,4.248085483736541,15.657274083361362,24.167249426764872,30.805309895339278
0.71,31.222199851991103,131.01042505528892,11.906067169317296,0.5085329644119794,-4.175796098626249,25.152292955915527,0.4611032218336311,2.9450844748075213,301.33126406340574,25.135427807965204,9.871269758908994,71.97655026062256,-0.0382935749221198,119.95974856120992,386.5321926297529,15.288,0.0,2.691926271826477,0.07387389175347,4.713175375755008e-09,-0.0013306920042185,-0.0024255480381182,9.188804319287664e-05,4.206592539104698,15.484290389787745,24.48007582225796,25.32832366512114
0.72,31.222199406362744,131.0104259561974,12.145217531509523,0.5547542348333551,-4.125458046854649,30.84955723688851,0.4714534301468595,2.938403177173604,350.79220534145287,25.464837535543506,10.002277737024627,71.97578276946129,-0.042684967179422,119.95513102280108,396.7207837730696,15.288,0.0,2.7008598227259224,0.0748422402666873,3.90956181428023e-09,-0.0013503218625327,-0.0025800353509529,9.446336445550872e-05,4.162526196018447,15.302321960689188,24.817371893708703,30.992767918991706
0.73,31.2221989550142,131.01042686800855,12.38715719639369,0.6010247926233889,-4.085154236151497,39.08986783801325,0.4808762251446866,2.9317397879997915,422.320318528234,25.73740512819389,10.11559176380377,71.97500324096373,-0.0473505748367546,119.95022510301504,405.2495685700196,15.288,0.0,2.709758802302117,0.0756435344840408,3.0327783271172555e-09,-0.0013723461437628,-0.0027376784956472,9.702944237968712e-05,4.1290560185625855,15.154832266220886,25.09625414989622,39.2026033283734
0.74,31.222198497875087,131.01042779085927,12.631934785473016,0.6457815496209925,-4.042570647513333,24.378995010692528,0.4907821429686622,2.924821490765737,294.48281347105944,26.02818787423756,10.2344953442863,71.97421026502415,-0.0522957933677499,119.9450251251036,414.4486227853392,15.288,0.0,2.7186132740701137,0.0764983709282001,2.082442003765901e-09,-0.0013968492063955,-0.002898533034058,9.987536055913612e-05,4.093741441787285,15.000962928322004,25.39370909192064,24.558722393399727
0.75,31.22219803532128,131.0104287239639,12.879287772627176,0.6891654423264417,-3.998796250126972,28.5030970334261,0.5010635093265435,2.9176560690285367,330.24688556441487,26.331003498827744,10.357069788690003,71.97340238439492,-0.0575260673472145,119.93952536001736,424.13815282740734,15.288,0.0,2.727407544068883,0.0773885797765109,1.0581994377029675e-09,-0.0014238725998759,-0.0030623885711768,0.0001029895426322,4.057653145438996,14.844337182245976,25.703383859256498,28.656418514434453
0.76,31.22219756723207,131.01042966756384,13.12930005301639,0.7320390391870907,-3.958846411686472,30.70066641048212,0.5110846276840639,2.910385272359037,349.27032420986166,26.612974984703943,10.473115956042571,71.9725780996985,-0.0630468019201596,119.93372012050804,433.2603473662524,15.288,0.0,2.7361610826464493,0.0782175334524262,-4.0265919508316326e-11,-0.0014535094707838,-0.0032293717948784,0.0001062564863057,4.025853077417778,14.701637682515264,25.99161552600248,30.842543150296873
0.77,31.222197093542984,131.0104306217844,13.382016419657344,0.774070239576486,-3.9202702914491727,28.689997426296948,0.5211396656736755,2.902946861336999,331.7687666960708,26.88938854602856,10.587375143074723,71.9717358629931,-0.0688634674985646,119.92760365041678,442.29640107298144,15.288,0.0,2.744874853886308,0.0790301590124521,-1.2132452719676291e-09,-0.0014858492271252,-0.0033995609224868,0.0001097461486657,3.995843910738922,14.56468490478794,26.274074291852653,28.84119691260767
0.78,31.222196614318538,131.01043158648451,13.637391774414338,0.8146064090587338,-3.879602144193478,23.52026349090618,0.5316983245662574,2.895220345908375,286.8734378128899,27.183911817022008,10.707188620942336,71.97087403935193,-0.0749815531032052,119.9211701761874,452.027448058437,15.288,0.0,2.753540058028937,0.0798960177050815,-2.460993221278713e-09,-0.0015209643969299,-0.0035729350078224,0.0001135674747645,3.964073904718485,14.421837121597456,26.574970907683152,23.70375072939645
0.79,31.22219612964805,131.01043256147165,13.89536374586656,0.853861824729698,-3.838037972301093,33.52796218107775,0.5426204467819439,2.887227027815188,373.6203323159534,27.48894858434936,10.830198986891835,71.96999106278788,-0.081406644416266,119.91441381471124,462.2175170675916,15.288,0.0,2.7621474769984937,0.0807927839767295,-3.783764152940104e-09,-0.0015589256575721,-0.0037494710749806,0.0001177052253355,3.9317330334343854,14.277113840759837,26.886521758122043,33.65642234217999
0.8,31.22219563929416,131.01043354722947,14.156097988531172,0.8933291626236344,-3.8021684274833047,33.973782033049666,0.552950804540764,2.8792219264487504,377.42502064505743,27.75708118534737,10.94169567167142,71.96908518910521,-0.0881444686620429,119.90732854173838,471.2668149432972,15.288,0.0,2.770718131810849,0.0815810926403478,-5.181788690821408e-09,-0.0015998587851756,-0.00392939259143,0.0001219710551578,3.905553730650079,14.152738439290609,27.16027621523667,34.10005189326189
0.81,31.22219514336164,131.01043454353393,14.419521506329383,0.9311590300212528,-3.7636111928777103,22.040222266677635,0.5638983227499007,2.87088120154386,273.9374926939919,28.04823587849013,11.060268891537577,71.96815466826177,-0.0952007276525484,119.89990835654442,481.1930914075595,15.288,0.0,2.7792476231602183,0.0824370730857705,-6.6552645473677324e-09,-0.0016438310094637,-0.0041126383897244,0.0001266347997609,3.876929055309468,14.02032247131675,27.457474268581187,22.233563316669027
0.82,31.22219464204623,131.01043554997275,14.68549789360602,0.967772342190073,-3.7243062209719207,28.367367675634213,0.5752038251413187,2.8622630058942287,328.72500443277005,28.34898704816664,11.181753577808204,71.96719770109455,-0.102581131907143,119.8921472488414,491.55518239978574,15.288,0.0,2.7877321103084167,0.0833212662800135,-8.204361079423974e-09,-0.0016908958701745,-0.0042991057661824,0.0001316538803273,3.847820247692612,13.886391511620722,27.764386272198397,28.517204593016906
0.83,31.222194135326767,131.01043656658277,14.954042191301392,1.0051314136897092,-3.691493088537829,36.10347554566928,0.5857036426266822,2.853707690036122,395.68750322465047,28.60363798162424,11.288869467025744,71.96621239531264,-0.1102914323229689,119.88403916835252,500.4129422995825,15.288,0.0,2.79616899160082,0.0840699723732608,-9.82920349918494e-09,-0.0017411485436294,-0.0044888654520279,0.0001367808037354,3.825704123779543,13.775697024154,28.024180690990832,36.220817809843794
0.84,31.222193623087925,131.010437593597,15.225235422748732,1.0414262028687646,-3.6579224161012975,22.226698214059606,0.596516917305225,2.844890151893529,275.4593748256452,28.866506602226128,11.398466530469925,71.96519694186941,-0.1183372762732309,119.87557816571196,509.63956367379615,15.288,0.0,2.8045531518004774,0.0848428385104845,-1.1529856741046792e-08,-0.0017946970311689,-0.0046820160860227,0.0001422794302083,3.803089661528868,13.663569467082151,28.29231173861251,22.415961855513864
0.85,31.222193105639267,131.0104386303679,15.4988619401261,1.075567553263387,-3.620032303449301,24.25201937704804,0.6082775584382533,2.835600607315304,292.96093233939376,29.16672242081937,11.519583466634248,71.96414936269656,-0.1267242730472239,119.86675833848427,520.28166507114,15.288,0.0,2.8128892088332487,0.0857254808847794,-1.3306366976653504e-08,-0.0018515634824186,-0.0048783481648514,0.0001483103864659,3.7762335278057857,13.53764804935249,28.598467322020326,24.424804528532466
0.86,31.22219258279321,131.01043967727824,15.775053332018327,1.1099837959838816,-3.5861726156386,30.41084738587576,0.6195798728906359,2.826277136256475,346.2265619465587,29.437942872783257,11.631636246305872,71.96306761069293,-0.135458241052573,119.8575735644296,529.9887626361996,15.288,0.0,2.821182942024694,0.086522909110719,-1.5158740133223162e-08,-0.0019118854580144,-0.0050780659259556,0.0001545621463169,3.7538098907111888,13.426578778207194,28.874995927964697,30.54818096706977
0.87,31.222192054572563,131.01044073427525,16.05379437042402,1.144203683696725,-3.5543917110505574,28.30570171059765,0.6307216457682951,2.8168322774596257,327.964078366998,29.69466534551464,11.739121804771283,71.96194971225673,-0.1445449775627164,119.8480177352218,539.2584877892681,15.288,0.0,2.829433949190096,0.087277732762927,-1.70869706667896e-08,-0.0019757504052041,-0.0052811836221133,0.0001611137851025,3.733794660335485,13.32370756091099,29.136700844530026,28.452506097057775
0.88,31.222191521012544,131.0104418012807,16.335061265770438,1.1769749414115005,-3.520689944385514,24.4399714904184,0.6424232576291042,2.8070203234642124,294.4828134710418,29.96997340821469,11.852304585942964,71.96079348411583,-0.15399022200913,119.83808481315188,549.2892542341792,15.288,0.0,2.837640265509036,0.0880871900941078,-1.9090994079659743e-08,-0.0020432365333942,-0.0054876841041241,0.0001681571961947,3.711978408214482,13.215211904094245,29.41729268127723,24.60902836746604
0.89,31.222190982197063,131.01044287811547,16.618796267580013,1.2082696794903471,-3.4851682975466147,26.81997369311184,0.6547000817957624,2.796820805993471,315.028134248087,30.263972449955165,11.971217608721714,71.95959684830125,-0.1637997948143209,119.8277686644564,560.1036712608541,15.288,0.0,2.845801228523868,0.0889515913943009,-2.117074317978292e-08,-0.0021144200867906,-0.005697547257907,0.0001757178290759,3.6884295598805834,13.101362652208454,29.71686102542864,26.973354031657845
0.9,31.22219043804382,131.01044396494535,16.905057789034814,1.240868932967942,-3.455727695855018,29.641282460737887,0.6660263285719891,2.7867765663302424,339.37814235421445,30.5078513540492,12.074508160170677,71.95835753214077,-0.1739796656054254,119.81706300590596,569.1514635894385,15.288,0.0,2.853918428917268,0.0896686876638011,-2.332610279032947e-08,-0.0021894237880424,-0.0059108889610668,0.0001834121638138,3.671504054112838,13.009646932138896,29.96535596771254,29.779444934690204
0.91,31.22218988862548,131.01044506161531,17.19379617891915,1.2720473119674025,-3.424382754712956,22.514734010241582,0.677921889647804,2.776342359223562,277.7421810230789,30.770412953260447,12.183524581576153,71.9570732357734,-0.1845355675148783,119.80596180230717,578.97421145258,15.288,0.0,2.8619831632983623,0.0904407034556826,-2.5556902580634263e-08,-0.0022683198686843,-0.0061276667850084,0.0001916515159646,3.652748887413824,12.912341948430347,30.232832346889268,22.695393861663025
0.92,31.22218933415308,131.01044616768257,17.48486494084537,1.301779529040065,-3.3912563590429654,26.83359603023879,0.6903992507402532,2.7654995168675445,315.02813424806214,31.05158785274864,12.29824703081169,71.95574172450317,-0.1954732994813056,119.7944589406571,589.587213471919,15.288,0.0,2.870000279022649,0.0912674352539481,-2.7862992668908477e-08,-0.002351136368609,-0.0063477279738576,0.0002004583398938,3.632254145620616,12.809744240416563,30.51920152717999,26.984560671192412
0.93,31.222188774529048,131.01044728334594,17.778333589595725,1.3328537324506788,-3.3635360318271164,31.947558101965384,0.7019546866810634,2.754823522095485,359.1625070654728,31.28544829124267,12.398215010589103,71.95436054057967,-0.2067986579374718,119.78254832080832,598.4845647021269,15.288,0.0,2.8779739337427888,0.0919551069262745,-3.0244089267859235e-08,-0.0024380107317038,-0.0065712159603206,0.0002094248685678,3.61771093552462,12.727064816596355,30.75740870167256,32.07379400224579
0.94,31.222188209635927,131.01044840884703,18.07428580921186,1.3615504902875233,-3.331635022223635,23.141374885753148,0.7146071554110668,2.743529376814121,283.0687504837787,31.56007243209437,12.510761567035704,71.95292730941216,-0.2185173480931425,119.77022393009356,609.0203823533324,15.288,0.0,2.8859040480677733,0.0927626000192209,-3.2699877675662934e-08,-0.00252906738975,-0.0067982214614592,0.0002191473911272,3.5988222708181743,12.630637685653085,31.037035290882457,23.314391444577176
0.95,31.22218763977705,131.01044954355083,18.372510582830174,1.3899143973752208,-3.300738496955986,30.02001482987044,0.7272619626087855,2.7320359439970185,342.4218736174873,31.827688219499567,12.621062269886604,71.95143957396583,-0.2306352888029057,119.75747952989524,619.374892004423,15.288,0.0,2.893787440001415,0.0935495016095289,-3.5230137181550976e-08,-0.0026243111325187,-0.0070285425766315,0.0002293220896619,3.581144923928778,12.538649380786254,31.309496166429884,30.15284763910683
0.96,31.22218706464186,131.01045068810123,18.673226981320123,1.4187574788852335,-3.272639751548916,29.408041803315804,0.7394934891617445,2.7205229252139485,337.09533515678345,32.07024239262774,12.723511246282524,71.94989470258949,-0.2431583179703299,119.74430897465044,628.8330331919129,15.288,0.0,2.901630330894263,0.0942627485736757,-3.7834414872578177e-08,-0.0027239566877026,-0.0072624843323386,0.0002398365507795,3.566630645211232,12.45749656478668,31.55645682023675,29.542867469368932
0.97,31.22218648424989,131.01045184245518,18.97642296172642,1.446550678992784,-3.243667931440823,18.74189168473989,0.7521270666746811,2.708648611607436,245.02188719299323,32.32292222112832,12.829029458358868,71.94829011177146,-0.2560924155789804,119.73070596041327,638.7625564394517,15.288,0.0,2.909431966318809,0.0950057650620255,-4.051235530955232e-08,-0.0028281016888618,-0.0075000555366351,0.0002509608179279,3.5512891249993905,12.374180539317862,31.813680175468008,18.951542848752705
0.98,31.22218589890283,131.0104530059814,19.281888824728423,1.4719266555724295,-3.2108856090088684,27.38918411049772,0.765900036608475,2.6960796638570703,319.5937466429581,32.615986740488815,12.947012243695616,71.94662312645646,-0.2694435014928694,119.71666424785852,650.3790125357816,15.288,0.0,2.917187065952095,0.095867490969118,-4.326365381999424e-08,-0.0029367250114015,-0.0077410019244692,0.0002629549467628,3.53186718802202,12.278139020026382,32.11188596331219,27.532214852036176
0.99,31.2221853084434,131.01045417900522,19.589736477698526,1.5000006740005618,-3.185443106797566,29.9524512727357,0.7780856691432186,2.6839999586193968,341.6609485517054,32.836510884905735,13.042402819532631,71.94489103454947,-0.2832176348650177,119.70217744807248,659.1839759841981,15.288,0.0,2.924901559821921,0.0965160082625006,-4.608780536760383e-08,-0.0030500146785696,-0.0079855430883939,0.0002749372813153,3.5206151447170964,12.209227197310202,32.33640038225922,30.08252998555809
1.0,31.222184712869456,131.01045536153032,19.899969503639795,1.5257105081996831,-3.156303718348218,26.780059276907068,0.7913928374541566,2.6712223381124343,314.2672081822764,33.096362343794695,13.149928565050516,71.94309098486505,-0.2974205151458269,119.68723955761276,669.638197017715,15.288,0.0,2.9325731252333096,0.0972801274409176,-4.898429032933684e-08,-0.0031680587154615,-0.0082336614480389,0.0002878294611314,3.505380212030404,12.127967809953851,32.60082203788938,26.92458553585293
1.01,31.2221841123688,131.01045655316287,20.212458083497047,1.551255921274102,-3.1281581649488746,28.020221440662223,0.8046524031360537,2.658257094717777,324.9203161036979,33.34754991337626,13.254691731661708,71.94122015589953,-0.3120581104023099,119.67184428113843,679.8209138648502,15.288,0.0,2.9402006914204324,0.0980187886087904,-5.195265136524396e-08,-0.0032908923871937,-0.0084852373669162,0.0003012495019457,3.4913288094918715,12.051144465249552,32.85642405367612,28.15753195603686
1.02,31.22218350686068,131.0104577540707,20.52726096001001,1.5768478984838488,-3.101343170585269,23.34419242541275,0.8177564228040081,2.645156312280869,284.59063161540416,33.585920946783204,13.355401543776118,71.93927564549412,-0.3271362244550523,119.65598549808092,689.553631539917,15.288,0.0,2.9477861520725024,0.0987197856586835,-5.4992261989692884e-08,-0.0034186587362955,-0.0087403719117841,0.0003151727095916,3.478843170011918,11.980006115983011,33.09900095405206,23.507805033182798
1.03,31.222182896415827,131.0104589641056,20.844330729068872,1.6006159947763117,-3.072165933136096,19.01895371891424,0.8317095016416703,2.631442348319971,247.30469339049705,33.85140753148449,13.46445822713964,71.93725449697651,-0.3426605819140209,119.63965717026028,700.4768125946064,15.288,0.0,2.9553281462215777,0.0995004918139282,-5.810251790807781e-08,-0.003551427394864,-0.0089990126336396,0.0003299909577401,3.463772398283638,11.90114524409184,33.36906403896115,19.21813804950559
1.04,31.22218228109755,131.01046018313437,21.163625115394336,1.6252497437783069,-3.045817093508472,30.41913637977648,0.845082211550385,2.6177894503400805,345.46563688072297,34.0872779260419,13.564244651539214,71.93515366460875,-0.3586371043689461,119.62285305067547,710.2506266803787,15.288,0.0,2.962827772093024,0.1001941539746366,-6.1282783819925e-08,-0.0036892885690145,-0.0092611525649769,0.0003451787065645,3.4519486840209064,11.833414360619154,33.609067402147225,30.543261836975297
1.05,31.222181660610328,131.0104614117764,21.485354209283088,1.6483049481342786,-3.0176393785392674,18.227685581975525,0.8591782311751714,2.603567285072814,240.45625879819983,34.34488993804111,13.670708215665108,71.9329700098874,-0.3750715722766967,119.6055670431815,721.0042419705251,15.288,0.0,2.970289191044932,0.1009517301794907,-6.453220063625038e-08,-0.0038325007495662,-0.00952709107407,0.0003612767439881,3.43810178455344,11.759847914273385,33.871099364386154,18.43272284596568
1.06,31.22218103519929,131.01046264951827,21.80934813530017,1.669921832721328,-2.9879887812594914,26.09755071536484,0.8739438474313026,2.5887827201147786,308.17968365593924,34.62122252087608,13.782914022475053,71.93070040999461,-0.3919700553420977,119.5877927372838,732.6302482523964,15.288,0.0,2.977709240735736,0.101764341039355,-6.785019986551107e-08,-0.0039810507486184,-0.0097966156762719,0.0003782877055247,3.4225994863858413,11.681649002566385,34.1520830571724,26.24019297111719
1.07,31.222180404744265,131.01046389661215,22.135693834313315,1.6933914282702656,-2.9627138400390094,30.788187510626308,0.8876054375379948,2.5743278760678208,348.5093681440308,34.84836177407093,13.879764317006586,71.92834152239061,-0.4093387099110173,119.56952363866148,742.2516419058851,15.288,0.0,2.9850922163803,0.1024323629784562,-7.123594439993952e-08,-0.0041351428006337,-0.0100699145150694,0.0003954953474807,3.412138833409434,11.620381342760544,34.383187136847944,30.90837261351255
1.08,31.222179769141448,131.0104651532774,22.464467050015447,1.7159665800321904,-2.9368304311547604,20.621499352376368,0.9016455111390794,2.5594580684537345,261.00157857466235,35.08334819208222,13.97897595860078,71.92588997893039,-0.4271834846904751,119.5507534695847,752.2718077358351,15.288,0.0,2.992438602515884,0.1031234584999145,-7.468857646552291e-08,-0.004294943764306,-0.0103470908862837,0.0004135359796853,3.401019689944513,11.55772427145869,34.6222339241832,20.799279453192344
1.09,31.22217912867488,131.01046641891915,22.795470641250432,1.7355844090995352,-2.9069092013617994,18.942688955059005,0.917191204453726,2.5435660277429406,246.54375332474407,35.368189891517325,14.093605230491516,71.92334245025324,-0.4455103713549236,119.53147589796863,764.5124785793149,15.288,0.0,2.9997440652342897,0.1039611061647614,-7.820745310834333e-08,-0.0044603984114775,-0.01062786513998,0.0004329397521084,3.385231037434763,11.480822216293046,34.91176952920316,19.134691862978347
1.1,31.22217848342288,131.01046769337384,23.1286521201073,1.7560868910840135,-2.8794881748948646,38.326298677541416,0.9321672353088596,2.5277279870777134,413.1890617385841,35.62465554063363,14.199346219614268,71.92069536970233,-0.4643253444135098,119.5116846187345,775.6152867506665,15.288,0.0,3.0070100503672648,0.1047153539097093,-8.179169596673719e-08,-0.0046315985805829,-0.0109122216756471,0.0004528023428533,3.372342866816453,11.413964525826737,35.17253697278798,38.42087342645078
1.11,31.22217783297249,131.01046897751215,23.464305291396904,1.7788926253028283,-2.856698327966925,27.97593939737284,0.9457819805695132,2.512390801122001,324.1593910376397,35.82443261816271,14.287392853760077,71.91794524994745,-0.4836344869791803,119.49137320072349,784.3134311620273,15.288,0.0,3.014243521225216,0.1053029788670205,-8.544010006939768e-08,-0.0048089402444066,-0.0112006352630922,0.0004727611482795,3.364901414755126,11.365317674004665,35.37588938690979,28.104444421795826
1.12,31.222177177389163,131.0104702712005,23.80238731369566,1.796212604457161,-2.8260119485865207,10.359404661023,0.962326861773344,2.495210060646959,172.73281794065943,36.12441945333781,14.406510123477725,71.91508838947938,-0.503443640482866,119.47053547628262,797.477906289624,15.288,0.0,3.021441328141953,0.1061851706600027,-8.915176009034312e-08,-0.0049924882682759,-0.0114930158961365,0.000494899372821,3.348149683258659,11.287709923367109,35.68069050135624,10.699037861717725
1.13,31.222176517279408,131.01047157316177,24.142473259061,1.8159133128999785,-2.799988803951839,33.03310572271998,0.9774746684542766,2.4785426704479336,367.5328077900705,36.366883703780566,14.507678879171047,71.91212103343523,-0.5237592200887939,119.44916466294994,808.1926484498523,15.288,0.0,3.028598699760241,0.1068982873974418,-9.292611998367885e-08,-0.0051819868339271,-0.0117887907155192,0.0005171150528497,3.33689269024788,11.228412803450269,35.927237532191576,33.14037875741761
1.14,31.22217585196532,131.0104728848295,24.4850446358267,1.837244827453516,-2.777240898317268,18.15525493561037,0.9916209392003756,2.462198512821367,239.69531773195544,36.56706274989926,14.595623801937544,71.9090394502249,-0.5445869128596846,119.42725474687408,817.0875315598784,15.288,0.0,3.035725154458856,0.1074871173097354,-9.67615536999002e-08,-0.0053780368890041,-0.0120887188620094,0.0005396154180713,3.32954822380026,11.182415950814406,36.13098557961348,18.348270092316742
1.15,31.222175181946383,131.0104742051543,24.82975238414576,1.85284725078396,-2.7466571538074978,17.890675279131806,1.008888100408533,2.443814337808502,237.41251153546767,36.87165674945791,14.715963751960455,71.90583983047833,-0.5659323532865123,119.40479976694898,830.7289655377572,15.288,0.0,3.0428104706860406,0.1083828782956082,-1.0065738462204505e-07,-0.005580376182403,-0.0123922163350501,0.0005645627821873,3.3127840369838,11.107205582716674,36.44037808184821,18.08497568868043
1.16,31.2221745073638,131.01047553383972,25.17649974700304,1.873985600513544,-2.7250195461305022,47.32073632027511,1.0229616570123317,2.427013634801981,490.0437743845894,37.05735660972797,14.799260875742968,71.90251817456875,-0.5878016913303085,119.38179321775117,839.0898305125664,15.288,0.0,3.049850876541633,0.1089291624523571,-1.0461250076950894e-07,-0.0057890790298579,-0.0126992389405359,0.0005886071943255,3.3067967955918927,11.067108480236536,36.62947289563015,47.39397568919742
1.17,31.222173827329804,131.01047687276971,25.525917784435286,1.89189938500451,-2.699383017280826,8.141731401043542,1.0387620136406428,2.4089521139711687,153.70937929486794,37.297180883454445,14.899310642351484,71.89907055949868,-0.6102004081496503,119.35822929592833,849.9571287843397,15.288,0.0,3.056863464067296,0.1096345521573571,-1.0862494016492446e-07,-0.0060049426931196,-0.013010769410296,0.0006144859367106,3.295952536831477,11.012454662192429,36.8733196349229,8.553938684321238
1.18,31.22217314301899,131.01047821946293,25.87717972007484,1.905530958238276,-2.668450986246664,22.861859127184445,1.0569362434046632,2.3891919389113627,280.02501822196746,37.61227260782631,15.022711120789408,71.89549284340862,-0.6331343306121126,119.3341018332942,864.3497359049032,15.288,0.0,3.063832890795349,0.1105611982401267,-1.1269454571400029e-07,-0.0062271418464488,-0.0133254435801025,0.0006425852520068,3.278574842094836,10.937840955605347,37.1932648214978,23.010648732593527
1.19,31.222172453904488,131.0104795750386,26.230661401360727,1.9274321090952349,-2.649761382177885,40.162861986007165,1.070283003785586,2.372076445635809,428.4078130529292,37.75571748874081,15.092636703571795,71.89178087141936,-0.6566094608008733,119.309404469711,870.9256119151041,15.288,0.0,3.070771568418059,0.1109832969068704,-1.16819394751625e-07,-0.0064563216504872,-0.0136440222872177,0.0006687527177314,3.276214402076432,10.911742109208356,37.33964229744215,40.24708356240477
1.2,31.2221717595362,131.01048094046044,26.586685661028927,1.941966602087421,-2.6215775956186915,3.8796756986189993,1.087784746359141,2.3521598036304034,117.1843741360236,38.03418949006316,15.20449987159135,71.88793044054114,-0.6806309262141841,119.28413177306628,883.7900051105123,15.288,0.0,3.077680354906374,0.111802317261564,-1.209977788727645e-07,-0.0066929348553208,-0.0139669398269756,0.0006983507189817,3.262096115682724,10.849262092171816,37.62253671428935,4.665599095794779
1.21,31.222171061087813,131.01048231324103,26.944424954391565,1.956477574371104,-2.5940966106728,32.18991596415472,1.1052360757409838,2.3319749763113498,359.92343213200894,38.30445299223183,15.313749731954973,71.8839372323665,-0.7052047197577315,119.25827738513352,896.3639034098755,15.288,0.0,3.0845476492070167,0.1125972172223445,-1.2522947152679854e-07,-0.0069361057251751,-0.0142928424618486,0.0007288411178948,3.248772946661848,10.790101937938156,37.89711244886813,32.29319346011795
1.22,31.222170357669835,131.01048369527655,27.30451319673678,1.9768108848977697,-2.5749075644280426,23.22892332909313,1.1191817294700748,2.3137202720421466,283.0687504825761,38.4521843314205,15.38478194385167,71.8797967884762,-0.7303362106604351,119.23183561571275,903.2601245471772,15.288,0.0,3.0913874903950984,0.1130319377655528,-1.2951193803346385e-07,-0.00718682888708,-0.014622903590665,0.0007580732887701,3.2458125149109422,10.764650758851534,38.04785493033604,23.37068138223029
