Time,Latitude,Longitude,Altitude,Angle of Attack,Angle of Sideslip,X-Acceleration,Y-Acceleration,Z-Acceleration,Thrust,True Velocity,Ground Velocity,Pitch,Roll,Yaw,Dynamic Pressure,cp,parachute_deploy_gain,Wind Speed,Mach,omega_x,omega_y,omega_z,Cmq,Angle of Attack(total),Angle of Attack(gust),True Velocity(gust),Acceleration
0.0,31.222186000000004,131.010384,3.000000003643237,0.0,0.0,0.0,0.0,0.0,2.2828121974499247,0.0,0.0,69.99999999623421,0.0,113.69999999388332,0.0,15.288,0,0.0,0.0,0.0,0.0,0.0,-0.0,0.0,90.0,0.0,0.0
0.01,31.22218600000153,131.01038399999584,2.99999882256592,0.0,0.0,0.0,0.0,0.0,34.24218696174923,7.502283530665459e-11,7.190531319924593e-11,69.99999999623329,-4.83564628150269e-13,113.69999999388072,3.446445726795683e-21,15.288,0,0.0,2.204725565824978e-13,-3.659182332138578e-19,7.589415207398531e-19,4.811147140404426e-19,-1.5108918610345807e-31,0.0,89.9999999995224,7.502283530665459e-11,0.0
0.02,31.22218600000288,131.01038399999217,2.999997775701936,0.0,0.0,0.0,0.0,0.0,25.871876237766408,1.5320717031631675e-10,1.4674636035870463e-10,69.99999999623222,-9.67129256300373e-13,113.69999999387804,1.4372842949972735e-20,15.288,0,0.0,4.5023593667086093e-13,-7.284483346386986e-19,1.5178830414797062e-18,9.757819552369542e-19,-6.170906918166791e-31,0.0,89.99999999902465,1.5320717031631675e-10,0.0
0.03,31.22218599928065,131.01038400193067,3.000201659671132,18.81500467334555,-0.00012974450181,11.96616230539064,-1.8916256735984712e-05,3.349833086198469,180.34219359854663,0.0882870268161719,0.0553390044312322,69.99999999799445,-4.212591857125379e-12,113.69999999488518,0.0047728553458352,15.288,0,0.0,0.0002594525584132,3.2187251995663407e-17,-7.20264389268894e-10,1.2365134327422308e-11,1.6874092354518158e-13,18.815004673776716,89.46786891739345,0.0882666465974854,12.426199017587786
0.04,31.22218599548236,131.0103840121632,3.001799604587872,9.46752327608497,-4.6177622759613696e-05,55.21900012092241,3.931876292165237e-06,3.349616504302861,548.6359724538078,0.3767519978512604,0.1853356633749705,70.00000000507204,-2.4624598767003407e-11,113.70000000019972,0.086915163246288,15.288,0,0.0,0.0011071759353184,1.6174128009138757e-15,-1.3693172015529268e-08,2.7753303060112748e-11,1.3689612277852356e-11,9.467523276196548,87.63554493451223,0.3767447442872393,55.32050167054111
0.05,31.222185984749512,131.01038404118162,3.00777936418888,5.376730308971262,-2.257790939128127e-06,80.28807156553681,5.266841443842784e-05,3.348887800834877,761.6984298824644,1.018787885905993,0.4366201147110198,70.00000000894464,-1.1355399380652658e-10,113.70000001523856,0.635552918586145,15.288,0,0.0,0.0029939522895272,1.6418815498809788e-14,-9.32122351075408e-08,4.303264669380585e-11,2.5199270302492604e-10,5.3767303089717045,83.57022052969386,1.0187875312530217,80.35788377762394
0.06,31.22218596447235,131.01038409608267,3.0201664202003013,4.296730121134882,2.4863835723705905e-05,60.21296515808257,0.0001057204249726,3.347700952379021,590.4875390737208,1.721098934225416,0.7081674028809783,69.99999995523842,-3.0560354507026086e-10,113.70000004366592,1.8138247671743823,15.288,0,0.0,0.0050578622752421,8.328976953118383e-14,-3.2824985336199985e-07,5.923438275930214e-11,1.4991363363716091e-09,4.296730121206683,79.20467073327266,1.7211028398275985,60.305955550063224
0.07,31.22218593493329,131.01038417609837,3.038741944736831,3.8204913578752526,4.8016684030909405e-05,91.4060317508128,0.0001597686613101,3.346072557365335,855.2937749779139,2.4375792548422868,0.9844712334613328,69.99999973536046,-5.939103491363046e-10,113.7000000850886,3.6383156301599167,15.288,0,0.0,0.007163413150771,2.709313825263564e-13,-7.906546256197275e-07,7.920022733617308e-11,5.114174483651565e-09,3.820491358176508,74.87999294483174,2.437586797285377,91.46725557277466
0.08,31.222185894468456,131.01038428575305,3.0647976109320942,3.588632851766762,7.220043782492885e-05,19.18449428359557,0.0002119618497595,3.3440615022685813,241.2171988638848,3.1292508166901074,1.2522236515868983,69.99999919480445,-9.914748373602156e-10,113.7000001418522,5.996012698481753,15.288,0,0.0,0.0091960591623389,6.80386533246681e-13,-1.5973238302190878e-06,1.0839624626357699e-10,1.3263625118823921e-08,3.58863285249208,70.86684630658345,3.1292621579083604,19.473766155861934
0.09,31.22218584634549,131.01038441616095,3.0957981580345013,3.551302481506045,9.685468678862004e-05,57.102946699906326,0.0002554087225869,3.341892818148368,563.0937377043176,3.701810007254615,1.479132491047967,69.99999812344194,-1.4359264356978275e-09,113.7000002093888,8.390904013834115,15.288,0,0.0,0.010878666406854,1.440096519545733e-12,-2.748643691533636e-06,1.5214952332699618e-10,2.6999776649034504e-08,3.5513024828250237,67.68737872952666,3.701825221153239,57.20065357568538
0.1,31.222185790329306,131.01038456796124,3.1319266121977414,3.608446747536112,0.0001234669721807,54.26147302645416,0.0002914860332524,3.3396271157106168,538.7437595981919,4.174070299823608,1.6716491241860567,69.9999963052332,-1.902380107712657e-09,113.70000028805804,10.668380938744466,15.288,0,0.0,0.0122665227999911,2.687800116751415e-12,-4.315796035622946e-06,2.1749089204950437e-10,4.7802076800548326e-08,3.608446749645647,65.17160335282355,4.174089693970246,54.36414778470795
0.11,31.222185727066616,131.0103847393952,3.172681775073216,3.633547373470009,0.0001485939126744,42.987553988990406,0.0003293995000288,3.337005588796181,442.8656393052949,4.672024955140527,1.8729475711242067,69.99999349387662,-2.3433348587116544e-09,113.70000037699285,13.365573690709628,15.288,0,0.0,0.0137298902182575,4.5789425819531184e-12,-6.340230783164189e-06,3.1157625832417107e-10,7.860218435507205e-08,3.6335473765043056,62.62546922225161,4.672048296217748,43.116880735560244
0.12,31.22218565692512,131.0103849294629,3.2177790417108385,3.650108937861461,0.0001727442530266,46.86777100765684,0.000367618259785,3.334068179146888,475.58594813540446,5.17479364099247,2.0758708919414386,69.99998941286465,-2.702771525550512e-09,113.70000047573096,16.396890189902592,15.288,0,0.0,0.0152074069417046,7.288473386564583e-12,-8.86736416607888e-06,4.42271554299792e-10,1.217615295152289e-07,3.6501089419435786,60.16906436414164,5.174820775596283,46.986210423745625
0.13,31.222185580265183,131.0103851371844,3.2669395832841857,3.7280113734654137,0.0001995014041665,51.64515456841877,0.0003986198234033,3.3311573548369657,515.9156326236895,5.579364582999854,2.2451120211463422,69.99998375846928,-2.9114380666036422e-09,113.70000058383452,19.060875702782603,15.288,0,0.0,0.0163963474924215,1.100846422415094e-11,-1.1941028436408576e-05,6.179653149059831e-10,1.7678562106638216e-07,3.728011378795934,58.279338776943774,5.579395920607139,51.75247433579817
0.14,31.22218549718016,131.01038536230575,3.320091807147376,3.768719651034081,0.0002242721760019,48.1660778383537,0.0004326225136175,3.32784677779744,486.2390860568404,6.025734265159953,2.428648685938864,69.99997621008868,-2.890941335368725e-09,113.70000070125378,22.232643351545065,15.288,0,0.0,0.0177081261985351,1.5941871344608664e-11,-1.560901486259027e-05,8.477542742712431e-10,2.495765160917323e-07,3.7687196576976176,56.27980129251342,6.025769493750979,48.280903250602165
0.15,31.22218540777004,131.01038560455507,3.377159065217065,3.821894709649632,0.000249725644238,46.56959330999435,0.0004643042952466,3.324387732286376,472.54218587214,6.441023336496372,2.6014999612196745,69.99996641132823,-2.546763407193136e-09,113.70000082794672,25.402620271850456,15.288,0,0.0,0.0189285691155931,2.2314099732464315e-11,-1.992367942778425e-05,1.1417519574710292e-09,3.4051816697623295e-07,3.821894717796148,54.501255563441134,6.441062563308839,46.68809885900716
0.16,31.22218531193176,131.01038586421257,3.4382223512025254,3.8463320955387794,0.0002733212404609,36.974247749122085,0.0004987816203583,3.3205066466509234,391.1218908297564,6.895451966878468,2.7877331692857847,69.99995397923414,-1.77088415515292e-09,113.70000096417354,29.113317717489338,15.288,0,0.0,0.0202640360420561,3.0367358387834494e-11,-2.4945905791363795e-05,1.5114297685186711e-09,4.5643121540033697e-07,3.846332105235269,52.641145594326446,6.895494900078523,37.12304892183151
0.17,31.222185210004127,131.010386140357,3.503019838429153,3.8860314262554336,0.000297865039677,46.520531453299206,0.0005306403365217,3.31650761597812,471.78125980632376,7.314788342774694,2.9619016331667103,69.99993849340957,-4.3039914767238207e-10,113.70000110959404,32.761746921137856,15.288,0,0.0,0.0214963781445172,4.0366633128431416e-11,-3.0713078585132897e-05,1.96747427715988e-09,5.961228045584824e-07,3.886031437653654,51.00464968745696,7.314835131305714,46.63860064094784
0.18,31.22218510147516,131.01038643438045,3.571950002194137,3.9107265153396016,0.0003214293682635,38.895647526122765,0.0005639254295027,3.312149448254175,407.10156721191447,7.754626295791602,3.1430587898572058,69.9999195084231,1.6149322372810674e-09,113.70000126508234,36.81988229018681,15.288,0,0.0,0.0227889722876034,5.2593391349219385e-11,-3.731786027786564e-05,2.525509173087448e-09,7.6786585232224e-07,3.9107265285284982,49.36615848311875,7.754676785798701,39.036415444581515
0.19,31.222184986476247,131.0103867459258,3.644912152926752,3.920599115663931,0.0003437679584038,43.86258669386953,0.0005989384366483,3.307389681300437,448.9531328318269,8.219206165926856,3.332657190859447,69.99989653019398,4.538529095696477e-09,113.70000143063515,41.36350714675367,15.288,0,0.0,0.02415428010977,6.735860419174937e-11,-4.481243905342629e-05,3.199401151670645e-09,9.773118416308382e-07,3.92059913071168,47.71893898797248,8.21926016487149,43.987104227715655
0.2,31.222184864792144,131.01038707557822,3.722074668489528,3.943376465171875,0.000367328732016,40.28070981710589,0.0006315894240138,3.30251450988504,418.51563019916136,8.65238089736321,3.511445117640573,69.99986902534273,8.534090245934178e-09,113.7000016067622,45.83799876721736,15.288,0,0.0,0.025427299120469,8.499785987217288e-11,-5.328041996372527e-05,4.006766070954748e-09,1.2232205148646746e-06,3.9433764822533854,46.2587826635041,8.652438597225508,40.41586552155969
0.21,31.22218473678744,131.01038742234647,3.803156063113743,3.9664546506877016,0.000390962054969,38.67679184347145,0.0006636984664108,3.297405915846789,404.8187610144644,9.079179692250786,3.688002035198235,69.99983642883521,1.3827831253856693e-08,113.70000179318536,50.47126980736161,15.288,0,0.0,0.0266815841422463,1.0586558589671407e-10,-6.275155280099118e-05,4.961340042512481e-09,1.5117124669161171e-06,3.9664546699249135,44.88773728276958,9.079241104426773,38.817098210937615
0.22,31.2221846022986,131.01038778667507,3.8882846911135607,3.956175711337521,0.0004112685792646,46.713636108302936,0.0007011135033803,3.291572407481395,472.5421858721365,9.580256326712124,3.889976788904857,69.99979815126248,2.0662823443484168e-08,113.70000199039316,56.195522894218605,15.288,0,0.0,0.0281541581291438,1.3033127211465288e-10,-7.330053770532661e-05,6.0817207473359025e-09,1.8632831045819008e-06,3.956175732680424,43.35679625546934,9.580320928629488,46.8294591882524
0.23,31.222184460898035,131.01038816972698,3.977794004014759,3.9879066397329104,0.0004360962274406,38.89105719050748,0.0007308686121188,3.286096544282012,406.3406421461021,9.977039034039262,4.056142701351626,69.99975353557706,2.9316661139418326e-08,113.70000219928508,60.9462612310605,15.288,0,0.0,0.0293202403623685,1.5880617816859538e-10,-8.505067486192354e-05,7.393319440773217e-09,2.2514912291167663e-06,3.987906663538912,42.20670487756048,9.97710753587448,39.0296395118868
0.24,31.222184313516166,131.01038856897196,4.070963590490852,4.003523997322975,0.000459165577055,40.0792299321398,0.0007630441688766,3.280134925833028,416.2328240017114,10.408422364424831,4.234121060914368,69.99970190737699,4.010976417051318e-08,113.70000241888,66.32994780718496,15.288,0,0.0,0.030588009649109,1.91711512587616e-10,-9.795845222523724e-05,8.904557280909524e-09,2.7052895870113487e-06,4.003524023611085,41.011349410369874,10.408494489985014,40.21323112692186
0.25,31.22218416001652,131.01038898478134,4.167901030441617,4.0261356185860135,0.0004830526730531,41.17760020658354,0.0007934613160587,3.2740610008587527,425.36408079150686,10.816813039390448,4.4041629376391525,69.99964258149416,5.3372865854010094e-08,113.70000264972064,71.63651430352668,15.288,0,0.0,0.0317882126436337,2.2947426169209347e-10,-0.0001121037688082,1.0637152702866709e-08,3.217380562698304e-06,4.026135647516394,39.93186687113378,10.816888917126896,41.30755663120434
0.26,31.222184000702686,131.0103894163294,4.26837241014618,4.053359329950934,0.000507503069958,44.80261175215926,0.0008224724146494,3.2678597736729302,455.8015834241788,11.207047269494833,4.567925492611352,69.99957484039399,6.947299261165984e-08,113.70000289176392,76.89781807056055,15.288,0,0.0,0.0329350617559806,2.7254099134167665e-10,-0.0001275114371842,1.260720913253598e-08,3.7915697709142366e-06,4.053359361668992,38.945390435244384,11.207126987890645,44.921630958721536
0.27,31.22218383516388,131.01038986473338,4.372698316214008,4.0614460923241,0.0005296455772492,41.029837477288126,0.0008548809954683,3.2610328932384265,423.84219965987256,11.645685385842508,4.748226940060522,69.99949794024376,8.879821051920497e-08,113.70000314600205,83.0342688744587,15.288,0,0.0,0.0342241635563461,3.2137296827284217e-10,-0.0001442952656441,1.4842505534226832e-08,4.458527942364847e-06,4.061446126801262,37.8838346421185,11.645768582375233,41.15922617924542
0.28,31.222183663504484,131.01039032970942,4.48079961904222,4.081133040992532,0.0005533279247169,47.27661484082626,0.0008845140695959,3.254218495915602,476.3468732012221,12.047344998676092,4.915789434712848,69.99941106884992,1.1178948978424788e-07,113.70000341275257,88.85982357848233,15.288,0,0.0,0.0354045979054623,3.764736350660473e-10,-0.0001625146963723,1.7365685655384934e-08,5.194620655212288e-06,4.081133078439725,36.956255322213885,12.047431915223257,47.38848224631549
0.29,31.22218348566054,131.0103908114315,4.592727908358551,4.1001100265020245,0.0005770279952742,37.989969791857405,0.0009138463939581,3.247164755122801,397.97031042211177,12.446314684600782,5.082367374004485,69.99931338876085,1.3891902435864665e-07,113.70000369260468,94.8417675268915,15.288,0,0.0,0.0365771315767517,4.3836067907166327e-10,-0.0001822432988888,2.0202163500922312e-08,6.018074062137429e-06,4.100110067036654,36.07377590258778,12.446405323946324,38.12849176886316
0.3,31.222183301933686,131.01039130907952,4.708251093558373,4.112858061667493,0.0005998635114143,35.655053282557844,0.000944131403186,3.2397207148238625,378.1859457108711,12.860033399289696,5.253940723820665,69.99920403105713,1.707002607527005e-07,113.7000039856728,101.2505662360602,15.288,0,0.0,0.03779301412572,5.075709863465428e-10,-0.0002035013069687,2.3370674033523645e-08,6.94335970778e-06,4.112858105337573,35.19685285507256,12.860127625629724,35.80193592228613
0.31,31.222183112488807,131.0103918222051,4.827243246502713,4.136140889545823,0.0006242383343011,37.56633644061071,0.0009716215464757,3.232339252743767,394.1656220930212,13.2364445751808,5.4126574282679245,69.99908210036875,2.0768081583188525e-07,113.7000042923011,107.26326115439352,15.288,0,0.0,0.0388992619788015,5.846561731689753e-10,-0.0002263323252403,2.6893437641668458e-08,7.948283231812338e-06,4.1361409365698805,34.43286455705216,13.236542630309057,37.70514091683033
0.32,31.22218291741533,131.01039235056504,4.949637017503345,4.1622282001352975,0.0006491019906456,40.83513712643371,0.0009979686925508,3.224840963348891,421.55939346242695,13.59846554462374,5.566374262777002,69.99894668612772,2.504388718903276e-07,113.70000461297312,113.2095365840355,15.288,0,0.0,0.0399632243410653,6.701756367872645e-10,-0.00025078340164,3.0793566854276295e-08,9.047716714467492e-06,4.16222825066026,33.72644865222576,13.598567505326,40.96227562489027
0.33,31.222182716732533,131.01039289410716,5.075419569102976,4.187801887681037,0.0006739743721461,40.48743503284469,0.0010239291638211,3.217136801802925,418.5156301991682,13.956637761217308,5.718704299733134,69.99879684673242,2.995902922462564e-07,113.70000494831164,119.25032483364384,15.288,0,0.0,0.0410158804634189,7.647061680070125e-10,-0.0002769136723495,3.509664608790402e-08,1.0253455741189656e-05,4.187801941818244,33.053267359159875,13.956743628864118,40.61505097607
0.34,31.222182510255863,131.01039345333336,5.204736257784645,4.19642921746386,0.0006961879027693,31.814592723444047,0.0010535137542081,3.208669900766693,345.46563688075645,14.367047160772364,5.88887983533068,69.99863160305904,3.557915789971256e-07,113.70000529927128,126.36523219087664,15.288,0,0.0,0.042222056531773,8.688448410811866e-10,-0.0003048202762282,3.9835373705550826e-08,1.1618525957862828e-05,4.196429275109305,32.30947868183619,14.367156517712404,31.97598901989736
0.35,31.222182298183583,131.0103940277045,5.337435501771672,4.210915783240843,0.0007193441544952,34.813487415034444,0.0010813034848195,3.200164272309822,370.5765700527033,14.754132934586384,6.050986755458457,69.99844991734221,4.1975736284587617e-07,113.70000566632532,133.26448209504355,15.288,0,0.0,0.0433596939127697,9.832256819293898e-10,-0.0003345386312107,4.503361101379695e-08,1.309465610343774e-05,4.210915844572415,31.63649055965014,14.75424592890194,34.96026256388454
0.36,31.222182080444604,131.0103946174141,5.4735747500461605,4.22903876037745,0.0007431682866607,39.2632255716727,0.0011077666085529,3.1915717453569297,407.8625232777193,15.124417129017054,6.2072589919251575,69.99825073022951,4.922382611919288e-07,113.70000605036684,140.03566173682628,15.288,0,0.0,0.0444479595865755,1.1084921261805627e-09,-0.0003661511460057,5.0723697896912267e-08,1.4691545926915382e-05,4.229038825557203,31.017264542603208,15.124533865618538,39.39272792946638
0.37,31.22218185710795,131.01039522227452,5.613102797925907,4.249164960780052,0.0007674149135003,37.28328237034959,0.001133274451316,3.1828514669894137,391.1218908297666,15.483077353331511,6.359470679857624,69.99803294268581,5.740349991123437e-07,113.70000645214331,146.75405277514704,15.288,0,0.0,0.0455020695186381,1.245311285088233e-09,-0.0003997125883071,5.6934243389647934e-08,1.641828325195534e-05,4.2491650299519,30.439178816713017,15.483197898584232,37.418894813348615
0.38,31.2221816281124,131.0103958424523,5.756069531572451,4.260095806433531,0.0007900626414612,38.9278000801764,0.0011607546399008,3.1735466295306622,404.8187610144602,15.87126705947922,6.521735074464384,69.99779542676283,6.659911329739736e-07,113.70000687263192,154.20298254405043,15.288,0,0.0,0.0466429667223463,1.3943646956867835e-09,-0.0004353006984059,6.369875435270817e-08,1.8328108041903096e-05,4.260095879559656,29.83470194713067,15.87139116222873,39.05694584372078
0.39,31.22218139339905,131.0103964781077,5.9025231349944285,4.274091258047817,0.0008133283308351,33.320076729592266,0.0011870382950339,3.164143363712209,357.64062493382744,16.24457853509073,6.678818328235205,69.9975369905506,7.690136753559805e-07,113.70000731287368,161.54010621938565,15.288,0,0.0,0.0477401448128051,1.5563705124515804e-09,-0.0004730068442167,7.105463478762673e-08,2.0383860516746246e-05,4.274091335289374,29.274934656826048,16.244706292406182,33.46997636540994
0.4,31.22218115316572,131.01039712870306,6.0523126585892895,4.286421841403391,0.0008363022448449,31.88018820767003,0.0012133780841982,3.1544430614236454,345.465636880754,16.62063299903514,6.836764518435374,69.99725641601981,8.840594270905819e-07,113.70000777359816,169.10340080049767,15.288,0,0.0,0.0488453895716005,1.7320643186450851e-09,-0.0005128553637434,7.9027539265021e-08,2.2612406375611563e-05,4.286421922834417,28.730746964325096,16.620764365084565,32.03586915718869
0.41,31.22218090752676,131.01039779392735,6.205351877049411,4.30025870409831,0.0008595777771371,35.882550741685804,0.0012389121673015,3.1445895889870297,378.94687077668647,16.987310563534386,6.99141560549392,69.9969524610574,1.0121301778427253e-06,113.70000825570062,176.64448930727934,15.288,0,0.0,0.0499230826371405,1.922193031274436e-09,-0.0005548883906878,8.764667734700782e-08,2.5005077415911235e-05,4.300258789847355,28.21875643368965,16.987445585695873,36.020076248499606
0.42,31.222180656535848,131.0103984736348,6.36160173428776,4.322008670726048,0.0008844838439129,40.34064925656127,0.001261804338223,3.134918999355981,416.2328240017114,17.318628721060172,7.133856886815013,69.99662385300175,1.154276942054023e-06,113.70000876021427,183.59942989625057,15.288,0,0.0,0.0508968652507098,2.1275184665783874e-09,-0.0005991661829955,9.694534598491077e-08,2.752657757470936e-05,4.322008761057615,27.772396468009568,17.318767655457478,40.462275036947325
0.43,31.222180400205527,131.0103991677914,6.521055075967404,4.339436441324956,0.0009085827200945,35.541853595187746,0.0012854696362701,3.124839917627212,375.9031395134336,17.662848429084132,7.280642039343927,69.99626930133451,1.3115939750280808e-06,113.70000928827632,190.96736675963504,15.288,0,0.0,0.0519085689713619,2.3488101247838237e-09,-0.0006457514522491,1.0695800287133593e-07,3.0255957891170616e-05,4.339436536261635,27.322335771349252,17.662991148924057,35.67895714766603
0.44,31.22218013836212,131.0103998768696,6.683849332059896,4.342209064313268,0.0009296474314902,32.82948243168077,0.0013129688908547,3.113754688841357,353.0750125389216,18.063580761318697,7.446730341918701,69.99588746395321,1.4852372182848018e-06,113.7000098413532,199.7278270846888,15.288,0,0.0,0.0530863610987301,2.586862292117705e-09,-0.0006947575786514,1.1773083546077225e-07,3.329010177793299e-05,4.342209163639375,26.81344244367223,18.06372678999575,32.9768158972058
0.45,31.22217987077456,131.0104006014978,6.850166573233225,4.3420317510315165,0.0009500780330031,38.11022602597878,0.001341042003417,3.1022288449712887,397.2093853562869,18.47486275310604,7.616350301328129,69.99547690348253,1.6764536248320808e-06,113.70001042108892,208.92306716049887,15.288,0,0.0,0.0542951637545535,2.842521175226318e-09,-0.0007463379956615,1.2932090054593452e-07,3.657529369088674e-05,4.342031854775571,26.30944884471334,18.47501199101448,38.23628058998621
0.46,31.22217959739673,131.01040134180155,7.020045503401754,4.351169003849846,0.0009725797783515,44.3937050866137,0.0013660055515545,3.09098240974522,449.7140588976434,18.844323061800488,7.771531995684422,69.99503610583268,1.8865779683531e-06,113.70001102895836,217.3591612614144,15.288,0,0.0,0.0553810645782081,3.1166808800591503e-09,-0.000800596194505,1.417768495237597e-07,4.001824400409673e-05,4.351169112337076,25.873596578896564,18.844475834274814,44.50118229261506
0.47,31.22217931813738,131.01040209802923,7.193559875579052,4.358630093683735,0.0009947969928181,30.22514089990685,0.0013910994973101,3.079396422776949,331.0078106302534,19.2180591098146,7.9280875671397615,69.99456352718363,2.1170044481277104e-06,113.70001166656292,226.0625808853568,15.288,0,0.0,0.0564795377574197,3.4102493884459798e-09,-0.0008576351980594,1.551487523304888e-07,4.3718862242359527e-05,4.35863020698899,25.44665981168229,19.218215372160817,30.381603425148434
0.48,31.22217903348153,131.01040286886197,7.370336324605091,4.365514409145237,0.001016880998596,29.779838936311712,0.001416009414045,3.067527859335786,327.2031223011574,19.5915905767454,8.084483592791102,69.99405758812365,2.369198154608765e-06,113.70001233476164,234.93171707892955,15.288,0,0.0,0.057577416115756,3.7241711041759195e-09,-0.0009173883913609,1.6944871263079066e-07,4.767297940601472e-05,4.365514527349481,25.03354780044292,19.59175030803913,29.937410312943754
0.49,31.22217874361868,131.01040365378466,7.5502307795521535,4.3786401372577615,0.0010404145545081,37.2489281064929,0.0014385799934191,3.0558405437943126,389.60000969812296,19.93403005898306,8.23012235628909,69.99351671352461,2.644660619562788e-06,113.700013034871,243.21198709852868,15.288,0,0.0,0.0585839249886784,4.059374595909599e-09,-0.0009798792959512,1.8470833984680338e-07,5.180951737438081e-05,4.378640260624215,24.667474291142685,19.934193486919103,37.37406598941686
0.5,31.22217844858332,131.0104044527036,7.733219389747018,-13.500682458066338,-0.0040377540351135,38.43185714480088,0.0012141352084904,4.0406155774619466,397.97031042210494,18.561092215399285,8.366120773869401,69.99293932307316,2.9449363413826395e-06,113.70001376847225,210.85999139050588,15.288,0,6.262892444746544,0.0545491240596827,4.416673716856832e-09,-0.0010561207172611,2.6601108099191817e-05,5.199377087488984e-05,13.500683050651196,28.95883691146414,18.560457966479124,38.64368278667724
0.51,31.222178148374287,131.01040526593917,7.919236266347899,-13.211400227612188,-0.0022327603340901,29.519594556033542,0.001141647691861,4.053904655272265,323.3984349720841,18.881852298047,8.522194782906894,69.99237859167172,4.477760365644949e-05,113.70005870919144,218.20694180798017,15.288,0,6.287745068573038,0.0554919211052921,4.778376731998096e-09,-0.000886298695584,2.656945945255154e-05,4.438652796912528e-05,13.211400412927588,28.498993563012217,18.881501576873948,29.79665429221883
0.52,31.222177842686538,131.01040609395176,8.108277546306097,-12.927331785606,-0.0021582282944651,35.354749554800776,0.001163373829254,4.067708633764062,372.0984511843415,19.211893009664674,8.680720792944365,69.99191604267943,8.65615271468122e-05,113.7001036057014,225.89769840492465,15.288,0,6.312507066626994,0.0564619989543441,5.0764966738575215e-09,-0.0007130629786466,2.653972022976814e-05,3.63342862746544e-05,12.927331962697457,28.039456401912336,19.211553995957026,35.58798351923473
0.53,31.222177531384748,131.01040693713898,8.30045455799397,-12.654627483951128,-0.00208590890517,37.09409454869336,0.0011848239566759,4.08141838932379,386.5562464348624,19.538732052495806,8.838067084017986,69.99155369779105,0.0001282971796241,113.70014845871786,233.64485795505144,15.288,0,6.337182541058707,0.0574226735402082,5.3098698998648155e-09,-0.0005362492963261,2.6509671591521137e-05,2.7789048941911184e-05,12.654627653060636,27.597100836552958,19.53840439869125,37.317955837102346
0.54,31.22217721436649,131.01040779577914,8.495843590334326,-12.391589213722346,-0.0020154850866775,32.637626685448375,0.001206084995548,4.095104135811044,349.2703242098436,19.86397643712573,8.99480950182556,69.99129362125349,0.0001699846879639,113.70019326853004,241.4836368622593,15.288,0,6.361789524584329,0.0583786678319344,5.4773189424557405e-09,-0.0003557505022564,2.647931987800912e-05,1.8741922445157072e-05,12.391589375067523,27.169084098405765,19.863659845468707,32.89353363499382
0.55,31.222176891902908,131.0104086691345,8.694231272487887,-12.14124300281307,-0.0019474582584679,34.55916100315438,0.0012268366725549,4.108529386023439,365.2500005919907,20.18168151224865,9.148863476207186,69.99113786392225,0.0002116242427495,113.70023803496522,249.2652561607372,15.288,0,6.3862993280207885,0.0593125108569598,5.577707147742154e-09,-0.0001718194001231,2.644873162969205e-05,9.196523749480709e-06,12.141243156654664,26.761819260871384,20.18137560622081,34.80252324850733
0.56,31.222176563991244,131.01040955721223,8.895616868831283,-11.905401816140571,-0.0018820663750303,32.28689255398297,0.0012468325066168,4.1215110108276845,346.2265619465787,20.48725013583392,9.29863291313261,69.99108840237913,0.0002532161171029,113.70028275832688,256.86562791019526,15.288,0,6.410711641850432,0.0602106918602746,5.609941711467817e-09,1.5563078201960153e-05,2.6417928463295387e-05,-8.455998971237258e-07,11.905401962756688,26.37944708685517,20.486954501539103,32.54889069322342
0.57,31.222176230699528,131.0104104598271,9.099944882395372,-11.67134034223564,-0.0018173053787037,31.928713222134576,0.0012671708936626,4.134849408238153,343.1828296833023,20.80108301738189,9.45125673005343,69.99114718310688,0.0002947606512814,113.70032743888991,264.79027307106674,15.288,0,6.435015874063479,0.0611331671445237,5.572966088685171e-09,0.0002063271270179,2.6386946985236888e-05,-1.1382024316825928e-05,11.671340481756523,25.99734002349673,20.800797555720585,32.195336762578535
0.58,31.22217589200281,131.01041137704672,9.307232026001197,-11.431469033815228,-0.0017520460204269,41.881752491915655,0.0012886075076383,4.149108908363708,426.1250058573153,21.13736985112956,9.611684403975008,69.99131614822039,0.0003362582395864,113.7003720771185,273.4156576602006,15.288,0,6.45921209735235,0.0621216397607796,5.465732743224808e-09,0.0004004965782847,2.6355809406220227e-05,-2.2450103267135908e-05,11.43146916629277,25.60028474469832,21.13709464038428,42.08677105918267
0.59,31.22217554750109,131.01041230995844,9.517785704352669,-11.213980713339314,-0.0016905077579155,34.04128963752016,0.0013083895498521,4.162278779368806,360.68438819711065,21.444810465773287,9.762019982157128,69.99159738266717,0.0003777092691134,113.70041667400106,281.4214084924339,15.288,0,6.483330925116157,0.0630253415745517,5.287092136407829e-09,0.0005985021751913,2.632447665324324e-05,-3.40367238604164e-05,11.213980839130125,25.24485284834657,21.44454492143567,34.294809615080304
0.6,31.222175197399103,131.0104132580052,9.731444404970116,-10.981359160010316,-0.0016271007437732,30.305018532891303,0.0013302355329198,4.1770939803176015,329.4859594986058,21.79299282597792,9.926535986306176,69.99199297743174,0.0004191141912978,113.700461229737,290.6280644395031,15.288,0,6.507350186403537,0.0640487883830294,5.035941636342597e-09,0.0008001300884873,2.629301165595535e-05,-4.6241123113935326e-05,10.981359279073915,24.85564795939836,21.79273724159079,30.59153909447541
0.61,31.2221748416454,131.01041422132667,9.948245310941024,-10.75238491843657,-0.0015646663760408,35.42632167098988,0.0013523146638094,4.192222061534126,372.0984511843297,22.14780179978728,10.093321921524312,69.99250506017094,0.0004604735019063,113.70050574493628,300.16220928885457,15.288,0,6.531277834072075,0.0650917178487675,4.7111514512902995e-09,0.001005445408603,2.6261434909913216e-05,-5.905150601780485e-05,10.75238503094062,24.470404823447108,22.1475560225677,35.67350550168031
0.62,31.22217448034828,131.010415199628,10.168101724287244,-10.561601590679947,-0.0015080969061693,43.93059749500879,0.0013707693619267,4.2048003491291,442.86563930529206,22.43657105886908,10.23708414389882,69.99313579166851,0.0005017877498564,113.7005502200388,308.0339310384175,15.288,0,6.555124238882072,0.065940565495921,4.311589267020899e-09,0.0012143922432086,2.622978599822804e-05,-7.225171423261555e-05,10.561601697128618,24.160792874906782,22.436334167561043,44.13136916212228
0.63,31.22217411332448,131.0104161934073,10.391153433921655,-10.366148080869772,-0.0014511823850948,25.11185993431932,0.0013901424838015,4.218178746062235,286.11251274707894,22.744784719410088,10.387605166534287,69.99388719497917,0.000543057598036,113.70059465601943,316.5482718803403,15.288,0,6.578844154972436,0.0668465665536522,3.836217512494163e-09,0.0014271178401893,2.6198076200447816e-05,-8.607262529929616e-05,10.366148181336293,23.839272811516324,22.74455676821411,25.46367104773189
0.64,31.222173741141443,131.01041720112127,10.616957969035036,-10.160749778189624,-0.0013933195793878,24.65833513389761,0.0014111478381952,4.23290478094054,282.30782441796754,23.08608360117601,10.549595572949748,69.99476128906403,0.0005842837836111,113.70063905286736,326.112463376388,15.288,0,6.602461751331186,0.0678498114710112,3.284041374740565e-09,0.0016430255865225,2.616642310022425e-05,-0.0001005792881615,10.160749872717387,23.494263549974885,23.085864739048297,25.01901229967835
0.65,31.222173363776967,131.01041822283003,10.845530453596709,-9.982889403731056,-0.0013396098155646,43.227622333609226,0.0014293331803236,4.24565316495663,436.7781447787475,23.37615333372693,10.693747273158795,69.9957599960228,0.0006254671366419,113.70068341150689,334.3516195785254,15.288,0,6.62594260435468,0.0687025012101785,2.654109754880279e-09,0.0018621814222682,2.6134848309668385e-05,-0.0001154248905925,9.982889492701185,23.204867037069757,23.375942908309185,43.4356179357132
0.66,31.22217298073403,131.01041925988494,11.077254484177296,-9.804086659620443,-0.0012860862232838,36.83246148444296,0.0014480057768407,4.258897815008846,383.51251517160017,23.6777158120803,10.841884641491852,69.99688523724977,0.0006666085458107,113.70072773359811,343.0261904518888,15.288,0,6.649317767434496,0.0695889750820322,1.945478959151253e-09,0.0020850854008525,2.6103317010450656e-05,-0.0001309056591893,9.804086743148998,22.91141473330498,23.67751379412877,37.07786983765899
0.67,31.22217259218941,131.010420311805,11.31199075003978,-9.617196678628064,-0.0012318860650259,25.491359619819924,0.001468131969692,4.273379673202303,289.1562440103425,24.00933343927382,11.000435855973867,69.99813909235102,0.0007077089214117,113.70077201986844,352.694014563307,15.288,0,6.672612404896639,0.0705637885142602,1.157137660192655e-09,0.0023115488022318,2.6071891045393857e-05,-0.0001471526715876,9.617196756783123,22.598282534392485,24.00913993506324,25.847073166100177
0.68,31.22217219830349,131.0104213781539,11.549612823916592,-9.438302606151716,-0.0011791377320237,31.71985494944557,0.0014876679065947,4.2875582230672205,340.8999924858462,24.33212328962117,11.155891317202192,69.99952360115502,0.0007487692582213,113.70081627115847,362.2329811413848,15.288,0,6.6957550825725765,0.0715126644019777,2.8810799182981496e-10,0.0025414266339937,2.6040625593326187e-05,-0.0001639580168611,9.438302679139762,22.300165604728143,24.33193807109936,32.008316977673374
0.69,31.222171799149937,131.01042245873097,11.79006167341585,-9.275229638581209,-0.0011287330602267,38.95919258299246,0.0015054822419543,4.300569098341417,401.0140726853634,24.624357501317537,11.300727190323752,70.00104073059181,0.000789790645808,113.70086048853253,370.9776629562984,15.288,0,6.71878535029954,0.0723717437272275,-6.625311346193468e-10,0.0027746367996682,2.600956734167987e-05,-0.0001811490635182,9.27522970665983,22.03432991810063,24.62418020034305,39.19583630380631
0.7,31.222171394591992,131.01042355390803,12.033441792470752,-9.115074000590676,-0.0010790126932841,32.736972420752984,0.0015232387052699,4.313676482776136,349.27032420985284,24.91787862175605,11.445995093985688,70.00269238549315,0.0008307742619035,113.70090467344716,379.865565938014,15.288,0,6.741725196603225,0.0732346124103848,-1.695646127008359e-09,0.0030113180323962,2.597873655081228e-05,-0.0001989402155621,9.115074063915984,21.77299107949357,24.917709130838546,33.01995109620021
0.71,31.22217098467785,131.01042466355372,12.279714140978347,-8.950862556990698,-0.0010291972894564,26.969203127167777,0.0015419132725518,4.327624407376393,301.33126406340574,25.23156895645453,11.598224152763848,70.00448050970616,0.0008717213476167,113.70094882716404,389.4807863429019,15.288,0,6.764510842137016,0.0741567665186611,-2.812115354461482e-09,0.0032514059488729,2.594818019141532e-05,-0.0002175004076913,8.950862615678654,21.501002646540197,25.231407290522355,27.314213382472737
0.72,31.222170569405325,131.01042578767382,12.52887883354136,-8.78154725413007,-0.000979223518885,32.93073157268519,0.0015617476239787,4.342622896792199,350.79220534145287,25.570306264213688,11.7590930789395,70.00640707575684,0.0009126332108446,113.7009929510872,399.9990801368704,15.288,0,6.787187890618355,0.0751525426391952,-4.012821893153159e-09,0.0034949153875036,2.591793638595732e-05,-0.000236922783697,8.781547308298174,21.2155739394456,25.57015244814304,33.215831435853666
0.73,31.222170148767013,131.01042692628823,12.78093996230719,-8.635998306642243,-0.0009322593664041,41.55439704370144,0.0015784059802295,4.35533447172458,422.320318528234,25.85023454822347,11.899592265304912,70.00847409166693,0.000953518954373,113.701037057737,408.7950201224392,15.288,0,6.80977402844958,0.0759754833861224,-5.298674044163273e-09,0.0037418874079031,2.588804167582964e-05,-0.000256435957672,8.635998356579519,20.981341337387807,25.85008810926464,41.78201592213498
0.74,31.22216972269701,131.01042807957597,13.035947381118936,-8.486834273162938,-0.0008852442474358,26.15256201384384,0.0015959100739157,4.368840902337902,294.48281347105944,26.14919897609577,12.046656866747425,70.01068354055111,0.0009943645905682,113.7010811267023,418.2950881908429,15.288,0,6.83223498015059,0.0768543799654667,-6.6704931865148355e-09,0.003992348363054,2.585853634559427e-05,-0.0002767578212266,8.486834318993829,20.737445279761545,26.14905992225456,26.51496319561499
0.75,31.22216929154409,131.01042924658853,13.293629072567343,-8.336510637485874,-0.0008385184507374,30.46728047770077,0.001613924330853,4.382895475646074,330.24688556441487,26.46080034389099,12.198052049229169,70.01303728779506,0.001035179424672,113.70112517021371,428.3129351141568,15.288,0,6.854547098488458,0.0777704249329944,-8.129095282858348e-09,0.0042459020328688,2.582950587884332e-05,-0.0002978346909448,8.336510679358561,20.489301169240974,26.46066862972076,30.780918684504478
0.76,31.222168855195555,131.01043042763214,13.554071389923516,-8.19587983772157,-0.0007931419155305,32.76526142084417,0.001630693994246,4.396135946175199,349.27032420986166,26.750892418498065,12.34198678134304,70.01553718343226,0.0010759651158755,113.70116919020523,437.7447297637936,15.288,0,6.876752854764963,0.0786232599461902,-9.67522518981702e-09,0.0045026914656782,2.580097783854876e-05,-0.0003193022202799,8.195879875836953,20.261627230574263,26.750767832057317,33.058862199003094
0.77,31.222168413590943,131.01043162287104,13.8173202531698,-8.059522848411456,-0.0007485210410042,30.657805707683814,0.0016470334753865,4.409196578120683,331.7687666960708,27.03533299818596,12.48394568789566,70.01818507898685,0.0011167234061903,113.70121318862468,447.09194315451833,15.288,0,6.898854693806838,0.0794594921913338,-1.1309616101081893e-08,0.0047627787278231,2.5772990971924846e-05,-0.0003413285562173,8.059522882941014,20.04228695873752,27.035215420775792,30.973247617699382
0.78,31.2221679667897,131.0104328321435,14.08332858748132,-7.91996004065377,-0.0007039790353559,25.243096060108016,0.0016641922180177,4.423053254646013,286.8734378128899,27.3387205131562,12.632410715957624,70.0209827704948,0.0011574638505967,113.70125717837055,457.1709995183938,15.288,0,6.9208107373921015,0.0803514189704608,-1.3032984434832756e-08,0.0050260688653809,2.574560076447184e-05,-0.0003642302575521,7.919960071741462,19.81412031528857,27.338609932387914,25.627666721003127
0.79,31.22216751487431,131.010434055225,14.352031443311088,-7.7798519808957955,-0.0006598027743716,35.71723478729539,0.0016817602822308,4.437401674850729,373.6203323159534,27.653167731489507,12.78464973366028,70.02393216903161,0.0011981729241964,113.70130113932764,467.7360803239188,15.288,0,6.942634827637276,0.0812758593216679,-1.4846057176896845e-08,0.0052924652040515,2.5718862721506488e-05,-0.0003879369020923,7.7798520087023295,19.583098547912098,27.65306408991207,35.991824034120164
0.8,31.2221670576236,131.0104352927168,14.623599800297272,-7.653006118263529,-0.0006171042687344,36.18122961315037,0.0016972370360115,4.450262779854657,377.42502064505743,27.92936239728592,12.923670936620333,70.02703512601208,0.0012388603434037,113.70134508496356,477.11361766107177,15.288,0,6.964362667128079,0.0820878789142634,-1.6749511070820333e-08,0.0055622512765853,2.5692800407953896e-05,-0.0004117735943712,7.653006142995651,19.381777445595947,27.929265462774065,36.453891671670426
0.81,31.222166595134464,131.01043654435543,14.897957726339728,-7.521754719371213,-0.0005744068119775,23.68501963035264,0.0017137742889686,4.464132221644652,273.9374926939919,28.229611268915374,13.070950589304788,70.03029344249873,0.0012795359981791,113.7013890285018,487.41413838826105,15.288,0,6.985983185201504,0.0829706046222093,-1.8744034355155607e-08,0.0058352672122211,2.5667478786012603e-05,-0.0004366174320976,7.521754741177688,19.168612269975576,28.22952104130434,24.102046268305482
0.82,31.22216612758825,131.01043780964753,15.174963685759613,-7.390195736426405,-0.0005320961992586,30.306072610100856,0.0017306595283105,4.478461474423973,328.72500443277005,28.53996377104852,13.221665245511208,70.03370900207716,0.0013201865126647,113.70143294979977,498.17692613300574,15.288,0,7.007486143866689,0.0838830343158696,-2.0830317138493745e-08,0.0061112936869222,2.5642966266743782e-05,-0.0004622856834698,7.390195755475624,18.95319076252786,28.53988018957299,30.635186587024197
0.83,31.222165654964776,131.01043908864787,15.454632835436156,-7.2730922649642045,-0.0004911925221413,38.40232065932676,0.0017449836111569,4.4908927079988095,395.68750322465047,28.802460720230627,13.355858617473842,70.03728353131457,0.001360829707384,113.70147687349416,507.369428438239,15.288,0,7.02883533799963,0.084654817505087,-2.300896538513556e-08,0.0063903764573658,2.5619310405444115e-05,-0.0004878297066996,7.273092281461513,18.77140253770643,28.802383563889677,38.66401883381343
0.84,31.222165177156327,131.01044038164926,15.737048660744897,-7.155534870499564,-0.0004505722871608,23.870970141049305,0.0017595829006357,4.503705766669707,275.4593748256452,29.07360249898068,13.492995111283804,70.04101880939999,0.0014014525158501,113.70152078022184,516.9529605629614,15.288,0,7.050076850493448,0.0854520167644932,-2.5280522471592224e-08,0.0066725978658751,2.559655913980752e-05,-0.0005141551955187,7.1555348846116384,18.58737511573861,29.07353172325132,24.292109505016924
0.85,31.222164694450125,131.01044168787055,16.021987628179605,-7.030323241918498,-0.0004098656097596,25.98819379926819,0.001775961058915,4.518140349306547,292.96093233939376,29.38373342656609,13.643492635147922,70.04491642896538,0.0014420729065149,113.70156469431268,528.0261078973429,15.288,0,7.071193679204244,0.0863638193390854,-2.7645573373884152e-08,0.0069575806840887,2.5574791786456613e-05,-0.0005418184261568,7.03032325380597,18.383322150039284,29.38366904502666,26.378017596445552
0.86,31.22216420667129,131.01044300778725,16.30958554496687,-6.914352862282652,-0.0003700843602191,32.43311247988173,0.0017906715687725,4.531398502770817,346.2265619465587,29.663774207846227,13.783594407984587,70.0489781990305,0.0014826780384339,113.70160859675204,538.123878695178,15.288,0,7.092200423798007,0.087187190021076,-3.0104618091531606e-08,0.0072455664088204,2.5554047287519288e-05,-0.0005696069719273,6.914352872138709,18.200665624724824,29.663716075130864,32.74813522523196
0.87,31.22216371384051,131.010444341343,16.599826298958806,-6.803560156290905,-0.0003309205729316,30.225767976498023,0.0018044704406434,4.544083300140303,327.964078366998,29.928805704527,13.918493006558668,70.05320572560272,0.0015232863868409,113.70165251289453,547.7673198231721,15.288,0,7.113096098353361,0.0879664535292525,-3.265814860796206e-08,0.0075365098780117,2.553438580789346e-05,-0.0005977562176748,6.803560164300943,18.029718444905665,29.92875372364496,30.565433843867176
0.88,31.22216321599,131.01044568845015,16.892684925163707,-6.68995880536662,-0.0002919719640449,26.174951368394662,0.0018190575863169,4.557595621069272,294.4828134710418,30.21329235325224,14.060026861481752,70.05760068306392,0.0015638927546363,113.70169643425912,558.2146574154538,15.288,0,7.133875776412062,0.0888029073454879,-3.5306648684576144e-08,0.0078303193860926,2.5515870855628457e-05,-0.0006269454535801,6.689958811708972,17.850606233970336,30.21324649040337,26.568774158624365
0.89,31.2221627131972,131.01044704889796,17.188101312712515,-6.5737815627245055,-0.000253314700398,28.663386660520743,0.0018344257776161,4.571937587767008,315.028134248087,30.51736065120324,14.2082241944403,70.0621647370713,0.0016044919762069,113.7017403523094,569.4908469346959,15.288,0,7.154516005111057,0.089696923851804,-3.80505877403823e-08,0.0081269002384735,2.549856616306316e-05,-0.0006572215642851,6.573781567583689,17.663781759988467,30.51732086062315,29.02571879423614
0.9,31.22216220538512,131.01044842289582,17.486135578306047,-6.470478152817561,-0.0002155127832532,31.61387739121613,0.0018470568923298,4.584191199202432,339.37814235421445,30.769279154273427,14.338466706565072,70.06689948828327,0.0016451029440978,113.70178429300904,578.9152911286507,15.288,0,7.175040778434815,0.0904376692941432,-4.0890367982511e-08,0.0084263544948552,2.548252805538128e-05,-0.0006870439549821,6.470478156391374,17.508539790766513,30.769245301604595,31.94451527366334
0.91,31.22216169262076,131.01044981026143,17.786736018511444,-6.364414181655008,-0.0001779503466067,24.14846448602083,0.0018604647308719,4.5972711215204285,277.7421810230789,31.04075450672575,14.4753662448596,70.07180650609182,0.001685721125559,113.70182824865456,589.1588110858245,15.288,0,7.195451916573949,0.0912359044301099,-4.382638634241911e-08,0.0087285520295039,2.5467824865717884e-05,-0.0007179420834074,6.364414184132511,17.34522049064363,31.04072655435067,24.58217326150607
0.92,31.222161175099902,131.0104512104625,18.089750664024464,-6.255869307467544,-0.0001407092147661,28.666860670378647,0.0018746337359077,4.611177075194968,315.02813424806214,31.331728459326072,14.618884056416457,70.07688731130722,0.001726349657985,113.7018722222603,600.2385827971859,15.288,0,7.215739835266506,0.0920914585477107,-4.6859077163274095e-08,0.0090332100057466,2.5454528145910565e-05,-0.0007499438688616,6.255869309043666,17.17433885242759,31.3317063567743,29.035355314305303
0.93,31.22216065273124,131.01045262374708,18.39525117851124,-6.158560515904242,-0.0001040722270851,34.01783004719759,0.0018862275583155,4.623094378919664,359.1625070654728,31.57343825125597,14.745451704719944,70.08214340301318,0.0017669925865978,113.70191621850051,609.5175473230217,15.288,0,7.235915054670195,0.0928022214504001,-4.998868758996405e-08,0.0093404666203575,2.544269712522268e-05,-0.0007814118733068,6.15856051678018,17.031675003584983,31.57342190362877,34.330536936003085
0.94,31.22216012540508,131.0104540504136,18.70332392175527,-6.054192326652643,-6.765505687944134e-05,24.79321812045568,0.0018996880069141,4.636783061263407,283.0687504837787,31.857747368631312,14.886555516948782,70.08757620313962,0.0018076525850434,113.7019602400768,620.5256459157001,15.288,0,7.255977409781613,0.0936382024616852,-5.321543640647785e-08,0.0096503785795329,2.543239783126049e-05,-0.0008145844589199,6.054192327029241,16.869484134926694,31.85773674139983,25.223073276952704
0.95,31.22215959340298,131.01045548969637,19.013750121541623,-5.952621582400504,-3.166819445836311e-05,31.991925646316908,0.0019126018462577,4.650200599896524,342.4218736174873,32.1348300855275,15.025106368595337,70.0931871954077,0.0018483331397207,113.70200429024771,631.3478048911081,15.288,0,7.275918905517303,0.0944529514506789,-5.6539737750821705e-08,0.0099625983690592,2.542370274341432e-05,-0.0008482275762963,5.952621582484496,16.713559243647552,32.13482511109915,32.328125151898206
0.96,31.2221590564356,131.0104569423822,19.326756333930224,-5.857134776520081,3.9422524121109775e-06,31.347201580318355,0.0019240668715967,4.66257559586223,337.09533515678345,32.38583593148476,15.154665841575548,70.09897780199775,0.0018890388156042,113.70204837457644,641.2299898701874,15.288,0,7.2957552738188465,0.0951910616791941,-5.996164089503434e-08,0.0102774792206773,2.5416677281534687e-05,-0.0008818453308601,5.85713477652142,16.57286727597733,32.38583655073232,31.692059917371683
0.97,31.22215851452057,131.01045840842306,19.642329835609736,-5.76084896624287,3.922174503806238e-05,20.174370076371915,0.0019358390870127,4.675413397611677,245.02188719299323,32.64748092660916,15.287800813568715,70.1049494350686,0.0019297807809405,113.70209250755325,651.6130801047318,15.288,0,7.315484646665839,0.095960451458569,-6.348137850861396e-08,0.0105949599091999,2.5411395897855783e-05,-0.000916403063512,5.760848966375874,16.429087600696274,32.647487087546466,20.70904879912282
0.98,31.22215796793798,131.01045988705744,19.960253208716143,-5.6584228787434325,7.405074669745797e-05,29.22509286041885,0.0019494057083194,4.690018842191645,319.5937466429581,32.95136337125125,15.435295562794652,70.11110355824985,0.0019705478127844,113.70213667133048,663.7796828358439,15.288,0,7.335093735452382,0.0968539978899701,-6.709934740254227e-08,0.0109146239086601,2.5407930853586505e-05,-0.0009528102938269,5.658422879226376,16.26748961365155,32.95137500311534,29.59902588330231
0.99,31.22215741654104,131.01046137868445,20.28064208015171,-5.570217190614364,0.0001087000886866,31.905056094362955,0.0019591797409193,4.701514577480865,341.6609485517054,33.1795846706406,15.556847322244217,70.11744155647528,0.002011350785993,113.70218088011713,672.9854969174476,15.288,0,7.354597539376293,0.0975251617173036,-7.08155739128998e-08,0.0112367008889884,2.5406356993929142e-05,-0.0009876900488374,5.570217191671634,16.143830917666772,33.179601745210604,32.249602285068526
1.0,31.2221568603272,131.01046288331105,20.60349995599177,-5.476077136397336,0.0001429053167429,28.57881060382625,0.0019706824368478,4.714730847116976,314.2672081822764,33.448937722501405,15.692379176152452,70.12396462203431,0.0020522036795837,113.70222515229308,683.9352799803654,15.288,0,7.373990234961955,0.0983172326414436,-7.463016070453515e-08,0.011561092053898,2.540675126469048e-05,-0.0010244213809329,5.476077138256274,16.00290658193755,33.448960170016065,28.965101525348004
1.01,31.22215629947065,131.01046440046355,20.928692131835465,-5.38451246786401,0.0001767998137147,29.873148566172773,0.0019815450381973,4.727585927413903,324.9203161036979,33.70931447896292,15.824756900865337,70.13067414864624,0.0020930939811547,113.70226946818195,694.6029503113574,15.288,0,7.393269156361964,0.0990829276202262,-7.854332835133974e-08,0.0118875679732809,2.5409186349765893e-05,-0.0010615166589654,5.3845124707580405,15.868164262048673,33.70934225061272,30.244918215862864
1.02,31.2221557338958,131.01046593034755,21.25627925373552,-5.296072933585002,0.0002104457756789,24.972047860455024,0.0019915659068271,4.739896632159506,284.59063161540416,33.95637081224829,15.952502854154536,70.13757127833885,0.0021340414511402,113.70231385440093,704.7996059055014,15.288,0,7.412439120265474,0.0998094776033251,-8.25550309725882e-08,0.0122161907735629,2.5413742931419145e-05,-0.0010988218562975,5.296072937754315,15.741304411935166,33.95640386899343,25.417903107745694
1.03,31.22215516366793,131.0104674727857,21.586212013526428,-5.204217275662382,0.0002435831431038,20.43817756474338,0.002002680360915,4.753389786832198,247.30469339049705,34.231822083378795,16.089845742982583,70.14465719039083,0.0021750445980844,113.70235830703665,716.2578377250957,15.288,0,7.431496729638829,0.1006194984403258,-8.666532346767404e-08,0.0125468172595276,2.542049777740935e-05,-0.0011376797859115,5.2042172813471215,15.6037694959249,34.23186034532944,20.98365603616941
1.04,31.22215458884543,131.01046902761925,21.918446424735144,-5.118069734109829,0.0002766100027589,32.37208451141,0.002012135137553,4.76560788359722,345.46563688072297,34.47639819842042,16.216562815271672,70.15193309329177,0.0022161067116049,113.70240282893968,726.5061117523296,15.288,0,7.450444793814658,0.1013387745409855,-9.087422522511029e-08,0.0128793657460061,2.542952926859741e-05,-0.0011761398321717,5.118069741564698,15.48162798291396,34.47644164821805,32.720985287163394
1.05,31.22215400915277,131.0104705955974,22.253199985208383,-5.029478718586992,0.0003091522080192,19.60022247527173,0.0020224028247937,4.778781470811393,240.45625879819983,34.74375547922683,16.350958709889074,70.1594001029215,0.0022572325228148,113.70244742543956,737.7938854610003,15.288,0,7.469293857644884,0.1021250213890116,-9.518142031917505e-08,0.0132141475386908,2.5440940113414545e-05,-0.0012160307054171,5.029478728064071,15.351470245613331,34.743804040742106,20.174376756569966
1.06,31.22215342481756,131.01047217610144,22.590296515628143,-4.939119412644214,0.00034117056807,27.83707454639864,0.0020333207830582,4.792791888900116,308.17968365593924,35.03074621866823,16.491938825295865,70.16705940691133,0.002298428710045,113.70249210385644,750.0086071252954,15.288,0,7.488035974649925,0.1029689872702761,-9.958709944733225e-08,0.0135508147500118,2.545480128147137e-05,-0.0012572723507257,4.939119424398212,15.215027328559934,35.03079980961574,28.246656041493747
1.07,31.222152835727364,131.01047376943703,22.9298259089052,-4.8569764392463215,0.0003733776661265,32.74459392624728,0.0020416478392002,4.8046613893572045,348.5093681440308,35.26638072640394,16.615332476887197,70.1749122146972,0.0023397006212573,113.70253687003483,760.1076265309562,15.288,0,7.506682026414355,0.103662005907179,-1.0409104944743205e-07,0.0138895315025861,2.5471214154601696e-05,-0.0012973253172636,4.856976453563534,15.10183128940828,35.26643937643058,33.09521425568259
1.08,31.222152241785075,131.0104753758685,23.27186653768248,-4.774475515673353,0.0004052300292629,22.092519752746338,0.002050104530665,4.8168825231108325,261.00157857466235,35.510273145647346,16.741447311725135,70.18295961721486,0.0023810537414637,113.70258172994208,770.6320447973486,15.288,0,7.525233275953439,0.104379306213695,-1.0869307257108462e-07,0.014230345586134,2.5490280264376568e-05,-0.0013383065277221,4.774475532830291,14.986745923591137,35.51033679903149,22.611541090112947
1.09,31.222151643254502,131.01047699467844,23.61621395590633,-4.685910605612982,0.0004361579245439,20.329290998637155,0.0020606556665317,4.831291906079503,246.54375332474407,35.80635224607698,16.88520323182117,70.19120270123655,0.0024224896692896,113.70262668343928,783.5105219380109,15.288,0,7.543678817172432,0.1052500135232514,-1.1339335816409601e-07,0.0145728272300293,2.5512063725565544e-05,-0.0013818969790456,4.685910625866239,14.852332983922476,35.80642075760356,20.89548894463398
1.1,31.222151040208043,131.01047862567006,23.962813616555085,-4.602259270742216,0.0004670988597011,40.62457247090684,0.0020696046851624,4.844461403936388,413.1890617385841,36.072826509977695,17.018771672800973,70.19964245052884,0.0024640264062215,113.70267175393955,795.1893612468865,15.288,0,7.562022338250018,0.1060337088222729,-1.181917526715359e-07,0.0149168826317751,2.55366515733166e-05,-0.0014250022779659,4.602259294394966,14.731689340237669,36.072899881695,40.91240275297278
1.11,31.222150432260733,131.01048026989045,24.311969926881325,-4.526913732985664,0.0004985530721778,29.779599753768373,0.0020756476830782,4.855132965567774,324.1593910376397,36.28006989150155,17.132117312679853,70.20827998443357,0.0025056533253342,113.7027169246982,804.3255775138657,15.288,0,7.580281463992826,0.1066433073534165,-1.2308756372247638e-07,0.0152630140736146,2.556419515651276e-05,-0.0014663956616263,4.526913760381564,14.635753761822242,36.280148204034994,30.172783794610293
1.12,31.222149819472914,131.0104819271756,24.66363842569625,-4.4393163232499,0.0005282784088672,11.324230640892878,0.0020860706966765,4.870229896778107,172.73281794065943,36.59217322077514,17.280972242603333,70.217116146229,0.0025473940213382,113.70276222697672,818.1960627196237,15.288,0,7.59844827967953,0.1075611451109552,-1.2808068100932096e-07,0.0156110202351253,2.559478706613544e-05,-0.0015126817481478,4.43931635461945,14.50075437569896,36.59225620255356,12.327097923165022
1.13,31.222149202408755,131.01048359599133,25.01737845144988,-4.360009726584305,0.0005585199524226,35.06573984411801,0.0020935506997044,4.88277844589182,367.5328077900705,36.84417359063977,17.409285339871825,70.22615213292876,0.0025892366719695,113.70280764083138,829.4760706351752,15.288,0,7.616510766898264,0.1083023218794919,-1.3317161137257706e-07,0.015960133107056,2.562844449574517e-05,-0.0015571076876684,4.360009762288646,14.390580104887055,36.844261322748736,35.4040624865281
1.14,31.22214858043649,131.0104852780559,25.37368914795222,-4.2865922873808415,0.0005891918039705,19.478232215405743,0.0020988151534767,4.893448460868405,239.69531773195544,37.051986085520646,17.522507248494893,70.2353886483926,0.0026312068832537,113.702853201234,838.830749646089,15.288,0,7.634493011158199,0.1089136183008384,-1.383590779148099e-07,0.0163111785603289,2.5665378254812627e-05,-0.0016002774667649,4.286592327797473,14.29831776299763,37.05207863555279,20.083509964183815
1.15,31.22214795402072,131.01048697210595,25.732208573773853,-4.201337354997042,0.0006178188178631,19.195563799114776,0.0021085588817483,4.9087290542645166,237.41251153546767,37.36909237472759,17.6726599977309,70.24482650666488,0.0026732966795993,113.70289889377015,853.2209307372513,15.288,0,7.652373205613576,0.1098461907288907,-1.4364349106295413e-07,0.0166633722164211,2.570560381680992e-05,-0.0016487657013971,4.201337400341627,14.167005362087014,37.36918942148056,19.813260583258042
1.16,31.2221473232924,131.0104886777854,26.09283626564024,-4.130883692764538,0.0006481998820095,50.01424599160089,0.00211261244378,4.918717915773708,490.0437743845894,37.561852288344646,17.780535546372413,70.25446660998907,0.0027155151307324,113.70294472863382,862.0160609034788,15.288,0,7.670159045747914,0.1104132565350938,-1.49024542278391e-07,0.017016588459007,2.5749210439734608e-05,-0.0016923412908418,4.13088374353271,14.082725524416096,37.561954107344015,50.25553295415789
1.17,31.2221466874242,131.01049039734468,26.456226680590024,-4.05475376198267,0.0006773909834816,8.973447046275972,0.0021188199324032,4.9310907609383285,153.70937929486794,37.8112874471762,17.907513710835936,70.26430956942512,0.0027578718242771,113.70299071809184,873.4722792516819,15.288,0,7.687874134728075,0.1111469282749025,-1.5450053221581869e-07,0.0173718786398106,2.5796483266301632e-05,-0.0017390879516216,4.054753818470976,13.979074353377076,37.81139385150306,10.239063066234538
1.18,31.222146047509565,131.01049212780995,26.821522331134062,-3.9710896522573127,0.0007048135539397,24.385342004928525,0.0021280840353131,4.946788690329076,280.02501822196746,38.13955156357592,18.061013485166363,70.27435606997705,0.0028003831412974,113.703036881227,888.6732789416976,15.288,0,7.705478688904289,0.1121123284685684,-1.6007286780926153e-07,0.0177275749814867,2.5847280912419623e-05,-0.0017900409585209,3.971089714704541,13.849082520213768,38.13966227543008,24.8820342330132
1.19,31.222145403057247,131.01049387051748,27.18911295046486,-3.9068121484118574,0.0007352951138877,42.50086569258696,0.0021293922702043,4.954805280155208,428.4078130529292,38.28822313825425,18.15362173762841,70.28460694954668,0.0028430388491882,113.70308320146428,895.583422509738,15.288,0,7.722977390476811,0.1125498198282131,-1.6574000650953314e-07,0.0180844758016967,2.590185294399052e-05,-0.0018331324973261,3.9068122174989153,13.783476930387918,38.28833863814065,42.78870977860726
1.2,31.222144753647363,131.01049562660947,27.559333539253466,-3.8286355925235296,0.000762847125851,4.491401402137955,0.0021363741271654,4.968814829537866,117.1843741360236,38.578265576980506,18.293923359018336,70.29506257368524,0.0028858552451588,113.703129699822,909.170997227716,15.288,0,7.740398653166541,0.1134028854274826,-1.7150083352784377e-07,0.0184429691817038,2.5960412866492617e-05,-0.0018835658731713,3.828635668408184,13.669834618046965,38.57838540472682,6.697896082312461
1.21,31.22214410037284,131.01049739311358,27.93132553368299,-3.752178524082408,0.0007902120737506,34.13836557778757,0.0021426586930273,4.982416299388039,359.92343213200894,38.85977402162807,18.43116338633752,70.30572357857342,0.0029288505605581,113.70317639774932,922.455019363966,15.288,0,7.757713184341435,0.1142308742018816,-1.7735674276353605e-07,0.0188014476697649,2.602278043801156e-05,-0.0019341195546361,3.752178607173122,13.560777319761604,38.85989814785035,34.50003595786626
1.22,31.222143442404423,131.0104991722853,28.30574664155308,-3.688659178365481,0.0008199572779111,24.746359537050395,0.0021432755957652,4.990490683570552,283.0687504825761,39.01304472491672,18.524972923963,70.3165904960903,0.0029720127835391,113.70322327644529,929.7126223156235,15.288,0,7.774956512538866,0.1146819081752116,-1.8330534302758706e-07,0.019161136948675,2.608933150033992e-05,-0.0019788243893591,3.6886592693742526,13.496092369961334,39.01317352350474,25.244550148366674
