Time,Latitude,Longitude,Altitude,Angle of Attack,Angle of Sideslip,X-Acceleration,Y-Acceleration,Z-Acceleration,Thrust,True Velocity,Ground Velocity,Pitch,Roll,Yaw,Dynamic Pressure,cp,parachute_deploy_gain,Wind Speed,Mach,omega_x,omega_y,omega_z,Cmq
0,31.2221860000000042,131.010383999999988,3.00000000364323682,0,0,0,0,0,2.2828121974499247,0,0,69.9999999962342088,0,113.699999993883324,0,15.2880000000000003,0,0,0,0,0,0,-0
0.01,31.2221859999997946,131.010384000000556,3.00000016469923247,0,0,0,0,0,34.2421869617492334,9.11367326775851009e-12,8.66229497295429822e-12,69.9999999962370651,-4.92863947922479589e-13,113.699999993882884,5.08594204168408172e-23,15.2880000000000003,0,0,2.67827100510624443e-14,-3.65918233213857746e-19,7.58941520739853104e-19,4.81114714040442593e-19,-1.83541113936281872e-32
0.02,31.2221859999996028,131.010384000001039,3.00000030885429547,0,0,0,0,0,25.8718762377664078,1.96992978605390895e-11,1.88456988716431921e-11,69.9999999962400494,-1.04152381447771591e-12,113.699999993882386,2.37621641206600858e-22,15.2880000000000003,0,0,5.78911013494094702e-14,-7.28448334638698292e-19,1.51788304147970621e-18,9.75781955236953991e-19,-7.93451985123442364e-32
0.03,31.222185999409362,131.010384001586402,3.00018176030779937,18.6493779029494604,-0.000129237623237530007,10.7928899806483045,-1.97644583900689674e-05,3.34983967390763571,180.342193598546658,0.0785672533977095078,0.0490694047558625918,69.9999999976775626,-4.2497891361524094e-12,113.699999994705607,0.00377978965327356543,15.2880000000000003,0,0,0.000230888677896110966,2.88330015245363835e-17,-7.25223402354589416e-10,1.08188208080271277e-11,1.51197624781400831e-13
0.04,31.2221859959356287,131.010384010943454,3.00162780953569674,9.74253989061216075,-4.88763086122285772e-05,51.6475445943311158,1.54548216767323456e-06,3.34965665682309899,548.635972453807767,0.346420694310776434,0.171860503977579737,70.0000000036447574,-2.28205307288861013e-11,113.699999999565534,0.0734838809649275282,15.2880000000000003,0,0,0.00101804013696402693,1.80009747884589399e-15,-1.58734069119923437e-08,2.61929145365345784e-11,1.45916869803439425e-11
0.05,31.222185985910329,131.010384038045004,3.00715844163023283,5.5769968489095687,-4.21135943534799539e-06,75.3242160169835273,4.73080294831520123e-05,3.34902689347595528,761.698429882464552,0.947854334293939504,0.409211128642743283,70.0000000010935537,-1.04766136577077691e-10,113.700000013612069,0.55013262299765131,15.2880000000000003,0,0,0.00278549703395658196,1.95473045844392346e-14,-1.13584749331540247e-07,4.14067569904437612e-11,2.85688606727574374e-10
0.06,31.222185966868647,131.010384089593572,3.01868664272593046,4.48500474963244322,2.31139019787050305e-05,56.3605563030587007,9.71465785775115924e-05,3.34799244711343214,590.487539073720654,1.60618980149218604,0.665693519146445256,69.9999999197690244,-2.82941102348924619e-10,113.700000040305838,1.57971028663545732,15.2880000000000003,0,0,0.00472017413217633904,1.01936766184118274e-13,-4.07864410983111553e-07,5.76522069423461223e-11,1.73837509686130208e-09
0.07,31.2221859390775336,131.010384164863126,3.03600551209402658,4.00448286551149391,4.63712119495135773e-05,85.8192455386477917,0.000147926970097503541,3.34656708333141317,855.293774977913927,2.27788210706903049,0.926660947343454056,69.9999996219982279,-5.49831570978999292e-10,113.700000079276109,3.1772067926123353,15.2880000000000003,0,0,0.00669410445039518576,3.35900025920073467e-13,-9.92070622953462368e-07,7.83315922772719921e-11,5.99658406989250883e-09
0.08,31.2221859009658012,131.01038426812616,3.06033476575187802,3.77263127792190334,7.06371256062416025e-05,17.6076228145981588,0.000196957592070898702,3.34480227118667583,241.217198863884818,2.92612482887636283,1.17954495655796454,69.9999989088305909,-9.15694670892462832e-10,113.700000132739973,5.24285298735243899,15.2880000000000003,0,0,0.00859912396431777512,8.49635706706491564e-13,-2.01744800413265681e-06,1.10032289818440005e-10,1.56647792516492608e-08
0.09,31.2221858556197738,131.010384390989856,3.0892797608365723,3.74258231141200604,9.5325675231994802e-05,53.4176180048964397,0.000237730218002333866,3.34289666486112669,563.093737704317618,3.46187703891102627,1.39384941462988121,69.9999975134546446,-1.31671842773002699e-09,113.70000019638816,7.33844512707370811,15.2880000000000003,0,0,0.0101735644468633635,1.80613395740032365e-12,-3.4856561047658452e-06,1.59232278560273843e-10,3.20202005890100843e-08
0.1,31.2221858028175774,131.010384534057465,3.12301320909491364,3.81071421019783685,0.000121971080758598364,50.732831688561788,0.000271545837515448313,3.34090447591365036,538.7437595981919,3.9029133825176725,1.57567038389986336,69.999995157830341,-1.72222432289554893e-09,113.700000270567642,9.32732681847184431,15.2880000000000003,0,0,0.0114696609641860067,3.37914451533694905e-12,-5.48904943388414521e-06,2.34452541412924053e-10,5.68476506314615152e-08
0.11,31.2221857431700727,131.010384695667796,3.16106164078641116,3.84323765504598036,0.000147145408783231387,40.0848474374385688,0.000307099758177995722,3.33859717034531034,442.865639305294906,4.36819921201157246,1.76578242121538631,69.9999915253729768,-2.07703942468805025e-09,113.700000354470319,11.6837607126815346,15.2880000000000003,0,0,0.0128370221364947634,5.76365694334259916e-12,-8.08162139954488366e-06,3.4437809457680147e-10,9.36754562129998513e-08
0.12,31.2221856770245907,131.01038487487628,3.20315617196047642,3.86558564807459826,0.000171348089099210797,43.7480799143332604,0.000342946594964391399,3.33600966231316054,475.585948135404465,4.83801864946757032,1.95742650583495204,69.9999862600106582,-2.3147200577597177e-09,113.700000447673773,14.3321420062794882,15.2880000000000003,0,0,0.0142177082532951912,9.17772063248746377e-12,-1.13223702306849879e-05,4.98555567062495836e-10,1.45354343598177095e-07
0.13,31.2221856047215205,131.010385070757366,3.24903338361815308,3.95285669440916232,0.000198169826234992146,48.2585391180499741,0.000371981107240517913,3.33344523512332414,515.915632623689476,5.21512035057569623,2.1172615234944101,69.9999789703044399,-2.35265113573284059e-09,113.700000549782459,16.6533950244453948,15.2880000000000003,0,0,0.0153259223232261182,1.38588880633063252e-11,-1.52681962163171846e-05,7.07166414280215559e-10,2.11287244421402401e-07
0.14,31.2221855263490333,131.010385283071088,3.29862557546706325,3.99981420118284792,0.000223008237377726162,44.9721767850953427,0.000403855591455553264,3.33052592490198407,486.239086056840392,5.63167615200940475,2.29059513099545553,69.9999692426645623,-2.0964169591742506e-09,113.700000660771011,19.4199179783547713,15.2880000000000003,0,0,0.0165500839355928395,2.00553635588333716e-11,-1.99811439493909854e-05,9.81252131659242702e-10,2.9859131057555361e-07
0.15,31.2221854420015994,131.010385511560628,3.35186028506811029,4.05975476911301225,0.000248539990764711958,43.4637160193537753,0.000433543226731567866,3.32747422849243879,472.54218587214001,6.01888316560526437,2.45383766868271946,69.99995661705006,-1.43188768134039915e-09,113.700000780625842,22.182048585914238,15.2880000000000003,0,0,0.0176879988684610287,2.80404916713566325e-11,-2.55291719775422389e-05,1.33309260321839681e-09,4.07727088477750495e-07
0.16,31.2221853515819241,131.010385756490507,3.40881389436676407,4.08854462484130732,0.000272210944932510383,34.4023069357135967,0.000465877824565354701,3.32404684464906053,391.12189082975641,6.44303061809316624,2.62971580822363071,69.9999405987561403,-2.27841984783363582e-10,113.700000909623355,25.4183784408083007,15.2880000000000003,0,0,0.0189344747787753703,3.81042963600432359e-11,-3.19913711614788564e-05,1.77662362644707755e-09,5.46937370926295155e-07
0.17,31.2221852554099399,131.010386016990765,3.46923909377793649,4.13347468842419552,0.00029684158695823977,43.4155809381403728,0.000495744973995866601,3.3205135250562221,471.78125980632376,6.83404379119085981,2.79420112365087148,69.9999206448319882,1.67575894446247236e-09,113.700001047478835,28.5969980778046526,15.2880000000000003,0,0,0.0200835795555658371,5.05622819343119236e-11,-3.94162603380559734e-05,2.32482468580976756e-09,7.14768170397066036e-07
0.18,31.2221851530022434,131.010386294375877,3.53351204963262022,4.16207877285686756,0.000320492787063832857,36.2151660219171347,0.000526966735016640565,3.31665933612355879,407.101567211914528,7.2444022294323478,2.96528531587496236,69.9998961790314524,4.45070668055043651e-09,113.700001195059045,32.1341903991183955,15.2880000000000003,0,0,0.0212895378539265934,6.5741708189353534e-11,-4.79243856484647045e-05,2.99669991322666987e-09,9.21230820748327094e-07
0.19,31.2221850444828668,131.010386588308563,3.60153760019172342,4.17456309251139679,0.000342914278589344943,40.9041800427263027,0.00055982867240863632,3.31244583927210501,448.953132831826849,7.67810673790947895,3.14433961722118216,69.9998665624008964,8.30674092292676784e-09,113.700001352409558,36.0967170721845179,15.2880000000000003,0,0,0.0225641073333706747,8.40032927522686365e-11,-5.75836346763551867e-05,3.80911503044151526e-09,1.17316671380156179e-06
0.2,31.2221849296486234,131.01038689934137,3.67347464118590317,4.20078915399145636,0.000366573034254704516,37.5214898208491761,0.000590466919182690893,3.30812712915434881,418.515630199161365,8.08216006412957277,3.31318683933006453,69.9998311045104487,1.34800080829191884e-08,113.700001520067786,39.9955165273270055,15.2880000000000003,0,0,0.0237515420632470921,1.05728805481567758e-10,-6.85028882131185225e-05,4.78351733027568889e-09,1.4690610466811608e-06
0.21,31.2221848088436893,131.01038722653837,3.74905730552401684,4.22722562033261262,0.000390310433246848657,36.0064697775761644,0.000620601272787201603,3.30359776763142721,404.818761014464428,8.48018829437500621,3.47992805775657654,69.9997890742529592,2.02433263776548733e-08,113.700001697833756,44.0315784885794201,15.2880000000000003,0,0,0.0249212734096428447,1.31320595517854955e-10,-8.07208291683553139e-05,5.93661589182972911e-09,1.81631626331753899e-06
0.22,31.2221846819136672,131.010387570319409,3.82840670130281646,4.2176244726165093,0.000410696285369717819,43.5935627685881499,0.000655758920494764063,3.29841875767922987,472.542185872136486,8.94831461811120121,3.67066782999472752,69.9997397083127737,2.88926538075102191e-08,113.700001886238866,49.0266756129506618,15.2880000000000003,0,0,0.0262970098082033268,1.61186003536399267e-10,-9.43348117723774896e-05,7.29106197993283208e-09,2.23980539128825791e-06
0.23,31.2221845484548304,131.01038793178239,3.91183756115468473,4.25320537954326383,0.0004356497720089569,36.207459360748949,0.000683686922722525747,3.29355466128287455,406.340642146102141,9.31799902525197865,3.82760028360492655,69.9996821549030983,3.9766623706965518e-08,113.70000208621326,53.1608354775167555,15.2880000000000003,0,0,0.0273834518362109196,1.95767624418301473e-10,-0.000109505708778552874,8.87784718088286285e-09,2.70740355927931971e-06
0.24,31.2221844093456014,131.010388308538637,3.99866964940866776,4.27135264557773553,0.00045883378920767232,37.3286080087975947,0.000713911697673520317,3.2882529474867046,416.232824001711379,9.7203332459195213,3.9956861712714935,69.9996155408946805,5.32509871046438109e-08,113.700002296918697,57.8502398901668755,15.2880000000000003,0,0,0.0285658473732890855,2.35534745143307651e-10,-0.00012617657385590063,1.07071802425012536e-08,3.25424194465518317e-06
0.25,31.2221842644570167,131.010388700938847,4.08900446593793809,4.29698686981540234,0.000482848983334858658,38.3649566400252979,0.000742483922667206905,3.28284626589867479,425.364080791506922,10.1009615935159527,4.1562806652626314,69.9995389781877293,6.97479781374676735e-08,113.700002518962805,62.4689963611702623,15.2880000000000003,0,0,0.0296844577155840929,2.80933085873043406e-10,-0.000144451636124542286,1.28055329635332884e-08,3.87142965072796435e-06
0.26,31.2221841140756986,131.010389108203611,4.18262110402873155,4.32755423691547136,0.000507438991606541483,41.7865661614553829,0.000769736419800412888,3.27732087646770287,455.80158342417883,10.4644497354123782,4.31094871887776954,69.9994515368878751,8.97024502886333285e-08,113.700002752408935,67.0452443356678742,15.2880000000000003,0,0,0.0307527002093570291,3.32431765373287754e-10,-0.00016436315770221847,1.51925047864838523e-08,4.56355359993810651e-06
0.27,31.2221839578137299,131.010389531387915,4.27982215321117465,4.33742811840656994,0.000529702335486379188,38.2242911032538473,0.000800211178185602123,3.27123004841987974,423.842199659872563,10.8736118498261902,4.48123226393084195,69.9993522521519935,1.13587393208351198e-07,113.700002998306658,72.3900346549699947,15.2880000000000003,0,0,0.0319551720828357214,3.90484337603431509e-10,-0.000186059811616844751,1.79019946498730075e-08,5.36790267753501075e-06
0.28,31.2221837957695953,131.010389970223883,4.38053283172365671,4.35979025650862262,0.000553527510562852902,44.1207307275094038,0.000828072271385077072,3.26514386100193477,476.346873201222195,11.2478718916014184,4.63949182586423614,69.9992400702920463,1.41938296327408329e-07,113.700003257081931,77.4582454645660761,15.2880000000000003,0,0,0.0330550782151640757,4.55595825375374429e-10,-0.000209619220926101062,2.09616181379585756e-08,6.25569396794615011e-06
0.29,31.2221836278828384,131.010390424876022,4.48480177698289584,4.38135974025744623,0.00057737648726709299,35.3536197607625553,0.000855659611391794222,3.2588361863853601,397.970310422111766,11.6195889013503368,4.79682445966682813,69.9991139044831527,1.7532937395312496e-07,113.700003529427192,82.6616578528940948,15.2880000000000003,0,0,0.0341475147840558241,5.28268525040872464e-10,-0.000235137545717689308,2.44023887909330158e-08,7.24907222782668121e-06
0.3,31.2221834544381096,131.010390894570321,4.59240982688131272,4.39617507281761988,0.000600356665334356751,33.1490797613948018,0.000884158719714270942,3.25217107922164672,378.185945710871067,12.0052186882677852,4.95887519756831807,69.998972627127344,2.14383684192303281e-07,113.700003815596887,88.2385269149682756,15.2880000000000003,0,0,0.0352808420099011907,6.09029939588318471e-10,-0.000262641159892275291,2.82471356422800846e-08,8.36561857411674722e-06
0.31,31.2221832755909574,131.01039137888381,4.7032380575360353,4.42235615181669761,0.000624899913490765827,34.9528590290802086,0.000910025197609511073,3.24555398289468222,394.16562209302117,12.3556398803864607,5.10879227158949156,69.9988150759387651,2.59766173767152649e-07,113.700004116072961,93.4639131761651498,15.2880000000000003,0,0,0.0363107024397255479,6.98403788157463991e-10,-0.000292187019282257228,3.25229566712151178e-08,9.57826248689966157e-06
0.32,31.2221830914257232,131.010391877587324,4.81722282885169673,4.45155794779377789,0.000649944303128982049,38.0379859115142835,0.000934821026682707218,3.23882361682650144,421.559393462426954,12.6924793110791878,5.25399282922068878,69.9986400687318024,3.12179641788393281e-07,113.700004431478234,98.6283237403037703,15.2880000000000003,0,0,0.0373006526995305274,7.96905013945712519e-10,-0.000323836613651358495,3.72580440687311147e-08,1.09050644159405278e-05
0.33,31.22218290196043,131.01039239063175,4.9343519698327194,4.48019701204722054,0.000675004219851668761,37.7093551175013246,0.000959261610436717115,3.23189933669563656,418.515630199168186,13.0256844327599097,5.39788776638052958,69.9984463826819052,3.72372687880250348e-07,113.700004762578004,103.87354288045799,15.2880000000000003,0,0,0.0382799263433428877,9.05047894999210997e-10,-0.000357667290238851605,4.24836225249657193e-08,1.23603484615852587e-05
0.34,31.222182707020778,131.010392918491164,5.05476263450916541,4.49049305198152204,0.000697378143373914754,29.5227085089536203,0.000987142430045659337,3.22427911658814059,345.465636880756449,13.4081741031825317,5.55863100914667463,69.9982327456812641,4.41143957445642244e-07,113.700005110463266,110.062177258613033,15.2880000000000003,0,0,0.0394040418267209702,1.02333461745717641e-09,-0.000393806243978271305,4.82396483202145133e-08,1.40087103268591529e-05
0.35,31.2221825067937928,131.010393460657156,5.17831168393457641,4.50711781535187139,0.000720712543856854714,32.3530371383660977,0.00101333646443235357,3.21661305844837253,370.576570052703289,13.7686530554979374,5.71176159517965232,69.9979978091806316,5.19362042776584697e-07,113.700005475786654,116.058400304168075,15.2880000000000003,0,0,0.0404634764462946869,1.15232390415689195e-09,-0.000432299813734132244,5.45552399130644805e-08,1.57912776608867467e-05
0.36,31.2221823012122108,131.010394017312592,5.30505329869157727,4.52767240178778962,0.000744729708600240731,36.5526511043957356,0.00103828652712813154,3.20885713174522058,407.862523277719447,14.1132764952183631,5.85938873702120233,69.9977401961163537,6.07939829707116331e-07,113.700005859608282,121.939407863977465,15.2880000000000003,0,0,0.0414763190843316643,1.29254043868676357e-09,-0.000473255972436325862,6.14699225552327593e-08,1.77198251922661022e-05
0.37,31.222182090341061,131.010394588280832,5.43493909097431604,4.55039311415752579,0.00076918150115683735,34.6835787828593496,0.00106234372950533948,3.20097384516078431,391.121890829766642,14.446930470491731,6.00318739776240751,69.9974584775585669,7.0785096329375243e-07,113.700006262864989,127.771540530283914,15.2880000000000003,0,0,0.042456928843506235,1.4445318520011827e-09,-0.000516746496826029863,6.90186481791334769e-08,1.98053803654614999e-05
0.38,31.2221818741223878,131.010395173719473,5.56801609611825477,4.56315131642791805,0.000792019287104061913,36.2353933787001239,0.00108827974821363053,3.19255015153205646,404.818761014460279,14.8084413239345949,6.1564787166299757,69.9971511865591651,8.20121521966083772e-07,113.700006686723384,134.244380272309172,15.2880000000000003,0,0,0.0435194095147296359,1.60882660749176723e-09,-0.000562873331420229127,7.72423853301427293e-08,2.21128406351508731e-05
0.39,31.2221816525004634,131.010395773780147,5.704329739781131,4.57922628245169783,0.000815489716137310881,30.9425419640016202,0.00111309493143926189,3.18402316666385765,357.640624933827439,15.1559126959619999,6.30488433186772657,69.9968167722787769,9.45855271408966431e-07,113.700007132429306,140.616382889747683,15.2880000000000003,0,0,0.0445406353688629561,1.78596578656278109e-09,-0.000611756345505213715,8.61868943159197994e-08,2.45968452142520012e-05
0.4,31.2221814256617982,131.010396387955836,5.84373750626454935,4.59349479979191955,0.000838670682925170751,29.5834243852937959,0.00113797512888990423,3.17521289611434332,345.465636880754005,15.505969085398343,6.45410901523083158,69.9964536498379317,1.08621525395706341e-06,113.700007600947828,147.185065961143067,15.2880000000000003,0,0,0.045569462889951777,1.97653506559195414e-09,-0.000663427505461186432,9.58835144134294998e-08,2.72901174189528038e-05
0.41,31.2221811937141673,131.010397015953487,5.98615797249314241,4.60939449845229365,0.000862163931524819621,33.360545626359837,0.00116210409424792778,3.16624854525325983,378.946870776686467,15.8471768437686258,6.60022848408685459,69.9960602026584695,1.24241947051318175e-06,113.700008093413757,153.73182724817184,15.2880000000000003,0,0,0.0465722905345462151,2.18109996727848554e-09,-0.000717942131686907965,1.06367950505874699e-07,3.01820283711074823e-05
0.42,31.2221809567080335,131.010397657635991,6.13155423418529733,4.63387609959193458,0.000887317919769279608,37.5676427387571721,0.001183742077125155,3.15743374731593907,416.232824001711379,16.155026338188506,6.73482947265292431,69.9956347739890248,1.41574639558456e-06,113.700008611107208,159.760443802515937,15.2880000000000003,0,0,0.0474770882933877245,2.400206535531791e-09,-0.00077537935552726017,1.17680930846389008e-07,3.32294321368729263e-05
0.43,31.222180714655078,131.010398312971745,6.27991949833728835,4.65367427313455995,0.000911660169575580258,33.0386483003103493,0.00120612360190941372,3.14823214930187856,375.903139513433644,16.4750454055619109,6.87353555569934649,69.9951756835756242,1.60752723178871754e-06,113.700009155418982,166.15023929888028,15.2880000000000003,0,0,0.0484176551665520677,2.63438237315801404e-09,-0.000835821567166909188,1.29864614855892046e-07,3.65287677570896608e-05
0.44,31.2221804673911407,131.010398982407111,6.43138341412837455,4.65757387742934892,0.000932929976641759203,30.4788052564327749,0.00123214974254881528,3.13809943757763454,353.075012538921555,16.8483715860516412,7.03046484016701978,69.9946811832270441,1.81916859536649675e-06,113.700009728069276,173.762989227436179,15.2880000000000003,0,0,0.0495148886868988364,2.88411342836306464e-09,-0.000899417740154189794,1.42975581697416844e-07,4.01983191819108926e-05
0.45,31.2221802146980103,131.010399666535704,6.58611776122768511,4.65827001030579346,0.000953562143933252499,35.4620561517945134,0.00125873275223327787,3.12754579585638304,397.209385356286873,17.2316459864824161,7.19073264961644831,69.9941493995125938,2.05218870761162579e-06,113.700010330973456,181.755888424112015,15.2880000000000003,0,0,0.0506413642318551335,3.14987863732273609e-09,-0.000966369542842942814,1.57083782729145849e-07,4.41725079750487196e-05
0.46,31.2221799565319174,131.010400365476642,6.74415901717088939,4.66907507286434065,0.00097630283571516251,41.3913707355688842,0.0012823814722795761,3.11722412848720953,449.71405889764344,17.5754687869478978,7.33738035579407555,69.9935783582983362,2.30821229426708146e-06,113.700010965912341,189.078525726536213,15.2880000000000003,0,0,0.0516519027755614896,3.43223060675433133e-09,-0.00103681314204437207,1.7224885851047691e-07,4.83373548649469587e-05
0.47,31.2221796928065203,131.010401079464799,6.90557672428163105,4.67806301106434042,0.000998761260684927557,28.0209900204918974,0.00130616618884544979,3.10657060381263461,331.007810630253402,17.9233234115620377,7.48533101007974988,69.9929660462147325,2.5889364060732201e-06,113.700011634803886,196.634049649816575,15.2880000000000003,0,0,0.0526742959306323727,3.73170463860384924e-09,-0.0011108841623615434,1.88532207060213475e-07,5.28148505664365441e-05
0.48,31.2221794239793269,131.010401807256216,7.07001851744381948,4.68642527483421745,0.00102109091231145262,27.6007969606275125,0.00132978852885184593,3.09563681785184297,327.203122301157407,18.2709832353803314,7.63313726727991071,69.9923104035261474,2.89614261094227829e-06,113.700012338884164,204.33305198470137,15.2880000000000003,0,0,0.0536961221459722679,4.04904859899578719e-09,-0.00118849531779471017,2.05948560519311644e-07,5.75998398329450787e-05
0.49,31.2221791502289392,131.010402548365278,7.23734841566291642,4.70156796398202914,0.00104489945272251677,34.6487244505178253,0.00135120419031512233,3.08484494341801163,389.60000969812296,18.589315545984995,7.7707981814672209,69.9916093757078812,3.23165731652504743e-06,113.700013079832303,211.511801733856089,15.2880000000000003,0,0,0.0546317638991248022,4.38486615800834454e-09,-0.00126967773493266863,2.2453662401782158e-07,6.26054017926546362e-05
0.5,31.2221788715876762,131.010403302704333,7.40754387012007864,4.72212438923579736,0.00106996435823571525,35.6033845714535389,0.00137072557486675028,3.0741588573465477,397.970310422105001,18.8826594549893159,7.8998011517407587,69.9908609011483378,3.5973597360057951e-06,113.700013859590555,218.236320199079358,15.2880000000000003,0,0,0.0554939729313439212,4.73968531279909998e-09,-0.00135450679800636423,2.44344941868023912e-07,6.78409867869358833e-05
0.51,31.2221785881337617,131.010404070060673,7.5805467220577798,4.73558879650721298,0.00109346949398930206,27.1956639286467201,0.00139183542187690463,3.06284319292573448,323.39843497208409,19.200774511812984,8.03722958125224807,69.9900628955037689,3.99519228958782199e-06,113.700014680103109,225.647740475438098,15.2880000000000003,0,0,0.0564289867670437692,5.11403675587933804e-09,-0.00144303978709531136,2.65418546512062939e-07,7.34915902759761199e-05
0.52,31.2221782999013868,131.010404850474288,7.75637073941223498,-25.955240184882264,-0.00435622178840760176,33.2303546352472452,0.000499469508332049845,4.42720291524317577,372.098451184341457,17.8294478878545313,8.17927936629572905,69.9892118024353351,1.40010246503539477e-05,113.700025732485003,194.563760640361437,15.2880000000000003,0,10.0257722823219062,0.0523989109837585676,5.51106710723077821e-09,-0.00151149699810277857,6.11260277425623949e-05,7.14789960502989309e-05
0.53,31.2221780064594938,131.010405645253371,7.93512631265560309,-25.4965207442256911,-0.00426652413477356194,34.870973276639603,0.00051502524411385349,4.45383969997356388,386.55624643486243,18.1081706076537756,8.33303776961609799,69.988447745174966,0.000110112243234003596,113.700128430078081,200.690984330922277,15.2880000000000003,0,10.0639000392743281,0.0532181556652455076,5.88571048779892641e-09,-0.00111721767621704286,6.10529141252114913e-05,5.36584572246044371e-05
0.54,31.222177707446896,131.010406455121398,8.11688019429993446,-25.0532721848935793,-0.00417896656799947915,30.6656163960190185,0.000530560894166355124,4.48070015003450095,349.270324209843579,18.3861690247677849,8.4863209683026124,69.9879120863966051,0.000206102408783884509,113.700231006978498,206.896729229777918,15.2880000000000003,0,10.1019463701797978,0.0540352768190986779,6.10438318371652215e-09,-0.000713283810978992397,6.09782856925564088e-05,3.4783384854592038e-05
0.55,31.2221774030990282,131.010407279397015,8.30142977864460008,-24.6318806106148074,-0.00409481414219188111,32.4780473362984594,0.000545954953882686568,4.50740424763918668,365.250000591990727,18.6581823766561499,8.63715596885525905,69.9876102347282938,0.00030197242953594242,113.700333463736058,213.060087075555572,15.2880000000000003,0,10.1398486192992348,0.0548348134554884556,6.16770515252278227e-09,-0.00030021863097531539,6.09022429952957946e-05,1.4856534114056275e-05
0.56,31.2221770934100924,131.010408118095512,8.48877402438447781,-24.236433560794822,-0.00401471270394112862,30.3335722840598017,0.00056110482560247049,4.53365573448853976,346.226561946578727,18.9200948091469172,8.78403646508012592,69.9875474619922784,0.000397723423243052476,113.700435801477468,219.079749983869277,15.2880000000000003,0,10.1776075746551058,0.0556046693681676654,6.07638709491494715e-09,0.000122086502350157331,6.08247807265374277e-05,-6.12623536612136591e-06
0.57,31.222176778441078,131.010408971050452,8.6788602395542096,-23.8414228878952379,-0.00393470358722646744,29.9950127862383376,0.000576455227387936519,4.56073943758125289,343.182829683302316,19.1897887180384608,8.93369721431281683,69.9877290066932432,0.00049335663287294342,113.700538021364025,225.365835382695252,15.2880000000000003,0,10.2152213325745311,0.0563973994746472945,5.83138224507175518e-09,0.000553532818161783682,6.07459286331073027e-05,-2.8171395373373745e-05
0.58,31.2221764581652899,131.010409838333914,8.87170385505186943,-23.4312899636738798,-0.00385239256227103621,39.3845491387520923,0.000592318873276671343,4.58958158996560073,426.12500585731533,19.4798213884698619,9.09080821620183777,69.9881601339120465,0.000588873399188779428,113.700640124781202,232.225331793741105,15.2880000000000003,0,10.2526867641610249,0.0572499090376371381,5.43372301053075889e-09,0.000994241495858258408,6.06656804174821732e-05,-5.13645638219604382e-05
0.59,31.222176132201966,131.010410720980786,9.06759454359951356,-23.0640416911851958,-0.00377675509645884191,31.986688003045483,0.000607572456348407105,4.6169376408613374,360.68438819711065,19.7448988267594245,9.23849066284855702,69.9888464824919225,0.000684275011847361989,113.700742113557794,238.583995597407437,15.2880000000000003,0,10.2900592943927069,0.0580290823655611604,4.88413948920632108e-09,0.00144529807452946401,6.05838715522096877e-05,-7.56817066192796322e-05
0.6,31.2221758007410166,131.010411618474052,9.26637957555335312,-22.6625276297640497,-0.00369587701740822522,28.4610192617284454,0.000623741980108654423,4.64726162474267657,329.48595949860578,20.0465478302275386,9.39964238067996227,69.9897937477192613,0.000779562864815336993,113.700843988819742,245.924830817582603,15.2880000000000003,0,10.3273004948667104,0.058915742951937064,4.18388166857768819e-09,0.00190626904598872708,6.05005896004876345e-05,-0.000101343075665540628
0.61,31.2221754637306468,131.01041253095417,9.46809368103707527,-22.2653867218401977,-0.0036157641943368379,33.2916470332597996,0.000640081112645044144,4.67840266690633833,372.09845118432969,20.3546545661409866,9.56302449794718434,69.9910077523727665,0.000874738418878501017,113.700945752102058,253.537528895496706,15.2880000000000003,0,10.3644143234790871,0.059821388468463757,3.33410747347848667e-09,0.0023773811775093627,6.04158140810165094e-05,-0.000128328889058265303
0.62,31.2221751212697072,131.010413458151646,9.67265472078959121,-21.9450105065843175,-0.00354756401991665644,41.3134392149192564,0.00065498757123392615,4.70562880110204684,442.86563930529212,20.6045388575545907,9.7047715282606184,69.9924944413589714,0.000969803213474524717,113.701047404804939,259.79575339141519,15.2880000000000003,0,10.4013984682996288,0.0605559265906751021,2.33609514822751235e-09,0.00285857561592662429,6.0329572426015996e-05,-0.000156194569848008694
0.63,31.2221747731821964,131.010414400544676,9.88019423693718224,-21.6125767833838545,-0.00347757266451951706,23.5593494795145908,0.000670339685556890167,4.73447121528623338,286.112512747078938,20.8720918301546234,9.85298617754412298,69.994259472568217,0.00106475902859878521,113.701148948969262,266.581218152052202,15.2880000000000003,0,10.4382584916225838,0.061342397841197778,1.19143355155888037e-09,0.00335027972084815618,6.02418128121339999e-05,-0.000185435012483042231
0.64,31.2221744200004281,131.010415356685286,10.0902944894397706,-21.2563468502145199,-0.00340409192106345959,23.1306191203564993,0.000686438039089838289,4.76583550239977072,282.307824417967538,21.169577686989367,10.0120967309141822,69.9963085381288295,0.00115960776376110362,113.701250385753767,274.2288998179489,15.2880000000000003,0,10.4748894356970794,0.0622168465496773584,-9.80949256556857413e-11,0.00385113537843161536,6.01527746211396144e-05,-0.00021619065162009141
0.65,31.2221740617004784,131.010416326638051,10.3029694376839736,-20.9560639993105831,-0.00333926707719017172,40.6465534734091491,0.000701422356433325611,4.79419273192720752,436.778144778747503,21.4216985762191747,10.15445698756068,69.998647137326131,0.00125435151213471995,113.701351717306864,280.793966365425547,15.2880000000000003,0,10.5113870042915245,0.0629579744387482459,-1.5306613640251709e-09,0.00436136993201103034,6.00624390968593588e-05,-0.000247744425153034894
0.66,31.2221736978106286,131.010417311685273,10.5185806259009542,-20.6515104717824372,-0.00327389065809031553,34.6125214366956371,0.0007166766740460145,4.82367300724501114,383.512515171600171,21.6844183043694265,10.3006648062913353,70.0012807711792107,0.00134900021233531377,113.701452957574261,287.717663340426498,15.2880000000000003,0,10.5477177123237347,0.0637302578611902287,-3.10418777229421686e-09,0.00488226960079919843,5.9970618194097919e-05,-0.000280729210141588391
0.67,31.2221733284946161,131.010418311381159,10.7369963113334137,-20.3272089726349492,-0.00320565050047643416,23.9131758980611551,0.000732611623479774627,4.85554029043744695,289.156244010342505,21.974430246487568,10.4567759298678329,70.004215480193281,0.00144354054703130035,113.701554086391369,295.458922643419214,15.2880000000000003,0,10.5838851086346342,0.0645827587848117057,-4.81681604004639786e-09,0.00541345542158440125,5.9877393712896916e-05,-0.000315428658697983829
0.68,31.2221729539007171,131.010419325322147,10.9580969129270365,-20.0179634753948861,-0.00313982367273481222,29.7871405751614198,0.000748367904139114271,4.88722272553961012,340.899992485846269,22.2568969137359112,10.6100442074399819,70.0074571430408383,0.00153798257986559328,113.701655116946583,303.097162562320648,15.2880000000000003,0,10.6199189386583832,0.0654130903054661456,-6.66660233869973101e-09,0.00595465270428193697,5.97828309004027738e-05,-0.000351415401514776501
0.69,31.2221725740955769,131.010420353326538,11.1818264359615718,-19.7405119076363427,-0.00307893299162837007,36.6142597827842948,0.0007634591876522881,4.91720757650838536,401.014072685363431,22.5122313055801087,10.7533740773469759,70.0110115051661239,0.00163233672940843607,113.701756062976571,310.084741626131688,15.2880000000000003,0,10.6557447618917127,0.0661636858891917756,-8.65143840144940238e-09,0.00650574033172167214,5.96869705452976709e-05,-0.000388334233195680267
0.7,31.2221721889475177,131.010421395752076,11.4082831487278469,-19.467239433512713,-0.00301879490702359424,30.743516926865091,0.000778590606473238069,4.94764882867213451,349.270324209852845,22.7690015776258718,10.8971897525245449,70.0148843176447429,0.00172658984029611389,113.701856904770906,317.191719942754332,15.2880000000000003,0,10.6913915601871246,0.0669185073990841983,-1.07688925972846349e-08,0.00706713668609763347,5.95897684722665087e-05,-0.000426646752006876401
0.71,31.2221717984992395,131.010422452482061,11.6374299214692805,-19.1834041488455966,-0.00295721303825051277,25.3015643802093741,0.000794182308084578079,4.97986865179111682,301.331264063405797,23.0442215079258581,11.0476429537430718,70.0190813227636966,0.0018207604441022201,113.70195766757999,324.89901396286507,15.2880000000000003,0,10.7268948835084803,0.0677275588395351014,-1.30166640028206351e-08,0.00763876527531116151,5.94912599448113122e-05,-0.000466720218752270154
0.72,31.2221714027459676,131.010423523529198,11.8692665602390459,-18.8863027599147522,-0.00289383150515824372,30.922934765158324,0.000810344327183401525,5.01424093065533594,350.79220534145287,23.3423623729482443,11.2063120291910998,70.0236084914821788,0.00191484382992479388,113.702058343493775,333.352914176048898,15.2880000000000003,0,10.7622354507900351,0.0686039819354148511,-1.53924077877643352e-08,0.00822074632209871328,5.93914499717006076e-05,-0.00050876566449954393
0.73,31.2221710016779355,131.010424608919607,12.103796613034671,-18.6390841652922958,-0.0028379845769305502,39.0548331910559057,0.000825208787499688633,5.04493290132315408,422.320318528233997,23.5876903403664606,11.3458568102828998,70.0284719887404492,0.00200884242487390499,113.702158934771802,340.389140850377828,15.2880000000000003,0,10.7973619280000701,0.0693251924486261439,-1.78937815107469583e-08,0.00881326542397979293,5.92903345861706216e-05,-0.000551155602875622042
0.74,31.2221705952304944,131.010425708828649,12.3410668207387619,-18.3822540484475105,-0.00278084717966883312,24.5260983453434775,0.000840504564507906838,5.07734439279018535,294.482813471059444,23.8504594737367306,11.4916633354523299,70.0336776899514604,0.002102759346319448,113.702259444643772,348.007389669476026,15.2880000000000003,0,10.8323487225499573,0.0700976693859257372,-2.05181508650146497e-08,0.00941647425789467196,5.91879160054666423e-05,-0.000595425098782886722
0.75,31.2221701837297587,131.010426822369226,12.5808202991630829,-18.1211528439546967,-0.00272325158704243408,28.5936447759668866,0.000856090067395809309,5.11105559756573413,330.246885564414924,24.1249220749122237,11.6416130212408273,70.0392315006877624,0.00219659827985937191,113.702359876540726,356.054767527184879,15.2880000000000003,0,10.8671587491924768,0.070904520212886693,-2.32636842542202442e-08,0.010029471280942141,5.90843588988946449e-05,-0.000641469516842090482
0.76,31.2221697670671006,131.010427949836384,12.8231382188301648,-17.8796934096311162,-0.00266867218616782462,30.7588368589224892,0.00087120170907944224,5.14364627461563728,349.270324209861712,24.3801471894327655,11.7846005301201675,70.0451392469971097,0.00229036245094681266,113.702460233787193,363.619786363074923,15.2880000000000003,0,10.9017811118885426,0.071654837256383469,-2.61274814942357879e-08,0.0106526994303399666,5.89796214755930123e-05,-0.000688522212230836101
0.77,31.2221693451832216,131.010429091391046,13.0680636183980425,-17.6459381978981362,-0.00261536259289737094,28.7689454813987346,0.000886192462014330387,5.1762282422126793,331.76876669607077,24.6304658049535128,11.9257944909208415,70.0514068031382351,0.00238405632728151034,113.702560521357455,371.116186112073194,15.2880000000000003,0,10.9361892925245083,0.0723907399736302692,-2.91067141808363117e-08,0.0112864019875899019,5.88736940239364891e-05,-0.000736953156985990657
0.78,31.2221689181317714,131.010430246886926,13.3155518235017194,-17.4034888306259496,-0.00256095731498404405,23.6599382656360149,0.000901609963021736296,5.21058006342758162,286.873437812889904,24.898198799869192,12.073178155644797,70.0580400144173439,0.00247769134860931781,113.702660753951861,379.219083899761984,15.2880000000000003,0,10.9704322585881613,0.0731778311501414397,-3.21988869317606664e-08,0.0119304287770817911,5.87666273767307253e-05,-0.000787454383430068986
0.79,31.2221684859881528,131.010431416118735,13.5655412920909235,-17.1581572924702677,-0.00250631800059985567,33.5356815417495184,0.000917278763253442974,5.24616763817842546,373.620332315953419,25.1762204263901559,12.2241723636182904,70.065044867474441,0.00257126271753155625,113.702760923018459,387.726033917554275,15.2880000000000003,0,11.0045029206759661,0.0739951680202874107,-3.54016011741286891e-08,0.0125846254166416972,5.86584732072117912e-05,-0.000839888861310099204
0.8,31.2221680485418176,131.010432599658571,13.8181930334409966,-16.9411159663229363,-0.00245583499230271011,33.9705695094376381,0.000932095057080987587,5.27940678044524248,377.42502064505743,25.4196662176462098,12.3627898408815184,70.0724274922727943,0.00266477349516843279,113.70286103158287,395.251064322432057,15.2880000000000003,0,11.0384277426443944,0.0747108899806143562,-3.87112925687513191e-08,0.0132498054479328366,5.85491404160692457e-05,-0.00089281155802701617
0.81,31.2221676058818431,131.010433797264,14.0734351592126039,-16.7124214963480853,-0.00240387541689257751,22.1831008828521625,0.000947448881998322833,5.31481466898257615,273.937492693991885,25.6852068972336092,12.509239660545072,70.0801939287228635,0.00275823060902535095,113.702961087687783,403.542102403244883,15.2880000000000003,0,11.0721474799065405,0.0754915574552682822,-4.21257129179339232e-08,0.0139256573044468906,5.84387065114819123e-05,-0.000948131521527600029
0.82,31.2221671581767986,131.010435008476293,14.3311338855236823,-16.4813494393455287,-0.00235177279955921465,28.4243553942330536,0.000963029475970531229,5.35141197547970382,328.725004432770049,25.9601740873388387,12.6589726363118924,70.0883502202633082,0.00285163646883042745,113.703061092752549,412.218205814982412,15.2880000000000003,0,11.1056644274668788,0.0762999371392952402,-4.56429123899280758e-08,0.0146117133364432397,5.83272713239070529e-05,-0.00100546697247908315
0.83,31.2221667054055878,131.010436233352607,14.59130325351693,-16.282020612455014,-0.00230422956942303008,36.0563338873141745,0.000977535707968285638,5.38488268085692123,395.68750322465047,26.1916825999212577,12.793219855973339,70.0969024346611178,0.00294499512135162509,113.703161050739638,419.592691577888331,15.2880000000000003,0,11.1390146705060165,0.0769805932480227412,-4.92599545257219019e-08,0.0153081859664336954,5.82148355916403633e-05,-0.00106276035050937331
0.84,31.2221662474650365,131.010437472173152,14.8540217736971201,-16.080258228824583,-0.00225648084035966852,22.3498401750708311,0.000992229424437501492,5.41939816522074036,275.459374825645227,26.4312342033481222,12.9302929123690884,70.1058563937739621,0.003038322676684638,113.703260982840533,427.292278936592709,15.2880000000000003,0,11.1722005645903462,0.0776848952954314331,-5.29735580974123555e-08,0.0160153867414874855,5.81013875483090282e-05,-0.00112199812422968961
0.85,31.2221657846234741,131.010438724208029,15.1190783356661367,-15.8593642120220224,-0.00220629408640779122,24.3433018622338402,0.00100779084197172362,5.4572802271668488,292.960932339393764,26.7065778543701562,13.0799703764214836,70.1152179780058162,0.00313161363326242047,113.703360878838211,436.230058945698374,15.2880000000000003,0,11.2051950346054774,0.0784944014659829936,-5.67825556552498253e-08,0.0167324366228206942,5.79870866411645651e-05,-0.00118441427456557292
0.86,31.2221653167145803,131.010439989909344,15.3866008123087123,-15.6583896608409301,-0.00215897916516846929,30.41742864395518,0.00102267104618152709,5.49333007161711429,346.226561946558718,26.9546076424500747,13.219924456355578,70.1249932699007701,0.00322486948152597621,113.703460739060034,444.358994865364934,15.2880000000000003,0,11.2380212173903686,0.0792236351450303911,-6.06830173286485952e-08,0.0174600606991667517,5.78718635255205004e-05,-0.00124736573071973305
0.87,31.2221648437560795,131.010441269228608,15.6565737611956486,-15.4680746302766359,-0.00211324730751453506,28.3324090242256297,0.00103720520120843557,5.52865318724403565,327.964078366998024,27.1890639729695707,13.3550387057087416,70.1351882284751014,0.00331810036023460955,113.703560575819978,452.11113120877252,15.2880000000000003,0,11.2706639238084048,0.0799129808882223236,-6.46722772127616638e-08,0.0181982437929598603,5.7755756162153663e-05,-0.00131137687170674081
0.88,31.2221643657766883,131.010442562087547,15.9289734109514267,-15.2697854603881282,-0.00206661444408407988,24.5090528633326059,0.00105216438685115654,5.56589146639369847,294.482813471041823,27.4414827791956881,13.496430207952006,70.1458087285667204,0.00341132189327189627,113.703660409149848,460.532701583444293,15.2880000000000003,0,11.3030975870284234,0.0806551277722419302,-6.8747952337292926e-08,0.0189468486577601784,5.76388201826234841e-05,-0.00137796118304017983
0.89,31.2221638828475818,131.010443868292384,16.2037428206043579,-15.06413529782788,-0.00201918945113741021,26.851804729220877,0.00106754951521608149,5.60509403218582136,315.028134248086985,27.7120075055592991,13.6441154143662384,70.1568608220670598,0.00350452007714129737,113.70376021675078,469.645149019119799,15.2880000000000003,0,11.3353540374614976,0.0814504979011986957,-7.29077750826040405e-08,0.0197057293425220333,5.75211127006094585e-05,-0.00144724302228927109
0.9,31.22216339489486,131.010445188043889,16.4809384810418393,-14.8875313912561094,-0.00197572312121420011,29.6298956742779325,0.00108175195336048641,5.64068229496298112,339.378142354214447,27.934886083637295,13.7749884930334527,70.168350593112379,0.00359771409933466822,113.703860023750181,477.217226906204814,15.2880000000000003,0,11.3674458081363632,0.0821058343080726671,-7.71482724209756438e-08,0.0204752622343029947,5.74026202011018505e-05,-0.00151581352809676182
0.91,31.222162901980159,131.010446521174288,16.7605114044281329,-14.7031491807712076,-0.0019313890487750833,22.5866179289131459,0.00109637515114426607,5.67821882402622347,277.742181023078899,28.1758314172216977,13.9121486100197771,70.1802838882112638,0.00369090658276187596,113.703959831391984,485.471928690305731,15.2880000000000003,0,11.3993632778952687,0.0828142787625795879,-8.14673676752901139e-08,0.0212552110189270366,5.72834143969803809e-05,-0.00158708395716945934
0.92,31.2221624042858039,131.010447867187594,17.0423179984548803,-14.5115595248396012,-0.00188630419445608459,26.8428362484458418,0.00111141513586804071,5.7177270558440938,315.028134248062145,28.4348226443730496,14.0555440583118489,70.1926665656254443,0.00378410375561905824,113.704059645811853,494.42444664005086,15.2880000000000003,0,11.4310911609555141,0.0835757703714270078,-8.58641605312835277e-08,0.0220449288183125966,5.71636213476554102e-05,-0.00166113607981649794
0.93,31.2221619017249168,131.010449226319935,17.3264256717097176,-14.3455757843303466,-0.00184462730408661347,31.8836552434654976,0.00112533002869807399,5.7537468552008022,359.162507065472823,28.6487099054446013,14.183078902540224,70.2055044970917521,0.003877312030493788,113.704159473716857,501.876866894116802,15.2880000000000003,0,11.4626461226506642,0.0842046987898046884,-9.03347106419109239e-08,0.0228448930350644772,5.70432172344321393e-05,-0.00173431641735891681
0.94,31.222161394193666,131.010450598853538,17.6129157247025461,-14.1614425447952481,-0.0018008109543803121,23.1815868733228498,0.00114017570958889177,5.79360157920453656,283.068750483778672,28.9018631867472244,14.3242723308286468,70.218803390933175,0.00397053804194500478,113.704259322068324,510.771634329269204,15.2880000000000003,0,11.4940278479365201,0.0849490451442776601,-9.48757125770171834e-08,0.0236553680243342113,5.69222094160002623e-05,-0.00181166434407834562
0.95,31.2221608819547889,131.01045198407374,17.9015815308201489,-13.9827870554918086,-0.0017578557149224459,29.9641890009901317,0.00115483306559532287,5.83331361252566349,342.421873617487279,29.1485183304716493,14.463092486824527,70.2325691959497647,0.00406378858487917768,113.704359197470893,519.512517344966568,15.2880000000000003,0,11.5252235775622189,0.0856742988726158783,-9.94870734970546792e-08,0.0244755288717396907,5.68007475486763337e-05,-0.00189042179295020201
0.96,31.2221603647362436,131.010453382720272,18.192636688752696,-13.8176693596593356,-0.00171671410118673698,29.3513626324118917,0.00116888061643602393,5.87135586984476276,337.095335156783449,29.3713104814463328,14.5935226755435892,70.246807770576936,0.0041570706651424677,113.704459107505329,527.469748468830517,15.2880000000000003,0,11.5562582630983215,0.0863294205198446574,-1.0416297784067983e-07,0.0253064469143318149,5.66787371096844626e-05,-0.00196948421416138749
0.97,31.2221598425537863,131.01045479475016,18.4860690177014888,-13.6494555244445301,-0.00167533421339122798,18.8124122400258713,0.00118313747427339065,5.91070263011248542,245.021887192993233,29.6040088278242557,14.7273299003941904,70.2615250973471746,0.00425039148108792997,113.704559059541893,535.845662198018658,15.2880000000000003,0,11.5871288849887257,0.087013665616654301,-1.08901151258143848e-07,0.0261480771679066457,5.65562305326685759e-05,-0.00205104906790251661
0.98,31.2221593156687227,131.010456219452749,18.7816731668333539,-13.4649949317110362,-0.00163218249037716708,27.3403957056781799,0.00119830623569501114,5.95398164634052662,319.593746642958081,29.8757422606126113,14.8745836607348334,70.2767270761667078,0.00434375845986217229,113.70465906083912,545.712306125881469,15.2880000000000003,0,11.6178142699328131,0.0878126517639735149,-1.13702652513098841e-07,0.0269993997777468984,5.64334021307490489e-05,-0.00213720534102825347
0.99,31.2221587839428203,131.010457657203773,19.0795580764841901,-13.3142813891732974,-0.00159320109375705316,29.861524880732798,0.00121174816462402612,5.9914259747831986,341.660948551705417,30.0778878227361304,14.9975923230658434,70.2924197458281697,0.00443717922191240281,113.704759119419634,553.106273785786016,15.2880000000000003,0,11.64833820765549,0.0884071078098227908,-1.18562403369295465e-07,0.0278611648039654609,5.63102048422876172e-05,-0.00222027933364025076
1,31.2221582473733612,131.010459108010735,19.3797269055194086,-13.1478356625114614,-0.00155250811614539514,26.7200633768810647,0.00122607264451027082,6.03273145947414324,314.26720818227642,30.3180528044388318,15.1336906921767138,70.3086086867154734,0.00453066965348794017,113.704859254747603,561.958188136856734,15.2880000000000003,0,11.6786913935079184,0.0891133199585699975,-1.23478580342563393e-07,0.0287332246299194412,5.61867062220463041e-05,-0.00230799128518357176
1.01,31.2221577061225481,131.010460571432276,19.6820523651680297,-12.9866301257446448,-0.00151258633569748046,27.9345554016380184,0.00124015521641070267,6.07371176067551488,324.920316103697928,30.5500580425628065,15.2668495968172682,70.3252998678119638,0.00462422237373528826,113.704959452932201,570.575162145248783,15.2880000000000003,0,11.70886953887773,0.0897955552052599471,-1.28450656947177083e-07,0.0296150682551955327,5.60630172563634203e-05,-0.00239695929280321542
1.02,31.2221571601193482,131.010462047661662,19.9865915453404241,-12.832112455573581,-0.00147357689559776748,23.3081459882818223,0.00125389721754476293,6.11398665858888002,284.590631615404163,30.7698793684528127,15.3956943505590971,70.3424989462231025,0.0047178532219691394,113.705059733298199,578.798860153161172,15.2880000000000003,0,11.738880252628654,0.0904419851634045702,-1.33475098549135437e-07,0.0305069937846451367,5.5939152275604792e-05,-0.00248684309710393717
1.03,31.2221566094245624,131.010463536533564,20.2932977739108651,-12.667928422847174,-0.00143363596239181571,19.0278964031068192,0.0012682258677384952,6.15711653060531727,247.30469339049705,31.0160253043583403,15.5335007377604555,70.3602115076658805,0.00481157077818152555,113.705160104577772,588.078864356351119,15.2880000000000003,0,11.7687180861001259,0.0911657980541294155,-1.38550627732707618e-07,0.0314087317149066986,5.58151948115313069e-05,-0.00258075588687148349
1.04,31.2221560540922667,131.010465037900786,20.6021293783500106,-12.5169961299282573,-0.00139533026955874335,30.271728683621113,0.00128181865967694447,6.19803502525038486,345.465636880722968,31.2337657429087585,15.6613939912435018,70.3784433582466278,0.00490538383936190477,113.705260575734158,596.347086241592706,15.2880000000000003,0,11.798387455863276,0.0918061252287792895,-1.43675280563866555e-07,0.0323201870068899819,5.5691207726648009e-05,-0.00267421127695205733
1.05,31.2221554938656105,131.010466552461992,20.9132915475015473,-12.3587945875561402,-0.00135637334199916826,18.2252164686276501,0.00129586741636200371,6.24136583319755456,240.456258798199826,31.4726584661716089,15.7964554870394753,70.3972001368950089,0.0049993014568325625,113.705361156434464,605.486246239231605,15.2880000000000003,0,11.8279050803007593,0.0925086329133731761,-1.4884270410577585e-07,0.0332423740934979159,5.55671301537261062e-05,-0.00277146873763237014
1.06,31.2221549289566624,131.01046807964039,21.2266178348604377,-12.1949428011189251,-0.00131698752058769766,25.9833007328746781,0.00131029893688930864,6.28688644172129596,308.179683655939243,31.7298214197439243,15.9376420076137464,70.416487788773594,0.0050933329164100094,113.70546185591995,615.403001966329384,15.2880000000000003,0,11.8572582750693183,0.09326485029476414,-1.54054406723889525e-07,0.0341744456343913358,5.54431149804316539e-05,-0.00287237116893105304
1.07,31.2221543592606068,131.010469619721079,21.54219296585417,-12.0509676330294546,-0.00127987284012065473,30.6023915299432403,0.0013235335306745128,6.328355443280409,348.509368144030759,31.9395946264524504,16.0624479219179932,70.4363123808826543,0.00518748775766260731,113.705562684141697,623.54814361047147,15.2880000000000003,0,11.8864642942366725,0.0938817801613522074,-1.59305596911718181e-07,0.03511700935157272,5.53191521446089131e-05,-0.00297101751441582141
1.08,31.2221537846874,131.010471172949025,21.8600908335847421,-11.9050549891559001,-0.00124268409340545869,20.553999019467561,0.00133689339592945678,6.3709949940448718,261.001578574662346,32.1570950470806025,16.1897930431373354,70.4566797239533287,0.00528177580425346314,113.705663651323633,632.050164598975812,15.2880000000000003,0,11.9155251002469704,0.0945214299996343377,-1.64592994671714784e-07,0.03607035065920592,5.51952724694790089e-05,-0.00307236070414403182
1.09,31.2221532054828721,131.010472738655608,22.1801182983991332,-11.742384891802752,-0.00120394830103748361,18.8847443819203207,0.00135134342102234619,6.41873470336000551,246.543753324744074,32.423010074427367,16.3335282180685297,70.4775956456378907,0.00537620715653293248,113.705764767497982,642.526794088015549,15.2880000000000003,0,11.9444233008288538,0.0953033954149977713,-1.69919707344100648e-07,0.0370333799539629346,5.5071655200583433e-05,-0.00318037521745394292
1.1,31.2221526217144998,131.010474316657422,22.5022237316165388,-11.5913043786960372,-0.00116657639544015903,38.0078751060144029,0.00136507008108933308,6.46429787197652495,413.189061738584087,32.6616305305212435,16.4677648874849929,70.499065983543602,0.00547079219436512419,113.705866043237137,651.998906667519236,15.2880000000000003,0,11.9731647124317071,0.0960051394520125972,-1.7528407567368742e-07,0.0380059696371215575,5.49483741027144266e-05,-0.00328781915049561682
1.11,31.2221520330250755,131.010475907926178,22.8266944919015167,-11.4608716027848807,-0.00113137843276261713,27.7773349706517863,0.0013774207519597233,6.50494843734386308,324.159391037639693,32.8454635784496674,16.5832183680388319,70.5210966566914692,0.00556554158125556302,113.705967490007126,659.338446360491616,15.2880000000000003,0,12.0017773219507635,0.0965458492429018267,-1.80676322235494746e-07,0.0389897346919936064,5.48253267183078082e-05,-0.00339180114584008291
1.12,31.2221514394717623,131.010477512306466,23.1534885573413121,-11.2972545173705505,-0.00109310642005819303,10.3737207084357976,0.00139201089473105699,6.55562196144990761,172.73281794065943,33.1265693941480066,16.7316218249012323,70.5436933408930713,0.00566046628484667691,113.706069119000048,670.651501598992013,15.2880000000000003,0,12.0302484955587285,0.0973724898530070743,-1.86097049555147506e-07,0.0399842524768702703,5.47026278262043334e-05,-0.00350797522867438106
1.13,31.2221508415781912,131.010479128374072,23.4821896049558028,-11.1543456450191041,-0.00105701519277487214,32.7437043004196724,0.0014051961509405431,6.60124694630031073,367.532807790070478,33.3520718554285978,16.8609211325119475,70.5668623456330124,0.0057555775861930468,113.706170941065253,679.791766355040181,15.2880000000000003,0,12.0585590646899199,0.0980356971457558152,-1.91554534354347367e-07,0.0409874214377984256,5.45805530076788029e-05,-0.00362035182761488543
1.14,31.2221502387596175,131.010480757719677,23.8132690338765265,-11.0260664400048132,-0.00102241065599033331,18.0429680567686184,0.00141733261544922076,6.64323182806717494,239.695317731955441,33.5366675066930853,16.9762290670991405,70.5906091405388878,0.00585088706647094933,113.706272968936972,687.315698764159379,15.2880000000000003,0,12.0867473011982067,0.0985786693254577656,-1.97033382440473383e-07,0.0420018421618007301,5.44589170518719262e-05,-0.00373036901369764142
1.15,31.222149631447877,131.010482399168836,24.1463849309293757,-10.865184644462353,-0.000984996814796676229,17.7681713399697188,0.00143177670053876334,6.69582003013633376,237.412511535467729,33.8227618359098798,17.1257050380671423,70.6149391409863938,0.00594640662962373553,113.706375214238918,699.070043275433818,15.2880000000000003,0,12.1147784667729592,0.099419997170057603,-2.02543349781612978e-07,0.0430253550341240937,5.4338001920730387e-05,-0.00385374687169089299
1.16,31.2221490197645686,131.01048405239078,24.4814422770656286,-10.7429161150977244,-0.000951210664236991116,46.8065731481160441,0.00144340927623106958,6.73720054559597337,490.043774384589426,33.9935433494014561,17.2360056325335051,70.6398583572435115,0.00604214852181194327,113.706477689383391,706.124778794470558,15.2880000000000003,0,12.1426647552917188,0.0999223770916874282,-2.08082845120065324e-07,0.0440577428280352137,5.4217895403228206e-05,-0.0039660150433927753
1.17,31.2221484029462353,131.010485719462736,24.8190593671232484,-10.6043775002144987,-0.000916107651850628585,8.11583306153033668,0.00145618860938621269,6.78434029936376159,153.709379294867944,34.2170117519366244,17.3639771794355795,70.6653720272252173,0.00613812528825620918,113.706580408348657,715.416007403855929,15.2880000000000003,0,12.1704269923687853,0.100579634867830642,-2.13632611488800462e-07,0.0451023366531112593,5.40983717051819567e-05,-0.00408660549440626342
1.18,31.2221477820050026,131.010487397631437,25.1584260197932821,-10.4442349861347505,-0.000879387693223050173,22.6327062220549422,0.00147057818299345779,6.83940465466018743,280.025018221967457,34.5138147059573939,17.5163763188979686,70.6914858061168445,0.00623434985493996185,113.706683382982803,727.857337264931402,15.2880000000000003,0,12.1979902153528741,0.101452464667878828,-2.19217385243387523e-07,0.0461542803484063374,5.39799457356098672e-05,-0.0042180564038552075
1.19,31.2221471564877504,131.010489088129674,25.4999104018816141,-10.336053199485578,-0.000847138037720076621,39.6964613131782045,0.00148096652632116093,6.87773621826208625,428.407813052929214,34.6438363484952419,17.6125158486210438,70.7182055236660432,0.00633083550605766359,113.706786627579376,733.327630817841396,15.2880000000000003,0,12.2254318964594955,0.101835052364509543,-2.24819728426037604e-07,0.0472161590637770537,5.38624625441200239e-05,-0.00433121581040987746
1.2,31.2221465260097943,131.010490792004475,25.8438291477071225,-10.1888201081185663,-0.000811834387875620504,3.86399035666631141,0.00149431375066155932,6.93009218660212323,117.184374136023607,34.9053086428693575,17.7526438405162068,70.7455360571068042,0.00642759582013847225,113.706890156640085,744.414304239924491,15.2880000000000003,0,12.2527555168320674,0.102604044595833055,-2.30431216885301998e-07,0.0482893540830143797,5.37458943101388505e-05,-0.00446294691884377859
1.21,31.2221458915798813,131.01049250651144,26.1893708432743395,-10.045204962113802,-0.00077704276125276897,31.7952357254236802,0.00150735519272223936,6.98204790126320507,359.923432132008998,35.1589604125368353,17.8898500830819245,70.7734832436830601,0.00652464484180565081,113.706993983163898,755.247645317404476,15.2880000000000003,0,12.2799143998331477,0.103350056194010637,-2.36076670764039413e-07,0.0493691138062537643,5.36307160681743735e-05,-0.00459574352682201766
1.22,31.2221452524357197,131.010494233724842,26.5371570791789573,-9.93657719799987049,-0.000745046156016575603,22.9332639933059959,0.001517521376374308,7.0218797523587142,283.068750482576149,35.2934192824755826,17.9870326659975461,70.8020522607661036,0.00662199692695460574,113.70709812298378,761.009873403149868,15.2880000000000003,0,12.3069650568282221,0.103745706354828396,-2.41730042704423173e-07,0.0504594015796526463,5.35166874511808135e-05,-0.00471504399658897663
1.23,31.222144608888005,131.010495972799731,26.8869424844004747,-9.79255613480752096,-0.000710557301597612993,8.71960413315788152,0.0015304856727462535,7.07544192021360363,159.796873822227951,35.5544308618741027,18.1262637277177525,70.8312476544149945,0.00671966675765126985,113.707202590745368,772.281603865336706,15.2880000000000003,0,12.3338755624060354,0.104513367641979341,-2.47401958874232089e-07,0.0515582678697156863,5.34040547528142674e-05,-0.00485319090802971767
1.24,31.2221439613624199,131.010497722578066,27.2383856009935421,-9.66250400183054658,-0.000677273291620825841,38.5131427934712178,0.0015422416060887705,7.12441957213622334,418.515630199805003,35.7688708769098511,18.2496841972715096,70.861074654045737,0.00681766949175034026,113.707307401416202,781.599058751876214,15.2880000000000003,0,12.3606361772193463,0.105144137840144425,-2.53101197216123167e-07,0.0526637389959145608,5.32930479336038426e-05,-0.00498697951745111136
1.25,31.2221433091576728,131.010499484968335,27.5920627388262609,-9.5521562954866237,-0.000645465909191086365,18.4201340248677958,0.0015522350097107924,7.16608960230274139,244.260946125734876,35.9119793535334608,18.3492180238049905,70.8915379217413886,0.00691602061411743067,113.707412571898701,787.839037177315163,15.2880000000000003,0,12.3872272777804628,0.105565232741437517,-2.58802758228759896e-07,0.0537794544771489844,5.31834884438955684e-05,-0.00511283342791539041
1.26,31.2221426527478272,131.010501258681046,27.9475946077197506,-9.40603862603284568,-0.000611425859221225061,10.6850104404471367,0.00156518887636113071,7.22275751211350592,177.298446336408631,36.1909781465222125,18.4936112995485296,70.9226417878551416,0.00701473598238866458,113.707518117808547,800.100644584082943,15.2880000000000003,0,12.4136737125654033,0.10638579186462474,-2.64523119096396876e-07,0.0549026029191118994,5.30756745274850309e-05,-0.00525998289541308554
1.27,31.2221419922901759,131.010503043288338,28.3048572478045557,-9.29099322639459224,-0.000579567303757513841,36.9899300210086466,0.00157537097409877645,7.26725724606636359,405.579686079964688,36.3546606674713786,18.5995185875214588,70.9543915364389761,0.00711383203291729611,113.707624055801404,807.326603318072216,15.2880000000000003,0,12.4399888191057553,0.106867378436005092,-2.70261243796471746e-07,0.0560327641031650517,5.29697197790592993e-05,-0.00539235298132964991
