Time,Latitude,Longitude,Altitude,Angle of Attack,Angle of Sideslip,X-Acceleration,Y-Acceleration,Z-Acceleration,Thrust,True Velocity,Ground Velocity,Pitch,Roll,Yaw,Dynamic Pressure,cp,cg,parachute_deploy_gain,Wind Speed,Wind Direction,Mach,omega_x,omega_y,omega_z,Cmq,Angle of Attack(total),Angle of Attack(gust),True Velocity(gust),Acceleration
0.0,31.222216000000007,131.010392,3.000000004412624,0.0,0.0,0.0,0.0,0.0,2.2828121974499247,0.0,0.0,69.99999999623412,0.0,119.9999999935444,0.0,1.274,1.0271675151847728,0.0,0.0,0.0,0.0,0.0,0.0,0.0,-0.0,0.0,90.0,0.0,0.0
0.01,31.22221599999084,131.01039200000497,3.000002745347096,0.0,0.0,0.0,0.0,0.0,34.242186961749226,3.465174813755316e-14,2.8705476994166025e-14,69.9999999962611,-2.1713911667908447e-11,119.99999999352175,7.352495975525499e-28,1.274,1.0271659134330349,0.0,0.0,0.0,1.0183245502395064e-16,-3.3305335486039093e-18,7.169286865560398e-18,5.624298769768554e-18,-7.715917190115602e-34,0.0,89.99999999999979,3.465174813755316e-14,0.0
0.02,31.222215999994315,131.0103920000094,3.0000030495639742,0.0,0.0,0.0,0.0,0.0,25.871876237766216,3.8197434737535036e-11,2.4171837235633357e-11,69.99999999628672,-1.1921727947863515e-11,119.99999999353136,8.93414285188691e-22,1.274,1.027164492361118,0.0,0.0,0.0,1.1225230367947217e-13,-6.657678965418802e-18,1.4338573731120796e-17,1.1241821275959074e-17,-1.7010872994127372e-30,0.0,89.99999999975682,3.8197434737535036e-11,0.0
0.03,31.222215999994315,131.0103920000094,3.0000030495639742,0.0,0.0,9.81877837424427,-2.5122800045972096e-05,3.3498614629347925,180.34219359854663,1.2659015405517447e-10,1.1364406173918436e-10,69.99999999631459,-1.6431898037347223e-11,119.99999999352724,9.812605835254651e-21,1.274,1.0271551940870716,0.0,0.0,0.0,3.720154642239108e-13,-9.991600645811728e-18,2.150108433310316e-17,1.6859343782149594e-17,-8.453698244545225e-30,0.0,89.99999999919412,1.2659015405517447e-10,10.374487003414373
0.04,31.222215999994315,131.0103920000094,3.0000030495639742,18.83801224594347,-0.0001111777826462,48.68248476615645,-1.016330065874988e-05,3.3497854396877287,548.635972453808,0.1556173050466994,0.0975908358443652,69.99999999633813,-2.0932768807056278e-11,119.99999999352085,0.0148286043323172,1.274,1.027133720825283,0.0,0.0,0.0,0.0004573186944143,-1.3322134194415637e-17,-1.04744143520903e-11,1.336824254131964e-11,5.0626055458604615e-15,18.83801224625964,89.06236267790787,0.1555998412814392,48.79759610369246
0.05,31.22221599164764,131.01039201704114,3.002326315126219,5.772385609593056,-4.395076213712875e-06,71.20344550265034,4.905512691849684e-05,3.349217396035405,761.6984298824663,0.8326471944351852,0.3620326097059287,70.00000001316391,-1.0866255162484559e-10,120.00000000231074,0.4245281043148827,1.274,1.027093426565204,0.0,0.0,0.0,0.0024469331205246,-5.0245994431125096e-18,-7.32924164976824e-07,2.217344936947165e-11,1.895424184525467e-09,5.772385609594774,84.74112356985832,0.8326465040582279,71.28217104309611
0.06,31.22221596664444,131.01039206837547,3.015081730143309,4.056581213689704,3.169093567502233e-05,53.16249142470188,0.0001203825427859,3.3481235983850643,590.4875390737236,1.657216205300742,0.6755452977614796,69.99999964391398,-3.9285905645317736e-10,120.0000000287861,1.6816755551786196,1.274,1.027050317124926,0.0,0.0,0.0,0.0048701272653724,3.095757869075056e-13,-7.483541766772344e-06,3.074135420506017e-11,3.8518749565858254e-08,4.056581213813337,79.59316473687034,1.657221183301277,53.26781792157489
0.07,31.22221592883117,131.0103921460222,3.034593611434361,4.115662018628709,6.450869598349036e-05,81.18203554989698,0.0001593212642178,3.347059402768047,855.2937749779172,2.099899704220947,0.8579771146174259,69.99999543281565,-8.233801910783518e-10,120.00000006883089,2.700101932075157,1.274,1.027003201295312,0.0,0.0,0.0,0.006171060252819,3.4704292086287e-12,-2.6327204536316785e-05,1.9541142932033486e-10,1.7170712165327165e-07,4.115662019133419,76.90111966094352,2.099909837223217,81.2510043180746
0.08,31.22221588914193,131.01039222747755,3.0542761843835606,3.459696193892355,8.037433511260004e-05,16.298214211652088,0.0002413456836072,3.344878926597744,241.2171988638792,3.051964775152957,1.2149999716613011,69.99998042886442,-1.0128995578004475e-09,120.00000011111383,5.703497661025892,1.274,1.0269597189470347,0.0,0.0,0.0,0.0089689344021769,1.458982438104473e-11,-5.702803872814215e-05,7.043261397829576e-10,5.405702492731987e-07,3.459696194824858,71.30331929508368,3.051977400323993,16.63790856991177
0.09,31.2222158241468,131.01039236098703,3.0886872184095737,4.313676956300389,0.0001337561018991,50.35975918308536,0.0002293282821279,3.344215841840564,563.0937377043203,2.893161298572128,1.191209213966114,69.99994788602814,-7.098432023887522e-10,120.00000018106356,5.125380275808925,1.274,1.026918932011013,0.0,0.0,0.0,0.0085022553945842,3.8672912027154325e-11,-0.0001115933708951,2.016054215232918e-09,1.0027525988343615e-06,4.313676958370176,72.2316578138625,2.893182308931483,50.47067588835877
0.1,31.2222157788302,131.01039245392113,3.109877853389092,4.035124630954496,0.0001457499816535,47.804664812504015,0.0002878217657545,3.341734392237128,538.7437595981891,3.5677148583138303,1.4531247507621967,69.99988403958329,1.9248461973355822e-09,120.0000002323013,7.7939962029572305,1.274,1.0268846934974103,0.0,0.0,0.0,0.0104845969583028,8.579678749070606e-11,-0.0001726817043215,3.984565639703107e-09,1.913455350430327e-06,4.0351246335824245,68.43243098813296,3.567737752667411,47.92132267234452
0.11,31.222215703308,131.01039260899836,3.148841432727305,4.043401107254707,0.0001752764476999,37.67622367577205,0.0003286462930162,3.3392563999062723,442.86563930529127,4.034183355956686,1.6436552022667772,69.99978525353545,7.302513231814865e-09,120.00000031883242,9.96528118825134,1.274,1.026848594915519,0.0,0.0,0.0,0.0118554331868328,1.5870341853361987e-10,-0.0002596204409236,7.232030302688121e-09,3.252930323390323e-06,4.04340111104746,65.92012987243639,4.034210888316708,37.82391391539392
0.12,31.222215627491828,131.01039276462643,3.186995101203875,4.17874459224363,0.0002066711490009,41.15991989399172,0.0003576945202315,3.336766085769504,475.58594813540793,4.361857560629481,1.7865750500940407,69.99963665601238,1.781774420198147e-08,120.00000041104812,11.649831899889556,1.274,1.0268114448194128,0.0,0.0,0.0,0.0128183893919737,2.682972478760441e-10,-0.0003710216542429,1.2215991071490164e-08,5.026311388647148e-06,4.178744597345269,64.21681651392016,4.361890024457652,41.29495143136631
0.13,31.22221554594398,131.01039293200228,3.2277173449026786,4.202734874672792,0.0002327160860324,45.44886120763352,0.0003953741266062,3.333578629398489,515.9156326236897,4.792165672014363,1.9646716520715424,69.99942424225341,3.613383418913551e-08,120.00000051758742,14.061726603124043,1.274,1.026779572895131,0.0,0.0,0.0,0.0140829618979635,4.248908088871395e-10,-0.0005056103199642,1.908859219307828e-08,7.5253154423526356e-06,4.202734881104192,62.048594618540655,4.792202226971676,45.570952718869485
0.14,31.222215454191247,131.01039312033683,3.2737880595608355,4.184830647080848,0.000257138757548,42.32232525579263,0.0004369426767266,3.329727443445437,486.2390860568421,5.269261304374574,2.158791628597544,69.99913473613935,6.515851355725497e-08,120.00000064630268,17.000925061330125,1.274,1.0267449573927567,0.0,0.0,0.0,0.0154850332441425,6.382432869666793e-10,-0.0006690086306358,2.8426433029675884e-08,1.0948547100483978e-05,4.184830654966803,59.74181173116622,5.269301695636157,42.45310707234106
0.15,31.222215353826755,131.0103933263496,3.3242182719560263,4.21963947489699,0.0002846467688673,40.886944113003565,0.0004726792395108,3.325585650885676,472.5421858721398,5.6781946837482895,2.329510773545807,69.99875162806286,1.0876776246115984e-07,120.00000079954532,19.742017654108928,1.274,1.0267115958081523,0.0,0.0,0.0,0.0166867950518804,9.204756288136623e-10,-0.000865746478554,4.08948221429571e-08,1.526771148078443e-05,4.219639484480408,57.84996018384879,5.678239395958187,41.02196629910223
0.16,31.222215247130432,131.01039354534575,3.3775922280208457,4.253495568077899,0.0003118339050386,32.26872905470846,0.0005078415214353,3.32090791922544,391.1218908297597,6.081244877834229,2.4981889727471702,69.99825581174558,1.7187028096464329e-07,120.0000009800088,22.644030778355887,1.274,1.026675762255412,0.0,0.0,0.0,0.0178712695992133,1.2856146928958252e-09,-0.0010961187242953,5.6923362293832417e-08,2.0702404729358337e-05,4.253495579487569,56.06022383757386,6.081293860589489,32.43916312841722
0.17,31.22221513260033,131.01039378041813,3.4348437275053194,4.364838523348639,0.0003448792023946,40.840448242802736,0.0005326487904353,3.3162727284953744,471.78125980632416,6.362544479165355,2.6250789114832647,69.99762801982864,2.5997588617291615e-07,120.00000119506798,24.78723182122683,1.274,1.0266409836796937,0.0,0.0,0.0,0.0186979513961862,1.747791994374917e-09,-0.0013624931601664,7.706724512977917e-08,2.6923621797558364e-05,4.364838536947241,54.85936171416122,6.362598652663785,40.97486885600156
0.18,31.222215014088988,131.01039402363364,3.4935801365785646,4.353948305387995,0.0003681615230806,33.992183768165326,0.0005718025428208,3.310131992647221,407.1015672119096,6.81502088160835,2.810667639293692,69.99684761766231,3.794979223522764e-07,120.00000144728236,28.437950785509614,1.274,1.0266048342046536,0.0,0.0,0.0,0.020027681385988,2.3221419748804155e-09,-0.0016616990447559,1.0147209890543081e-07,3.517105786247627e-05,4.353948320923495,52.99157233768714,6.815078712285162,34.152972512863755
0.19,31.22221488419521,131.01039429023237,3.558399965607869,4.432620772533925,0.0003996774584738,38.45149959021069,0.0005986099513107,3.304145139297767,448.95313283182486,7.1223367465208405,2.946425726785696,69.99589577323147,5.440084577183829e-07,120.00000176148238,31.060341085698347,1.274,1.026566130444714,0.0,0.0,0.0,0.0209308229359413,3.022391489754689e-09,-0.0020041563310821,1.3135864879722746e-07,4.433199397898183e-05,4.432620790516937,51.77883352025967,7.122399527709208,38.59320142454953
0.2,31.222214751373183,131.01039456280608,3.624052454705669,4.443889400961181,0.0004246617145652,35.23432408779927,0.0006337972852267,3.2968110145188256,418.5156301991588,7.530482904611057,3.1167566004785483,69.99474776398331,7.478025600151903e-07,120.00000211715036,34.72195181863731,1.274,1.026529240027363,0.0,0.0,0.0,0.0221302820454282,3.866698391504749e-09,-0.0023849544920781,1.668144671071589e-07,5.57780533277244e-05,4.443889421210987,50.22448880200342,7.530549610317194,35.38822625098952
0.21,31.222214608673173,131.01039485566503,3.6948551453492566,4.493351735844891,0.0004538195602194,33.79371564104691,0.0006629296043866,3.2891790438445727,404.8187610144608,7.868284042829251,3.2629204975089228,69.99338155599101,1.0150082652278477e-06,120.00000255293388,37.906665490338085,1.274,1.0264923657015164,0.0,0.0,0.0,0.0231230169900677,4.871073773182836e-09,-0.0028117605859743,2.089322918608601e-07,6.870935089180403e-05,4.493351758715364,48.992529909481824,7.868355328639073,33.95340801819282
0.22,31.22221446109996,131.01039515850383,3.767700382407304,4.5412639153933885,0.000482649303782,41.008966751568416,0.0006914639179131,3.2808061382386606,472.5421858721387,8.20057841132235,3.4071691679735228,69.9917708347139,1.3454961520984431e-06,120.00000305929996,41.175744234065135,1.274,1.0264494137127138,0.0,0.0,0.0,0.0240995709751246,6.054779813287368e-09,-0.0032829112061357,2.580881224843564e-07,8.3609968899004e-05,4.54126394098788,47.82515604752711,8.2006542256977,41.13999323561041
0.23,31.22221430675399,131.0103954752338,3.843768625625224,4.52371495179584,0.0005047555656171,33.98493478127787,0.0007294889663961,3.2705214710765107,406.340642146096,8.647938096586296,3.5908865300848416,69.98989017772566,1.7539876018835507e-06,120.00000365514876,45.79040229326471,1.274,1.0264133390858623,0.0,0.0,0.0,0.0254142776666487,7.436335125872812e-09,-0.0038001790077148,3.1489825108822685e-07,0.0001020628978177,4.523714979897577,46.31461705147579,8.648017383405135,34.14194053232237
0.24,31.222214142622448,131.0103958120587,3.92493179063287,4.57837522350066,0.0005351929930195,35.051650311058864,0.0007555049947555,3.26053011385611,416.2328240017099,8.954297884844461,3.72617527247482,69.98771316795013,2.25257161141768e-06,120.0000043564586,49.09180568115741,1.274,1.0263750048312463,0.0,0.0,0.0,0.0263146218848643,9.034877387788232e-09,-0.0043732521010013,3.809642748985157e-07,0.00012161410144,4.578375254714954,45.32798984252032,8.954381952763216,35.20297212911011
0.25,31.22221397517227,131.0103961556623,4.0071748888306855,4.6034117733065,0.0005618935542827,36.03738579534623,0.000785606492708,3.249069743648399,425.3640807915084,9.311611941121669,3.8789349536029696,69.98520781816889,2.8559738498748624e-06,120.00000517181904,53.08749562138344,1.274,1.0263373768840591,0.0,0.0,0.0,0.0273647110956883,1.0873791100894836e-08,-0.0049950711786164,4.5609738277273444e-07,0.0001444478241125,4.603411807525074,44.2165428352526,9.311700203154778,36.183554686886296
0.26,31.22221379934012,131.01039651647062,4.09364247475714,4.621386912291471,0.0005881033207375,39.29107511182762,0.0008162761165496,3.236407051295005,455.80158342417656,9.67833954512075,4.034902068846398,69.98234620927953,3.5784678110229355e-06,120.00000612171208,57.350948423913096,1.274,1.0263006300381676,0.0,0.0,0.0,0.0284424679130479,1.2973286442992724e-08,-0.0056712051373577,5.414206381221602e-07,0.0001704578711045,4.621386949630312,43.12063533194282,9.678431924174348,39.42414126789902
0.27,31.222213616776543,131.01039689108487,4.183310605341074,4.617158109135719,0.0006115457810536,35.90419462403674,0.0008503454714941,3.221982799915672,423.8421996598744,10.088790784535757,4.205862468567124,69.97909721779352,4.436165972465058e-06,120.000007221354,62.31798301949865,1.274,1.026260090595354,0.0,0.0,0.0,0.0296487219805601,1.5355910600537293e-08,-0.0064045199323113,6.379142666348734e-07,0.0002006609239367,4.617158149547818,41.94410287616451,10.08888684592241,36.048472443180565
0.28,31.22221342607797,131.0103972823952,4.277051150896916,4.642105655370123,0.0006389739579882,41.51133203546672,0.0008785747638736,3.2071101123224945,476.3468732012228,10.432377224420517,4.35383399240675,69.97542808435722,5.446665372087172e-06,120.00000849080963,66.63429581008447,1.274,1.0262212716723291,0.0,0.0,0.0,0.0306584788590473,1.8045308789081613e-08,-0.0072006835403936,7.469524967369969e-07,0.0002332868227611,4.642105699250441,41.0023231023774,10.432477594215127,41.63503624837164
0.29,31.22221323001776,131.01039768469093,4.373143569786686,4.62134615173668,0.0006600657405645,33.17552944492765,0.0009148746278066,3.1894209319791806,397.9703104221098,10.876662296046485,4.536381530986506,69.9713027936179,6.629751536885327e-06,120.00000994797426,72.43000748232016,1.274,1.026183007522519,0.0,0.0,0.0,0.0319641703260467,2.1067646517035105e-08,-0.0080566154554079,8.688043379161898e-07,0.000272130659453,4.621346198772975,39.83162628795024,10.876765978930557,33.32848872465723
0.3,31.22221302403368,131.01039810736614,4.4744193758467325,4.664362353358112,0.0006905183788532,31.08096762732793,0.0009381960428197,3.172549142946348,378.1859457108735,11.168362145070317,4.66647911311536,69.96668711012893,8.005507138509574e-06,120.00001161892672,76.36634300732833,1.274,1.0261430389738484,0.0,0.0,0.0,0.0328214509167604,2.4447409007156216e-08,-0.0089829108229115,1.0056222251461646e-06,0.0003115527202986,4.664362404357781,39.09908960432563,11.168470611443622,31.242464973103964
0.31,31.22221281503337,131.01039853619727,4.576593712520673,4.700143580504286,0.0007196683316923,32.79732593144512,0.0009620705970519,3.154230688182399,394.1656220930229,11.470279728974068,4.800072153432283,69.96154070456518,9.597499105113692e-06,120.00001352112182,80.55022837857167,1.274,1.0261054058068628,0.0,0.0,0.0,0.0337087616009043,2.8214060606649844e-08,-0.0099686353219717,1.1565909895184251e-06,0.0003550834484269,4.700143635477137,38.36463422765983,11.47039277421126,32.94865339301887
0.32,31.222212598991007,131.01039897947376,4.68216432480395,4.718667719113184,0.0007464384342556,35.7316568886908,0.0009885845337584,3.133859770838664,421.5593934624264,11.808280530415894,4.946054328851105,69.95582953472353,1.14278227255889e-05,120.00001568218067,85.36654007972253,1.274,1.026068246703101,0.0,0.0,0.0,0.0347021168382987,3.2392058795580455e-08,-0.0110163301561155,1.3226102501723267e-06,0.0004039614423012,4.718667778018562,37.5686120062341,11.808397780690962,35.8688218659563
0.33,31.222212376029034,131.0103994369436,4.791055524254013,4.72141404831576,0.0007708346814671,35.42013590291081,0.0010176135371143,3.1111955852784385,418.5156301991632,12.181577273013426,5.104163223586657,69.94951809396906,1.351997394754887e-05,120.00001812674968,90.84831229869296,1.274,1.0260310883392356,0.0,0.0,0.0,0.0357992034445943,3.700677535501642e-08,-0.0121310534481307,1.5051409581878843e-06,0.0004588955105349,4.721414111097893,36.7208578211118,12.181698355442045,35.55651229220977
0.34,31.222212145785647,131.0103999093516,4.903491659547144,4.73024573449122,0.0007962944975467,27.63851074646407,0.0010446307681611,3.0871492806781062,345.4656368807584,12.53557620048282,5.2556261014174765,69.94256797855994,1.5899658158227497e-05,120.000020882338,96.20413272674828,1.274,1.0259901535019136,0.0,0.0,0.0,0.0368395817555172,4.208561016221623e-08,-0.0133180771902383,1.7057647550599631e-06,0.0005184333231541,4.730245801363397,35.94841996438923,12.535701282129995,27.810389570354005
0.35,31.222211909310875,131.01040039453565,5.018822212845608,4.780248518778662,0.0008286678570753,30.332092807652543,0.0010618579815451,3.063967690608957,370.5765700527057,12.774786382148209,5.367579971644358,69.93493776125636,1.8594985713558667e-05,120.00002397748868,99.9096898192772,1.274,1.025950003202184,0.0,0.0,0.0,0.0375426220587071,4.7658312175989686e-08,-0.0145774693288123,1.9252724355785177e-06,0.0005782798420984,4.780248590437683,35.44790728185619,12.774916548990808,30.486451961956565
0.36,31.22221166933814,131.0104008868675,5.135354490370708,4.798132156899578,0.0008554457330409,34.32674769697476,0.0010851169437774,3.0374319611165923,407.8625232777224,13.09301701329486,5.506730645516068,69.92658597246795,2.163521613217148e-05,120.0000274401514,104.94818266210537,1.274,1.0259105142325406,0.0,0.0,0.0,0.0384778908056978,5.3755109608570216e-08,-0.0158991451700967,2.162609490834569e-06,0.0006464142451675,4.798132232978766,34.796094028187134,13.09315138639638,34.46087058603792
0.37,31.222211421355144,131.01040139563804,5.255882891363927,4.797392186816851,0.0008791822061288,32.551601855236584,0.00111162791192,3.0078619428913056,391.1218908297639,13.457513730739372,5.661815946371007,69.91747693543164,2.5047738471809164e-05,120.0000313040604,110.87154396328836,1.274,1.025872170958032,0.0,0.0,0.0,0.0395491312153729,6.040098808671168e-08,-0.0172926678053148,2.420031948898497e-06,0.0007226353721561,4.797392267189059,34.07332166419882,13.457651832357364,32.69027405888565
0.38,31.22221116634284,131.01040191882743,5.379799334000849,4.811698494594017,0.0009057112478668,34.02947987649063,0.0011338447913587,2.9774881690446744,404.81876101445977,13.77554886562956,5.800899861213392,69.90756948297444,2.886339581486796e-05,120.00003560072224,116.17243393848278,1.274,1.02583050512925,0.0,0.0,0.0,0.0404838339452728,6.762496638941508e-08,-0.0187646375218858,2.69955777313946e-06,0.0008026686661094,4.8116985796350695,33.46655348088405,13.775691134419684,34.15949264475229
0.39,31.222210906095896,131.01040245274032,5.505993307722699,4.813508003664984,0.000929862892873,29.00025983045028,0.0011579891265804,2.9442136901860865,357.6406249338268,14.124492165837273,5.950648592462506,69.8968186645841,3.311602501056718e-05,120.00004036395212,122.13093644173792,1.274,1.02579027384009,0.0,0.0,0.0,0.0415093739609825,7.545934774906889e-08,-0.020311592409804,3.0013532510753577e-06,0.0008908380763632,4.813508093268025,32.821616487639595,14.124638228358922,29.149330452482886
0.4,31.222210638473225,131.0104030017851,5.635788650457906,4.841647069358873,0.0009592124397379,27.71178845184976,0.0011749448424961,2.91135549588368,345.4656368807565,14.390874239274588,6.07193451174791,69.8851815212744,3.783947407715338e-05,120.00004563180136,126.77947425345651,1.274,1.0257493418632293,0.0,0.0,0.0,0.0422922854866381,8.39343718693383e-08,-0.021938519432511,3.3271332720311508e-06,0.0009803271643914,4.841647164150728,32.348088166612904,14.391024912012275,27.864299944624147
0.41,31.22221036681104,131.01040355909262,5.767123077463226,4.86553909860892,0.0009876699832274,31.306062598221665,0.0011918093836199,2.876450850006428,378.9468707766882,14.663028799871563,6.195223154320929,69.87261222561014,4.307011032901644e-05,120.0000514391194,131.6183642808765,1.274,1.025708445186429,0.0,0.0,0.0,0.0430921644173401,9.308325447883581e-08,-0.0236371933433427,3.6760977501392174e-06,0.0010761942383903,4.865539198612839,31.87689439156756,14.663183942709727,31.437931330109585
0.42,31.22221008906472,131.01040412887247,5.901259531771367,4.867510642114694,0.0010118258958528,35.308283402190774,0.0012128114559048,2.8374461227958245,416.23282400171047,14.9952917972178,6.33928625560071,69.85906967380902,4.884273094936628e-05,120.00005782486392,137.64909586091787,1.274,1.0256701057426505,0.0,0.0,0.0,0.0440686959134695,1.0293499639582845e-07,-0.0254093547296826,4.049238334851429e-06,0.0011830797791891,4.867510747027452,31.315270489291198,14.995450734457847,35.422111438762386
0.43,31.222209804115888,131.01040471342728,6.038886819939341,4.854590670645608,0.0010330089741511,31.00586934514032,0.0012363751872706,2.794478603999558,375.90313951343126,15.369430568701889,6.497852263156962,69.8445117629242,5.519340856908871e-05,120.00006482835984,144.60167924299955,1.274,1.0256308158337524,0.0,0.0,0.0,0.0451682983415116,1.135186446762958e-07,-0.0272634397889413,4.449073329427772e-06,0.0013010625065656,4.854590780289497,30.70250814963406,15.369592833372094,31.13154422839874
0.44,31.22220951192321,131.01040531284193,6.180028459770617,4.866912332640401,0.0010595850174406,28.57707721036899,0.0012525768202179,2.752165534925872,353.07501253892326,15.659290812546615,6.627318538707029,69.82889155423543,6.216182865383864e-05,120.00007249162944,150.1053167542629,1.274,1.025586171750536,0.0,0.0,0.0,0.0460202245100907,1.2486676023179565e-07,-0.0292060158163984,4.8779154055816594e-06,0.001420032405556,4.866912447705031,30.24619499837236,15.659457251771938,28.709297424144207
0.45,31.222209215425703,131.01040592106523,6.322872201489905,4.881836476567178,0.0010866574689855,33.31904824532484,0.0012669045761511,2.7082028218433374,397.2093853562887,15.934249290371609,6.751662050993672,69.81215834018458,6.97909417564726e-05,120.00008085697964,155.42080512416243,1.274,1.0255397023523487,0.0,0.0,0.0,0.0468283602442113,1.3701614206272197e-07,-0.0312276295846745,5.334643585560923e-06,0.0015449645531859,4.8818365972149325,29.82567893138932,15.934419982127675,33.428929688274074
0.46,31.22220891307435,131.0104065412864,6.468371919199588,4.869610441729251,0.0011078049156487,38.95909776354321,0.0012868374716666,2.6582856015412624,449.7140588976424,16.292139278621757,6.904766425053949,69.79426683863348,7.812149592850748e-05,120.00008996920153,162.4785746623087,1.274,1.02549635315424,0.0,0.0,0.0,0.0478802236363867,1.499987870203256e-07,-0.0333272350234362,5.819761874615242e-06,0.0016858511402973,4.869610567434908,29.29014635640275,16.292313292210977,39.04968351401366
0.47,31.22220860266524,131.01040717804253,6.6178810515614845,4.838450928223533,0.0011247917292402,26.253747818137555,0.0013104398935566,2.6026193242279367,331.0078106302504,16.710658191447514,7.078951441335346,69.77517236812905,8.719457259907165e-05,120.0000998741591,170.9309671061642,1.274,1.025453319323251,0.0,0.0,0.0,0.0491102725711187,1.6384464803343264e-07,-0.0355167087264168,6.3368207228363735e-06,0.0018427306558807,4.838451058652396,28.68386015667837,16.710834873319172,26.382435512333956
0.48,31.222208284201663,131.0104078313267,6.771393590864176,4.869339340099417,0.0011561785713505,25.860860976019296,0.0013165328518772,2.5543454292827983,327.20312230115803,16.911139899671,7.177575416403102,69.75482343794755,9.70562828082882e-05,120.00011062072316,175.0543877818846,1.274,1.0254092882449153,0.0,0.0,0.0,0.0496995461609974,1.7858865391586845e-07,-0.0378054080201581,6.88909442277235e-06,0.0019849793891693,4.869339477030596,28.40887970825325,16.911321511776286,25.986704537635287
0.49,31.22220796480208,131.01040848648364,6.924537656029012,4.881367714530694,0.0011829003785372,32.565703383222065,0.0013261973190012,2.5011623511055703,389.6000096981238,17.169005224738054,7.296160258358563,69.73316318155707,0.0001077573203115,120.000122255028,180.4309832312717,1.274,1.025367445590036,0.0,0.0,0.0,0.05045746454003,1.942747077649401e-07,-0.0401641298712614,7.47069711110948e-06,0.002140948887153,4.881367857509675,28.058569663954906,17.169191034294997,32.66161128464712
0.5,31.222207637929923,131.01040915697027,7.081324512896956,4.862566137860805,0.001202418260511,33.47759680712428,0.0013425340759632,2.4399894027711366,397.970310422106,17.52898693231981,7.450304424940405,69.71015149227495,0.0001193385310595,120.0001348274002,188.0736471953394,1.274,1.0253278572281015,0.0,0.0,0.0,0.0515154948878309,2.109295159784217e-07,-0.0426011733481599,8.084173008518589e-06,0.0023184335011768,4.862566286171007,27.57768313050809,17.529175807738486,33.56639745442473
0.51,31.22220730314019,131.01040984370235,7.24202048914867,4.8479762258125,0.001223054804074,25.49162310288008,0.0013562860883156,2.3767006597692686,323.39843497208153,17.86914397471067,7.597652147346554,69.68574349602717,0.0001318441288964,120.00014838524436,195.4407439266201,1.274,1.025286455263166,0.0,0.0,0.0,0.0525152689856776,2.2858192086249162e-07,-0.0451315948093539,8.734206149830708e-06,0.002503767471626,4.847976379721193,27.13799345359824,17.86933609171003,25.602178740977283
0.52,31.222206962738102,131.01041054193402,7.405210501673173,4.865306299521403,0.0012516517170965,30.733671928447727,0.0013599291289974,2.317711624364424,372.098451184342,18.08534843773428,7.701914987606457,69.65988568649581,0.0001453248538387,120.00016298000436,200.19561780583155,1.274,1.0252426840672306,0.0,0.0,0.0,0.0531507657929359,2.4726951523704535e-07,-0.0477531686556663,9.421346966092632e-06,0.0026812161964639,4.865306460134566,26.8699055233151,18.085545046726228,30.820940596104087
0.53,31.222206619320115,131.01041124632013,7.569307468221277,4.848802699234936,0.0012715119568563,32.301199055744725,0.0013711327835325,2.2490252325653923,386.55624643486095,18.41963113311156,7.8474319110539055,69.6325258319474,0.0001598315062727,120.0001786629144,207.6614205945027,1.274,1.0251993415311351,0.0,0.0,0.0,0.0541332845214831,2.67031759303889e-07,-0.0504479325599339,1.0141887756417996e-05,0.0028848299490111,4.848802865552398,26.45837260670532,18.419830861742675,32.37940050117613
0.54,31.22220626697288,131.01041196903336,7.737918664599091,4.831496690588052,0.0012913635058467,28.31291960103712,0.0013809098107221,2.177242866245296,349.2703242098436,18.75116898748492,7.992112829440902,69.60362200959217,0.0001754082864028,120.00019548734956,215.20067397992847,1.274,1.0251561018460285,0.0,0.0,0.0,0.0551077428911958,2.878941684235108e-07,-0.0532336286085667,1.090122304443916e-05,0.003098869611663,4.831496862756785,26.061835558272342,18.751371834390056,28.396510432451375
0.55,31.222205908994248,131.01041270328463,7.909026079894722,11.26915367789886,12.12314324897902,30.280788740501023,-0.715987249178397,1.7136977663832424,365.2500005919912,20.6732111531256,8.113323699629928,69.57312211246325,0.0001921068626005,120.00021350480982,261.57466467513893,1.274,1.025112921033824,0.0,5.012807131891703,0.0,0.0607565429524601,3.0989272306468813e-07,-0.0561100530405476,1.1700476995263424e-05,0.003601060098754,16.494202625284505,36.86929337798087,22.56333263297584,30.33769214232267
0.56,31.222205546564343,131.01041344664463,8.081909946161325,-5.443923358997456,-11.151982829351144,28.139942619601367,0.3616916181504463,2.4436598900664874,346.22656194657776,18.44679042170119,8.246362755413777,69.54097415464405,0.0002099796112633,120.00023276987916,208.26400421931643,1.274,1.0250709539098009,0.0,5.031095570890197,165.0000707061107,0.0542134161984534,3.330095088065315e-07,-0.0638209163462282,0.0086918130477972,0.0036547560144649,12.394660151030315,15.31841058762552,16.706080747154616,28.2481621547211
0.57,31.222205178926508,131.01041420507835,8.258332077308209,-5.311151222703807,-11.006127154678277,27.8190373710384,0.4929349213210328,2.493249369798125,343.1828296833045,18.703390752577988,8.379277104467308,69.5044076151286,0.0135342732551156,120.01445598648584,214.09470394694284,1.274,1.0250279191823897,0.0,5.049241129622549,165.0000707061107,0.054967650308583,3.641152887099703e-07,-0.0607528187449611,0.0023078816465666,0.0035273939293112,12.206356862590674,15.137350389231582,16.985165035743478,27.934890683657375
0.58,31.22220480275191,131.01041497324348,8.436522645028171,-5.1925842115423215,-10.875053955580183,36.74342588530794,0.6299351160681428,2.544737978220072,426.12500585731766,18.96762202731456,8.510358172070918,69.46959922259195,0.0170439246799577,120.0182034111328,220.18289239304409,1.274,1.024981594484354,0.0,5.067416257180974,165.0000707061107,0.0557443152628618,3.904138873463465e-07,-0.0576723300248713,-0.0041709592112296,0.0033957846188763,12.037648557811131,14.943587337683876,17.26961102202084,36.8368274342046
0.59,31.22220442155997,131.01041575368663,8.617417351148278,-5.039683543703797,-10.668836427237183,29.71118477602164,0.7772579998660557,2.5923377069449214,360.68438819710633,19.36466562344321,8.689180336403115,69.43655676113042,0.0106470122180443,120.01137207536163,229.4934315334224,1.274,1.0249386802161349,0.0,5.0854543942144925,165.0000707061107,0.056911310588867,4.118551871628045e-07,-0.0545719856782887,-0.0107564603727942,0.0032804390081333,11.786776701930988,14.681474185852364,17.698476381280866,29.834189206011686
0.6,31.222204029819768,131.01041655403563,8.803165114341084,-4.9293186985532405,-10.545952198132952,26.361058246869053,0.9254062216314792,2.64858950466595,329.4859594986072,19.615054277090263,8.815619298028931,69.40529036915184,-0.0057708771834315,119.9938352781996,235.4623844674824,1.274,1.024891335813742,0.0,5.10344876246025,165.0000707061107,0.0576473049969132,4.2837482090752013e-07,-0.0514310971407799,-0.0174935159481568,0.0031315529963934,11.629279321616066,14.511594982836163,17.96783779016929,26.50993766371554
0.61,31.22220363501688,131.01041735941234,8.98940898088624,-4.824296969985974,-10.430260596170768,30.95212675599847,1.0775135336830983,2.706895661606256,372.0984511843332,19.85084442275757,8.936918865556905,69.37581997882714,-0.0323970703283074,119.96538869293846,241.15302490441573,1.274,1.0248423929069768,0.0,5.1216029719380325,165.0000707061107,0.0583403987082698,4.398886646875428e-07,-0.0482764077508837,-0.0243277014384055,0.0029747510630311,11.48069652885494,14.356113661408685,18.22149710909226,31.088944502145605
0.62,31.22220323362245,131.01041817709387,9.17828113263148,-4.6994301203207405,-10.269061187022812,38.57326790515253,1.2391524149941888,2.763762732282003,442.86563930529206,20.170789746505207,9.08854467744819,69.34814807610574,-0.0693404598300931,119.92591207360256,248.98470593070337,1.274,1.0247996097896497,0.0,5.139489117615418,165.0000707061107,0.0592808244506802,4.463487792668937e-07,-0.0451118292148965,-0.0312516450751152,0.0028245037745867,11.282782130724623,14.162084805790878,18.566351585796884,38.6920002071566
0.63,31.222202823727148,131.0104190110091,9.370919590939394,-4.556308319689661,-10.063736354007643,21.697954488511503,1.4131679346063792,2.8200892888144806,286.11251274707456,20.58068247899227,9.272625417338656,69.32227268573699,-0.1167036227720346,119.87529223880736,259.20201738966443,1.274,1.024756158874558,0.0,5.157306256274046,165.0000707061107,0.0604856077444901,4.477090913908948e-07,-0.0419257110807462,-0.0382920452471008,0.0026783109422117,11.037423370942808,13.929135002060455,19.00799026587704,21.926038771146107
0.64,31.22220240446828,131.01041986294916,9.567834984621337,-4.480112003234064,-9.99977167890195,21.2909902618401,1.5737602510628592,2.886898071825849,282.3078244179702,20.70497954113737,9.354145589677287,69.29819615805691,-0.1746346635267061,119.81336767054772,262.33741339177493,1.274,1.024708534665538,0.0,5.175169256573762,165.0000707061107,0.0608510458393864,4.43904772130361e-07,-0.0387056214732691,-0.0454778072384609,0.0024874904664256,10.948175442349134,13.853026363872456,19.142181261877845,21.54337875391665
0.65,31.22220198586829,131.0104207122041,9.762998265516307,-4.386709045134434,-9.895537237858292,37.93402102471149,1.742633730647868,2.952048200344585,436.7781447787504,20.90627239141916,9.463372557457909,69.27592541099891,-0.2433304796518371,119.73992499430902,267.45806057270875,1.274,1.0246641738210605,0.0,5.19311710628397,165.0000707061107,0.0614427721616736,4.3486956797406337e-07,-0.0354999450006774,-0.0527042448683306,0.0023036087534262,10.815409586243833,13.741894922964008,19.35960106413858,38.088598188954165
0.66,31.22220155897333,131.01042157732215,9.961803290732169,-4.241479722445939,-9.673070510191428,32.194090952348574,1.9373887154001448,3.0130101387182555,383.5125151715984,21.355132097170127,9.661783478804024,69.25543734111672,-0.3228341454463236,119.65491563750508,279.0607232809259,1.274,1.0246195561629028,0.0,5.210604151828397,165.0000707061107,0.0627620952304438,4.205975650022169e-07,-0.0322979346407103,-0.0599956202945415,0.0021407855176226,10.554010324081291,13.513069328325177,19.84289744740277,32.39276458375653
0.67,31.22220111979428,131.0104224666467,10.166649683472883,-4.133095510031884,-9.528519146999663,22.023239784625,2.124959570440439,3.0799642746220925,289.15624401033847,21.637903894017327,9.800495449586688,69.23671243813376,-0.4132307950952252,119.55824641872304,286.49432480595385,1.274,1.024572383541697,0.0,5.228121575492164,165.0000707061107,0.0635933000546903,4.010584413490248e-07,-0.0290632742114146,-0.0674354676612283,0.0019518539990379,10.3786958033882,13.375805261108008,20.148057285780723,22.33886128969076
0.68,31.22220067807391,131.01042335993378,10.371668422486488,-4.049393518374892,-9.436550996284875,27.6020713486952,2.305013595568951,3.150120579977619,340.89999248584934,21.79904297533553,9.89541964053982,69.21974894152001,-0.514737334382592,119.44968357453422,290.7715781187372,1.274,1.0245245285832842,0.0,5.2458665966543,165.0000707061107,0.064067032276328,3.761820643743913e-07,-0.0258246685323373,-0.0749608228489397,0.0017472346563418,10.261456969883206,13.303629738319758,20.323445292398286,27.876705151122447
0.69,31.22220023237039,131.0104242601799,10.577732710780673,-3.940340004426397,-9.284053078057187,34.08333493708569,2.502432587552269,3.2190851909982,401.0140726853658,22.09281800949796,10.038128146105729,69.2045260097755,-0.6274803180447379,119.32909031987673,298.65564979383504,1.274,1.024479631064582,0.0,5.263322684163306,165.0000707061107,0.0649305832624574,3.459427719457172e-07,-0.022602789287913,-0.0825250745166844,0.0015498283812923,10.078876592647392,13.17353802548472,20.640855686913607,34.32635137552072
0.7,31.2221997772478,131.0104251788438,10.788138534330116,-3.8201870931913207,-9.102138733863528,28.49706521585849,2.7134879938728886,3.288980489090555,349.270324209851,22.45518756802581,10.205579885376574,69.19100840244847,-0.7515207614599765,119.19640033409765,308.5269488129231,1.274,1.0244351749185203,0.0,5.280594897320222,165.0000707061107,0.0659957406236853,3.103391161366631e-07,-0.0193800806014105,-0.0901702272918576,0.0013506224041449,9.865077111501272,13.01857083963278,21.03143324054841,28.814287006056606
0.71,31.222199314245664,131.01042611278913,11.001968400038791,-3.721457767795603,-8.966666498519723,23.319509350840143,2.916828278584238,3.3614562325396045,301.3312640634036,22.70338718991096,10.331901132238572,69.1791677814513,-0.886988350198561,119.05147418952096,315.3785296636657,1.274,1.0243880468141104,0.0,5.297957810414478,165.0000707061107,0.0667253596621785,2.693441338992916e-07,-0.0161493064410143,-0.0979151589548598,0.0011378821831073,9.702426294512607,12.923872560474924,21.300648792668223,23.740404199885663
0.72,31.22219884735897,131.01042705359663,11.216801003107108,-3.631049664881872,-8.848288338781966,28.65435951161206,3.117694057572581,3.4348797642347297,350.7922053414578,22.90282326390025,10.44062225286028,69.16897667953339,-1.034046328737715,118.89413689945424,320.93707975719167,1.274,1.024337302174265,0.0,5.315284431001279,165.0000707061107,0.067311666344828,2.229251120880758e-07,-0.0129300425237863,-0.1057150740623878,0.0009190365455314,9.558855576011588,12.857404041106262,21.518455401780884,29.02741349572995
0.73,31.22219837523788,131.01042800415445,11.433464836590389,-3.5238583210489285,-8.68686987949173,36.37105507043458,3.336454981039404,3.50878028609578,422.3203185282354,23.206995495918576,10.58704812646475,69.16039365665327,-1.192794827117662,118.72428134858993,329.51155848652314,1.274,1.024292465384646,0.0,5.332422469683428,165.0000707061107,0.0682057988226309,1.7107977881828217e-07,-0.0097318850714009,-0.1135481674648805,0.000700891285422,9.369309917449348,12.749517149554343,21.84768689286341,36.69192169774134
0.74,31.22219789454468,131.0104289717158,11.65402534907274,-3.404509020737999,-8.492002797370262,22.554483113404046,3.5738036597395304,3.584320519107631,294.4828134710563,23.59944191159053,10.765234640656798,69.15336894521191,-1.363305434174941,118.54183129589504,340.743111131294,1.274,1.0242470321640116,0.0,5.349442721431696,165.0000707061107,0.0693593788511459,1.1381905879990317e-07,-0.0065428738537202,-0.121444824581473,0.0004791768765292,9.144385002049033,12.609717366920137,22.27039962378312,23.115452292674092
0.75,31.222197405196308,131.01042995662084,11.878565493015495,-3.321772472671374,-8.384267832765067,26.410151490292407,3.779756912480116,3.659969310332016,330.24688556441737,23.74953141944636,10.856076939440555,69.14785609412185,-1.545700189101284,118.34665683589238,345.0836200300657,1.274,1.0241984712898409,0.0,5.366505634169744,165.0000707061107,0.0698006726728216,5.1135565211861124e-08,-0.0033540157228377,-0.1294290108188073,0.0002471931020091,9.013946394403282,12.583093691867242,22.43722890472241,26.929129941574562
0.76,31.222196915446204,131.01043094097042,12.101985545294951,-3.221121194102136,-8.22913728851691,28.45483920208956,4.007970285862232,3.7365579016396033,349.2703242098581,24.02525215949789,10.992078607878822,69.14381001012171,-1.7401417759383293,118.13858487059528,353.13506691693374,1.274,1.0241522053390697,0.0,5.383571294982475,165.0000707061107,0.0706112031962029,-1.6989881979395438e-08,-0.0002018015189626,-0.1374120409196341,1.5045245393488714e-05,8.833055257264249,12.507060243223597,22.73706184066152,28.97763904774564
0.77,31.222196416169243,131.01043194476122,12.329970714464933,-3.119002405256212,-8.067904787134852,26.550245031102943,4.242274119036312,3.8139314301160185,331.76876669606884,24.312614732110177,11.132180833522831,69.14116280754054,-1.9466618800858768,117.91758279156566,361.62526498301406,1.274,1.0241065975906936,0.0,5.400296111767507,165.0000707061107,0.0714559573967923,-9.051665273454197e-08,0.002928114493737,-0.1454306029966341,-0.0002209108794001,8.646089837784208,12.432666486611303,23.049495051845057,27.156186659144147
0.78,31.22219591116561,131.01043295982487,12.56018762065325,-3.02251465916052,-7.917848133008564,21.68195626664208,4.473848865117516,3.891345278698197,286.8734378128874,24.561975855644768,11.258516137357924,69.1398509851369,-2.1653513356066707,117.6835549442535,369.07312967568953,1.274,1.0240588105546735,0.0,5.417107525540861,165.0000707061107,0.0721890293663857,-1.6942720316098049e-07,0.0060335293803591,-0.1534813868824887,-0.0004598566940235,8.471698431753918,12.380365723327092,23.32219803065795,22.478103107124937
0.79,31.22219540100489,131.01043398496907,12.792295569749111,-2.9337197589139685,-7.785490043713151,31.050418409682024,4.696616104859155,3.9677391368152417,373.6203323159581,24.748877636031203,11.362284740548835,69.13980649077452,-2.396298991986464,117.4364080454986,374.70299462669726,1.274,1.0240083170932772,0.0,5.433830184263645,165.0000707061107,0.0727385346949119,-2.5370077588668654e-07,0.0091064403041678,-0.1615451568957706,-0.0006993301528238,8.316701314348924,12.360010340328978,23.52969565417573,31.653272186466886
0.8,31.222194886668778,131.01043501805157,13.025686861244166,-2.825525365501273,-7.599234972352512,31.44456495055215,4.953192644363025,4.047279607289916,377.42502064505805,25.09929462288605,11.524685825367497,69.14095378361489,-2.6395669682493774,117.17607763227876,385.38024307265846,1.274,1.0239625010683884,0.0,5.4504327801053565,165.0000707061107,0.0737686268812335,-3.4330350356509746e-07,0.0121357992134273,-0.1695946607605417,-0.000945144618189,8.1046338374947,12.277127654258404,23.90910622530908,32.0885533254656
0.81,31.222194362604608,131.01043607186602,13.263956613420444,-2.722770625761673,-7.424313786905907,20.226492388339928,5.206567335804765,4.126641549562264,273.9374926939922,25.4096581555046,11.672543234224824,69.1432085206085,-2.895177733254043,116.90254185873012,394.96091547216,1.274,1.0239149950770308,0.0,5.4668566950231545,165.0000707061107,0.0746810083189041,-4.381746097338423e-07,0.0151384106895402,-0.1776756435478077,-0.0011935415294265,7.905211570221208,12.217651333679868,24.24671049957604,21.289633821097436
0.82,31.22219383359965,131.01043713567745,13.504072468641528,-2.638640078014557,-7.297056953932578,26.13836699578855,5.427861152908576,4.2017014724255,328.725004432774,25.55179346672348,11.759896817538165,69.14649147398919,-3.1632252255081488,116.61570253350853,399.38269076531446,1.274,1.0238644186635044,0.0,5.48337836406735,165.0000707061107,0.0750989587612452,-5.382887563827918e-07,0.018105288410615,-0.1857666438033643,-0.0014354076318886,7.757046611879948,12.232425649064538,24.408670536275825,27.02462212807359
0.83,31.222193302559752,131.0104382027192,13.7441396946252,-2.539201436527,-7.125466162413541,33.36663727465057,5.680636508875594,4.279907993643201,395.6875032246518,25.837756509331506,11.898663988181085,69.15071545835707,-3.443771685705693,116.31549550854145,408.3626860720995,1.274,1.0238188483711983,0.0,5.499785281683589,165.0000707061107,0.0759396348707744,-6.436129367830688e-07,0.0210134383285712,-0.1938067810831801,-0.0016845748935211,7.562177848583786,12.193945837434866,24.721373787140354,34.11626777064165
0.84,31.222192762601445,131.01043928929462,13.988715675433976,-2.4325274040713074,-6.930705165484936,20.32015922957707,5.954183587708087,4.3605454615621415,275.45937482564227,26.20239610478181,12.065404776010393,69.15577906695545,-3.7367862667700456,116.0019563259416,419.9603260347317,1.274,1.0237739661568126,0.0,5.5159518835605965,165.0000707061107,0.077011557984115,-7.540546610860314e-07,0.0238760561765235,-0.2018334830195483,-0.0019410280079531,7.343226233337374,12.130197759594964,25.116376487116423,21.618869767724878
0.85,31.22219221544544,131.0104403917092,14.236749062175036,-2.3479999673165555,-6.795841926058621,22.19217731135348,6.177742389042801,4.433378732979083,292.9609323393965,26.337574172998085,12.14985183432378,69.16158425765575,-4.042295048430377,115.67505962044096,424.2945443971673,1.274,1.0237227741398531,0.0,5.532185905403529,165.0000707061107,0.0774090769605593,-8.695465591282492e-07,0.0266975481839345,-0.209861667561711,-0.0021815491818348,7.188232804461011,12.163642713027231,25.27258701520314,23.45873146259106
0.86,31.22219166790947,131.0104414935604,14.48367115382896,-2.25476688158635,-6.633694553343026,27.937103628622285,6.422700496548462,4.508112865234224,346.2265619465616,26.565734776798102,12.26736912398788,69.1680317559187,-4.360346143519964,115.33475643409542,431.6674191630405,1.274,1.023674789281455,0.0,5.5484132993431245,165.0000707061107,0.0780798840225725,-9.90056429419665e-07,0.0294495299159792,-0.2178130038962229,-0.0024272122680872,7.004793902826608,12.164917089446549,25.52604294962635,29.018199848206205
0.87,31.22219111283365,131.01044261237087,14.734352519885286,-2.1548781469256686,-6.449898155493211,25.92772852394977,6.6874851759550005,4.584872334230032,327.9640783669946,26.870648507470968,12.412062170606127,69.17500649106238,-4.690865227694056,114.98112876198832,441.6227589125032,1.274,1.0236288969245204,0.0,5.564319231561914,165.0000707061107,0.0789762854559463,-1.11547137901463e-06,0.0321387047506746,-0.2257076369427053,-0.0026791906684169,6.798900850436229,12.141455376960844,25.859639362055287,27.16598274886157
0.88,31.22219055136476,131.01044374573402,14.988106918570884,-2.0602611882462782,-6.278709632135164,22.266878941212127,6.939240196972608,4.6585337364580015,294.4828134710421,27.117625140370496,12.535856945036684,69.18239398291442,-5.033806155011002,114.61422830449298,449.76729567661965,1.274,1.0235805388426191,0.0,5.580236983568791,165.0000707061107,0.0797024096744461,-1.2456897946222353e-06,0.034768589570994,-0.2335586009003036,-0.0029249958001658,6.60680442670105,12.14614340336531,26.1333404955464,23.7837946692195
0.89,31.22218998593128,131.0104448877256,15.243289503224515,-1.9691309797398528,-6.115583930756808,24.4632128355654,7.179581072251592,4.728994898674489,315.02813424808807,27.32053373452604,12.64373559292459,69.19007864645629,-5.389139428691076,114.2340887735916,456.5120892212671,1.274,1.0235293752791452,0.0,5.596124295640012,165.0000707061107,0.080299016980629,-1.3806328871837752e-06,0.0373296447973264,-0.2413397231416143,-0.0031638720678583,6.423636521946802,12.173067385413738,26.361723070036035,25.929877735209136
0.9,31.222189416235544,131.0104460391954,15.500132861728328,-1.8742162047514968,-5.93839573767857,27.06966342777625,7.432963649266172,4.800185506506736,339.3781423542166,27.574885716323607,12.769677587617451,69.19793843617991,-5.756790845734463,113.84079148662504,465.0403682549248,1.274,1.0234837388140003,0.0,5.611878981746651,165.0000707061107,0.0810468292654015,-1.5202035800004652e-06,0.0398141599683412,-0.2490295648140258,-0.0034057788421125,6.226125795419206,12.184872820653784,26.64375385335211,28.479069640725214
0.91,31.222188840617942,131.01044720472672,15.759888917009604,-1.777669547000044,-5.753240738982593,20.344752096210303,7.694113422911332,4.87128374766259,277.7421810230785,27.857743641147195,12.905474439793352,69.20584616601978,-6.136647758694866,113.43445859914564,474.61805199639366,1.274,1.023436404813438,0.0,5.62751759777506,165.0000707061107,0.0818784321685111,-1.6642758554339e-06,0.0422229826249396,-0.2566328893723825,-0.0036487925875932,6.020735778062935,12.190694384951897,26.95554459528849,22.28985698857486
0.92,31.222188259615944,131.01044838325083,16.02225196866247,-1.6886181755949576,-5.589742912284665,24.354482424065647,7.922867633915788,4.935115839937025,315.0281342480675,28.027887279671376,13.001036982938464,69.21367319754701,-6.528598775426998,113.01521057427884,480.42119496003954,1.274,1.0233859136578225,0.0,5.64311681081006,165.0000707061107,0.0823787558087783,-1.8127277964922367e-06,0.0445545309655222,-0.2641473881157061,-0.0038736968145348,5.838459078461465,12.244911164296925,27.15124468595858,26.081948049221136
0.93,31.222187676235315,131.01044956678732,16.28503441565279,-1.5939109039529504,-5.404985413311702,29.10525484015525,8.17645811063017,5.001583729451635,359.16250706547066,28.291854910605046,13.129577947580753,69.22128858097925,-6.932522030436929,112.58317867849787,489.5007017929215,1.274,1.0233407575091376,0.0,5.658657671832606,165.0000707061107,0.0831548483870876,-1.965461824337655e-06,0.0467957491731892,-0.2715335558358262,-0.0041067688051412,5.634436818007207,12.267347010546718,27.44410046251,30.642881169171833
0.94,31.22218708627108,131.0104507671323,16.551450112523533,-1.496715450762376,-5.208832090816945,20.79996828861421,8.44437344636861,5.06892839340247,283.06875048378083,28.607405470064776,13.276040792036708,69.22855547013839,-7.348226451632075,112.13856775600988,500.46799034283566,1.274,1.0232914783978162,0.0,5.674012722247473,165.0000707061107,0.0840825609661466,-2.122314817281376e-06,0.0489504998543611,-0.2788060894836108,-0.0043436709496986,5.41903254093759,12.274872176297723,27.790330626145064,23.013912287278185
0.95,31.22218649079616,131.01045198181595,16.820808771947828,-1.4077977373425856,-5.038446651509313,27.20466465590164,8.666501582175774,5.12607261738994,342.421873617488,28.77590132469207,13.370293753717414,69.23533750977633,-7.775535124694592,111.68156698855772,506.36770408655735,1.274,1.0232418269359267,0.0,5.689371305949236,165.0000707061107,0.0845780591157463,-2.2831377129719646e-06,0.051018299530465,-0.2859670031899585,-0.0045537060833834,5.230939459072105,12.343322499132148,27.98548361203917,29.00825139839825
0.96,31.222185893605857,131.0104532000663,17.090183674307738,-1.312371373591458,-4.841711637743328,26.57998775367213,8.927862650714633,5.188425538671931,337.09533515678265,29.08200231377973,13.51276910185722,69.24149728296149,-8.214264872245392,111.2123716982016,517.184500975232,1.274,1.0231951201821403,0.0,5.704691873612437,165.0000707061107,0.0854780101990239,-2.44782932887367e-06,0.0529848520438214,-0.2929698185811096,-0.0047794164735259,5.016013205486204,12.363261687086949,28.322372854156143,28.515298351336405
0.97,31.222185289096146,131.01045443860295,17.36409419156341,-1.2193118077652505,-4.65066389808008,16.526672893730577,9.174524233060511,5.24602475330352,245.0218871929888,29.347539489415563,13.640624418485377,69.24689284992222,-8.664149945629882,110.73126492069234,526.6582099597875,1.274,1.0231476260761452,0.0,5.719809768832649,165.0000707061107,0.086258745381657,-2.616189192539744e-06,0.0548557690485743,-0.2998370038686154,-0.0049932283136853,4.807507604838855,12.403335677758832,28.617816821717117,19.616920949824333
0.98,31.22218468117956,131.01045568626688,17.639510145423206,-1.1327621383623436,-4.481560488639124,24.58655506488641,9.370509834165706,5.2919462931467045,319.593746642963,29.46654437884448,13.71673180290846,69.25138399516217,-9.124948640165554,110.2385033104662,530.9240463471583,1.274,1.0230935628253934,0.0,5.734980306631269,165.0000707061107,0.0866087955520651,-2.7880747551631373e-06,0.0566240104865229,-0.3065474353898714,-0.0051749453388064,4.622219872082816,12.503212313307754,28.763300096628555,26.83858863801219
0.99,31.22218407176204,131.01045693713897,17.914841907885545,-1.039661258254482,-4.283881772609648,26.934779247357085,9.617223549685946,5.345067314570144,341.66094855170127,29.75677008348933,13.85260227080746,69.2548289828484,-9.59637474122088,109.7343904344483,541.4197255365901,1.274,1.0230490803133316,0.0,5.750034010201743,165.0000707061107,0.0874621058318609,-2.963363913391414e-06,0.0582778195405916,-0.3130590841134139,-0.0053784053805356,4.408006763471406,12.541345914787282,29.08448628715248,29.09541315234719
1.0,31.22218345535536,131.0104582089678,18.1948424060074,-0.9473506542103332,-4.085989194063067,23.90424456320563,9.859031694539029,5.394924680206239,314.2672081822764,30.042635239785984,13.986571901339154,69.25708477089586,-10.078064425288588,109.21931213375072,551.8573946734714,1.274,1.022999484445133,0.0,5.764887585454646,165.0000707061107,0.0883026093550388,-3.1418133323610205e-06,0.0598231474164228,-0.3193985761851669,-0.0055739112994711,4.194193485186221,12.585227310203898,29.40135343990284,26.414364016507562
1.01,31.22218283539795,131.0104594913877,18.47671642940995,-0.8576658851551814,-3.895121217222677,25.011048400793968,10.077513138326724,5.437941074211175,324.92031610370094,30.27212004757077,14.100504575339228,69.25801105045441,-10.569682620837112,108.69362273403054,560.3053035711508,1.274,1.0229507481225095,0.0,5.77979940332964,165.0000707061107,0.0889774039951885,-3.3232467761855206e-06,0.0612554550588354,-0.325553199249616,-0.0057508047171661,3.988286159214272,12.654163093749313,29.66074701653833,27.507817366825
1.02,31.22218221225978,131.01046078332192,18.760174280696173,-0.7676045995145444,-3.698798799245792,20.568397771780184,10.301775322634615,5.479496819850205,284.59063161543185,30.533957032228347,14.225395186610756,69.25746833290896,-11.07086138566384,108.15771094368804,570.024360780636,1.274,1.0229039803623294,0.0,5.794618522384411,165.0000707061107,0.0897472960511687,-3.5074994171912048e-06,0.062568552330018,-0.3315006577344558,-0.0059247275805528,3.777500578400772,12.714296582533285,29.95335454896275,23.64763089814631
1.03,31.222181584660472,131.01046208957243,19.04648399652953,-0.679902304016529,-3.510207962398697,16.455951094561858,10.495436387587445,5.512621463543823,247.3046933904342,30.72447155642801,14.325123920110228,69.25531874343157,-11.581184885800184,107.61201590018052,577.1439369662901,1.274,1.022853416101322,0.0,5.809331507078471,165.0000707061107,0.0903075598790476,-3.6943619293496417e-06,0.0637601297500382,-0.3372359062879627,-0.006075064052113,3.575366915458443,12.804923214883685,30.173434237140544,20.28155582771771
1.04,31.222180954741912,131.0104634029826,19.333738578900064,-0.593442829735703,-3.324679422829401,27.087450342768594,10.668270158023724,5.539104892792727,345.4656368807608,30.87625809576448,14.411110628687815,69.25142699976622,-12.100215986390875,107.05699872342396,582.8444118053472,1.274,1.0228049544826707,0.0,5.824005401881313,165.0000707061107,0.090753995870224,-3.883662024710049e-06,0.0648240882585628,-0.3427354458226955,-0.0062067798990243,3.377169272918405,12.913267934236975,30.354311694806984,29.634838235595183
1.05,31.22218032221427,131.01046472477816,19.62225971268651,-0.5040425781205217,-3.1182580152153445,15.59479724594822,10.898429281926353,5.573563825776222,240.4562587980608,31.208446803538465,14.559341972087978,69.2456610777331,-12.627467774934392,106.49317298537387,595.4366835752484,1.274,1.022755494436122,0.0,5.838543516219832,165.0000707061107,0.0917306904352004,-4.075204302949356e-06,0.0657564869358324,-0.3479834394953214,-0.0063636163398136,3.158692938847948,12.955332329045364,30.71887374588648,19.82518791021627
1.06,31.22217968382187,131.01046606809936,19.91549080676289,-0.4191217853721251,-2.934542058569081,22.91656715587343,11.040447930390586,5.588588865925887,308.1796836557233,31.316162680216152,14.62948802617492,69.23789337899107,-13.162415792029671,105.92109165467704,599.5371880040714,1.274,1.0227013895379469,0.0,5.852965281498002,165.0000707061107,0.0920476032502448,-4.268688438134015e-06,0.0665591327992421,-0.352998524132231,-0.0064633428600242,2.964295284862958,13.086214262836464,30.85540739731,26.0440562552317
1.07,31.222179045932243,131.01046740847477,20.206996285840205,-0.3325663462336338,-2.733616673555608,27.25216941955725,11.235181897240928,5.610536155421362,348.5093681440431,31.591587262531974,14.7573213961881,69.22799997137305,-13.704551094309858,105.34129035282383,610.1122990783027,1.274,1.0226540159946436,0.0,5.86744297875428,165.0000707061107,0.0928574642185696,-4.4640046115009936e-06,0.0672234963731304,-0.357736098249046,-0.0065850849732775,2.7537568083791206,13.154786087200309,31.162354646695352,30.006468740717093
1.08,31.222178402443,131.01046877080657,20.503293691657728,-0.2466120976519306,-2.530072431356396,17.657278375289756,11.432997723730503,5.629901242252499,261.0015785751465,31.89613862849037,14.894807595621987,69.21586366109543,-14.253284132086836,104.75439023922804,621.9145927862313,1.274,1.0226061614050743,0.0,5.881659957844537,165.0000707061107,0.0937529485093691,-4.660839668165367e-06,0.0677505568827045,-0.3622110384985831,-0.0067005038314809,2.5420551723573754,13.21481386328983,31.49884492600019,21.775874369834575
1.09,31.2221777558802,131.0104701458143,20.80193330979368,-0.1630969339213463,-2.340146007886489,16.025262657451016,11.56075206888641,5.633222146289368,246.54375332456465,32.035941140903255,14.975219611239488,69.2013720300251,-14.808036202555527,104.16100021540976,627.3603162920823,1.274,1.0225512795791307,0.0,5.895937323112227,165.0000707061107,0.0941641901086862,-4.858950120501623e-06,0.0681369150397256,-0.3664151375751276,-0.0067680565207377,2.345819506051269,13.34026207103802,31.66845405735728,20.547341029632044
1.1,31.222177108585694,131.0104715232451,21.10025053536307,-0.0800505751479144,-2.147484616861645,34.13882463063981,11.687504673268895,5.6332701606186,413.1890617384087,32.199881780999654,15.06367033748695,69.18441844869733,-15.368204683139904,103.56175418241791,633.7794896118388,1.274,1.0224981043155532,0.0,5.910155167504386,165.0000707061107,0.0946463842887294,-5.058189824444061e-06,0.0683784379302413,-0.3703183779729511,-0.0068266090475037,2.1489754008033835,13.458211300094773,31.862634659999248,36.52110137101259
1.11,31.22217645839708,131.01047291314225,21.400847065775128,0.0026852190666705,-1.9356371125005287,24.368491575300705,11.911134455453762,5.647399458369353,324.1593910379213,32.644172506004,15.247972889808736,69.16490564989954,-15.93313204533543,102.9573442819572,651.3709942799309,1.274,1.0224548851875197,0.0,5.924189586139807,165.0000707061107,0.0959526310354231,-5.258303126452991e-06,0.0684735007078888,-0.3739155703136934,-0.006930223428992,1.9356389743306028,13.469520532830185,32.340181171662984,27.705443983336373
1.12,31.222175802358223,131.0104743314371,21.70780419590388,0.0837135693843711,-1.740041710903952,7.794727010925614,12.035242337348,5.6400698008058585,172.7328179403806,32.852186722971474,15.350896627270492,69.14274416820172,-16.5021443522432,102.34847980482284,659.6792866371309,1.274,1.0223979224661404,0.0,5.938166248761223,165.0000707061107,0.0965643919921836,-5.458883577379818e-06,0.0684190781386843,-0.3772236366354814,-0.0069686353075007,1.7420536624231473,13.57401484185165,32.57890362304191,15.408283961931302
1.13,31.222175146566528,131.01047574850574,22.01348241167738,0.1642574702289779,-1.5552853920062897,28.996887812233844,12.071382041621773,5.614007380544361,367.5328077894322,32.86116516692017,15.385514120239888,69.11784820974033,-17.074583667209378,101.73585256824092,660.0205354399784,1.274,1.0223460397860296,0.0,5.9522720470711485,165.0000707061107,0.096591116048022,-5.659825035546413e-06,0.0682126672844373,-0.3802085072259737,-0.0069493066347074,1.5639330356457086,13.756840367683491,32.61689150996394,31.906971746921876
1.14,31.22217449046492,131.01047716610185,22.31835453314301,0.2421841302453435,-1.3500231588642355,14.985799748939256,12.250966390180368,5.609489529393152,239.6953177322812,33.27152992716083,15.556951198845216,69.09014464213803,-17.64973600977953,101.1202141544891,676.5881031427504,1.274,1.0223022138470996,0.0,5.966156840809406,165.0000707061107,0.0977976662803514,-5.860998795256766e-06,0.0678553501699092,-0.3828478023287247,-0.0069990264539607,1.3715702051157208,13.784396478056902,33.0594884068822,20.15258654339458
1.15,31.222173828175624,131.0104786185788,22.631170715735887,0.320878012128958,-1.160008270985729,14.68558766015192,12.296745465420427,5.578215328073106,237.4125115347709,33.36648754678323,15.62044253462121,69.05957399537293,-18.226852049991187,100.50235392021668,680.4351615115761,1.274,1.0222426194541194,0.0,5.979848703691225,165.0000707061107,0.0980771290091457,-6.06189237046895e-06,0.0673401127904459,-0.385161410188207,-0.0069654960334847,1.203564630131981,13.935888221664229,33.18428632161827,19.949759903610214
1.16,31.222173167627723,131.0104800611428,22.94050143018567,0.3977583264942278,-0.9677081018960912,42.21919774573417,12.355775772357031,5.545843883292824,490.043774385954,33.5275413600495,15.706236707514936,69.02607892510596,-18.80520544733931,99.883036606144,686.9992692795654,1.274,1.02219674531104,0.0,5.993737613365227,165.0000707061107,0.0985508730305426,-6.262454289730289e-06,0.0666701332833033,-0.387120922203054,-0.0069292757592808,1.0462579091813935,14.061756042262214,33.37554135373363,44.33827057529451
