Time,Latitude,Longitude,Altitude,Angle of Attack,Angle of Sideslip,X-Acceleration,Y-Acceleration,Z-Acceleration,Thrust,True Velocity,Ground Velocity,Pitch,Roll,Yaw,Dynamic Pressure,cp,parachute_deploy_gain,Wind Speed,Mach,omega_x,omega_y,omega_z,Cmq,Angle of Attack(total),Angle of Attack(gust),True Velocity(gust),Acceleration
0.0,31.222186000000004,131.010384,3.000000003643237,0.0,0.0,0.0,0.0,0.0,2.2828121974499247,0.0,0.0,69.99999999623421,0.0,113.69999999388332,0.0,15.288,0.0,0.0,0.0,0.0,0.0,0.0,-0.0,0.0,90.0,0.0,0.0
0.01,31.22218600000153,131.01038399999584,2.99999882256592,0.0,0.0,0.0,0.0,0.0,34.24218696174923,7.502283530665459e-11,7.190531319924593e-11,69.99999999623329,-4.83564628150269e-13,113.69999999388072,3.446445726795683e-21,15.288,0.0,0.0,2.204725565824978e-13,-3.659182332138578e-19,7.589415207398531e-19,4.811147140404426e-19,-1.5108918610345807e-31,0.0,89.9999999995224,7.502283530665459e-11,0.0
0.02,31.22218600000288,131.01038399999217,2.999997775701936,0.0,0.0,0.0,0.0,0.0,25.871876237766408,1.5320717031631675e-10,1.4674636035870463e-10,69.99999999623222,-9.67129256300373e-13,113.69999999387804,1.4372842949972735e-20,15.288,0.0,0.0,4.5023593667086093e-13,-7.284483346386986e-19,1.5178830414797062e-18,9.757819552369542e-19,-6.170906918166791e-31,0.0,89.99999999902465,1.5320717031631675e-10,0.0
0.03,31.22218599928065,131.01038400193067,3.000201659671132,18.81500467334555,-0.00012974450181,11.96616230539064,-1.8916256735984712e-05,3.349833086198469,180.34219359854663,0.0882870268161719,0.0553390044312322,69.99999999799445,-4.212591857125379e-12,113.69999999488518,0.0047728553458352,15.288,0.0,0.0,0.0002594525584132,3.2187251995663407e-17,-7.20264389268894e-10,1.2365134327422308e-11,1.6874092354518158e-13,18.815004673776716,89.46786891739345,0.0882666465974854,12.426199017587786
0.04,31.22218599548236,131.0103840121632,3.001799604587872,9.46752327608497,-4.6177622759613696e-05,55.21900012092241,3.931876292165237e-06,3.349616504302861,548.6359724538078,0.3767519978512604,0.1853356633749705,70.00000000507204,-2.4624598767003407e-11,113.70000000019972,0.086915163246288,15.288,0.0,0.0,0.0011071759353184,1.6174128009138757e-15,-1.3693172015529268e-08,2.7753303060112748e-11,1.3689612277852356e-11,9.467523276196548,87.63554493451223,0.3767447442872393,55.32050167054111
0.05,31.222185984749512,131.01038404118162,3.00777936418888,5.376730308971262,-2.257790939128127e-06,80.28807156553681,5.266841443842784e-05,3.348887800834877,761.6984298824644,1.018787885905993,0.4366201147110198,70.00000000894464,-1.1355399380652658e-10,113.70000001523856,0.635552918586145,15.288,0.0,0.0,0.0029939522895272,1.6418815498809788e-14,-9.32122351075408e-08,4.303264669380585e-11,2.5199270302492604e-10,5.3767303089717045,83.57022052969386,1.0187875312530217,80.35788377762394
0.06,31.22218596447235,131.01038409608267,3.0201664202003013,4.296730121134882,2.4863835723705905e-05,60.21296515808257,0.0001057204249726,3.347700952379021,590.4875390737208,1.721098934225416,0.7081674028809783,69.99999995523842,-3.0560354507026086e-10,113.70000004366592,1.8138247671743823,15.288,0.0,0.0,0.0050578622752421,8.328976953118383e-14,-3.2824985336199985e-07,5.923438275930214e-11,1.4991363363716091e-09,4.296730121206683,79.20467073327266,1.7211028398275985,60.305955550063224
0.07,31.22218593493329,131.01038417609837,3.038741944736831,3.8204913578752526,4.8016684030909405e-05,91.4060317508128,0.0001597686613101,3.346072557365335,855.2937749779139,2.4375792548422868,0.9844712334613328,69.99999973536046,-5.939103491363046e-10,113.7000000850886,3.6383156301599167,15.288,0.0,0.0,0.007163413150771,2.709313825263564e-13,-7.906546256197275e-07,7.920022733617308e-11,5.114174483651565e-09,3.820491358176508,74.87999294483174,2.437586797285377,91.46725557277466
0.08,31.222185894468456,131.01038428575305,3.0647976109320942,3.588632851766762,7.220043782492885e-05,19.18449428359557,0.0002119618497595,3.3440615022685813,241.2171988638848,3.1292508166901074,1.2522236515868983,69.99999919480445,-9.914748373602156e-10,113.7000001418522,5.996012698481753,15.288,0.0,0.0,0.0091960591623389,6.80386533246681e-13,-1.5973238302190878e-06,1.0839624626357699e-10,1.3263625118823921e-08,3.58863285249208,70.86684630658345,3.1292621579083604,19.473766155861934
0.09,31.22218584634549,131.01038441616095,3.0957981580345013,3.551302481506045,9.685468678862004e-05,57.102946699906326,0.0002554087225869,3.341892818148368,563.0937377043176,3.701810007254615,1.479132491047967,69.99999812344194,-1.4359264356978275e-09,113.7000002093888,8.390904013834115,15.288,0.0,0.0,0.010878666406854,1.440096519545733e-12,-2.748643691533636e-06,1.5214952332699618e-10,2.6999776649034504e-08,3.5513024828250237,67.68737872952666,3.701825221153239,57.20065357568538
0.1,31.222185790329306,131.01038456796124,3.1319266121977414,3.608446747536112,0.0001234669721807,54.26147302645416,0.0002914860332524,3.3396271157106168,538.7437595981919,4.174070299823608,1.6716491241860567,69.9999963052332,-1.902380107712657e-09,113.70000028805804,10.668380938744466,15.288,0.0,0.0,0.0122665227999911,2.687800116751415e-12,-4.315796035622946e-06,2.1749089204950437e-10,4.7802076800548326e-08,3.608446749645647,65.17160335282355,4.174089693970246,54.36414778470795
0.11,31.222185727066616,131.0103847393952,3.172681775073216,3.633547373470009,0.0001485939126744,42.987553988990406,0.0003293995000288,3.337005588796181,442.8656393052949,4.672024955140527,1.8729475711242067,69.99999349387662,-2.3433348587116544e-09,113.70000037699285,13.365573690709628,15.288,0.0,0.0,0.0137298902182575,4.5789425819531184e-12,-6.340230783164189e-06,3.1157625832417107e-10,7.860218435507205e-08,3.6335473765043056,62.62546922225161,4.672048296217748,43.116880735560244
0.12,31.22218565692512,131.0103849294629,3.2177790417108385,3.650108937861461,0.0001727442530266,46.86777100765684,0.000367618259785,3.334068179146888,475.58594813540446,5.17479364099247,2.0758708919414386,69.99998941286465,-2.702771525550512e-09,113.70000047573096,16.396890189902592,15.288,0.0,0.0,0.0152074069417046,7.288473386564583e-12,-8.86736416607888e-06,4.42271554299792e-10,1.217615295152289e-07,3.6501089419435786,60.16906436414164,5.174820775596283,46.986210423745625
0.13,31.222185580265183,131.0103851371844,3.2669395832841857,3.7280113734654137,0.0001995014041665,51.64515456841877,0.0003986198234033,3.3311573548369657,515.9156326236895,5.579364582999854,2.2451120211463422,69.99998375846928,-2.9114380666036422e-09,113.70000058383452,19.060875702782603,15.288,0.0,0.0,0.0163963474924215,1.100846422415094e-11,-1.1941028436408576e-05,6.179653149059831e-10,1.7678562106638216e-07,3.728011378795934,58.279338776943774,5.579395920607139,51.75247433579817
0.14,31.22218549718016,131.01038536230575,3.320091807147376,3.768719651034081,0.0002242721760019,48.1660778383537,0.0004326225136175,3.32784677779744,486.2390860568404,6.025734265159953,2.428648685938864,69.99997621008868,-2.890941335368725e-09,113.70000070125378,22.232643351545065,15.288,0.0,0.0,0.0177081261985351,1.5941871344608664e-11,-1.560901486259027e-05,8.477542742712431e-10,2.495765160917323e-07,3.7687196576976176,56.27980129251342,6.025769493750979,48.280903250602165
0.15,31.22218540777004,131.01038560455507,3.377159065217065,3.821894709649632,0.000249725644238,46.56959330999435,0.0004643042952466,3.324387732286376,472.54218587214,6.441023336496372,2.6014999612196745,69.99996641132823,-2.546763407193136e-09,113.70000082794672,25.402620271850456,15.288,0.0,0.0,0.0189285691155931,2.2314099732464315e-11,-1.992367942778425e-05,1.1417519574710292e-09,3.4051816697623295e-07,3.821894717796148,54.501255563441134,6.441062563308839,46.68809885900716
0.16,31.22218531193176,131.01038586421257,3.4382223512025254,3.8463320955387794,0.0002733212404609,36.974247749122085,0.0004987816203583,3.3205066466509234,391.1218908297564,6.895451966878468,2.7877331692857847,69.99995397923414,-1.77088415515292e-09,113.70000096417354,29.113317717489338,15.288,0.0,0.0,0.0202640360420561,3.0367358387834494e-11,-2.4945905791363795e-05,1.5114297685186711e-09,4.5643121540033697e-07,3.846332105235269,52.641145594326446,6.895494900078523,37.12304892183151
0.17,31.222185210004127,131.010386140357,3.503019838429153,3.8860314262554336,0.000297865039677,46.520531453299206,0.0005306403365217,3.31650761597812,471.78125980632376,7.314788342774694,2.9619016331667103,69.99993849340957,-4.3039914767238207e-10,113.70000110959404,32.761746921137856,15.288,0.0,0.0,0.0214963781445172,4.0366633128431416e-11,-3.0713078585132897e-05,1.96747427715988e-09,5.961228045584824e-07,3.886031437653654,51.00464968745696,7.314835131305714,46.63860064094784
0.18,31.22218510147516,131.01038643438045,3.571950002194137,3.9107265153396016,0.0003214293682635,38.895647526122765,0.0005639254295027,3.312149448254175,407.10156721191447,7.754626295791602,3.1430587898572058,69.9999195084231,1.6149322372810674e-09,113.70000126508234,36.81988229018681,15.288,0.0,0.0,0.0227889722876034,5.2593391349219385e-11,-3.731786027786564e-05,2.525509173087448e-09,7.6786585232224e-07,3.9107265285284982,49.36615848311875,7.754676785798701,39.036415444581515
0.19,31.222184986476247,131.0103867459258,3.644912152926752,3.920599115663931,0.0003437679584038,43.86258669386953,0.0005989384366483,3.307389681300437,448.9531328318269,8.219206165926856,3.332657190859447,69.99989653019398,4.538529095696477e-09,113.70000143063515,41.36350714675367,15.288,0.0,0.0,0.02415428010977,6.735860419174937e-11,-4.481243905342629e-05,3.199401151670645e-09,9.773118416308382e-07,3.92059913071168,47.71893898797248,8.21926016487149,43.987104227715655
0.2,31.222184864792144,131.01038707557822,3.722074668489528,3.943376465171875,0.000367328732016,40.28070981710589,0.0006315894240138,3.30251450988504,418.51563019916136,8.65238089736321,3.511445117640573,69.99986902534273,8.534090245934178e-09,113.7000016067622,45.83799876721736,15.288,0.0,0.0,0.025427299120469,8.499785987217288e-11,-5.328041996372527e-05,4.006766070954748e-09,1.2232205148646746e-06,3.9433764822533854,46.2587826635041,8.652438597225508,40.41586552155969
0.21,31.22218473678744,131.01038742234647,3.803156063113743,3.9664546506877016,0.000390962054969,38.67679184347145,0.0006636984664108,3.297405915846789,404.8187610144644,9.079179692250786,3.688002035198235,69.99983642883521,1.3827831253856693e-08,113.70000179318536,50.47126980736161,15.288,0.0,0.0,0.0266815841422463,1.0586558589671407e-10,-6.275155280099118e-05,4.961340042512481e-09,1.5117124669161171e-06,3.9664546699249135,44.88773728276958,9.079241104426773,38.817098210937615
0.22,31.2221846022986,131.01038778667507,3.8882846911135607,3.956175711337521,0.0004112685792646,46.713636108302936,0.0007011135033803,3.291572407481395,472.5421858721365,9.580256326712124,3.889976788904857,69.99979815126248,2.0662823443484168e-08,113.70000199039316,56.195522894218605,15.288,0.0,0.0,0.0281541581291438,1.3033127211465288e-10,-7.330053770532661e-05,6.0817207473359025e-09,1.8632831045819008e-06,3.956175732680424,43.35679625546934,9.580320928629488,46.8294591882524
0.23,31.222184460898035,131.01038816972698,3.977794004014759,3.9879066397329104,0.0004360962274406,38.89105719050748,0.0007308686121188,3.286096544282012,406.3406421461021,9.977039034039262,4.056142701351626,69.99975353557706,2.9316661139418326e-08,113.70000219928508,60.9462612310605,15.288,0.0,0.0,0.0293202403623685,1.5880617816859538e-10,-8.505067486192354e-05,7.393319440773217e-09,2.2514912291167663e-06,3.987906663538912,42.20670487756048,9.97710753587448,39.0296395118868
0.24,31.222184313516166,131.01038856897196,4.070963590490852,4.003523997322975,0.000459165577055,40.0792299321398,0.0007630441688766,3.280134925833028,416.2328240017114,10.408422364424831,4.234121060914368,69.99970190737699,4.010976417051318e-08,113.70000241888,66.32994780718496,15.288,0.0,0.0,0.030588009649109,1.91711512587616e-10,-9.795845222523724e-05,8.904557280909524e-09,2.7052895870113487e-06,4.003524023611085,41.011349410369874,10.408494489985014,40.21323112692186
0.25,31.22218416001652,131.01038898478134,4.167901030441617,4.0261356185860135,0.0004830526730531,41.17760020658354,0.0007934613160587,3.2740610008587527,425.36408079150686,10.816813039390448,4.4041629376391525,69.99964258149416,5.3372865854010094e-08,113.70000264972064,71.63651430352668,15.288,0.0,0.0,0.0317882126436337,2.2947426169209347e-10,-0.0001121037688082,1.0637152702866709e-08,3.217380562698304e-06,4.026135647516394,39.93186687113378,10.816888917126896,41.30755663120434
0.26,31.222184000702686,131.0103894163294,4.26837241014618,4.053359329950934,0.000507503069958,44.80261175215926,0.0008224724146494,3.2678597736729302,455.8015834241788,11.207047269494833,4.567925492611352,69.99957484039399,6.947299261165984e-08,113.70000289176392,76.89781807056055,15.288,0.0,0.0,0.0329350617559806,2.7254099134167665e-10,-0.0001275114371842,1.260720913253598e-08,3.7915697709142366e-06,4.053359361668992,38.945390435244384,11.207126987890645,44.921630958721536
0.27,31.22218383516388,131.01038986473338,4.372698316214008,4.0614460923241,0.0005296455772492,41.029837477288126,0.0008548809954683,3.2610328932384265,423.84219965987256,11.645685385842508,4.748226940060522,69.99949794024376,8.879821051920497e-08,113.70000314600205,83.0342688744587,15.288,0.0,0.0,0.0342241635563461,3.2137296827284217e-10,-0.0001442952656441,1.4842505534226832e-08,4.458527942364847e-06,4.061446126801262,37.8838346421185,11.645768582375233,41.15922617924542
0.28,31.222183663504484,131.01039032970942,4.48079961904222,4.081133040992532,0.0005533279247169,47.27661484082626,0.0008845140695959,3.254218495915602,476.3468732012221,12.047344998676092,4.915789434712848,69.99941106884992,1.1178948978424788e-07,113.70000341275257,88.85982357848233,15.288,0.0,0.0,0.0354045979054623,3.764736350660473e-10,-0.0001625146963723,1.7365685655384934e-08,5.194620655212288e-06,4.081133078439725,36.956255322213885,12.047431915223257,47.38848224631549
0.29,31.22218348566054,131.0103908114315,4.592727908358551,4.1001100265020245,0.0005770279952742,37.989969791857405,0.0009138463939581,3.247164755122801,397.97031042211177,12.446314684600782,5.082367374004485,69.99931338876085,1.3891902435864665e-07,113.70000369260468,94.8417675268915,15.288,0.0,0.0,0.0365771315767517,4.3836067907166327e-10,-0.0001822432988888,2.0202163500922312e-08,6.018074062137429e-06,4.100110067036654,36.07377590258778,12.446405323946324,38.12849176886316
0.3,31.222183301933686,131.01039130907952,4.708251093558373,4.112858061667493,0.0005998635114143,35.655053282557844,0.000944131403186,3.2397207148238625,378.1859457108711,12.860033399289696,5.253940723820665,69.99920403105713,1.707002607527005e-07,113.7000039856728,101.2505662360602,15.288,0.0,0.0,0.03779301412572,5.075709863465428e-10,-0.0002035013069687,2.3370674033523645e-08,6.94335970778e-06,4.112858105337573,35.19685285507256,12.860127625629724,35.80193592228613
0.31,31.222183112488807,131.0103918222051,4.827243246502713,4.136140889545823,0.0006242383343011,37.56633644061071,0.0009716215464757,3.232339252743767,394.1656220930212,13.2364445751808,5.4126574282679245,69.99908210036875,2.0768081583188525e-07,113.7000042923011,107.26326115439352,15.288,0.0,0.0,0.0388992619788015,5.846561731689753e-10,-0.0002263323252403,2.6893437641668458e-08,7.948283231812338e-06,4.1361409365698805,34.43286455705216,13.236542630309057,37.70514091683033
0.32,31.22218291741533,131.01039235056504,4.949637017503345,4.1622282001352975,0.0006491019906456,40.83513712643371,0.0009979686925508,3.224840963348891,421.55939346242695,13.59846554462374,5.566374262777002,69.99894668612772,2.504388718903276e-07,113.70000461297312,113.2095365840355,15.288,0.0,0.0,0.0399632243410653,6.701756367872645e-10,-0.00025078340164,3.0793566854276295e-08,9.047716714467492e-06,4.16222825066026,33.72644865222576,13.598567505326,40.96227562489027
0.33,31.222182716732533,131.01039289410716,5.075419569102976,4.187801887681037,0.0006739743721461,40.48743503284469,0.0010239291638211,3.217136801802925,418.5156301991682,13.956637761217308,5.718704299733134,69.99879684673242,2.995902922462564e-07,113.70000494831164,119.25032483364384,15.288,0.0,0.0,0.0410158804634189,7.647061680070125e-10,-0.0002769136723495,3.509664608790402e-08,1.0253455741189656e-05,4.187801941818244,33.053267359159875,13.956743628864118,40.61505097607
0.34,31.222182510255863,131.01039345333336,5.204736257784645,4.19642921746386,0.0006961879027693,31.814592723444047,0.0010535137542081,3.208669900766693,345.46563688075645,14.367047160772364,5.88887983533068,69.99863160305904,3.557915789971256e-07,113.70000529927128,126.36523219087664,15.288,0.0,0.0,0.042222056531773,8.688448410811866e-10,-0.0003048202762282,3.9835373705550826e-08,1.1618525957862828e-05,4.196429275109305,32.30947868183619,14.367156517712404,31.97598901989736
0.35,31.222182298183583,131.0103940277045,5.337435501771672,4.210915783240843,0.0007193441544952,34.813487415034444,0.0010813034848195,3.200164272309822,370.5765700527033,14.754132934586384,6.050986755458457,69.99844991734221,4.1975736284587617e-07,113.70000566632532,133.26448209504355,15.288,0.0,0.0,0.0433596939127697,9.832256819293898e-10,-0.0003345386312107,4.503361101379695e-08,1.309465610343774e-05,4.210915844572415,31.63649055965014,14.75424592890194,34.96026256388454
0.36,31.222182080444604,131.0103946174141,5.4735747500461605,4.22903876037745,0.0007431682866607,39.2632255716727,0.0011077666085529,3.1915717453569297,407.8625232777193,15.124417129017054,6.2072589919251575,69.99825073022951,4.922382611919288e-07,113.70000605036684,140.03566173682628,15.288,0.0,0.0,0.0444479595865755,1.1084921261805627e-09,-0.0003661511460057,5.0723697896912267e-08,1.4691545926915382e-05,4.229038825557203,31.017264542603208,15.124533865618538,39.39272792946638
0.37,31.22218185710795,131.01039522227452,5.613102797925907,4.249164960780052,0.0007674149135003,37.28328237034959,0.001133274451316,3.1828514669894137,391.1218908297666,15.483077353331511,6.359470679857624,69.99803294268581,5.740349991123437e-07,113.70000645214331,146.75405277514704,15.288,0.0,0.0,0.0455020695186381,1.245311285088233e-09,-0.0003997125883071,5.6934243389647934e-08,1.641828325195534e-05,4.2491650299519,30.439178816713017,15.483197898584232,37.418894813348615
0.38,31.2221816281124,131.0103958424523,5.756069531572451,4.260095806433531,0.0007900626414612,38.9278000801764,0.0011607546399008,3.1735466295306622,404.8187610144602,15.87126705947922,6.521735074464384,69.99779542676283,6.659911329739736e-07,113.70000687263192,154.20298254405043,15.288,0.0,0.0,0.0466429667223463,1.3943646956867835e-09,-0.0004353006984059,6.369875435270817e-08,1.8328108041903096e-05,4.260095879559656,29.83470194713067,15.87139116222873,39.05694584372078
0.39,31.22218139339905,131.0103964781077,5.9025231349944285,4.274091258047817,0.0008133283308351,33.320076729592266,0.0011870382950339,3.164143363712209,357.64062493382744,16.24457853509073,6.678818328235205,69.9975369905506,7.690136753559805e-07,113.70000731287368,161.54010621938565,15.288,0.0,0.0,0.0477401448128051,1.5563705124515804e-09,-0.0004730068442167,7.105463478762673e-08,2.0383860516746246e-05,4.274091335289374,29.274934656826048,16.244706292406182,33.46997636540994
0.4,31.22218115316572,131.01039712870306,6.0523126585892895,4.286421841403391,0.0008363022448449,31.88018820767003,0.0012133780841982,3.1544430614236454,345.465636880754,16.62063299903514,6.836764518435374,69.99725641601981,8.840594270905819e-07,113.70000777359816,169.10340080049767,15.288,0.0,0.0,0.0488453895716005,1.7320643186450851e-09,-0.0005128553637434,7.9027539265021e-08,2.2612406375611563e-05,4.286421922834417,28.730746964325096,16.620764365084565,32.03586915718869
0.41,31.22218090752676,131.01039779392735,6.205351877049411,4.30025870409831,0.0008595777771371,35.882550741685804,0.0012389121673015,3.1445895889870297,378.94687077668647,16.987310563534386,6.99141560549392,69.9969524610574,1.0121301778427253e-06,113.70000825570062,176.64448930727934,15.288,0.0,0.0,0.0499230826371405,1.922193031274436e-09,-0.0005548883906878,8.764667734700782e-08,2.5005077415911235e-05,4.300258789847355,28.21875643368965,16.987445585695873,36.020076248499606
0.42,31.222180656535848,131.0103984736348,6.36160173428776,4.322008670726048,0.0008844838439129,40.34064925656127,0.001261804338223,3.134918999355981,416.2328240017114,17.318628721060172,7.133856886815013,69.99662385300175,1.154276942054023e-06,113.70000876021427,183.59942989625057,15.288,0.0,0.0,0.0508968652507098,2.1275184665783874e-09,-0.0005991661829955,9.694534598491077e-08,2.752657757470936e-05,4.322008761057615,27.772396468009568,17.318767655457478,40.462275036947325
0.43,31.222180400205527,131.0103991677914,6.521055075967404,4.339436441324956,0.0009085827200945,35.541853595187746,0.0012854696362701,3.124839917627212,375.9031395134336,17.662848429084132,7.280642039343927,69.99626930133451,1.3115939750280808e-06,113.70000928827632,190.96736675963504,15.288,0.0,0.0,0.0519085689713619,2.3488101247838237e-09,-0.0006457514522491,1.0695800287133593e-07,3.0255957891170616e-05,4.339436536261635,27.322335771349252,17.662991148924057,35.67895714766603
0.44,31.22218013836212,131.0103998768696,6.683849332059896,4.342209064313268,0.0009296474314902,32.82948243168077,0.0013129688908547,3.113754688841357,353.0750125389216,18.063580761318697,7.446730341918701,69.99588746395321,1.4852372182848018e-06,113.7000098413532,199.7278270846888,15.288,0.0,0.0,0.0530863610987301,2.586862292117705e-09,-0.0006947575786514,1.1773083546077225e-07,3.329010177793299e-05,4.342209163639375,26.81344244367223,18.06372678999575,32.9768158972058
0.45,31.22217987077456,131.0104006014978,6.850166573233225,4.3420317510315165,0.0009500780330031,38.11022602597878,0.001341042003417,3.1022288449712887,397.2093853562869,18.47486275310604,7.616350301328129,69.99547690348253,1.6764536248320808e-06,113.70001042108892,208.92306716049887,15.288,0.0,0.0,0.0542951637545535,2.842521175226318e-09,-0.0007463379956615,1.2932090054593452e-07,3.657529369088674e-05,4.342031854775571,26.30944884471334,18.47501199101448,38.23628058998621
0.46,31.22217959739673,131.01040134180155,7.020045503401754,4.351169003849846,0.0009725797783515,44.3937050866137,0.0013660055515545,3.09098240974522,449.7140588976434,18.844323061800488,7.771531995684422,69.99503610583268,1.8865779683531e-06,113.70001102895836,217.3591612614144,15.288,0.0,0.0,0.0553810645782081,3.1166808800591503e-09,-0.000800596194505,1.417768495237597e-07,4.001824400409673e-05,4.351169112337076,25.873596578896564,18.844475834274814,44.50118229261506
0.47,31.22217931813738,131.01040209802923,7.193559875579052,4.358630093683735,0.0009947969928181,30.22514089990685,0.0013910994973101,3.079396422776949,331.0078106302534,19.2180591098146,7.9280875671397615,69.99456352718363,2.1170044481277104e-06,113.70001166656292,226.0625808853568,15.288,0.0,0.0,0.0564795377574197,3.4102493884459798e-09,-0.0008576351980594,1.551487523304888e-07,4.3718862242359527e-05,4.35863020698899,25.44665981168229,19.218215372160817,30.381603425148434
0.48,31.22217903348153,131.01040286886197,7.370336324605091,4.365514409145237,0.001016880998596,29.779838936311712,0.001416009414045,3.067527859335786,327.2031223011574,19.5915905767454,8.084483592791102,69.99405758812365,2.369198154608765e-06,113.70001233476164,234.93171707892955,15.288,0.0,0.0,0.057577416115756,3.7241711041759195e-09,-0.0009173883913609,1.6944871263079066e-07,4.767297940601472e-05,4.365514527349481,25.03354780044292,19.59175030803913,29.937410312943754
0.49,31.22217874361868,131.01040365378466,7.5502307795521535,4.3786401372577615,0.0010404145545081,37.2489281064929,0.0014385799934191,3.0558405437943126,389.60000969812296,19.93403005898306,8.23012235628909,69.99351671352461,2.644660619562788e-06,113.700013034871,243.21198709852868,15.288,0.0,0.0,0.0585839249886784,4.059374595909599e-09,-0.0009798792959512,1.8470833984680338e-07,5.180951737438081e-05,4.378640260624215,24.667474291142685,19.934193486919103,37.37406598941686
0.5,31.22217844858332,131.0104044527036,7.733219389747018,4.393707159026686,23.40620113634275,38.93218412879929,-1.651611544896617,3.0446197915908906,397.97031042210494,22.06684036283758,8.366023506705158,69.99293932307316,2.9449363413826395e-06,113.70001376847225,298.03511340540086,15.288,0.0,8.768049422645161,0.0648521540967812,4.416605232284705e-09,-0.0010607533276333,3.84562001333629e-05,6.208529966738154e-05,23.79219371491083,44.13480871385103,25.64206531689905,39.085962843574855
0.51,31.222178149324023,131.01040526593428,7.919285131401151,4.404819473354409,23.09400676715646,30.02413940375536,-1.6907550827981837,3.0322112351445383,323.3984349720841,22.39456982585264,8.514028610275972,69.99231492186492,0.0003413263351319,113.70037430440064,306.94800680851955,15.288,0.0,8.802850541476062,0.0658154551276071,4.924073892351881e-09,-0.0011287513032812,0.0004326689191203,6.704516374359124e-05,23.487718067151796,43.594380225527466,25.92473792238539,30.224194028305863
0.52,31.222177846258383,131.01040609389813,8.108457314590362,4.412450728466925,22.781073811704967,35.86341021405478,-1.7311016026571375,3.019440291536344,372.0984511843415,22.730894060836345,8.664687824590102,69.99165081559917,0.0013067817363767,113.70140220074688,316.23105401364006,15.288,0.0,8.837539677644783,0.0668040217927167,5.681980815591154e-09,-0.0011997016846399,0.0008366077160647,7.232831777976755e-05,23.182098423695688,43.051588192462695,26.21579352447249,36.03190148485705
0.53,31.22217753928232,131.01040693698988,8.300848463557747,4.420239883445208,22.47957957481464,37.60685797840664,-1.7716539994577227,3.006445383730032,386.5562464348624,23.064298129863623,8.814014854426361,69.99094525865613,0.0029149825151576,113.70311414148584,325.56967276659407,15.288,0.0,8.872121587018546,0.0677840130194738,6.696317393081263e-09,-0.0012737385193854,0.0012507133390653,7.791679505967689e-05,22.88791496905973,42.52664821458865,26.50548533609565,37.76841588877131
0.54,31.22217722832602,131.01040779548308,8.496535939815304,4.427828761436952,22.18739292025049,33.15447505015727,-1.812557466739963,2.993197892696752,349.2703242098436,23.39629583404848,8.962581900681961,69.99019643737083,0.0051820034457539,113.70552724061648,335.00362355476443,15.288,0.0,8.906620959838964,0.0687598778615477,7.973211957174427e-09,-0.0013509811645734,0.0016753215733884,8.382986997271534e-05,22.603003129631954,42.01624272358904,26.79502931727998,33.33862345758414
0.55,31.22217691369267,131.0104086686355,8.695307433178122,4.436451754562197,21.909446572526168,35.08009120972829,-1.8533138660389243,2.9798015994477334,365.2500005919907,23.721240533604128,9.108317084056893,69.98940248946805,0.0081240074558808,113.70865870626028,344.3672176809228,15.288,0.0,8.94099704842445,0.0697150211649592,9.518829461749937e-09,-0.0014314046963714,0.0021100118088489,9.005211975038644e-05,22.332415168417157,41.5288344549986,27.079507314101647,35.25516684318738
0.56,31.22217659541056,131.01040955644987,8.897163240835265,4.446989164482891,21.64898066418596,32.81190863652685,-1.893522166677668,2.9663459846750206,346.2265619465787,24.034752987576883,9.249624547836254,69.98856152981728,0.0117568870663305,113.71252546004683,353.52319665578966,15.288,0.0,8.975248883284515,0.0706365725865231,1.1339181352265693e-08,-0.0015150928256626,0.0025549334110756,9.657497227949663e-05,22.07948182722314,41.07013181950581,27.35502632475758,33.00009065242523
0.57,31.22217627357809,131.01041045873663,9.102048892660177,4.455269274791394,21.387042931940144,32.45775841714339,-1.9348863475787124,2.9524651587335127,343.1828296833023,24.356130793631703,9.393647619173075,69.98767163158143,0.0160965180187905,113.71714440660942,363.0334478545682,15.288,0.0,9.009361140213503,0.0715812464619489,1.3440255828837586e-08,-0.001602093246729,0.0030100491507277,0.0001034840055256,21.82485031845335,40.60867327839711,27.638126798735804,32.649148796825074
0.58,31.222175948200395,131.01041137555893,9.309982100474407,4.458576357490784,21.111861599973462,42.41473232555951,-1.978646052698734,2.937878641086827,426.1250058573153,24.6988564467338,9.54533651179594,69.98673081489464,0.0211589081229501,113.72253259229832,373.3146779288277,15.288,0.0,9.043333464155364,0.0725886674214937,1.5828059848418012e-08,-0.0016924936658443,0.0034755218452052,0.0001108593607078,21.55646860277029,40.124582406581695,27.9405659441068,42.56237410390165
0.59,31.22217561890887,131.0104123079996,9.521271310723668,4.4670785312274335,20.867174154736567,34.57824493656442,-2.0204585219509728,2.9235411643353,360.68438819711065,25.014274145606727,9.686776871894953,69.98573698102864,0.0269610710644911,113.72870813562568,382.9026508516576,15.288,0.0,9.077203536642946,0.0735158390313212,1.8508914869612152e-08,-0.0017865641874169,0.0039523963170347,0.0001185130540299,21.319080998892726,39.6915620661241,28.220098600714056,34.76038504492622
0.6,31.22217528593956,131.01041325549693,9.735756028806971,4.467212929639732,20.594657343435166,30.8457994555663,-2.06627948531826,2.9081237057224274,329.4859594986058,25.36844884913638,9.842254586622786,69.98468792987667,0.0335202375415357,113.73568938923792,393.814265786213,15.288,0.0,9.110948533858652,0.0745569231335621,2.1489298163447352e-08,-0.0018842958758033,0.0044403358827186,0.0001267633554889,21.05299568140669,39.211167850558326,28.53423810876066,31.051409604915623
0.61,31.22217494927239,131.0104142181858,9.953474461648629,4.46578472834734,20.323487652368275,35.97087375799116,-2.1132417699852644,2.892253172901928,372.0984511843297,25.729028473898936,9.999857696657896,69.9835814937524,0.0408540063814635,113.74349509075368,405.08047787112895,15.288,0.0,9.144575345050452,0.0756168389026704,2.4775758310530443e-08,-0.001985802854349,0.0049396031560848,0.0001354881006511,20.78806219517831,38.73257299400323,28.854909352869,36.148785292287606
0.62,31.22217460904748,131.0104151957665,10.174340936096993,4.476347146672431,20.10944651359541,44.479056393091206,-2.1549984878733124,2.877388937097279,442.86563930529206,26.026823496811257,10.134292005527584,69.98241531349485,0.0489803780100308,113.75214441485444,414.5029840046389,15.288,0.0,9.178091846409355,0.0764922400905062,2.837501145022141e-08,-0.0020911442574607,0.005450194842303,0.0001443236773493,20.581486428248574,38.35118799517044,29.121154185631863,44.62409487258934
0.63,31.222174265110613,131.0104161887328,10.398496204245172,4.482727324856927,19.884521612955368,25.664116672461248,-2.19893565046355,2.861844960558439,286.11251274707894,26.34312493740052,10.2753387553999,69.98118703043932,0.0579166901608767,113.7616558328214,424.6298915569761,15.288,0.0,9.211449668342963,0.0774220385884275,3.229341411150821e-08,-0.0022004807887513,0.0059725699561461,0.0001537120626922,20.3635802760635,37.95139392880402,29.40425461803625,25.916642513081374
0.64,31.222173918059767,131.01041719553683,10.625498790280838,4.482626119940644,19.639737014039422,25.21425931701232,-2.2463244673155325,2.8453085309802124,282.30782441796754,26.69101198089385,10.427739101927816,69.97989433105721,0.0676804064650823,113.77204794197644,435.90976026752304,15.288,0.0,9.244674037647911,0.0784446741445908,3.653757113770428e-08,-0.0023136100016827,0.0065055236146883,0.0001637452852195,20.125100433436383,37.51742385708195,29.71595558748889,25.473527968353185
0.65,31.222173567900885,131.01041821623437,10.855364759474948,4.491365513676601,19.43671520127213,43.78729716628824,-2.289691936750665,2.829533760107587,436.7781447787475,26.990041162024166,10.562174415651835,69.9785347363725,0.0782885935436097,113.78333893089044,445.72194836423233,15.288,0.0,9.277698632143087,0.0793237242608451,4.1113726889852526e-08,-0.0024306450761251,0.0070493148750169,0.0001739518768613,19.92932855013476,37.15545778781623,29.98493049828809,43.938324314812505
0.66,31.22217321416268,131.01041925217282,11.08847858705324,4.497509123597576,19.229023313441942,37.395798887912086,-2.334596424527385,2.8132171193901647,383.51251517160017,27.3000381886764,10.70045503349272,69.9771058109923,0.089758452507152,113.79554712535516,456.0093146040307,15.288,0.0,9.31059996193392,0.0802350164556113,4.602795874381273e-08,-0.0025519288463498,0.0076052042976061,0.0001847251884642,19.728593937248995,36.78565869234849,30.264143014280688,37.57406426634485
0.67,31.222172857051486,131.01042030286646,11.324701919476308,4.497907545332104,19.004444218120227,26.058226942867897,-2.382758600470173,2.795931749806475,289.1562440103425,27.63878551431057,10.849023687868629,69.97560493285859,0.1021083499205381,113.80869209509731,467.38553183365474,15.288,0.0,9.343397304337492,0.0812308138598002,5.128705321069286e-08,-0.0026774585740428,0.0081728989463997,0.0001962122721198,19.51031371322694,36.38666931142352,30.569558958487036,26.315888058427685
0.68,31.222172496756727,131.01042136787447,11.563909272751408,4.499479919195548,18.789979344803573,32.29021154601577,-2.4306803825271484,2.778507972468688,340.8999924858462,27.969096760433366,10.994373172062543,69.97402946029416,0.1153565750232612,113.8227933270358,478.61274577413735,15.288,0.0,9.375965701989015,0.08220182550658,5.6897735678964864e-08,-0.0028072494391005,0.0087521950864899,0.0002081775630286,19.30226162198748,36.005447426777664,30.867997908563225,32.500555000823056
0.69,31.222172133379768,131.01042244699187,11.80604251898316,4.505869197823793,18.599433162118256,39.53305781511592,-2.476347784743412,2.761454381235812,401.0140726853634,28.27019035653592,11.128978519534908,69.97237656679525,0.1295211635753,113.83787005198414,488.96158988983376,15.288,0.0,9.408406970348809,0.0830869735532349,6.286659194684678e-08,-0.0029413486935776,0.0093430318114514,0.0002204649846936,19.118662531391823,35.66604613741453,31.14073975202397,39.706681917077226
0.7,31.222171766808987,131.0104235405863,12.05120700191154,4.511539937285416,18.41100631288413,33.314276384874134,-2.522658381543444,2.7440627810574494,349.27032420985284,28.572511131593373,11.263892738449655,69.9706436091462,0.1446198808205343,113.85394119822256,499.4636374519792,15.288,0.0,9.440718388186358,0.0839757360354458,6.919993040406572e-08,-0.0030799262083118,0.0099458660134415,0.0002333151147869,18.93709173917636,35.33064374883739,31.414992892670934,33.52215233102043
0.71,31.222171397118952,131.01042464852225,12.299364549133951,4.513370601932402,18.21267184263053,27.549822030025467,-2.5713809313465887,2.7258774356452458,301.33126406340574,28.894122935315416,11.405655288397211,69.96882769907212,0.1606709426455146,113.87102618700231,510.75865841322576,15.288,0.0,9.472811206005684,0.0849212035525703,7.590434224276586e-08,-0.0032230431257838,0.010560685211555,0.0002468990596716,18.74515650052055,34.97829351935302,31.707028041496315,27.803508799688025
0.72,31.222171024333605,131.01042577080122,12.550516138969956,4.510691820216667,18.002335968409977,33.5145411117747,-2.623058239029276,2.706750496588536,350.79220534145287,29.23978086842657,11.555950495976912,69.96692588770796,0.1776929161341573,113.88914481329672,523.0394635876921,15.288,0.0,9.504777582408035,0.0859373521847679,8.298649286718174e-08,-0.0033708050682233,0.0111876626789353,0.0002613010052415,18.540662869366027,34.604987377644164,32.02128278956712,33.72582687954379
0.73,31.222170648472343,131.01042690743856,12.80466671833022,4.517255337323984,17.831041987189728,42.14147280793206,-2.6697696341409585,2.68870186092698,422.320318528234,29.52903918227644,11.68573942283012,69.96493505603965,0.1957050256895368,113.9083175779134,533.4261023661339,15.288,0.0,9.536623515303408,0.0867877474059027,9.045326519381513e-08,-0.0035233327051518,0.0118270298330172,0.0002758199658931,18.37629775943089,34.30063390370501,32.28493916673106,42.311470289012775
0.74,31.222170269492967,131.0104280586094,13.061866944116767,4.520251188139137,17.650650093322888,26.742766880360083,-2.718805762020488,2.6698673824108314,294.48281347105944,29.83652649857091,11.821983248841768,69.96285216809528,0.2147257736510573,113.9285642093114,544.5796754396886,15.288,0.0,9.56826029725259,0.0876917268871923,9.831121687352177e-08,-0.0036807455768916,0.0124789992771633,0.0002911361023265,18.20239987198863,33.980727675511886,32.565438129429026,27.012879835895713
0.75,31.222169887772203,131.01042922336055,13.321845672577068,4.5208193576411455,17.465574348240146,31.06051501945007,-2.769639733260274,2.650373972963872,330.24688556441487,30.156142528770246,11.962465212500028,69.96067405652163,0.234773801231909,113.94990458996789,556.2956145947892,15.288,0.0,9.59973242400294,0.0886313616718673,1.0656732121196269e-07,-0.0038429086970589,0.0131427635335283,0.0003072111777567,18.023507892778603,33.652839092480825,32.857336946145914,31.296181551782027
0.76,31.222169503219767,131.0104304019945,13.584690012310611,4.52438722302769,17.295408297707873,33.36149861616086,-2.8189693971868155,2.63108424901224,349.27032420986166,30.455083634255875,12.095373956485233,69.95839749561547,0.2558675783898884,113.97235842419242,567.3651975430396,15.288,0.0,9.631061596600372,0.0895102393956996,1.152279963228251e-07,-0.0040100071559993,0.0138188050080337,0.000323739089967,17.85988285332384,33.351710123914096,33.13076885881017,33.58360883978639
0.77,31.222169115797417,131.01043159467153,13.850446628682148,4.528386440899533,17.130534765428244,31.2569731616564,-2.868306484768256,2.6116053206213974,331.7687666960708,30.748564671089746,12.226199223528075,69.9560191553453,0.278025759902406,113.99594561739836,578.3379770146865,15.288,0.0,9.662228426168102,0.0903730776202138,1.2429977300973722e-07,-0.0041821833137114,0.014507421686162,0.0003408843211779,17.701597459598144,33.060419466505216,33.3995115779651,31.496762304557116
0.78,31.22216872558773,131.01043280122593,14.119069212132896,4.529016572304251,16.957306237666007,25.84505702766989,-2.920061031615921,2.591287208196058,286.8734378128899,31.060237405837384,12.363442860264064,69.95353570704,0.3012670308204885,114.0206861043883,590.1064397813664,15.288,0.0,9.693189308484463,0.0912893913342059,1.337893302337603e-07,-0.0043594839632062,0.0152085314184568,0.00035892835255,17.534524598159,32.75470610219253,33.68516873222259,26.13825737472242
0.79,31.22216833269669,131.01043402142903,14.39049356446046,4.527582607249167,16.780554526837275,36.321882444447866,-2.973529958298659,2.5703094464892,373.6203323159534,31.38255550199709,12.50437652856803,69.95094357749483,0.3256103116558428,114.04660008562004,602.401581190472,15.288,0.0,9.723997184424974,0.0922370014803183,1.4370345642770657e-07,-0.0045419526066626,0.0159220440345794,0.0003778222184834,17.36364839445331,32.44300015982215,33.98091740403196,36.53392280294988
0.8,31.222167936921977,131.0104352558786,14.664891320189955,4.531548625047093,16.62619809699337,36.788562403898126,-3.023788086118493,2.5500084302208594,377.42502064505743,31.668016826808056,12.631963925485657,69.94823922931583,0.3510750063459087,114.0737082678414,613.3943645358552,15.288,0.0,9.754675176896445,0.09307629385969,1.540486255461273e-07,-0.0047298814354987,0.0166488120628387,0.0003970235487741,17.21585062435861,32.17175876389271,34.24315554156795,37.0005967672071
0.81,31.22216753838305,131.010436504307,14.942187281653956,4.531467693273415,16.461187602146044,24.294883022889955,-3.0770355254605746,2.528697911023438,273.9374926939919,31.97664000731388,12.767732658299028,69.94541894327593,0.3776803792975205,114.10203122180768,625.3917352377802,15.288,0.0,9.785207552239257,0.093983670334586,1.6483179928810596e-07,-0.0049232800028981,0.0173886010786878,0.0004172736340182,17.05686226953695,31.88180498957601,34.52693194755852,24.619175490784972
0.82,31.22216713728548,131.01043776621657,15.222240653574003,4.529522635008596,16.29305000964796,30.918343100232924,-3.1319254835567207,2.5067269658831326,328.72500443277005,32.29498170132398,12.906862625193185,69.94247890311506,0.4054456766702896,114.13158950423772,637.8886685843146,15.288,0.0,9.815514716633851,0.0949196195562866,1.760600261941895e-07,-0.0051221119491671,0.0181410150000911,0.0004384358000443,16.894490214040214,31.586671632319312,34.81993424173894,31.177501140722594
0.83,31.222166733629248,131.01043904165837,15.50506726362036,4.534213148269094,16.15060102156425,39.01701550393023,-3.182533385581892,2.485748346649373,395.68750322465047,32.56711989054958,13.02934502904579,69.93941533291661,0.4343902286513943,114.16240375560494,648.6668613668729,15.288,0.0,9.845672330642952,0.0957197784802316,1.877399896528295e-07,-0.0053265182992475,0.0189063198048414,0.0004597617952928,16.75867986328403,31.33826597267328,35.07058744325795,39.22543769580074
0.84,31.22216632732272,131.0104403309219,15.790751160577647,4.537173927265476,16.005205568378873,24.48795984382651,-3.234576185022485,2.4641792780677148,275.4593748256452,32.84756137136317,13.154689386642678,69.9362242633936,0.4645329086527009,114.19449414696734,659.8684372376267,15.288,0.0,9.875683066832435,0.0965443503543027,1.998781145450255e-07,-0.0055366743854866,0.0196848931839771,0.0004820036246923,16.619689099101254,31.085029736873217,35.32908357636914,24.823272143777352
0.85,31.22216591867777,131.01044163322163,16.079069558296194,4.534112587462367,15.84265473182062,26.6072889414408,-3.291275868554013,2.441094721514917,292.96093233939376,33.1656341135621,13.293365419676103,69.93290172339208,0.4958924670500295,114.22788071694087,672.6910900686045,15.288,0.0,9.905522910551808,0.0974795352255697,2.124815309366802e-07,-0.0057524298972375,0.0204759316460748,0.0005056218145883,16.462716948229215,30.801127741626185,35.62260270025602,26.920981874657762
0.86,31.222165507534,131.0104429490299,16.37015878564156,4.534981931545508,15.696069153571708,33.05427532049694,-3.3454646561841064,2.418517580107737,346.2265619465587,33.45461780804786,13.421537262041008,69.92944356391219,0.5284883136912537,114.26258421350482,684.4458104043312,15.288,0.0,9.935212066819748,0.098329231235602,2.2555657607887066e-07,-0.0059740714573345,0.0212802133754983,0.0005296640630243,16.322235326340657,30.54658394354027,35.8894273963883,33.31105639294978
0.87,31.222165093929828,131.01044427828683,16.66400330878285,4.537545631550793,15.557690930882204,30.848915815724904,-3.3986541019490875,2.3960262369118146,327.964078366998,33.72904869911669,13.544412325929867,69.92584556133323,0.5623396436545882,114.29862516139768,695.7013606498089,15.288,0.0,9.964722562454458,0.0991361624227078,2.3910997424271384e-07,-0.00620168767537,0.0220977908415045,0.0005543394021899,16.190192592181848,30.30747840102276,36.14292534997269,31.12791991827188
0.88,31.22216467791465,131.01044562090118,16.960578729112065,4.53695639733758,15.411633030304678,26.79992110282644,-3.4544981531994337,2.372566472288016,294.4828134710418,34.02225424062411,13.673876323895287,69.92210340931813,0.5974654990973709,114.33602392848114,707.8291911877657,15.288,0.0,9.99405193720906,0.0999982845350517,2.531484918252803e-07,-0.0064353337558646,0.0229285969145501,0.0005802077922905,16.050026724669785,30.054867722569394,36.414020951955536,27.125604145780887
0.89,31.222164259584336,131.0104469766586,17.25982552003928,4.53328377097368,15.25831795453759,29.290138757618635,-3.5130385613877544,2.348111654565205,315.028134248087,34.3343864194433,13.80996877066578,69.91821268894441,0.6338850218603563,114.37480099491628,720.855800889204,15.288,0.0,10.023222313747096,0.1009160448603244,2.6767895155086404e-07,-0.0066750594733579,0.0237725479755434,0.0006073252596769,15.902157055483462,29.78937690643916,36.702927897635455,29.593365755125856
0.9,31.222163838875712,131.01044834576527,17.561804284101,4.536389317060535,15.129235117849964,32.242397773553044,-3.566601493161732,2.324906231555967,339.37814235421445,34.596005056272965,13.927965851880936,69.91416881999854,0.6716178661937067,114.41497739321215,731.8618761842214,15.288,0.0,10.052244570339177,0.1016853440024534,2.8270792285513445e-07,-0.0069210648999242,0.0246300779233856,0.000634487678162,15.779475956409655,29.568694874223965,36.94497901221236,32.52227005275876
0.91,31.222163415871776,131.0104497280354,17.866463845466196,4.536387584950003,14.992616206086636,24.77859239193933,-3.622863427805609,2.30070413400938,277.7421810230789,34.87652145854257,14.052586890717652,69.90996721186225,0.710682806864016,114.4565732261161,743.7566096621337,15.288,0.0,10.0811100823373,0.1025101964088465,2.9824216474700854e-07,-0.0071733797246497,0.025501024407432,0.0006629314072146,15.648811905076444,29.33467613554404,37.20477252220324,25.147505241169608
0.92,31.22216299078936,131.0104511229327,18.17365285788477,4.533370893077448,14.848888721885292,29.298439112980738,-3.6818752357440494,2.275472511528036,315.02813424806214,35.17590294339667,14.1838116730563,69.90560315681167,0.7510986859925357,114.4996086750424,756.5579670479038,15.288,0.0,10.10980524704882,0.1033905064879332,3.1428886409774924e-07,-0.0074319053433326,0.026384800496261,0.0006926984603078,15.510595489695987,29.088002811820907,37.482338572259806,29.616423059838684
0.93,31.222162563547258,131.0104525307025,18.48344337341691,4.53654545062856,14.726754240989562,34.650826523534,-3.736077539684592,2.2514686926308745,359.1625070654728,35.427495199029735,14.297949194546252,69.90107183174806,0.7928843735950151,114.54410395898492,767.3962532917772,15.288,0.0,10.138344583114325,0.1041303611103366,3.308541462960626e-07,-0.0076968784540969,0.0272819505305439,0.000722505159886,15.39487352152116,28.881592088327302,37.7153814387221,34.92430622675961
0.94,31.222162134042343,131.01045395164104,18.795922064675143,4.533633337352264,14.587929658885894,25.427418208010305,-3.795596849446144,2.225656741751453,283.0687504837787,35.720356623355144,14.426645500537592,69.89636831436152,0.8360582764735431,114.59007881448564,780.1126444046514,15.288,0.0,10.166727665000732,0.1049915250307481,3.47944202961045e-07,-0.0079684826132848,0.0281928230838413,0.000754161327294,15.261562008203626,28.64483470150944,37.98714601603279,25.80530372037274
0.95,31.222161702580884,131.01045538497786,19.11087083717891,4.531308210476372,14.453126239738868,32.62721447377478,-3.854947970479977,2.1996748495058527,342.4218736174873,36.006182858255634,14.55274007622779,69.89148760194439,0.8806394213772024,114.63755363711962,792.6231881253564,15.288,0.0,10.194943127240156,0.1058320196295313,3.655665500685584e-07,-0.0082465589758461,0.0291166408761311,0.0007867007385668,15.13235136299398,28.415927319499765,38.25247375455511,32.92771351941028
0.96,31.22216126887129,131.01045683149871,19.42851635896212,4.5319726028767295,14.329505984673313,31.983486808947287,-3.911990758914377,2.174180784873759,337.09533515678345,36.266660614684326,14.669738864148668,69.88642449166828,0.926646585152991,114.68654857423128,804.1082071418208,15.288,0.0,10.222996314628023,0.1065980170710542,3.837266167247488e-07,-0.0085315429234645,0.0300545692557511,0.0008197503385434,15.014770096861906,28.208260002589423,38.49414261790073,32.295110500527024
0.97,31.222160832942,131.0104582911526,19.7488462682578,4.530830707204598,14.202404283181131,20.811487592176004,-3.970851386745744,2.1479152504698,245.02188719299323,36.53742531986107,14.790286796812495,69.88117365377174,0.974098849701142,114.7370841037443,816.1347655067348,15.288,0.0,10.250896333113252,0.1073942596307171,4.024311725105345e-07,-0.0088235279808769,0.0310066413011942,0.0008541090089849,14.89343345356377,27.99461608866953,38.74555791535645,21.295521042184365
0.98,31.22216039509712,131.01045976317332,20.071643803056485,4.523915807551756,14.060053457660484,29.86282833602769,-4.03520537573892,2.119723882452281,319.5937466429581,36.84919528270505,14.925265587550523,69.87572966120378,1.0230150279545944,114.78918042611916,830.0964344830167,15.288,0.0,10.278631990602278,0.1083110379348662,4.216880814435463e-07,-0.0091222910580127,0.0319718823711678,0.000890536169323,14.755957583676365,27.75294127028953,39.03564411491738,30.208684645136223
0.99,31.222159955192406,131.01046124795806,20.397024767854194,4.526227519342472,13.947147092635229,32.5433961739844,-4.09147337351067,2.093822798996076,341.6609485517054,37.08741406503119,15.034084374028287,69.87008691125858,1.0734142868946488,114.84285812924828,840.8374873510861,15.288,0.0,10.306223820818012,0.109011635928839,4.41503162640413e-07,-0.0094281742750723,0.0329511269231886,0.0009263182327108,14.649342164798778,27.56670139226267,39.256654693239575,32.8663487904672
1.0,31.22215951323152,131.0104627455115,20.724992919906565,4.52292146819208,13.819446034036956,29.21752978978776,-4.153128663056756,2.0660182488783496,314.2672081822764,37.36557181224068,15.156950965984704,69.86423981735173,1.125314561982517,114.89813649936043,853.4705594089983,15.288,0.0,10.33366361780498,0.1098296359516616,4.618829778336865e-07,-0.0097412421810536,0.0339443102633113,0.0009642249180083,14.527061152518677,27.35326126842435,39.51533921009651,29.583457473962326
1.01,31.22215906940692,131.01046425535594,21.055414058536524,4.520352847364589,13.695760419078184,30.51210916431001,-4.214362867701092,2.03811728326486,324.9203161036979,37.63496984053907,15.276618905382904,69.85818256402943,1.1787345153871347,114.95503560695974,865.7941378397536,15.288,0.0,10.360947541458652,0.1106218973184998,4.828348038409768e-07,-0.010061429543456,0.0349509704834684,0.0010030668017576,14.408907418265,27.147784994944605,39.76586614439614,30.869136400226225
1.02,31.22215862364469,131.01046577769523,21.38834896464157,4.519026512060924,13.577449217624316,25.6111130212102,-4.274640958581427,2.01029312206734,284.59063161540416,37.89137185093768,15.391592964205552,69.85190927293357,1.2336921804419605,115.0135748641387,877.6033383795651,15.288,0.0,10.388082078487756,0.1113759679222854,5.043646469692027e-07,-0.0103889442020057,0.0359714928989527,0.0010427409978356,14.296323706703436,26.9528795999396,40.00420775808941,26.043097817783043
1.03,31.22215817601924,131.01046731234908,21.72374862796504,4.513816842919836,13.44968041180169,21.07705238749685,-4.33892828713737,1.9809579869638307,247.30469339049705,38.17537519944676,15.516230799186232,69.84541396822985,1.290205220084916,115.07377329966084,890.7795656503232,15.288,0.0,10.415062384755208,0.1122111775863557,5.264792092257218e-07,-0.0107238061581583,0.0370056767775406,0.0010843837099641,14.173661298368106,26.74058385353308,40.26869687563275,21.610012276079882
1.04,31.222157726598866,131.0104688591557,22.06156934900284,4.511986464519662,13.33331162227166,33.0106464055328,-4.400176873959505,1.952362117329001,345.46563688072297,38.42928885459852,15.63013635157386,69.83869045345672,1.3482918525519365,115.13565054569204,902.6392644654616,15.288,0.0,10.441892184914751,0.1129579518790792,5.491851503913305e-07,-0.0110660894679391,0.0380534917312111,0.0011264013142929,14.062938774520328,26.550254784013937,40.50482837284159,33.359796918902624
1.05,31.2221572750914,131.0104704188651,22.40202834682282,4.506991998312681,13.209623338415172,20.238240694585983,-4.464806364066215,1.922440213547001,240.45625879819983,38.70535541730342,15.751769572262328,69.83173245117582,1.407969745924702,115.1992256612388,915.6245807005332,15.288,0.0,10.468585873380592,0.113769851124835,5.724873498457013e-07,-0.0114162660954536,0.0391160929465668,0.0011703548637377,13.944382084024712,26.346519226652173,40.761984910832304,20.8138573708783
1.06,31.222156821745205,131.0104719908538,22.744949940857087,4.499293522093373,13.080038473648465,28.474336376249223,-4.532539124234481,1.891261111435794,308.17968365593924,39.0005332423977,15.880050847071054,69.82453342164406,1.469257353629746,115.26451855415702,929.6128295713692,15.288,0.0,10.495132344622048,0.1146379353258548,5.963938410492601e-07,-0.0117741550256218,0.040192667537539,0.0012162095559496,13.81947913562646,26.131963250751827,41.037340936002025,28.894785196850577
1.07,31.22215636644341,131.01047357542635,23.090423989823343,4.497309123287511,12.968101604121951,33.38102479322226,-4.5946486009004985,1.8616744944387715,348.5093681440308,39.24563080506668,15.990552280315947,69.81708662526776,1.5321733940240363,115.33154942863312,941.3025500238068,15.288,0.0,10.52154646601648,0.1153588233748346,6.20910456595533e-07,-0.0121400878195106,0.0412839331342597,0.0012618474300812,13.713159629439804,25.951412033834654,41.26530781340313,33.74713978894685
1.08,31.222155909081582,131.01047517284613,23.43852874965431,4.493917867726123,12.853756247755534,22.72791111215176,-4.658419309418092,1.831305083446622,261.00157857466235,39.4987382786986,16.103784993893477,69.80938526612158,1.5967357544345893,115.4003376176094,953.451336679272,15.288,0.0,10.54782983841638,0.1161032649613624,6.460433148226796e-07,-0.0125142959294119,0.0423902877001873,0.0013090879569008,13.604200351648537,25.766760014575823,41.50090805098108,23.27256952493403
1.09,31.22215544994672,131.01047678239092,23.78906030784536,4.484066273388569,12.72317929455228,20.96334160838479,-4.729366043326849,1.7983077663994635,246.54375332474407,39.80272550756906,16.23486824981375,69.80142238426687,1.6629622630810708,115.47090240517277,968.1509731730176,15.288,0.0,10.573967287274613,0.1169972730103386,6.718009414712925e-07,-0.0128965071270273,0.043510660366005,0.0013594069164638,13.477923369764463,25.55145307356394,41.78489310120194,21.56530791304179
1.1,31.222154989119527,131.0104784038608,24.14196431286709,4.477312399524121,12.602713035028511,41.25715782790929,-4.797331269142537,1.7660362876459594,413.1890617385841,40.07781882246184,16.355662286906174,69.7931908539977,1.7308706701745713,115.54326300779056,981.5465405121084,15.288,0.0,10.599963768624937,0.1178063593525436,6.981901094570115e-07,-0.0132867900545951,0.0446449870018359,0.0014101781778042,13.362268933821328,25.355866678791337,42.04152389200126,41.572663416146334
1.11,31.22215452617897,131.01048003830596,24.49754443085025,4.47692091242333,12.500967341288517,30.410635563068407,-4.85844557155217,1.7358106859946445,324.1593910376397,40.29506145187889,16.4559671440708,69.78468335118244,1.800478848513993,115.6174387890654,992.1824771738832,15.288,0.0,10.625843451578806,0.1184454063993862,7.252145567157583e-07,-0.0136858761222871,0.0457950876719332,0.0014603583323405,13.266417175095508,25.19675510499618,42.24316632484588,30.845166354861973
1.12,31.222154061186327,131.01048168556025,24.855756232047906,4.464194933168705,12.367406643978912,11.953284505081008,-4.933631656466596,1.7005918505034905,172.73281794065943,40.614662605409,16.59224175345569,69.7758924840528,1.871803834417102,115.6934482370645,1007.9492454422452,15.288,0.0,10.651595295953424,0.1193853413170079,7.528816974778817e-07,-0.0140937529805053,0.0469606249709938,0.001515756947975,13.136635106582789,24.97676321569655,42.542279917248734,13.04276598053871
1.13,31.222153594764624,131.0104833440795,25.21616029637251,4.457935784997328,12.252696774671207,35.69274262806169,-5.001827808347009,1.6674589469202052,367.5328077900705,40.87555459368398,16.707740340623243,69.76681042333047,1.9448643654108844,115.77131166924303,1020.9048000317168,15.288,0.0,10.677196946649508,0.1201527126291894,7.812025781544954e-07,-0.0145097343077328,0.0481393934851475,0.0015704645791161,13.02680986773748,24.79350731027461,42.78556760425741,36.08005788627659
1.14,31.2221531262114,131.01048501558958,25.57925425993887,4.456172048397275,12.151233657636576,20.10304989843684,-5.064943862134445,1.6357990791026205,239.69531773195544,41.093227983647935,16.807925457293322,69.75742951526158,2.0196766115060094,115.85104668636149,1031.7709532701751,15.288,0.0,10.702667666740096,0.1207930533021758,8.101782591823319e-07,-0.0149349610847614,0.0493343073346082,0.0016250406642023,12.931017743641746,24.636447890164973,42.98766326334919,20.795723362576446
1.15,31.222152656034808,131.01048669881936,25.94467709269607,4.441915443984262,12.0181681762969,19.81774739580359,-5.143000029208149,1.59875313564622,237.41251153546767,41.41770608756644,16.945618085459376,69.74774195623469,2.096256417488577,115.93267055917472,1048.0925194287147,15.288,0.0,10.727994030815111,0.121747354893365,8.398195278200129e-07,-0.0153687362592621,0.0505431336894711,0.0016853838777104,12.801431313869571,24.418392320159192,43.29170269778516,20.53654237531366
1.16,31.222152184380604,131.0104883934085,26.31232861335789,4.44096579543593,11.921334381127568,50.633850524924405,-5.205418258259936,1.5668107275712813,490.0437743845894,41.62058924715718,17.040427357468857,69.73773950201769,2.1746212140977104,116.01620226832613,1058.3483784733696,15.288,0.0,10.753186670206368,0.1223442375988517,8.701333733060383e-07,-0.0158110887002671,0.0517656920785793,0.0017423255179531,12.71042291364072,24.27128417484725,43.47970596312828,50.92482787481806
1.17,31.22215171031335,131.0104901016203,26.68286094504483,4.433356429759863,11.808387866997704,9.590093301339431,-5.275953872511498,1.5318020315381482,153.70937929486794,41.878859352327616,17.154625709800285,69.72741406199992,2.254786017022321,116.10165824133708,1071.485826149194,15.288,0.0,10.77827840356778,0.1231039405498849,9.01118916920704e-07,-0.0162635140954953,0.0530057653241471,0.0018032380985613,12.602122563508717,24.09326153944927,43.72061351869581,11.052239422718316
1.18,31.222151235052944,131.01049182046145,27.05541924862573,4.416930453058586,11.674069022236113,24.9986473939138,-5.357761504925507,1.4925699777339971,280.02501822196746,42.214258986026174,17.29586467941315,69.71675717466621,2.336766871518292,116.1890560207826,1088.6782324839487,15.288,0.0,10.803215765719548,0.1240903777945672,9.327933254685066e-07,-0.0167241916663207,0.0542581188144433,0.0018691002836187,12.470859377162771,23.873645153493275,44.03535585923223,25.609875927214638
1.19,31.222150758043284,131.01049355127492,27.43039182218349,4.419348933516759,11.58932696992869,43.11098249986762,-5.416114809081464,1.4612621287439864,428.4078130529292,42.37385920293482,17.3751930724283,69.70576010115349,2.420580181800456,116.27841355544945,1096.886253905126,15.288,0.0,10.828041912631107,0.1245600556607912,9.65157028455155e-07,-0.0171942995163007,0.0555256624812672,0.0019288353659668,12.392576484295748,23.75183298727225,44.18191818863,43.47443385183924
1.2,31.22215027879285,131.01049529521072,27.80811206129129,4.406255955675565,11.4662222139774,5.097756190457135,-5.494232078149832,1.4227336195741151,117.1843741360236,42.671819658053785,17.503069930339034,69.69441434735865,2.506239344288029,116.36974560912576,1112.3260879858608,15.288,0.0,10.852759778979255,0.1254364598812418,9.982130222832436e-07,-0.0176745914743618,0.0568100827282791,0.0019965833383685,12.273115335137108,23.55500816027481,44.460931469629074,7.628753191589115
1.21,31.222149798537583,131.0104970492746,28.187724396475065,4.393779372366972,11.346007329116627,34.74075401858557,-5.571931012662916,1.3840385260223151,359.92343213200894,42.961432517344456,17.62792903986721,69.68271077758276,2.593760368718637,116.463069752258,1127.4348840447035,15.288,0.0,10.877328938931658,0.1262883358926197,1.0319790281917896e-06,-0.0181632092537542,0.0581061752007883,0.0020656293626876,12.156647287295966,23.36413006762332,44.732033966323776,35.21195773641759
1.22,31.222149316321847,131.01049881573732,28.56988374526883,4.394259894705794,11.259425389855972,25.344793055763688,-5.632613428205301,1.351113037099401,283.0687504825761,43.12538399115105,17.708539985808084,69.67064035944503,2.6831571283474487,116.55840130343609,1136.0147396193047,15.288,0.0,10.901798215259102,0.1267708302499743,1.06645109792924e-06,-0.0186619717659952,0.0594184429474849,0.002130372842849,12.076211223107617,23.24039317313821,44.88264895420953,25.998276394986377
1.23,31.22214883251092,131.01050059368313,28.954330980910488,4.380190597656887,11.137635112859128,10.26916179422737,-5.712732244143008,1.3109528846265333,159.79687382222795,43.42253731407887,17.83586762412463,69.6581941672895,2.774441380010476,116.655753346426,1151.6814476683492,15.288,0.0,10.926126407085444,0.1276448922179509,1.1016398840161368e-06,-0.0191702216079559,0.0607448528481365,0.0022033901578151,11.957868568225985,23.047197891093123,45.16103575596343,11.82411058452182
