Time,Latitude,Longitude,Altitude,Angle of Attack,Angle of Sideslip,X-Acceleration,Y-Acceleration,Z-Acceleration,Thrust,True Velocity,Ground Velocity,Pitch,Roll,Yaw,Dynamic Pressure,cp,parachute_deploy_gain,Wind Speed,Mach,omega_x,omega_y,omega_z,Cmq
0,31.2221860000000042,131.010383999999988,3.00000000364323682,0,0,0,0,0,2.2828121974499247,0,0,69.9999999962342088,0,113.699999993883324,0,15.2880000000000003,0,0,0,0,0,0,-0
0.01,31.2221859999997946,131.010384000000556,3.00000016469923247,0,0,0,0,0,34.2421869617492334,9.11367326775851009e-12,8.66229497295429822e-12,69.9999999962370651,-4.92863947922479589e-13,113.699999993882884,5.08594204168408172e-23,15.2880000000000003,0,0,2.67827100510624443e-14,-3.65918233213857746e-19,7.58941520739853104e-19,4.81114714040442593e-19,-1.83541113936281872e-32
0.02,31.2221859999996028,131.010384000001039,3.00000030885429547,0,0,0,0,0,25.8718762377664078,1.96992978605390895e-11,1.88456988716431921e-11,69.9999999962400494,-1.04152381447771591e-12,113.699999993882386,2.37621641206600858e-22,15.2880000000000003,0,0,5.78911013494094702e-14,-7.28448334638698292e-19,1.51788304147970621e-18,9.75781955236953991e-19,-7.93451985123442364e-32
0.03,31.222185999409362,131.010384001586402,3.00018176030779937,18.6493779029494604,-0.000129237623237530007,10.7928899806483045,-1.97644583900689674e-05,3.34983967390763571,180.342193598546658,0.0785672533977095078,0.0490694047558625918,69.9999999976775626,-4.2497891361524094e-12,113.699999994705607,0.00377978965327356543,15.2880000000000003,0,0,0.000230888677896110966,2.88330015245363835e-17,-7.25223402354589416e-10,1.08188208080271277e-11,1.51197624781400831e-13
0.04,31.2221859959356287,131.010384010943454,3.00162780953569674,9.74253989061216075,-4.88763086122285772e-05,51.6475445943311158,1.54548216767323456e-06,3.34965665682309899,548.635972453807767,0.346420694310776434,0.171860503977579737,70.0000000036447574,-2.28205307288861013e-11,113.699999999565534,0.0734838809649275282,15.2880000000000003,0,0,0.00101804013696402693,1.80009747884589399e-15,-1.58734069119923437e-08,2.61929145365345784e-11,1.45916869803439425e-11
0.05,31.222185985910329,131.010384038045004,3.00715844163023283,5.5769968489095687,-4.21135943534799539e-06,75.3242160169835273,4.73080294831520123e-05,3.34902689347595528,761.698429882464552,0.947854334293939504,0.409211128642743283,70.0000000010935537,-1.04766136577077691e-10,113.700000013612069,0.55013262299765131,15.2880000000000003,0,0,0.00278549703395658196,1.95473045844392346e-14,-1.13584749331540247e-07,4.14067569904437612e-11,2.85688606727574374e-10
0.06,31.222185966868647,131.010384089593572,3.01868664272593046,4.48500474963244322,2.31139019787050305e-05,56.3605563030587007,9.71465785775115924e-05,3.34799244711343214,590.487539073720654,1.60618980149218604,0.665693519146445256,69.9999999197690244,-2.82941102348924619e-10,113.700000040305838,1.57971028663545732,15.2880000000000003,0,0,0.00472017413217633904,1.01936766184118274e-13,-4.07864410983111553e-07,5.76522069423461223e-11,1.73837509686130208e-09
0.07,31.2221859390775336,131.010384164863126,3.03600551209402658,4.00448286551149391,4.63712119495135773e-05,85.8192455386477917,0.000147926970097503541,3.34656708333141317,855.293774977913927,2.27788210706903049,0.926660947343454056,69.9999996219982279,-5.49831570978999292e-10,113.700000079276109,3.1772067926123353,15.2880000000000003,0,0,0.00669410445039518576,3.35900025920073467e-13,-9.92070622953462368e-07,7.83315922772719921e-11,5.99658406989250883e-09
0.08,31.2221859009658012,131.01038426812616,3.06033476575187802,3.77263127792190334,7.06371256062416025e-05,17.6076228145981588,0.000196957592070898702,3.34480227118667583,241.217198863884818,2.92612482887636283,1.17954495655796454,69.9999989088305909,-9.15694670892462832e-10,113.700000132739973,5.24285298735243899,15.2880000000000003,0,0,0.00859912396431777512,8.49635706706491564e-13,-2.01744800413265681e-06,1.10032289818440005e-10,1.56647792516492608e-08
0.09,31.2221858556197738,131.010384390989856,3.0892797608365723,3.74258231141200604,9.5325675231994802e-05,53.4176180048964397,0.000237730218002333866,3.34289666486112669,563.093737704317618,3.46187703891102627,1.39384941462988121,69.9999975134546446,-1.31671842773002699e-09,113.70000019638816,7.33844512707370811,15.2880000000000003,0,0,0.0101735644468633635,1.80613395740032365e-12,-3.4856561047658452e-06,1.59232278560273843e-10,3.20202005890100843e-08
0.1,31.2221858028175774,131.010384534057465,3.12301320909491364,3.81071421019783685,0.000121971080758598364,50.732831688561788,0.000271545837515448313,3.34090447591365036,538.7437595981919,3.9029133825176725,1.57567038389986336,69.999995157830341,-1.72222432289554893e-09,113.700000270567642,9.32732681847184431,15.2880000000000003,0,0,0.0114696609641860067,3.37914451533694905e-12,-5.48904943388414521e-06,2.34452541412924053e-10,5.68476506314615152e-08
0.11,31.2221857431700727,131.010384695667796,3.16106164078641116,3.84323765504598036,0.000147145408783231387,40.0848474374385688,0.000307099758177995722,3.33859717034531034,442.865639305294906,4.36819921201157246,1.76578242121538631,69.9999915253729768,-2.07703942468805025e-09,113.700000354470319,11.6837607126815346,15.2880000000000003,0,0,0.0128370221364947634,5.76365694334259916e-12,-8.08162139954488366e-06,3.4437809457680147e-10,9.36754562129998513e-08
0.12,31.2221856770245907,131.01038487487628,3.20315617196047642,3.86558564807459826,0.000171348089099210797,43.7480799143332604,0.000342946594964391399,3.33600966231316054,475.585948135404465,4.83801864946757032,1.95742650583495204,69.9999862600106582,-2.3147200577597177e-09,113.700000447673773,14.3321420062794882,15.2880000000000003,0,0,0.0142177082532951912,9.17772063248746377e-12,-1.13223702306849879e-05,4.98555567062495836e-10,1.45354343598177095e-07
0.13,31.2221856047215205,131.010385070757366,3.24903338361815308,3.95285669440916232,0.000198169826234992146,48.2585391180499741,0.000371981107240517913,3.33344523512332414,515.915632623689476,5.21512035057569623,2.1172615234944101,69.9999789703044399,-2.35265113573284059e-09,113.700000549782459,16.6533950244453948,15.2880000000000003,0,0,0.0153259223232261182,1.38588880633063252e-11,-1.52681962163171846e-05,7.07166414280215559e-10,2.11287244421402401e-07
0.14,31.2221855263490333,131.010385283071088,3.29862557546706325,3.99981420118284792,0.000223008237377726162,44.9721767850953427,0.000403855591455553264,3.33052592490198407,486.239086056840392,5.63167615200940475,2.29059513099545553,69.9999692426645623,-2.0964169591742506e-09,113.700000660771011,19.4199179783547713,15.2880000000000003,0,0,0.0165500839355928395,2.00553635588333716e-11,-1.99811439493909854e-05,9.81252131659242702e-10,2.9859131057555361e-07
0.15,31.2221854420015994,131.010385511560628,3.35186028506811029,4.05975476911301225,0.000248539990764711958,43.4637160193537753,0.000433543226731567866,3.32747422849243879,472.54218587214001,6.01888316560526437,2.45383766868271946,69.99995661705006,-1.43188768134039915e-09,113.700000780625842,22.182048585914238,15.2880000000000003,0,0,0.0176879988684610287,2.80404916713566325e-11,-2.55291719775422389e-05,1.33309260321839681e-09,4.07727088477750495e-07
0.16,31.2221853515819241,131.010385756490507,3.40881389436676407,4.08854462484130732,0.000272210944932510383,34.4023069357135967,0.000465877824565354701,3.32404684464906053,391.12189082975641,6.44303061809316624,2.62971580822363071,69.9999405987561403,-2.27841984783363582e-10,113.700000909623355,25.4183784408083007,15.2880000000000003,0,0,0.0189344747787753703,3.81042963600432359e-11,-3.19913711614788564e-05,1.77662362644707755e-09,5.46937370926295155e-07
0.17,31.2221852554099399,131.010386016990765,3.46923909377793649,4.13347468842419552,0.00029684158695823977,43.4155809381403728,0.000495744973995866601,3.3205135250562221,471.78125980632376,6.83404379119085981,2.79420112365087148,69.9999206448319882,1.67575894446247236e-09,113.700001047478835,28.5969980778046526,15.2880000000000003,0,0,0.0200835795555658371,5.05622819343119236e-11,-3.94162603380559734e-05,2.32482468580976756e-09,7.14768170397066036e-07
0.18,31.2221851530022434,131.010386294375877,3.53351204963262022,4.16207877285686756,0.000320492787063832857,36.2151660219171347,0.000526966735016640565,3.31665933612355879,407.101567211914528,7.2444022294323478,2.96528531587496236,69.9998961790314524,4.45070668055043651e-09,113.700001195059045,32.1341903991183955,15.2880000000000003,0,0,0.0212895378539265934,6.5741708189353534e-11,-4.79243856484647045e-05,2.99669991322666987e-09,9.21230820748327094e-07
0.19,31.2221850444828668,131.010386588308563,3.60153760019172342,4.17456309251139679,0.000342914278589344943,40.9041800427263027,0.00055982867240863632,3.31244583927210501,448.953132831826849,7.67810673790947895,3.14433961722118216,69.9998665624008964,8.30674092292676784e-09,113.700001352409558,36.0967170721845179,15.2880000000000003,0,0,0.0225641073333706747,8.40032927522686365e-11,-5.75836346763551867e-05,3.80911503044151526e-09,1.17316671380156179e-06
0.2,31.2221849296486234,131.01038689934137,3.67347464118590317,4.20078915399145636,0.000366573034254704516,37.5214898208491761,0.000590466919182690893,3.30812712915434881,418.515630199161365,8.08216006412957277,3.31318683933006453,69.9998311045104487,1.34800080829191884e-08,113.700001520067786,39.9955165273270055,15.2880000000000003,0,0,0.0237515420632470921,1.05728805481567758e-10,-6.85028882131185225e-05,4.78351733027568889e-09,1.4690610466811608e-06
0.21,31.2221848088436893,131.01038722653837,3.74905730552401684,4.22722562033261262,0.000390310433246848657,36.0064697775761644,0.000620601272787201603,3.30359776763142721,404.818761014464428,8.48018829437500621,3.47992805775657654,69.9997890742529592,2.02433263776548733e-08,113.700001697833756,44.0315784885794201,15.2880000000000003,0,0,0.0249212734096428447,1.31320595517854955e-10,-8.07208291683553139e-05,5.93661589182972911e-09,1.81631626331753899e-06
0.22,31.2221846819136672,131.010387570319409,3.82840670130281646,4.2176244726165093,0.000410696285369717819,43.5935627685881499,0.000655758920494764063,3.29841875767922987,472.542185872136486,8.94831461811120121,3.67066782999472752,69.9997397083127737,2.88926538075102191e-08,113.700001886238866,49.0266756129506618,15.2880000000000003,0,0,0.0262970098082033268,1.61186003536399267e-10,-9.43348117723774896e-05,7.29106197993283208e-09,2.23980539128825791e-06
0.23,31.2221845484548304,131.01038793178239,3.91183756115468473,4.25320537954326383,0.0004356497720089569,36.207459360748949,0.000683686922722525747,3.29355466128287455,406.340642146102141,9.31799902525197865,3.82760028360492655,69.9996821549030983,3.9766623706965518e-08,113.70000208621326,53.1608354775167555,15.2880000000000003,0,0,0.0273834518362109196,1.95767624418301473e-10,-0.000109505708778552874,8.87784718088286285e-09,2.70740355927931971e-06
0.24,31.2221844093456014,131.010388308538637,3.99866964940866776,4.27135264557773553,0.00045883378920767232,37.3286080087975947,0.000713911697673520317,3.2882529474867046,416.232824001711379,9.7203332459195213,3.9956861712714935,69.9996155408946805,5.32509871046438109e-08,113.700002296918697,57.8502398901668755,15.2880000000000003,0,0,0.0285658473732890855,2.35534745143307651e-10,-0.00012617657385590063,1.07071802425012536e-08,3.25424194465518317e-06
0.25,31.2221842644570167,131.010388700938847,4.08900446593793809,4.29698686981540234,0.000482848983334858658,38.3649566400252979,0.000742483922667206905,3.28284626589867479,425.364080791506922,10.1009615935159527,4.1562806652626314,69.9995389781877293,6.97479781374676735e-08,113.700002518962805,62.4689963611702623,15.2880000000000003,0,0,0.0296844577155840929,2.80933085873043406e-10,-0.000144451636124542286,1.28055329635332884e-08,3.87142965072796435e-06
0.26,31.2221841140756986,131.010389108203611,4.18262110402873155,4.32755423691547136,0.000507438991606541483,41.7865661614553829,0.000769736419800412888,3.27732087646770287,455.80158342417883,10.4644497354123782,4.31094871887776954,69.9994515368878751,8.97024502886333285e-08,113.700002752408935,67.0452443356678742,15.2880000000000003,0,0,0.0307527002093570291,3.32431765373287754e-10,-0.00016436315770221847,1.51925047864838523e-08,4.56355359993810651e-06
0.27,31.2221839578137299,131.010389531387915,4.27982215321117465,4.33742811840656994,0.000529702335486379188,38.2242911032538473,0.000800211178185602123,3.27123004841987974,423.842199659872563,10.8736118498261902,4.48123226393084195,69.9993522521519935,1.13587393208351198e-07,113.700002998306658,72.3900346549699947,15.2880000000000003,0,0,0.0319551720828357214,3.90484337603431509e-10,-0.000186059811616844751,1.79019946498730075e-08,5.36790267753501075e-06
0.28,31.2221837957695953,131.010389970223883,4.38053283172365671,4.35979025650862262,0.000553527510562852902,44.1207307275094038,0.000828072271385077072,3.26514386100193477,476.346873201222195,11.2478718916014184,4.63949182586423614,69.9992400702920463,1.41938296327408329e-07,113.700003257081931,77.4582454645660761,15.2880000000000003,0,0,0.0330550782151640757,4.55595825375374429e-10,-0.000209619220926101062,2.09616181379585756e-08,6.25569396794615011e-06
0.29,31.2221836278828384,131.010390424876022,4.48480177698289584,4.38135974025744623,0.00057737648726709299,35.3536197607625553,0.000855659611391794222,3.2588361863853601,397.970310422111766,11.6195889013503368,4.79682445966682813,69.9991139044831527,1.7532937395312496e-07,113.700003529427192,82.6616578528940948,15.2880000000000003,0,0,0.0341475147840558241,5.28268525040872464e-10,-0.000235137545717689308,2.44023887909330158e-08,7.24907222782668121e-06
0.3,31.2221834544381096,131.010390894570321,4.59240982688131272,4.39617507281761988,0.000600356665334356751,33.1490797613948018,0.000884158719714270942,3.25217107922164672,378.185945710871067,12.0052186882677852,4.95887519756831807,69.998972627127344,2.14383684192303281e-07,113.700003815596887,88.2385269149682756,15.2880000000000003,0,0,0.0352808420099011907,6.09029939588318471e-10,-0.000262641159892275291,2.82471356422800846e-08,8.36561857411674722e-06
0.31,31.2221832755909574,131.01039137888381,4.7032380575360353,4.42235615181669761,0.000624899913490765827,34.9528590290802086,0.000910025197609511073,3.24555398289468222,394.16562209302117,12.3556398803864607,5.10879227158949156,69.9988150759387651,2.59766173767152649e-07,113.700004116072961,93.4639131761651498,15.2880000000000003,0,0,0.0363107024397255479,6.98403788157463991e-10,-0.000292187019282257228,3.25229566712151178e-08,9.57826248689966157e-06
0.32,31.2221830914257232,131.010391877587324,4.81722282885169673,4.45155794779377789,0.000649944303128982049,38.0379859115142835,0.000934821026682707218,3.23882361682650144,421.559393462426954,12.6924793110791878,5.25399282922068878,69.9986400687318024,3.12179641788393281e-07,113.700004431478234,98.6283237403037703,15.2880000000000003,0,0,0.0373006526995305274,7.96905013945712519e-10,-0.000323836613651358495,3.72580440687311147e-08,1.09050644159405278e-05
0.33,31.22218290196043,131.01039239063175,4.9343519698327194,4.48019701204722054,0.000675004219851668761,37.7093551175013246,0.000959261610436717115,3.23189933669563656,418.515630199168186,13.0256844327599097,5.39788776638052958,69.9984463826819052,3.72372687880250348e-07,113.700004762578004,103.87354288045799,15.2880000000000003,0,0,0.0382799263433428877,9.05047894999210997e-10,-0.000357667290238851605,4.24836225249657193e-08,1.23603484615852587e-05
0.34,31.222182707020778,131.010392918491164,5.05476263450916541,4.49049305198152204,0.000697378143373914754,29.5227085089536203,0.000987142430045659337,3.22427911658814059,345.465636880756449,13.4081741031825317,5.55863100914667463,69.9982327456812641,4.41143957445642244e-07,113.700005110463266,110.062177258613033,15.2880000000000003,0,0,0.0394040418267209702,1.02333461745717641e-09,-0.000393806243978271305,4.82396483202145133e-08,1.40087103268591529e-05
0.35,31.2221825067937928,131.010393460657156,5.17831168393457641,4.50711781535187139,0.000720712543856854714,32.3530371383660977,0.00101333646443235357,3.21661305844837253,370.576570052703289,13.7686530554979374,5.71176159517965232,69.9979978091806316,5.19362042776584697e-07,113.700005475786654,116.058400304168075,15.2880000000000003,0,0,0.0404634764462946869,1.15232390415689195e-09,-0.000432299813734132244,5.45552399130644805e-08,1.57912776608867467e-05
0.36,31.2221823012122108,131.010394017312592,5.30505329869157727,4.52767240178778962,0.000744729708600240731,36.5526511043957356,0.00103828652712813154,3.20885713174522058,407.862523277719447,14.1132764952183631,5.85938873702120233,69.9977401961163537,6.07939829707116331e-07,113.700005859608282,121.939407863977465,15.2880000000000003,0,0,0.0414763190843316643,1.29254043868676357e-09,-0.000473255972436325862,6.14699225552327593e-08,1.77198251922661022e-05
0.37,31.222182090341061,131.010394588280832,5.43493909097431604,4.55039311415752579,0.00076918150115683735,34.6835787828593496,0.00106234372950533948,3.20097384516078431,391.121890829766642,14.446930470491731,6.00318739776240751,69.9974584775585669,7.0785096329375243e-07,113.700006262864989,127.771540530283914,15.2880000000000003,0,0,0.042456928843506235,1.4445318520011827e-09,-0.000516746496826029863,6.90186481791334769e-08,1.98053803654614999e-05
0.38,31.2221818741223878,131.010395173719473,5.56801609611825477,4.56315131642791805,0.000792019287104061913,36.2353933787001239,0.00108827974821363053,3.19255015153205646,404.818761014460279,14.8084413239345949,6.1564787166299757,69.9971511865591651,8.20121521966083772e-07,113.700006686723384,134.244380272309172,15.2880000000000003,0,0,0.0435194095147296359,1.60882660749176723e-09,-0.000562873331420229127,7.72423853301427293e-08,2.21128406351508731e-05
0.39,31.2221816525004634,131.010395773780147,5.704329739781131,4.57922628245169783,0.000815489716137310881,30.9425419640016202,0.00111309493143926189,3.18402316666385765,357.640624933827439,15.1559126959619999,6.30488433186772657,69.9968167722787769,9.45855271408966431e-07,113.700007132429306,140.616382889747683,15.2880000000000003,0,0,0.0445406353688629561,1.78596578656278109e-09,-0.000611756345505213715,8.61868943159197994e-08,2.45968452142520012e-05
0.4,31.2221814256617982,131.010396387955836,5.84373750626454935,4.59349479979191955,0.000838670682925170751,29.5834243852937959,0.00113797512888990423,3.17521289611434332,345.465636880754005,15.505969085398343,6.45410901523083158,69.9964536498379317,1.08621525395706341e-06,113.700007600947828,147.185065961143067,15.2880000000000003,0,0,0.045569462889951777,1.97653506559195414e-09,-0.000663427505461186432,9.58835144134294998e-08,2.72901174189528038e-05
0.41,31.2221811937141673,131.010397015953487,5.98615797249314241,4.60939449845229365,0.000862163931524819621,33.360545626359837,0.00116210409424792778,3.16624854525325983,378.946870776686467,15.8471768437686258,6.60022848408685459,69.9960602026584695,1.24241947051318175e-06,113.700008093413757,153.73182724817184,15.2880000000000003,0,0,0.0465722905345462151,2.18109996727848554e-09,-0.000717942131686907965,1.06367950505874699e-07,3.01820283711074823e-05
0.42,31.2221809567080335,131.010397657635991,6.13155423418529733,4.63387609959193458,0.000887317919769279608,37.5676427387571721,0.001183742077125155,3.15743374731593907,416.232824001711379,16.155026338188506,6.73482947265292431,69.9956347739890248,1.41574639558456e-06,113.700008611107208,159.760443802515937,15.2880000000000003,0,0,0.0474770882933877245,2.400206535531791e-09,-0.00077537935552726017,1.17680930846389008e-07,3.32294321368729263e-05
0.43,31.222180714655078,131.010398312971745,6.27991949833728835,4.65367427313455995,0.000911660169575580258,33.0386483003103493,0.00120612360190941372,3.14823214930187856,375.903139513433644,16.4750454055619109,6.87353555569934649,69.9951756835756242,1.60752723178871754e-06,113.700009155418982,166.15023929888028,15.2880000000000003,0,0,0.0484176551665520677,2.63438237315801404e-09,-0.000835821567166909188,1.29864614855892046e-07,3.65287677570896608e-05
0.44,31.2221804673911407,131.010398982407111,6.43138341412837455,4.65757387742934892,0.000932929976641759203,30.4788052564327749,0.00123214974254881528,3.13809943757763454,353.075012538921555,16.8483715860516412,7.03046484016701978,69.9946811832270441,1.81916859536649675e-06,113.700009728069276,173.762989227436179,15.2880000000000003,0,0,0.0495148886868988364,2.88411342836306464e-09,-0.000899417740154189794,1.42975581697416844e-07,4.01983191819108926e-05
0.45,31.2221802146980103,131.010399666535704,6.58611776122768511,4.65827001030579346,0.000953562143933252499,35.4620561517945134,0.00125873275223327787,3.12754579585638304,397.209385356286873,17.2316459864824161,7.19073264961644831,69.9941493995125938,2.05218870761162579e-06,113.700010330973456,181.755888424112015,15.2880000000000003,0,0,0.0506413642318551335,3.14987863732273609e-09,-0.000966369542842942814,1.57083782729145849e-07,4.41725079750487196e-05
0.46,31.2221799565319174,131.010400365476642,6.74415901717088939,4.66907507286434065,0.00097630283571516251,41.3913707355688842,0.0012823814722795761,3.11722412848720953,449.71405889764344,17.5754687869478978,7.33738035579407555,69.9935783582983362,2.30821229426708146e-06,113.700010965912341,189.078525726536213,15.2880000000000003,0,0,0.0516519027755614896,3.43223060675433133e-09,-0.00103681314204437207,1.7224885851047691e-07,4.83373548649469587e-05
0.47,31.2221796928065203,131.010401079464799,6.90557672428163105,4.67806301106434042,0.000998761260684927557,28.0209900204918974,0.00130616618884544979,3.10657060381263461,331.007810630253402,17.9233234115620377,7.48533101007974988,69.9929660462147325,2.5889364060732201e-06,113.700011634803886,196.634049649816575,15.2880000000000003,0,0,0.0526742959306323727,3.73170463860384924e-09,-0.0011108841623615434,1.88532207060213475e-07,5.28148505664365441e-05
0.48,31.2221794239793269,131.010401807256216,7.07001851744381948,4.68642527483421745,0.00102109091231145262,27.6007969606275125,0.00132978852885184593,3.09563681785184297,327.203122301157407,18.2709832353803314,7.63313726727991071,69.9923104035261474,2.89614261094227829e-06,113.700012338884164,204.33305198470137,15.2880000000000003,0,0,0.0536961221459722679,4.04904859899578719e-09,-0.00118849531779471017,2.05948560519311644e-07,5.75998398329450787e-05
0.49,31.2221791502289392,131.010402548365278,7.23734841566291642,4.70156796398202914,0.00104489945272251677,34.6487244505178253,0.00135120419031512233,3.08484494341801163,389.60000969812296,18.589315545984995,7.7707981814672209,69.9916093757078812,3.23165731652504743e-06,113.700013079832303,211.511801733856089,15.2880000000000003,0,0,0.0546317638991248022,4.38486615800834454e-09,-0.00126967773493266863,2.2453662401782158e-07,6.26054017926546362e-05
0.5,31.2221788715876762,131.010403302704333,7.40754387012007864,4.72212438923579736,0.00106996435823571525,35.6033845714535389,0.00137072557486675028,3.0741588573465477,397.970310422105001,18.8826594549893159,7.8998011517407587,69.9908609011483378,3.5973597360057951e-06,113.700013859590555,218.236320199079358,15.2880000000000003,0,0,0.0554939729313439212,4.73968531279909998e-09,-0.00135450679800636423,2.44344941868023912e-07,6.78409867869358833e-05
0.51,31.2221785881337617,131.010404070060673,7.5805467220577798,4.73558879650721298,0.00109346949398930206,27.1956639286467201,0.00139183542187690463,3.06284319292573448,323.39843497208409,19.200774511812984,8.03722958125224807,69.9900628955037689,3.99519228958782199e-06,113.700014680103109,225.647740475438098,15.2880000000000003,0,0,0.0564289867670437692,5.11403675587933804e-09,-0.00144303978709531136,2.65418546512062939e-07,7.34915902759761199e-05
0.52,31.2221782998783155,131.010404850466045,7.75636858307395194,-9.88970233877972937,-0.00135919011279268006,32.7821043421236311,0.000991949887333366722,3.79029926741644019,372.098451184341457,18.0128238561748475,8.17826197096237983,69.9892125255241098,8.88034658211434618e-06,113.70002028280571,198.586520565040217,15.2880000000000003,0,5.0128861411609531,0.0529378340664056549,5.51051804808735815e-09,-0.00152125267724675765,2.85858418161010917e-05,7.26802509171308386e-05
0.53,31.2221780065419772,131.010405644741979,7.93510403050162161,-9.65836929330187921,-0.00130353557112459291,34.423295059061644,0.00101091945304158676,3.79849953117971895,386.55624643486243,18.3204796749600511,8.3244401417892373,69.9883846032451373,5.38345007566738993e-05,113.700068536076174,205.424571413649716,15.2880000000000003,0,5.0319479810978871,0.0538421113917945254,5.90565807070120839e-09,-0.00135414663916363161,2.85632013153306615e-05,6.58003711635689689e-05
0.54,31.2221777079020804,131.010406453373065,8.11681742989215671,-9.4352805965573463,-0.00124912567424539825,30.2185627608115475,0.00102972224454481133,3.80668373377414282,349.270324209843579,18.6265090935565887,8.47001003002905328,69.9876532242264204,9.87498437063417288e-05,113.700116755560927,212.341102863787484,15.2880000000000003,0,5.0509672058317614,0.0547416143610622782,6.2269989190984437e-09,-0.00118398732986905661,2.85404897207769763e-05,5.84920379110366774e-05
0.55,31.2221774042075673,131.010407275663198,8.30130718961447656,-9.22267240983480896,-0.00119636978589112114,32.0316766385776717,0.00104808823230533184,3.81470355714944365,365.250000591990727,18.9252568674050465,8.61300713674801166,69.9870200756940903,0.000143626912246744152,113.700164941483692,219.203257215127053,15.2880000000000003,0,5.06991246473251156,0.0556197226255321781,6.4753089256982361e-09,-0.00101103288298853931,2.85177710534400275e-05,5.07478443631420955e-05
0.56,31.2221770954571411,131.010408111615675,8.48857274558523578,-9.02186708183823249,-0.00114539315799875728,29.8879503990825661,0.00106580630050527462,3.82244731556917694,346.226561946578727,19.2123571524084937,8.75192527224829853,69.986486763820821,0.000188466347330166237,113.700213094540473,225.900364292426303,15.2880000000000003,0,5.08878447043798232,0.0564636052616744322,6.65130405771326692e-09,-0.000835283730041098678,2.84950743537174214e-05,4.2561546500811945e-05
0.57,31.222176781716275,131.010408961052292,8.67856187709581661,-8.82309873832725344,-0.0010949436512037974,29.5502094747605,0.00108381726976013409,3.83040753545638335,343.182829683302316,19.5072448986970706,8.89350223733335987,69.9860548557983009,0.00023326886360555674,113.700261215410038,232.883960346103692,15.2880000000000003,0,5.10758235070716804,0.0573303800090554233,6.75586571550733654e-09,-0.000656824339071773885,2.84724404458069839e-05,3.39812990465230034e-05
0.58,31.2221764629626612,131.010409824033474,8.87129048630087169,-8.62058475165650862,-0.00104434532260020124,38.9406319217900005,0.00110276820109966238,3.83892996295334488,426.12500585731533,19.8234204067684416,9.04240890173584333,69.9857259040015123,0.000278035239944104018,113.700309304962943,240.489905176083141,15.2880000000000003,0,5.12630467182248406,0.0582597235969422381,6.7898845658457749e-09,-0.000475651135513830195,2.84498995071499292e-05,2.50065567156753777e-05
0.59,31.2221761388201848,131.010410701581833,9.06704874004498507,-8.43577902793475332,-0.000996138589201019066,31.5437354852012213,0.00112030068997226559,3.84678483608305921,360.68438819711065,20.1120617266631605,9.181753174787886,69.985501583653658,0.000322766273325077028,113.700357364589848,247.539603672940785,15.2880000000000003,0,5.14497926774058101,0.0591081519095947167,6.7539326366780855e-09,-0.00029138023723454835,2.84274370047918749e-05,1.55415843038603203e-05
0.6,31.2221758094833568,131.010411593168214,9.26568439783551945,-8.2401498678193974,-0.00094697201339597381,28.0191011592780441,0.00113960049676345735,3.85564732424910916,329.48595949860578,20.4393821976683832,9.33444342492205514,69.9853835641988411,0.000367462836900389524,113.700405394952156,255.657625218742311,15.2880000000000003,0,5.16358703730572266,0.0600702618929011764,6.64915327344253238e-09,-0.000104232660562441322,2.84051153065033286e-05,5.64991490960679628e-06
0.61,31.2221754749049651,131.010412498920772,9.46723269187136474,-8.04796095526117838,-0.000898565113156200813,32.8508376295846105,0.001159098468045484,3.86469961258877515,372.09845118432969,20.7729141159766257,9.4892395260928275,69.9853735373535955,0.000412125863987750595,113.700453397116902,264.0642855348745,15.2880000000000003,0,5.18213006441192192,0.0610506333500201656,6.47651987147399152e-09,8.58316809165913933e-05,2.83829656024862345e-05,-4.72832105253680102e-06
0.62,31.2221751351885644,131.010413418557818,9.67161198397204025,-7.88517837531979637,-0.000853731077874433941,40.8738430895789051,0.00117548872777328665,3.87218774614139871,442.86563930529212,21.0435851061882708,9.62227239010702284,69.9854732134961779,0.000456756356531206741,113.700501372009299,270.98531358108977,15.2880000000000003,0,5.20060729062420002,0.0618462654619123323,6.23713520077451397e-09,0.000278740237830678252,2.83610334288056712e-05,-1.55550992997524037e-05
0.63,31.2221747901624376,131.010414352545979,9.87895428354312877,-7.71949268544911504,-0.000808826879110839041,23.1210554705672813,0.00119266440584003429,3.88017016944913706,286.112512747078938,21.3326770147868672,9.76164676916616258,69.9856841629881643,0.000501355427609634428,113.700549321061757,278.47637834770569,15.2880000000000003,0,5.2190215852006423,0.0626960418151799176,5.93213194312544882e-09,0.000474607138402021334,2.83393449862003404e-05,-2.68487683707783781e-05
0.64,31.222174440363343,131.010415299425631,10.0888423416819641,-7.54680133801824571,-0.00076357018051029658,22.6937085560550962,0.00121123649096925492,3.88896545895150991,282.307824417967538,21.6531504945542359,9.91181427666450432,69.986007940342887,0.00054592427598058543,113.700597244792021,286.900352537125229,15.2880000000000003,0,5.23732083555732864,0.0636380536015439952,5.56316299151854389e-09,0.000672859362119492422,2.83180008455103706e-05,-3.86350416754292669e-05
0.65,31.2221740857715204,131.010416259250377,10.3012905800824441,-7.39534852989463332,-0.000720795104004768542,40.2111367728399784,0.00122738848844571556,3.89655178581428796,436.778144778747503,21.9248832920822956,10.0451155636734359,69.9864459980312859,0.000590464194821495704,113.700645144606128,294.140356136889352,15.2880000000000003,0,5.2555519363224148,0.06443682375701279,5.13151575425428871e-09,0.000873537149276489033,2.82970337137928085e-05,-5.07862096060813503e-05
0.66,31.2221737259190348,131.010417233292401,10.5166609724769167,-7.24367135437353316,-0.000678258279822129711,34.178700751338809,0.00124395533944732001,3.904439984969438,383.512515171600171,22.2074848902405684,10.182142624229428,69.9869997758588624,0.000634976548475786151,113.700693022620058,301.765649855320646,15.2880000000000003,0,5.27370092480285546,0.0652675431726000982,4.6383348983625736e-09,0.00107707941030437673,2.82764400522927533e-05,-6.34256970554851067e-05
0.67,31.2221733609740042,131.010418221094454,10.7348222672451481,-7.08642502342015224,-0.000635533497828061735,23.4810402252421433,0.0012617649438668541,3.91307723759676751,289.156244010342505,22.5185777016995772,10.3289643639976472,69.9876708467092783,0.000679462754489665983,113.700740880103183,310.272915521844197,15.2880000000000003,0,5.29176581580833894,0.0661820042614714721,4.08510964529910535e-09,0.00128328933983448755,2.82562828131621731e-05,-7.66257246560308797e-05
0.68,31.2221729910889394,131.010419222241609,10.9556553605509457,-6.93574229804870779,-0.000593765064910676556,29.3567926425630823,0.00127906436024292501,3.92153204791654009,340.899992485846269,22.8212194720310144,10.4728328128386572,69.9884607337599647,0.000723924323789993328,113.700788718444926,318.662118601924192,15.2880000000000003,0,5.309763359958378,0.0670716342386696862,3.47333126925311641e-09,0.00149201169735815116,2.82366200597017431e-05,-9.02840260848889468e-05
0.69,31.2221726163345821,131.010420236541449,11.1791047299211606,-6.79720321814132777,-0.000553372499728248474,36.1858321620207448,0.00129488394016727903,3.92926617836919112,401.014072685363431,23.0948114301302603,10.6066480408391968,69.9893708804291492,0.000768362866671035583,113.700836539255107,326.341470653399028,15.2880000000000003,0,5.32765915947427882,0.0678758929522617488,2.80452137422761366e-09,0.00170314983149520531,2.82175042920616322e-05,-0.000104293633859202673
0.7,31.2221722365829386,131.010421264341858,11.4052690741395786,-6.661199818076315,-0.000513481953309892058,30.3171261499242917,0.00131064949835101941,3.93705107768867935,349.270324209852845,23.3695888360092638,10.7408391209978156,69.9904026604943112,0.000812780088263432947,113.700884344524766,334.145899618078147,15.2880000000000003,0,5.34546251921240234,0.0686836418771749335,2.0802073830912299e-09,0.00191680593808204233,2.81989723466837097e-05,-0.000118770971477666679
0.71,31.2221718518806206,131.010422305515959,11.6341117168069559,-6.52275289464014563,-0.000473730267513241491,24.8773083929025205,0.00132719677280625464,3.94535067614689527,301.331264063405797,23.6634492782060448,10.8815691851672902,69.9915574699025171,0.00085717777552668593,113.700932136082997,342.594627519264861,15.2880000000000003,0,5.36319377664366659,0.0695474825560206816,1.30198673500489526e-09,0.00213289762421802224,2.81810784606955958e-05,-0.000133819562982849142
0.72,31.2221714622266688,131.010423360066198,11.8656329242926137,-6.38103466431240118,-0.000434125696489786304,30.5009098071846765,0.00134473242400975066,3.95428542680605899,350.79220534145287,23.981019172738165,11.0304232304535308,69.9928367168869414,0.000901557800677902223,113.700979915915582,351.843932815016842,15.2880000000000003,0,5.38084684903918919,0.0704810126922956748,4.71435817020102697e-10,0.00235141485784662796,2.81638720864930414e-05,-0.000149506056456631513
0.73,31.2221710676152782,131.010424428008321,12.0998367098804813,-6.25705680300837486,-0.000396075917822891167,38.6352114531214283,0.0013595393483454587,3.9618133163396605,422.320318528233997,24.2427760239216994,11.1600215154955738,69.9942418607944745,0.000945922119964704485,113.701027686103174,359.558636321622714,15.2880000000000003,0,5.39838939502741333,0.0712505130435835549,-4.09893600777835182e-10,0.00257236999325280912,2.81474026717288601e-05,-0.000165336183468859792
0.74,31.2221706679853028,131.01042550950848,12.3367702419616379,-6.13089098565898016,-0.000358186290303202242,24.1089927767525225,0.00137506510305487775,3.96982439779932372,294.482813471059444,24.5225444332450913,11.2957856405695392,69.9957742246535446,0.000990272802980114849,113.701075448923987,367.896965174554964,15.2880000000000003,0,5.4158619054403756,0.0720729565294401103,-1.34031697060702621e-09,0.00279576032733509219,2.81317232542913152e-05,-0.000181763932834934556
0.75,31.2221702636669356,131.010426603668606,12.5761771294667906,-6.00433888115578629,-0.000320643930669222907,28.1791660790943226,0.00139102061625845982,3.97816367948155358,330.246885564414924,24.8142482568462874,11.4356104005286401,69.9974351107706099,0.00103461202062896541,113.701123206207598,376.692875391927089,15.2880000000000003,0,5.43324589190016738,0.0729304853074451975,-2.31821142727142932e-09,0.00302120616465526362,2.81169102003532456e-05,-0.000198753023275116236
0.76,31.2221698545548527,131.010427710775133,12.81813896147845,-5.88519640419347212,-0.000283849677020753125,30.3471358857177016,0.0014059015585223694,3.98599709141748448,349.270324209861712,25.0855260112417753,11.5683658595958327,69.9992257601679739,0.00107894204180415784,113.70117096050393,384.965218987227161,15.2880000000000003,0,5.45054047369384964,0.0737279873036393307,-3.34188228329665416e-09,0.0032488106808225988,2.81030098942808751e-05,-0.000216057717441847462
0.77,31.222169440593003,131.010428830980345,13.062699190242947,-5.76944535497997624,-0.000247541552443732193,28.360166312258027,0.00142040549298031436,3.9937060789901655,331.76876669607077,25.3514231766769313,11.6992283354231699,70.0011473637992765,0.00112327294923849383,113.701218725414748,393.160210794300951,15.2880000000000003,0,5.46772366132593302,0.074509681895821217,-4.40960312089670845e-09,0.00347860265031454735,2.80900763188801982e-05,-0.000233786342145288651
0.78,31.2221690218384467,131.010429964129031,13.3098135768534629,-5.6518112322045031,-0.000211496791326977126,23.2541992117076148,0.00143560288351236311,4.00189402559784302,286.873437812889904,25.6352363050448027,11.8362049883894205,70.0032011912766023,0.00116759178530920888,113.701266481437088,402.002925687976074,15.2880000000000003,0,5.4848242348259566,0.075344039440559285,-5.51970210577651171e-09,0.00371047064681504207,2.80781720813888362e-05,-0.000252155233810325377
0.79,31.2221685983700006,131.010431110006721,13.5594210226700049,-5.53419750541622157,-0.000175841347714853532,33.1331063477893082,0.0014511412705898283,4.01037128842462831,373.620332315953419,25.929488732746691,11.976718475840606,70.0053883908761634,0.00121190883914013068,113.701314242197938,411.27476282508951,15.2880000000000003,0,5.50183869034892936,0.0762090858151169281,-6.67053026703551071e-09,0.0039443029460661588,2.80673596740581937e-05,-0.000271116200109552746
0.8,31.2221681699798985,131.010432269178381,13.8116829137725361,-5.42645207268989171,-0.000140841407098033969,33.5713387102633334,0.00146487671490780737,4.01793456389814452,377.42502064505743,26.1874689820318487,12.104727708741942,70.0077101765105141,0.00125622678752728843,113.701362010820347,419.489103479930122,15.2880000000000003,0,5.51878029376362633,0.0769675318917401458,-7.86023691310038029e-09,0.0041803221136761208,2.80576915406151154e-05,-0.000290191043246737057
0.81,31.2221677367605288,131.010433441392706,14.0665277962833386,-5.31587532400853391,-0.000106106977898798115,21.7873437024802676,0.00147951074280308257,4.0260957747064321,273.937492693991885,26.468210741163638,12.2405063541596792,70.0101677020739857,0.00130054842250609793,113.701409790122796,428.52106082352293,15.2880000000000003,0,5.53562525501077207,0.0777928830467095878,-9.08720177201726939e-09,0.00441835841158537759,2.80492370434453332e-05,-0.000309995670125269107
0.82,31.2221672988839991,131.010434626181592,14.3238223585577309,-5.20540492686405365,-7.1770406325585441e-05,28.0322063958181964,0.00149443100556346186,4.0345171860618203,328.725004432770049,26.7584936244832861,12.379503850415098,70.0127620425667345,0.00134488449450750522,113.701457594130986,437.961157398798775,15.2880000000000003,0,5.55236343432164681,0.07864628358035336,-1.03498959251081823e-08,0.00465819093845320012,2.80420651619520063e-05,-0.00033039869092331165
0.83,31.2221668563321408,131.010435823594435,14.5835810523398113,-5.10558618482180826,-3.79336827356186615e-05,35.6679921214977682,0.00150714350658577058,4.04177714447728054,395.68750322465047,27.0034198506516958,12.5028815687302473,70.0154943604854338,0.00138922233290852308,113.701505403656327,446.004228946570606,15.2880000000000003,0,5.5690184336192754,0.0793663824683851632,-1.16466057283759082e-08,0.00489983124313096707,2.8036239718388227e-05,-0.00035071022527038959
0.84,31.222166409004128,131.010437033905362,14.8458827321282776,-5.00575146536356197,-4.40067247580318826e-06,21.965456428620211,0.00152007946289828603,4.04925449552136563,275.459374825645227,27.2565105409466035,12.6290129300876472,70.0183656068171416,0.00143357291140274162,113.701553233346232,454.392348482852071,15.2880000000000003,0,5.58559145833280724,0.0801104843141187961,-1.29754944649863207e-08,0.00514332107413512443,2.80318279061905469e-05,-0.000371579279643337757
0.85,31.222165957171935,131.010438256374812,15.1105167836177934,-4.90084793189582602,2.87532944866253968e-05,23.9629863851615177,0.00153452604302103598,4.05769591703054466,292.960932339393764,27.5464881006007047,12.7677366599505078,70.0213767191401644,0.00147793947877212389,113.70160108624431,464.100395695597115,15.2880000000000003,0,5.60206900539469022,0.0809630083970284964,-1.43352704892414152e-08,0.00538830338838171968,2.80289000784044615e-05,-0.000393409496214416345
0.86,31.2221655006712595,131.010439491449461,15.3776114087741274,-4.80276283016855654,6.15624580580041155e-05,30.0413734097455105,0.00154752868454993199,4.06540517003710544,346.226561946558718,27.8079531357115322,12.896623961595699,70.0245286406019574,0.00152233314610065594,113.701648977191724,472.940348810371404,15.2880000000000003,0,5.61846266369910818,0.0817317372648183743,-1.57239720764267704e-08,0.00563495727298577668,2.80275246416798664e-05,-0.000415312564260763694
0.87,31.2221650395224337,131.010440739074056,15.6471515578714335,-4.70859851526038398,9.40838338467241993e-05,27.9607968215941085,0.00155973488441166295,4.07274745543923,327.964078366998024,28.0551896669076513,13.0205770204493785,70.0278223603284431,0.00156674191554260719,113.701696887732993,481.374962465887279,15.2880000000000003,0,5.6347716447311571,0.0824586532126925231,-1.71399700108862299e-08,0.00588321224402901626,2.80277741112275065e-05,-0.000437453507470570476
0.88,31.2221645737566362,131.010441999163788,15.9191138393126224,-4.61273003738142595,0.000126222739005910854,24.1420313050480395,0.00157260046563184727,4.08056515891699778,294.482813471041823,28.3208236318641404,13.1507735082343622,70.0312586622478079,0.00161118515533665218,113.701744844127248,490.520876166101004,15.2880000000000003,0,5.6509703170665091,0.0832396489984133653,-1.85817035746139515e-08,0.00613295751730740576,2.80297214934028491e-05,-0.00046032935466129609
0.89,31.2221641034477386,131.010443271517772,16.1934417286861958,-4.51541791791486613,0.000157919128282664267,26.4895190937036098,0.00158611809715872038,4.08886534114777156,315.028134248086985,28.6049579122181399,13.2872418307964395,70.0348384555829853,0.00165565057162525824,113.701792827330081,500.399561886983122,15.2880000000000003,0,5.66708025485886235,0.0840750275175858042,-2.00476830824985574e-08,0.0063840798521663366,2.80334398789285641e-05,-0.000483972868947537074
0.9,31.2221636285237771,131.010444556331663,16.4701920549039862,-4.42731684722761187,0.000189571980716127887,29.2725764903152701,0.00159727253467074068,4.09587806603124616,339.378142354214447,28.8397236987172221,13.4067376776584606,70.038562520302122,0.00170015793683376496,113.701840864221893,508.633478376923506,15.2880000000000003,0,5.68310819049722049,0.0847653103468353347,-2.15360826679370898e-08,0.0066366336255000713,2.80390085312905222e-05,-0.000507234503719671838
0.91,31.2221631490486864,131.010445853431605,16.7493162108997069,-4.33758460370929111,0.000220819900506768276,22.2344199900610882,0.00160907393113254079,4.10336589088873716,277.742181023078899,29.0929751776845151,13.5324998571133808,70.042431646435972,0.00174469547063681521,113.701888936413866,517.591794046020937,15.2880000000000003,0,5.69904933429975546,0.0855099328351578009,-2.30454885742378097e-08,0.00689047411612291917,2.80465035614778236e-05,-0.000531245726616436467
0.92,31.2221626652079784,131.01044716231317,17.0306710696331365,-4.24643672752873513,0.000251598598361285337,26.4959116198564999,0.0016215076746921703,4.11132401826137794,315.028134248062145,29.3646509815971726,13.6644950264081828,70.0464464441532471,0.00178928304576336165,113.701937070468304,527.289424463550745,15.2880000000000003,0,5.71489606634918257,0.0863087150447604118,-2.45748375180553406e-08,0.00714532919284306418,2.80559931138009174e-05,-0.000556024025560937496
0.93,31.2221621769161075,131.010448483209018,17.3143243379482605,-4.16324139892741218,0.00028248581927334108,31.5422412906523491,0.00163171532532789174,4.11804983955624238,359.162507065472823,29.5897081214433584,13.7804676054723014,70.0506076386245837,0.00183390918005569897,113.701985248537753,535.388336366877979,15.2880000000000003,0,5.7306567274361786,0.0869704823588938886,-2.61222196525023821e-08,0.00740128138566875822,2.80675629806637261e-05,-0.000580339642954609829
0.94,31.2221616840700307,131.01044981639933,17.6003575599336095,-4.07550449886015986,0.000312715113133940831,22.845820784526417,0.00164350009979875086,4.12581706215773014,283.068750483778672,29.8550407413046273,13.9101490865446458,70.054915714568196,0.00187859403896514527,113.702033497913192,545.018129800630732,15.2880000000000003,0,5.74633117354784506,0.0877506348972152128,-2.76858878743098575e-08,0.00765834184271670278,2.80813010569207235e-05,-0.000605863970762220497
0.95,31.222161186936269,131.010451161159466,17.8885646527764095,-3.98994324240334386,0.000342697051355661574,29.634261695002877,0.00165479422168719422,4.13338546962948516,342.421873617487279,30.1135183119221246,14.0374058493556308,70.059371304687204,0.00192333401037191238,113.70208181137258,554.480899167739722,15.2880000000000003,0,5.76191304475345145,0.0885106460569197312,-2.92650973977681532e-08,0.00791618553468318407,2.80972716229857804e-05,-0.000631666948285592974
0.96,31.2221606852421232,131.010452518230949,18.1791593136030905,-3.90875242892918306,0.000372691676113267179,29.0274967999006215,0.00166482426461539868,4.1402912248418815,337.095335156783449,30.3473202660856103,14.1561546442530712,70.0639749326909254,0.00196813410918711016,113.702130194720723,563.108608497313639,15.2880000000000003,0,5.77741481530331136,0.0891981369421456227,-3.0857388835741999e-08,0.0081750688978291363,2.81155850524004782e-05,-0.000657370692640216019
0.97,31.2221601790048133,131.010453887566996,18.4721296886969348,-3.82727677749771189,0.000402309653962042992,18.4947913045589409,0.00167509256331015914,4.14744197904967571,245.021887192993233,30.5911679784165393,14.2782640172333721,70.0687271576809252,0.00201299120878022271,113.702178641678429,572.178280457966935,15.2880000000000003,0,5.79283498729657875,0.0899151617643812462,-3.24613828051937528e-08,0.00843490190023655703,2.81363305281042656e-05,-0.000683695062367667677
0.98,31.2221596684893434,131.010455268447004,18.7672709769867119,-3.74196677091316143,0.000431092830784124382,27.0291596219255617,0.00168687019645599452,4.15561864115930035,319.593746642958081,30.8749305208549352,14.4139236603766729,70.0736283586221305,0.00205792593080908384,113.702227179436505,582.826000561203045,15.2880000000000003,0,5.80816299645322509,0.0907495136963948623,-3.40767244433574522e-08,0.00869530372573598317,2.81595666490466641e-05,-0.000711319612769823026
0.99,31.222159153557655,131.010456661246479,19.0646923096946459,-3.66638701761606578,0.000460604225707012254,29.5569673591200974,0.00169537651692284802,4.16188089489585966,341.660948551705417,31.0871477994296619,14.5250667241026878,70.0786790251505636,0.00210293545755174021,113.702275802261141,590.848707888925333,15.2880000000000003,0,5.82341073273234855,0.0913735825532537571,-3.57012148604337416e-08,0.00895642426609154912,2.81854058734857149e-05,-0.000737695557435732356
1,31.2221586342077302,131.010458065971022,19.3643971141115685,-3.58711019005544474,0.000489298258508561769,26.4223370053528583,0.001705333428933133,4.16913869272790016,314.26720818227642,31.3382347363896478,14.6494012500523247,70.0838794377564795,0.00214802567205172419,113.702324516598523,600.414388872251493,15.2880000000000003,0,5.83857355600843508,0.0921119068545486891,-3.73336581574926067e-08,0.00921814141728149149,2.82139376053880971e-05,-0.000765362230554894737
1.01,31.222158110604564,131.01045948217191,19.6662585707023112,-3.50978388894346471,0.000517850281553647296,27.6438751443621733,0.0017147140630087202,4.17613376716286844,324.920316103697928,31.5808213327391201,14.7707459180303093,70.0892299214983296,0.00219320119697093835,113.702373326788859,609.72820195553868,15.2880000000000003,0,5.85364933212050342,0.0928252534275526564,-3.89732760015932785e-08,0.00948022891347883451,2.8245235645844307e-05,-0.000793192838590993051
1.02,31.2221575826771485,131.010460910042383,19.9703339602597261,-3.43474896748240477,0.000546357552806698231,23.0247378934715954,0.00172334514376574306,4.18275535188262015,284.590631615404163,31.8108048908024337,14.8877042145493448,70.0947306904147638,0.00223846832795610495,113.702422239844765,618.623015991979855,15.2880000000000003,0,5.86864186586827152,0.0935015630620396471,-4.06183771292904121e-08,0.00974269549967525343,2.82794066563831768e-05,-0.000821065195906111917
1.03,31.2221570504874926,131.010462349413842,20.2765769476745703,-3.35772770740510529,0.000574140518656833087,18.751935184761102,0.00173287886752553229,4.19004344462677292,247.30469339049705,32.0676090555581013,15.0137190292497511,70.1003818908447585,0.00228383186363595187,113.702471260402078,628.632955309813383,15.2880000000000003,0,5.88354844133337185,0.0942567137780107034,-4.22679859437833966e-08,0.0100053841916546791,2.83165364428378381e-05,-0.000849985333044538278
1.04,31.2221565140911572,131.010463800135398,20.5849461924620805,-3.28465902600911175,0.00060218291709555026,30.0034631661242734,0.00174096168382831934,4.19651362172117004,345.465636880722968,32.2952212547030157,15.1296866772975402,70.1061836408564432,0.00232930635159480596,113.702520406928571,637.569670750553882,15.2880000000000003,0,5.89837126845850701,0.0949260673952122547,-4.39209196423286791e-08,0.0102681891964780062,2.83567178002843677e-05,-0.000878476898712902596
1.05,31.2221559732281371,131.010465262914039,20.8956467900300247,-3.21025208029780895,0.000629584211030824958,17.9648427249821978,0.00174970407000527408,4.20350785888400136,240.456258798199826,32.5443468796080992,15.2528981799941707,70.1121360836834953,0.00237488153054713456,113.702569662925256,647.424725353742474,15.2880000000000003,0,5.91311869496785736,0.0956586633026891564,-4.55746538337416186e-08,0.0105313120518509083,2.84001044585913731e-05,-0.000907911047012904381
1.06,31.2221554281137799,131.010466737164279,21.2085128316980978,-3.13496745687886325,0.0006563481584331137,25.7310102113374519,0.00175896465051123842,4.21094699589054233,308.179683655939243,32.8120062195962987,15.3823236364644451,70.1182392826193421,0.00242057207831131768,113.702619046683239,658.098165826334707,15.2880000000000003,0,5.92778439321932993,0.096445743650930435,-4.72291133912989321e-08,0.0107944312910177448,2.84467588149127652e-05,-0.000938220157506005118
1.07,31.2221548786422609,131.010468223174058,21.5236291482790669,-3.06518052464100421,0.000683833114170145679,30.3584770619545345,0.00176597695900226437,4.21704486245928933,348.509368144030759,33.0311320024445649,15.4951232584344396,70.1244932867859347,0.0024663924897518558,113.702668576608616,666.897179149950148,15.2880000000000003,0,5.94237697752867788,0.0970901747439407714,-4.88822617892132022e-08,0.0110576292401528276,2.84968213212203575e-05,-0.000967485678385401155
1.08,31.2221543247220161,131.010469721192436,21.8410697034649743,-2.99538863066995686,0.000710940291022754581,20.3186831313990304,0.00177306093045481901,4.22329606106345778,261.001578574662346,33.2580490361438734,15.6104847162160159,70.130898143532221,0.00251233243281645926,113.702718235660086,676.070929830872387,15.2880000000000003,0,5.95689742761298113,0.0977575143073227404,-5.05325695723364218e-08,0.0113208922869742004,2.85504235093741487e-05,-0.000997294098755581752
1.09,31.2221537666025988,131.010471230540929,22.1606419540770752,-2.92201382157918399,0.00073672761918376628,18.6581896912332752,0.00178188954533035188,4.2307934524073465,246.543753324744074,33.5342481254273395,15.7425125955948992,70.1374537313612052,0.00255840754227067667,113.702768043243424,687.325631501070916,15.2880000000000003,0,5.97133706549022047,0.0985697194463015514,-5.21805037871479358e-08,0.0115838363687815419,2.86076127588435561e-05,-0.00102890073732617268
1.1,31.2221532043526864,131.010472751032836,22.4822946074500045,-2.85198575717062219,0.000762847518137239693,37.7903488199388278,0.00178931031453562228,4.23748017336318306,413.189061738584087,33.7824669910238953,15.8649095497807942,70.1441598843538969,0.00260463263798755553,113.702818017783216,697.516840538477595,15.2880000000000003,0,5.98569879537204486,0.0992996881183998148,-5.38250487905930601e-08,0.0118463406429221776,2.86684913981552437e-05,-0.00105997262937130546
1.11,31.2221526376086054,131.010474283657231,22.8063146256046991,-2.78736256500498669,0.000790022903364953079,27.5691626962597809,0.00179421289776082499,4.2426105637077125,324.159391037639693,33.9747340823600297,15.9681846035710109,70.1510164831528442,0.00265100641272922538,113.702868155265861,705.457071714873337,15.2880000000000003,0,5.99999657962579214,0.0998652003370112951,-5.54626661957895791e-08,0.0121087371941757151,2.87332886533897216e-05,-0.00108958339612866967
1.12,31.2221520664274976,131.010475828258905,23.1326602013606397,-2.71538129278324236,0.000814661174656237984,10.1751050769129101,0.00180279772565565327,4.25030876276876768,172.73281794065943,34.2660223975737068,16.1050178227207219,70.1580232860066673,0.00269752876948120817,113.702918452755625,717.58315317822246,15.2880000000000003,0,6.01422411297483617,0.100721782997750753,-5.70930894856570067e-08,0.0123708125735775467,2.8802104938111748e-05,-0.00112267451663383678
1.13,31.2221514913429061,131.010477383387041,23.4609162553746806,-2.64876666087758306,0.00084035980201123872,32.5549562553225016,0.0018088322891433189,4.25640782615716073,367.532807790070478,34.5005358792836887,16.2224353477742369,70.1651800418909204,0.00274422440054491101,113.702968941808081,727.415973436705713,15.2880000000000003,0,6.02837183591230552,0.101411489202825958,-5.87184194641113429e-08,0.0126319331318337728,2.88749021656177898e-05,-0.00115418096823477956
1.14,31.2221509117576588,131.010478950665771,23.7915531946594676,-2.58596939433668194,0.000866874698928366905,17.8643914282460443,0.0018129346515892617,4.26131725517089333,239.695317731955441,34.6933168939282979,16.3255798202456042,70.1724863561155985,0.00279109117838015428,113.703019617390012,735.54458952810603,15.2880000000000003,0,6.04245883485297597,0.101978533648139025,-6.03334140432439515e-08,0.0128926621409680298,2.8952008839760165e-05,-0.00118454859542294305
1.15,31.2221503281109563,131.010480528900814,24.1242300971700203,-2.51621800008583563,0.000890556259621593459,17.5999141272422044,0.00182079208483680566,4.26888474540690588,237.412511535467729,34.989284432721746,16.4636409214207298,70.179941719430218,0.00283813680791472969,113.703070486926961,748.124026826716999,15.2880000000000003,0,6.05646778179975787,0.102848895263034881,-6.19406926668504109e-08,0.013152353918538055,2.90333837225865743e-05,-0.0012186784368225889
1.16,31.2221497405267989,131.010482117755117,24.458852438925792,-2.45562995029819842,0.000916973601843265509,46.6489986415824731,0.00182376725362359523,4.27322393143285773,490.043774384589426,35.1678365475800376,16.5617312038837028,70.1875457047627975,0.00288537108793375475,113.703121561133955,755.754647361706702,15.2880000000000003,0,6.07040475872863539,0.103374128817903019,-6.35393089119268707e-08,0.0134108623100458527,2.91191292104034684e-05,-0.00124893252516812287
1.17,31.2221491482227194,131.010483719356813,24.7960369003333696,-2.39181902650350153,0.000941815442242397902,7.96910328243447275,0.00182851481072116863,4.27889452375335733,153.709379294867944,35.3998989685245178,16.6778773173263879,70.1952976445233219,0.00293280230409565228,113.703172849856728,765.736767933601072,15.2880000000000003,0,6.08426806390819674,0.104056660861091013,-6.51228768255360919e-08,0.013668893933749135,2.92096839051271418e-05,-0.00128132101717161242
1.18,31.222148552232742,131.010485330893886,25.1349757157663305,-2.32379135587286934,0.000964379022640372884,22.4969578243979917,0.00183579737401683759,4.28643327775387739,280.025018221967457,35.7063639949989735,16.8191134360421017,70.2031969140457335,0.00298043910251254802,113.70322436074521,779.027111411208693,15.2880000000000003,0,6.09804434666516393,0.10495790464830354,-6.66986611593750145e-08,0.0139251696085267874,2.93047417758279929e-05,-0.00131660207655777991
1.19,31.2221479520923033,131.010486953629993,25.4760361881506476,-2.26743687706270958,0.000991302589641430629,39.5721869445465941,0.00183628359899382196,4.28934400264777782,428.407813052929214,35.843281426709467,16.9027624637970568,70.2112428687076289,0.00302829040454669941,113.703276103864241,784.987267305414207,15.2880000000000003,0,6.11176028616939782,0.105360775315084754,-6.82608329786288902e-08,0.0141802099379580351,2.94046772203467683e-05,-0.00134581265845711224
1.2,31.2221473474040074,131.010488588646069,25.8195339656489296,-2.2031609653864459,0.00101435135876538842,3.75130148069835778,0.00184151076574972945,4.2957032087419762,117.184374136023607,36.1136398504721399,17.0315187798332559,70.2194345878715183,0.00307636308362514536,113.703328086291961,796.847626728543673,15.2880000000000003,0,6.12541760894313914,0.106155901261251184,-6.98064379530189045e-08,0.0144342187505210034,2.9509787337980306e-05,-0.00138020755897425213
1.21,31.2221467392016407,131.010490233130781,26.1646603640814277,-2.14014443412230015,0.00103732324790811931,31.6943906159423747,0.00184608723865431869,4.30171035807689517,359.923432132008998,36.3759272561829476,17.1573926884849364,70.2277712644839767,0.00312467458652539339,113.703380327910921,808.437602838062162,15.2880000000000003,0,6.13899305023363695,0.106927310521350863,-7.13427041466328023e-08,0.0146859892790628613,2.96197222991004293e-05,-0.00141443416424892198
1.22,31.2221461267005864,131.01049188921823,26.5120350524327932,-2.0847676773020587,0.00106354790313789582,22.8447125839150509,0.00184581286217447619,4.30436852629299427,283.068750482576149,36.5171775882827916,17.2421807590966836,70.2362519807184498,0.00317322005556569487,113.703432819452189,814.701048912118381,15.2880000000000003,0,6.15251476858233382,0.107342937745945499,-7.28612515043470447e-08,0.0149363212971389599,2.97350471361929039e-05,-0.00144408187499392849
1.23,31.2221455102168584,131.010493556049056,26.8614134629155537,-2.02257098819295011,0.00108581793606055284,8.64345253262978197,0.00184995887704544437,4.31030415535631484,159.796873822227951,36.7867435530488152,17.3702628964807211,70.2448754663281107,0.00322202575548194859,113.703485594333088,826.745771536040706,15.2880000000000003,0,6.16596684813299056,0.108135758396566334,-7.43649955629616544e-08,0.0151846539698198349,2.98557081990896882e-05,-0.00147887897655302148
1.24,31.2221448901870886,131.010495232436,27.2124554875746973,-1.96361799755752453,0.00110920301309118396,38.4497153552428941,0.0018520075894360923,4.31481959486290201,418.515630199805003,37.0089718876950684,17.4821861176901159,70.253640701577055,0.00327108426202659319,113.703538637716676,836.736451064185985,15.2880000000000003,0,6.17933185780020722,0.108789436382499827,-7.58562346694108161e-08,0.0154304476784655718,2.99816169606407278e-05,-0.00151184508534766638
1.25,31.2221442658860013,131.010496920351841,27.5657353715169329,-1.90891149835525975,0.001134564880417016,18.3698330834801311,0.00185107593613899877,4.31726081876291357,244.260946125734876,37.1588210357573345,17.5695255128916372,70.2625463080748887,0.00332042354456804937,113.703591986717683,843.497426398777634,15.2880000000000003,0,6.19262501961553813,0.109230359788598241,-7.73269956517197194e-08,0.0156743802934862439,3.01133619641270482e-05,-0.00154191102203020945
1.26,31.22214363779878,131.010498618477214,27.9208752033798895,-1.84767417435074788,0.00115548363907288783,10.6479317543743246,0.00185475427967097314,4.32319519719671952,177.298446336408631,37.4463055471184774,17.7032340461754494,70.271590945303231,0.00337003516618338342,113.70364562493296,856.570367377915431,15.2880000000000003,0,6.20584628153306106,0.11007587721430713,-7.87819787096311237e-08,0.0159157234148294344,3.02507657380164995e-05,-0.00157771135336820241
1.27,31.2221430060862239,131.010500326374938,28.2777516455968865,-1.79279402745344174,0.00117974996746088973,36.9665058597713241,0.0018538730924015838,4.32585383646975252,405.579686079964688,37.6168667473661245,17.7973081042050083,70.2807732268426975,0.00341994906169834981,113.703699590722863,864.361553372068101,15.2880000000000003,0,6.21900228593688009,0.110577698448604003,-8.02204532321387645e-08,0.0161542816227851493,3.03939205042396471e-05,-0.00160859817045713119
