Time,Latitude,Longitude,Altitude,Angle of Attack,Angle of Sideslip,X-Acceleration,Y-Acceleration,Z-Acceleration,Thrust,True Velocity,Ground Velocity,Pitch,Roll,Yaw,Dynamic Pressure,cp,parachute_deploy_gain,Wind Speed,Mach,omega_x,omega_y,omega_z,Cmq
0,31.2221860000000042,131.010383999999988,3.00000000364323682,0,0,0,0,0,2.2828121974499247,0,0,69.9999999962342088,0,113.699999993883324,0,15.2880000000000003,0,0,0,0,0,0,-0
0.01,31.2221859999997946,131.010384000000556,3.00000016469923247,0,0,0,0,0,34.2421869617492334,9.11367326775851009e-12,8.66229497295429822e-12,69.9999999962370651,-4.92863947922479589e-13,113.699999993882884,5.08594204168408172e-23,15.2880000000000003,0,0,2.67827100510624443e-14,-3.65918233213857746e-19,7.58941520739853104e-19,4.81114714040442593e-19,-1.83541113936281872e-32
0.02,31.2221859999996028,131.010384000001039,3.00000030885429547,0,0,0,0,0,25.8718762377664078,1.96992978605390895e-11,1.88456988716431921e-11,69.9999999962400494,-1.04152381447771591e-12,113.699999993882386,2.37621641206600858e-22,15.2880000000000003,0,0,5.78911013494094702e-14,-7.28448334638698292e-19,1.51788304147970621e-18,9.75781955236953991e-19,-7.93451985123442364e-32
0.03,31.222185999409362,131.010384001586402,3.00018176030779937,18.6493779029494604,-0.000129237623237530007,10.7928899806483045,-1.97644583900689674e-05,3.34983967390763571,180.342193598546658,0.0785672533977095078,0.0490694047558625918,69.9999999976775626,-4.2497891361524094e-12,113.699999994705607,0.00377978965327356543,15.2880000000000003,0,0,0.000230888677896110966,2.88330015245363835e-17,-7.25223402354589416e-10,1.08188208080271277e-11,1.51197624781400831e-13
0.04,31.2221859959356287,131.010384010943454,3.00162780953569674,9.74253989061216075,-4.88763086122285772e-05,51.6475445943311158,1.54548216767323456e-06,3.34965665682309899,548.635972453807767,0.346420694310776434,0.171860503977579737,70.0000000036447574,-2.28205307288861013e-11,113.699999999565534,0.0734838809649275282,15.2880000000000003,0,0,0.00101804013696402693,1.80009747884589399e-15,-1.58734069119923437e-08,2.61929145365345784e-11,1.45916869803439425e-11
0.05,31.222185985910329,131.010384038045004,3.00715844163023283,5.5769968489095687,-4.21135943534799539e-06,75.3242160169835273,4.73080294831520123e-05,3.34902689347595528,761.698429882464552,0.947854334293939504,0.409211128642743283,70.0000000010935537,-1.04766136577077691e-10,113.700000013612069,0.55013262299765131,15.2880000000000003,0,0,0.00278549703395658196,1.95473045844392346e-14,-1.13584749331540247e-07,4.14067569904437612e-11,2.85688606727574374e-10
0.06,31.222185966868647,131.010384089593572,3.01868664272593046,4.48500474963244322,2.31139019787050305e-05,56.3605563030587007,9.71465785775115924e-05,3.34799244711343214,590.487539073720654,1.60618980149218604,0.665693519146445256,69.9999999197690244,-2.82941102348924619e-10,113.700000040305838,1.57971028663545732,15.2880000000000003,0,0,0.00472017413217633904,1.01936766184118274e-13,-4.07864410983111553e-07,5.76522069423461223e-11,1.73837509686130208e-09
0.07,31.2221859390775336,131.010384164863126,3.03600551209402658,4.00448286551149391,4.63712119495135773e-05,85.8192455386477917,0.000147926970097503541,3.34656708333141317,855.293774977913927,2.27788210706903049,0.926660947343454056,69.9999996219982279,-5.49831570978999292e-10,113.700000079276109,3.1772067926123353,15.2880000000000003,0,0,0.00669410445039518576,3.35900025920073467e-13,-9.92070622953462368e-07,7.83315922772719921e-11,5.99658406989250883e-09
0.08,31.2221859009658012,131.01038426812616,3.06033476575187802,3.77263127792190334,7.06371256062416025e-05,17.6076228145981588,0.000196957592070898702,3.34480227118667583,241.217198863884818,2.92612482887636283,1.17954495655796454,69.9999989088305909,-9.15694670892462832e-10,113.700000132739973,5.24285298735243899,15.2880000000000003,0,0,0.00859912396431777512,8.49635706706491564e-13,-2.01744800413265681e-06,1.10032289818440005e-10,1.56647792516492608e-08
0.09,31.2221858556197738,131.010384390989856,3.0892797608365723,3.74258231141200604,9.5325675231994802e-05,53.4176180048964397,0.000237730218002333866,3.34289666486112669,563.093737704317618,3.46187703891102627,1.39384941462988121,69.9999975134546446,-1.31671842773002699e-09,113.70000019638816,7.33844512707370811,15.2880000000000003,0,0,0.0101735644468633635,1.80613395740032365e-12,-3.4856561047658452e-06,1.59232278560273843e-10,3.20202005890100843e-08
0.1,31.2221858028175774,131.010384534057465,3.12301320909491364,3.81071421019783685,0.000121971080758598364,50.732831688561788,0.000271545837515448313,3.34090447591365036,538.7437595981919,3.9029133825176725,1.57567038389986336,69.999995157830341,-1.72222432289554893e-09,113.700000270567642,9.32732681847184431,15.2880000000000003,0,0,0.0114696609641860067,3.37914451533694905e-12,-5.48904943388414521e-06,2.34452541412924053e-10,5.68476506314615152e-08
0.11,31.2221857431700727,131.010384695667796,3.16106164078641116,3.84323765504598036,0.000147145408783231387,40.0848474374385688,0.000307099758177995722,3.33859717034531034,442.865639305294906,4.36819921201157246,1.76578242121538631,69.9999915253729768,-2.07703942468805025e-09,113.700000354470319,11.6837607126815346,15.2880000000000003,0,0,0.0128370221364947634,5.76365694334259916e-12,-8.08162139954488366e-06,3.4437809457680147e-10,9.36754562129998513e-08
0.12,31.2221856770245907,131.01038487487628,3.20315617196047642,3.86558564807459826,0.000171348089099210797,43.7480799143332604,0.000342946594964391399,3.33600966231316054,475.585948135404465,4.83801864946757032,1.95742650583495204,69.9999862600106582,-2.3147200577597177e-09,113.700000447673773,14.3321420062794882,15.2880000000000003,0,0,0.0142177082532951912,9.17772063248746377e-12,-1.13223702306849879e-05,4.98555567062495836e-10,1.45354343598177095e-07
0.13,31.2221856047215205,131.010385070757366,3.24903338361815308,3.95285669440916232,0.000198169826234992146,48.2585391180499741,0.000371981107240517913,3.33344523512332414,515.915632623689476,5.21512035057569623,2.1172615234944101,69.9999789703044399,-2.35265113573284059e-09,113.700000549782459,16.6533950244453948,15.2880000000000003,0,0,0.0153259223232261182,1.38588880633063252e-11,-1.52681962163171846e-05,7.07166414280215559e-10,2.11287244421402401e-07
0.14,31.2221855263490333,131.010385283071088,3.29862557546706325,3.99981420118284792,0.000223008237377726162,44.9721767850953427,0.000403855591455553264,3.33052592490198407,486.239086056840392,5.63167615200940475,2.29059513099545553,69.9999692426645623,-2.0964169591742506e-09,113.700000660771011,19.4199179783547713,15.2880000000000003,0,0,0.0165500839355928395,2.00553635588333716e-11,-1.99811439493909854e-05,9.81252131659242702e-10,2.9859131057555361e-07
0.15,31.2221854420015994,131.010385511560628,3.35186028506811029,4.05975476911301225,0.000248539990764711958,43.4637160193537753,0.000433543226731567866,3.32747422849243879,472.54218587214001,6.01888316560526437,2.45383766868271946,69.99995661705006,-1.43188768134039915e-09,113.700000780625842,22.182048585914238,15.2880000000000003,0,0,0.0176879988684610287,2.80404916713566325e-11,-2.55291719775422389e-05,1.33309260321839681e-09,4.07727088477750495e-07
0.16,31.2221853515819241,131.010385756490507,3.40881389436676407,4.08854462484130732,0.000272210944932510383,34.4023069357135967,0.000465877824565354701,3.32404684464906053,391.12189082975641,6.44303061809316624,2.62971580822363071,69.9999405987561403,-2.27841984783363582e-10,113.700000909623355,25.4183784408083007,15.2880000000000003,0,0,0.0189344747787753703,3.81042963600432359e-11,-3.19913711614788564e-05,1.77662362644707755e-09,5.46937370926295155e-07
0.17,31.2221852554099399,131.010386016990765,3.46923909377793649,4.13347468842419552,0.00029684158695823977,43.4155809381403728,0.000495744973995866601,3.3205135250562221,471.78125980632376,6.83404379119085981,2.79420112365087148,69.9999206448319882,1.67575894446247236e-09,113.700001047478835,28.5969980778046526,15.2880000000000003,0,0,0.0200835795555658371,5.05622819343119236e-11,-3.94162603380559734e-05,2.32482468580976756e-09,7.14768170397066036e-07
0.18,31.2221851530022434,131.010386294375877,3.53351204963262022,4.16207877285686756,0.000320492787063832857,36.2151660219171347,0.000526966735016640565,3.31665933612355879,407.101567211914528,7.2444022294323478,2.96528531587496236,69.9998961790314524,4.45070668055043651e-09,113.700001195059045,32.1341903991183955,15.2880000000000003,0,0,0.0212895378539265934,6.5741708189353534e-11,-4.79243856484647045e-05,2.99669991322666987e-09,9.21230820748327094e-07
0.19,31.2221850444828668,131.010386588308563,3.60153760019172342,4.17456309251139679,0.000342914278589344943,40.9041800427263027,0.00055982867240863632,3.31244583927210501,448.953132831826849,7.67810673790947895,3.14433961722118216,69.9998665624008964,8.30674092292676784e-09,113.700001352409558,36.0967170721845179,15.2880000000000003,0,0,0.0225641073333706747,8.40032927522686365e-11,-5.75836346763551867e-05,3.80911503044151526e-09,1.17316671380156179e-06
0.2,31.2221849296486234,131.01038689934137,3.67347464118590317,4.20078915399145636,0.000366573034254704516,37.5214898208491761,0.000590466919182690893,3.30812712915434881,418.515630199161365,8.08216006412957277,3.31318683933006453,69.9998311045104487,1.34800080829191884e-08,113.700001520067786,39.9955165273270055,15.2880000000000003,0,0,0.0237515420632470921,1.05728805481567758e-10,-6.85028882131185225e-05,4.78351733027568889e-09,1.4690610466811608e-06
0.21,31.2221848088436893,131.01038722653837,3.74905730552401684,4.22722562033261262,0.000390310433246848657,36.0064697775761644,0.000620601272787201603,3.30359776763142721,404.818761014464428,8.48018829437500621,3.47992805775657654,69.9997890742529592,2.02433263776548733e-08,113.700001697833756,44.0315784885794201,15.2880000000000003,0,0,0.0249212734096428447,1.31320595517854955e-10,-8.07208291683553139e-05,5.93661589182972911e-09,1.81631626331753899e-06
0.22,31.2221846819136672,131.010387570319409,3.82840670130281646,4.2176244726165093,0.000410696285369717819,43.5935627685881499,0.000655758920494764063,3.29841875767922987,472.542185872136486,8.94831461811120121,3.67066782999472752,69.9997397083127737,2.88926538075102191e-08,113.700001886238866,49.0266756129506618,15.2880000000000003,0,0,0.0262970098082033268,1.61186003536399267e-10,-9.43348117723774896e-05,7.29106197993283208e-09,2.23980539128825791e-06
0.23,31.2221845484548304,131.01038793178239,3.91183756115468473,4.25320537954326383,0.0004356497720089569,36.207459360748949,0.000683686922722525747,3.29355466128287455,406.340642146102141,9.31799902525197865,3.82760028360492655,69.9996821549030983,3.9766623706965518e-08,113.70000208621326,53.1608354775167555,15.2880000000000003,0,0,0.0273834518362109196,1.95767624418301473e-10,-0.000109505708778552874,8.87784718088286285e-09,2.70740355927931971e-06
0.24,31.2221844093456014,131.010388308538637,3.99866964940866776,4.27135264557773553,0.00045883378920767232,37.3286080087975947,0.000713911697673520317,3.2882529474867046,416.232824001711379,9.7203332459195213,3.9956861712714935,69.9996155408946805,5.32509871046438109e-08,113.700002296918697,57.8502398901668755,15.2880000000000003,0,0,0.0285658473732890855,2.35534745143307651e-10,-0.00012617657385590063,1.07071802425012536e-08,3.25424194465518317e-06
0.25,31.2221842644570167,131.010388700938847,4.08900446593793809,4.29698686981540234,0.000482848983334858658,38.3649566400252979,0.000742483922667206905,3.28284626589867479,425.364080791506922,10.1009615935159527,4.1562806652626314,69.9995389781877293,6.97479781374676735e-08,113.700002518962805,62.4689963611702623,15.2880000000000003,0,0,0.0296844577155840929,2.80933085873043406e-10,-0.000144451636124542286,1.28055329635332884e-08,3.87142965072796435e-06
0.26,31.2221841140756986,131.010389108203611,4.18262110402873155,4.32755423691547136,0.000507438991606541483,41.7865661614553829,0.000769736419800412888,3.27732087646770287,455.80158342417883,10.4644497354123782,4.31094871887776954,69.9994515368878751,8.97024502886333285e-08,113.700002752408935,67.0452443356678742,15.2880000000000003,0,0,0.0307527002093570291,3.32431765373287754e-10,-0.00016436315770221847,1.51925047864838523e-08,4.56355359993810651e-06
0.27,31.2221839578137299,131.010389531387915,4.27982215321117465,4.33742811840656994,0.000529702335486379188,38.2242911032538473,0.000800211178185602123,3.27123004841987974,423.842199659872563,10.8736118498261902,4.48123226393084195,69.9993522521519935,1.13587393208351198e-07,113.700002998306658,72.3900346549699947,15.2880000000000003,0,0,0.0319551720828357214,3.90484337603431509e-10,-0.000186059811616844751,1.79019946498730075e-08,5.36790267753501075e-06
0.28,31.2221837957695953,131.010389970223883,4.38053283172365671,4.35979025650862262,0.000553527510562852902,44.1207307275094038,0.000828072271385077072,3.26514386100193477,476.346873201222195,11.2478718916014184,4.63949182586423614,69.9992400702920463,1.41938296327408329e-07,113.700003257081931,77.4582454645660761,15.2880000000000003,0,0,0.0330550782151640757,4.55595825375374429e-10,-0.000209619220926101062,2.09616181379585756e-08,6.25569396794615011e-06
0.29,31.2221836278828384,131.010390424876022,4.48480177698289584,4.38135974025744623,0.00057737648726709299,35.3536197607625553,0.000855659611391794222,3.2588361863853601,397.970310422111766,11.6195889013503368,4.79682445966682813,69.9991139044831527,1.7532937395312496e-07,113.700003529427192,82.6616578528940948,15.2880000000000003,0,0,0.0341475147840558241,5.28268525040872464e-10,-0.000235137545717689308,2.44023887909330158e-08,7.24907222782668121e-06
0.3,31.2221834544381096,131.010390894570321,4.59240982688131272,4.39617507281761988,0.000600356665334356751,33.1490797613948018,0.000884158719714270942,3.25217107922164672,378.185945710871067,12.0052186882677852,4.95887519756831807,69.998972627127344,2.14383684192303281e-07,113.700003815596887,88.2385269149682756,15.2880000000000003,0,0,0.0352808420099011907,6.09029939588318471e-10,-0.000262641159892275291,2.82471356422800846e-08,8.36561857411674722e-06
0.31,31.2221832755909574,131.01039137888381,4.7032380575360353,4.42235615181669761,0.000624899913490765827,34.9528590290802086,0.000910025197609511073,3.24555398289468222,394.16562209302117,12.3556398803864607,5.10879227158949156,69.9988150759387651,2.59766173767152649e-07,113.700004116072961,93.4639131761651498,15.2880000000000003,0,0,0.0363107024397255479,6.98403788157463991e-10,-0.000292187019282257228,3.25229566712151178e-08,9.57826248689966157e-06
0.32,31.2221830914257232,131.010391877587324,4.81722282885169673,4.45155794779377789,0.000649944303128982049,38.0379859115142835,0.000934821026682707218,3.23882361682650144,421.559393462426954,12.6924793110791878,5.25399282922068878,69.9986400687318024,3.12179641788393281e-07,113.700004431478234,98.6283237403037703,15.2880000000000003,0,0,0.0373006526995305274,7.96905013945712519e-10,-0.000323836613651358495,3.72580440687311147e-08,1.09050644159405278e-05
0.33,31.22218290196043,131.01039239063175,4.9343519698327194,4.48019701204722054,0.000675004219851668761,37.7093551175013246,0.000959261610436717115,3.23189933669563656,418.515630199168186,13.0256844327599097,5.39788776638052958,69.9984463826819052,3.72372687880250348e-07,113.700004762578004,103.87354288045799,15.2880000000000003,0,0,0.0382799263433428877,9.05047894999210997e-10,-0.000357667290238851605,4.24836225249657193e-08,1.23603484615852587e-05
0.34,31.222182707020778,131.010392918491164,5.05476263450916541,4.49049305198152204,0.000697378143373914754,29.5227085089536203,0.000987142430045659337,3.22427911658814059,345.465636880756449,13.4081741031825317,5.55863100914667463,69.9982327456812641,4.41143957445642244e-07,113.700005110463266,110.062177258613033,15.2880000000000003,0,0,0.0394040418267209702,1.02333461745717641e-09,-0.000393806243978271305,4.82396483202145133e-08,1.40087103268591529e-05
0.35,31.2221825067937928,131.010393460657156,5.17831168393457641,4.50711781535187139,0.000720712543856854714,32.3530371383660977,0.00101333646443235357,3.21661305844837253,370.576570052703289,13.7686530554979374,5.71176159517965232,69.9979978091806316,5.19362042776584697e-07,113.700005475786654,116.058400304168075,15.2880000000000003,0,0,0.0404634764462946869,1.15232390415689195e-09,-0.000432299813734132244,5.45552399130644805e-08,1.57912776608867467e-05
0.36,31.2221823012122108,131.010394017312592,5.30505329869157727,4.52767240178778962,0.000744729708600240731,36.5526511043957356,0.00103828652712813154,3.20885713174522058,407.862523277719447,14.1132764952183631,5.85938873702120233,69.9977401961163537,6.07939829707116331e-07,113.700005859608282,121.939407863977465,15.2880000000000003,0,0,0.0414763190843316643,1.29254043868676357e-09,-0.000473255972436325862,6.14699225552327593e-08,1.77198251922661022e-05
0.37,31.222182090341061,131.010394588280832,5.43493909097431604,4.55039311415752579,0.00076918150115683735,34.6835787828593496,0.00106234372950533948,3.20097384516078431,391.121890829766642,14.446930470491731,6.00318739776240751,69.9974584775585669,7.0785096329375243e-07,113.700006262864989,127.771540530283914,15.2880000000000003,0,0,0.042456928843506235,1.4445318520011827e-09,-0.000516746496826029863,6.90186481791334769e-08,1.98053803654614999e-05
0.38,31.2221818741223878,131.010395173719473,5.56801609611825477,4.56315131642791805,0.000792019287104061913,36.2353933787001239,0.00108827974821363053,3.19255015153205646,404.818761014460279,14.8084413239345949,6.1564787166299757,69.9971511865591651,8.20121521966083772e-07,113.700006686723384,134.244380272309172,15.2880000000000003,0,0,0.0435194095147296359,1.60882660749176723e-09,-0.000562873331420229127,7.72423853301427293e-08,2.21128406351508731e-05
0.39,31.2221816525004634,131.010395773780147,5.704329739781131,4.57922628245169783,0.000815489716137310881,30.9425419640016202,0.00111309493143926189,3.18402316666385765,357.640624933827439,15.1559126959619999,6.30488433186772657,69.9968167722787769,9.45855271408966431e-07,113.700007132429306,140.616382889747683,15.2880000000000003,0,0,0.0445406353688629561,1.78596578656278109e-09,-0.000611756345505213715,8.61868943159197994e-08,2.45968452142520012e-05
0.4,31.2221814256617982,131.010396387955836,5.84373750626454935,4.59349479979191955,0.000838670682925170751,29.5834243852937959,0.00113797512888990423,3.17521289611434332,345.465636880754005,15.505969085398343,6.45410901523083158,69.9964536498379317,1.08621525395706341e-06,113.700007600947828,147.185065961143067,15.2880000000000003,0,0,0.045569462889951777,1.97653506559195414e-09,-0.000663427505461186432,9.58835144134294998e-08,2.72901174189528038e-05
0.41,31.2221811937141673,131.010397015953487,5.98615797249314241,4.60939449845229365,0.000862163931524819621,33.360545626359837,0.00116210409424792778,3.16624854525325983,378.946870776686467,15.8471768437686258,6.60022848408685459,69.9960602026584695,1.24241947051318175e-06,113.700008093413757,153.73182724817184,15.2880000000000003,0,0,0.0465722905345462151,2.18109996727848554e-09,-0.000717942131686907965,1.06367950505874699e-07,3.01820283711074823e-05
0.42,31.2221809567080335,131.010397657635991,6.13155423418529733,4.63387609959193458,0.000887317919769279608,37.5676427387571721,0.001183742077125155,3.15743374731593907,416.232824001711379,16.155026338188506,6.73482947265292431,69.9956347739890248,1.41574639558456e-06,113.700008611107208,159.760443802515937,15.2880000000000003,0,0,0.0474770882933877245,2.400206535531791e-09,-0.00077537935552726017,1.17680930846389008e-07,3.32294321368729263e-05
0.43,31.222180714655078,131.010398312971745,6.27991949833728835,4.65367427313455995,0.000911660169575580258,33.0386483003103493,0.00120612360190941372,3.14823214930187856,375.903139513433644,16.4750454055619109,6.87353555569934649,69.9951756835756242,1.60752723178871754e-06,113.700009155418982,166.15023929888028,15.2880000000000003,0,0,0.0484176551665520677,2.63438237315801404e-09,-0.000835821567166909188,1.29864614855892046e-07,3.65287677570896608e-05
0.44,31.2221804673911407,131.010398982407111,6.43138341412837455,4.65757387742934892,0.000932929976641759203,30.4788052564327749,0.00123214974254881528,3.13809943757763454,353.075012538921555,16.8483715860516412,7.03046484016701978,69.9946811832270441,1.81916859536649675e-06,113.700009728069276,173.762989227436179,15.2880000000000003,0,0,0.0495148886868988364,2.88411342836306464e-09,-0.000899417740154189794,1.42975581697416844e-07,4.01983191819108926e-05
0.45,31.2221802146980103,131.010399666535704,6.58611776122768511,4.65827001030579346,0.000953562143933252499,35.4620561517945134,0.00125873275223327787,3.12754579585638304,397.209385356286873,17.2316459864824161,7.19073264961644831,69.9941493995125938,2.05218870761162579e-06,113.700010330973456,181.755888424112015,15.2880000000000003,0,0,0.0506413642318551335,3.14987863732273609e-09,-0.000966369542842942814,1.57083782729145849e-07,4.41725079750487196e-05
0.46,31.2221799565319174,131.010400365476642,6.74415901717088939,4.66907507286434065,0.00097630283571516251,41.3913707355688842,0.0012823814722795761,3.11722412848720953,449.71405889764344,17.5754687869478978,7.33738035579407555,69.9935783582983362,2.30821229426708146e-06,113.700010965912341,189.078525726536213,15.2880000000000003,0,0,0.0516519027755614896,3.43223060675433133e-09,-0.00103681314204437207,1.7224885851047691e-07,4.83373548649469587e-05
0.47,31.2221796928065203,131.010401079464799,6.90557672428163105,4.67806301106434042,0.000998761260684927557,28.0209900204918974,0.00130616618884544979,3.10657060381263461,331.007810630253402,17.9233234115620377,7.48533101007974988,69.9929660462147325,2.5889364060732201e-06,113.700011634803886,196.634049649816575,15.2880000000000003,0,0,0.0526742959306323727,3.73170463860384924e-09,-0.0011108841623615434,1.88532207060213475e-07,5.28148505664365441e-05
0.48,31.2221794239793269,131.010401807256216,7.07001851744381948,4.68642527483421745,0.00102109091231145262,27.6007969606275125,0.00132978852885184593,3.09563681785184297,327.203122301157407,18.2709832353803314,7.63313726727991071,69.9923104035261474,2.89614261094227829e-06,113.700012338884164,204.33305198470137,15.2880000000000003,0,0,0.0536961221459722679,4.04904859899578719e-09,-0.00118849531779471017,2.05948560519311644e-07,5.75998398329450787e-05
0.49,31.2221791502289392,131.010402548365278,7.23734841566291642,4.70156796398202914,0.00104489945272251677,34.6487244505178253,0.00135120419031512233,3.08484494341801163,389.60000969812296,18.589315545984995,7.7707981814672209,69.9916093757078812,3.23165731652504743e-06,113.700013079832303,211.511801733856089,15.2880000000000003,0,0,0.0546317638991248022,4.38486615800834454e-09,-0.00126967773493266863,2.2453662401782158e-07,6.26054017926546362e-05
0.5,31.2221788715876762,131.010403302704333,7.40754387012007864,4.72212438923579736,0.00106996435823571525,35.6033845714535389,0.00137072557486675028,3.0741588573465477,397.970310422105001,18.8826594549893159,7.8998011517407587,69.9908609011483378,3.5973597360057951e-06,113.700013859590555,218.236320199079358,15.2880000000000003,0,0,0.0554939729313439212,4.73968531279909998e-09,-0.00135450679800636423,2.44344941868023912e-07,6.78409867869358833e-05
0.51,31.2221785881337617,131.010404070060673,7.5805467220577798,4.73558879650721298,0.00109346949398930206,27.1956639286467201,0.00139183542187690463,3.06284319292573448,323.39843497208409,19.200774511812984,8.03722958125224807,69.9900628955037689,3.99519228958782199e-06,113.700014680103109,225.647740475438098,15.2880000000000003,0,0,0.0564289867670437692,5.11403675587933804e-09,-0.00144303978709531136,2.65418546512062939e-07,7.34915902759761199e-05
0.52,31.222178299889606,131.010404850469456,7.75636950764500988,17.2545380832634017,13.4141803160563882,33.2486208374975902,-1.01973869427595432,2.10068584789839985,372.098451184341457,22.9088136901614128,8.17605455782123336,69.9892121681357224,1.13426793294983863e-05,113.700022903341917,321.21170510000303,15.2880000000000003,0,7.51932921174142965,0.0673266439223444979,5.50690768332684098e-09,-0.00158683667242882323,8.00876803625237869e-05,9.6420213574678913e-05
0.53,31.2221780074843842,131.010405644134295,7.93517483571531113,17.0998896473192943,13.248683785391373,34.8956837088890524,-1.04402364454764518,2.06504648482056341,386.55624643486243,23.2329947112477981,8.30783622305597369,69.9881922632601601,0.000393242774657284093,113.700429752400552,330.361244129020918,15.2880000000000003,0,7.54793134981429681,0.0682795162790881954,6.10437924125926739e-09,-0.00202132808594623556,0.000443087636778759599,0.000124556904874654242
0.54,31.2221777111521739,131.010406451198918,8.11706087323270431,16.9500835430338341,13.0880115073252981,30.696852891768188,-1.06861305910041904,2.02886170268967003,349.270324209843579,23.5556121850566207,8.43873428958730187,69.9869201958432825,0.00135221492109688086,113.701450766339377,339.593924666938619,15.2880000000000003,0,7.57648515476657547,0.0692277997631026987,7.04346037071730351e-09,-0.00246838675110528684,0.000814726775563937825,0.00015421471699945266
0.55,31.2221774111714296,131.010407270940334,8.3018279571123319,16.8088993944147944,12.9348242399440974,32.5159149913218855,-1.09324228702067638,1.99248307402699054,365.250000591990727,23.8712916760747191,8.56680367487025407,69.9853888351493794,0.00290148152783619145,113.703100028377804,348.750833778331753,15.2880000000000003,0,7.60494364701116154,0.0701556992773606641,8.32136643312965212e-09,-0.00292765665007555919,0.00119466942258977847,0.000185355968679013714
0.56,31.2221771075640255,131.010408103342712,8.48947702531514281,16.6789001750801127,12.7909043074929052,30.3781951159321757,-1.11769925388324753,1.95619636919786299,346.226561946578727,24.1758891719207334,8.69053926375215546,69.9835910972160775,0.0050540088728218439,113.705391353052732,357.701287081295163,15.2880000000000003,0,7.63330627126860239,0.0710510358593574726,9.93467285796315698e-09,-0.00339936455716017367,0.00158303586290619051,0.000217963055162305469
0.57,31.22217680041798,131.010408948209317,8.67995733531063962,16.5459892092845706,12.6460377443713661,30.0464462730865698,-1.14288060649324086,1.91879114920054228,343.182829683302316,24.4877791094438315,8.81668640114450142,69.9815198494966069,0.00782270522019554507,113.708338496855603,366.98342152093494,15.2880000000000003,0,7.66157146939059963,0.0719678104885255604,1.18797337481434475e-08,-0.00388354633251752467,0.00197979743960257021,0.000252216000839176641
0.58,31.2221764897332683,131.010409805582213,8.87328624455946091,16.4012609329742993,12.4938233571939783,39.4427986953142096,-1.1694485639788974,1.8793652188673915,426.12500585731533,24.8197648803457938,8.94991889469638302,69.9791678167135274,0.0112205450189790511,113.711955293747991,376.994410531504002,15.2880000000000003,0,7.68973653546860625,0.0729436517288395425,1.41526159458549717e-08,-0.00438044469167353772,0.00238508540219705941,0.000288338441922262364
0.59,31.2221761751569886,131.010410676464744,9.06975541198782764,16.2778020970925077,12.3580018307556081,32.0519435899253438,-1.19511569207847224,1.84101588636011892,360.68438819711065,25.1256307128366885,9.07331627955001352,69.9765273972721786,0.0152612362520131301,113.716256354693968,386.336140294848349,15.2880000000000003,0,7.71784271369607655,0.0738427348986055582,1.67489800893251236e-08,-0.00489122183941639085,0.00279973689760239621,0.00032592135917339823
0.6,31.2221758569065919,131.010411560308711,9.2692140772495879,16.1314501259120995,12.2068866718832929,28.5332212719986629,-1.22304099157996382,1.79945157663652866,329.48595949860578,25.4681182679486682,9.20981162972980805,69.9735907370776715,0.0199586211253176236,113.721256445923686,396.932619208988115,15.2880000000000003,0,7.74586088778833837,0.0748494538826087186,1.96652016284174218e-08,-0.00541560922708802898,0.00322348465564601099,0.000365775278328924023
0.61,31.2221755349578522,131.01041245722314,9.47169893876411706,15.9842796014367821,12.056299011315847,33.370858956155125,-1.25171313552255814,1.75671578275129536,372.09845118432969,25.8164886378294369,9.34816277563584386,69.9703497707335771,0.0253267979158351211,113.72697061151699,407.857990265915305,15.2880000000000003,0,7.77379375449423993,0.0758734693084434503,2.28971915491940354e-08,-0.00595396049345813666,0.00365653869190324561,0.000407628789278185501
0.62,31.2221752094375127,131.010413366906903,9.67712983947790839,15.8791025860653203,11.9366814856985748,41.3999972713346978,-1.27773078051185296,1.71744806163233998,442.86563930529212,26.105127725831661,9.46449174443264596,69.9667962944527773,0.0313800902959451566,113.733414135087301,417.020791018007799,15.2880000000000003,0,7.80163933053886449,0.0767219440795298829,2.64410417026125408e-08,-0.00650635114885277175,0.00409889438666252107,0.000450418771557777368
0.63,31.2221748801948458,131.010414289809205,9.88564017149242957,15.7641097007020292,11.8110386042363853,23.6532748924329788,-1.30504953624164544,1.67625587132352916,286.112512747078938,26.4111902578116791,9.58691058582823352,69.9629222990936626,0.0381322229048701791,113.740601668207646,426.848062872860794,15.2880000000000003,0,7.82940154419741408,0.0776216324158903043,3.02916728557876868e-08,-0.00707334923340049472,0.00455092215829543557,0.00049540175430276025
0.64,31.2221745477888284,131.010415224451833,10.0968141163216458,15.632137727133447,11.6742905817100429,23.2318791925582637,-1.3343430454933507,1.6321997176712828,282.307824417967538,26.7469981048828629,9.71992286563593311,69.9587195322935713,0.0455969894097506406,113.748547950023422,437.76259948536125,15.2880000000000003,0,7.85699956438894009,0.0786087480703763913,3.44461795016501315e-08,-0.00765376007403271302,0.00501165336835038191,0.00054285713425496825
0.65,31.2221742122200041,131.010416170871508,10.3106674395733382,15.5310399752427575,11.5603436848632075,40.7554378091815863,-1.36160409950973138,1.59077781083103775,436.778144778747503,27.0363936173009733,9.83583813577348032,69.9541799604156864,0.0537877398108933466,113.757267245310516,447.277615109881197,15.2880000000000003,0,7.88451191625550418,0.0794594658327987119,3.88994832937142744e-08,-0.00824793022623675209,0.00548129054644182559,0.000591317155799323695
0.66,31.2221738730385177,131.010417130325152,10.5275633674161888,15.4248483281368856,11.4436582839537753,34.7290813830365082,-1.38981962890063482,1.54788883533027222,383.512515171600171,27.3360299328419742,9.95523927590750368,69.9492953356898965,0.062717889991319678,113.766773902760519,457.237119069394282,15.2880000000000003,0,7.91189459238071446,0.0803402880637321681,4.36445709049068902e-08,-0.00885728708018022545,0.00596084937492417748,0.000642027835389828152
0.67,31.2221735304335866,131.010418102337724,10.7473720159902655,15.303992425687424,11.3175241540902363,24.0373922366316961,-1.41993601289052362,1.50222244468202226,289.156244010342505,27.6627407608795721,10.084225864799917,69.9440570112784172,0.0724016719533099179,113.777083136490205,468.222030286636084,15.2880000000000003,0,7.93917660538454673,0.0813006891632309797,4.86774123468861097e-08,-0.00948160130741177408,0.00645009258186258518,0.000695481247831602101
0.68,31.2221731845785122,131.010419086476873,10.9699756313190875,15.1897171922719441,11.1969036098173564,29.9191435516936437,-1.45007379754182097,1.4563640610113362,340.899992485846269,27.9813609031520443,10.210044557241357,69.9384561303653669,0.0828532045963224356,113.788210060213331,479.05989265299246,15.2880000000000003,0,7.96636766057106627,0.0822373190660666692,5.39938255239489327e-08,-0.0101207355024339196,0.00694885324634545928,0.000750896625843730492
0.69,31.2221728355635619,131.01042008253367,11.1953199771557301,15.0927335880729085,11.0892130832410984,36.7542645766355491,-1.47909643131840007,1.41187964869142912,401.014072685363431,28.2721730800922622,10.3255846465204861,69.9324840371646559,0.0940862490773752558,113.800169402131914,489.058859507071247,15.2880000000000003,0,7.99339126278979428,0.0830922283289128039,5.95891477813522612e-08,-0.0107747049957719037,0.00745707959488452025,0.000807708077610560962
0.7,31.2221724832781149,131.01042109084122,11.4235049539948825,14.9961095410621734,10.9825524360483371,30.8916193416365701,-1.50860004278560944,1.36656849278504433,349.270324209852845,28.5640289151095068,10.4412887811480868,69.9261319307269247,0.106114320567929049,113.812975649114051,499.197223002049782,15.2880000000000003,0,8.02030746603244005,0.0839502119598839192,6.54572683428163041e-08,-0.0114440853666161989,0.00797513631053285016,0.000866724121475053355
0.71,31.2221721277871218,131.010422111257071,11.654495122935149,14.8904794971563774,10.8703847440295274,25.4577815450036802,-1.5395779564149723,1.31904742989378776,301.331264063405797,28.8740377604323371,10.5633475353487629,69.9193908380249951,0.118951149696393782,113.826643520294652,510.080404180163669,15.2880000000000003,0,8.04712449468928703,0.0848615548666240282,7.15933339427685697e-08,-0.0121289480879079956,0.00850301142240435411,0.000928541576767282764
0.72,31.2221717691076641,131.010423143768321,11.888291955028274,14.7739135396311259,10.7513810075431788,31.0872597888568372,-1.5723218648177808,1.26889488699247233,350.79220534145287,29.2066312027064896,10.6933623278289947,69.9122516411163133,0.132610628106987288,113.841187909389575,521.887364788372906,15.2880000000000003,0,8.07380023100190769,0.085839282138115397,7.79921698460027488e-08,-0.0128295664028532964,0.00904084223456873108,0.000993469165887980081
0.73,31.2221714072523362,131.010424188374856,12.1249006841398312,14.6870751489357918,10.6537761305233545,39.2276071404099227,-1.60244615798696532,1.2222181881029015,422.320318528233997,29.4857936590544796,10.8038585313015716,69.9047047125014842,0.147107085359369116,113.856624198823511,531.899552789217751,15.2880000000000003,0,8.10034819203328915,0.0866599814186997108,8.46486022755066955e-08,-0.0135462737749194595,0.00958880738203792167,0.00105897022616666722
0.74,31.2221710421758054,131.010425245229243,12.3643695898758228,14.5919001266483512,10.551096002109027,24.7073417478553772,-1.63400916452315603,1.17336529318675242,294.482813471059444,29.7821046864249759,10.9203446342109256,69.896740790223987,0.162454129146736403,113.872966999479928,542.631205908300785,15.2880000000000003,0,8.12679904586376978,0.0875310884083203844,9.15570224923534161e-08,-0.0142793921657780581,0.0101470763516158437,0.00112747312597039984
0.75,31.2221706742281953,131.010426313416531,12.6064435464874975,14.4917694412815994,10.4456892736135938,28.7834036473158683,-1.66670993588675698,1.12274566128508879,330.246885564414924,30.0897647429097823,11.0407443403362553,69.8883503162784052,0.178665374079975819,113.890230951590084,553.887396001589082,15.2880000000000003,0,8.15312477509085376,0.0884355581563584514,9.87155524335979505e-08,-0.0150281200858382435,0.0107149946627437542,0.00119882128485103803
0.76,31.2221703033187659,131.010427393210364,12.851205190632907,14.402372940567588,10.3483460387895523,30.9572918752645343,-1.69869380556036487,1.07294752203720223,349.270324209861712,30.3777671979999653,11.1538700825362422,69.8795238777863545,0.19575413217358234,113.908430372027368,564.527872626174144,15.2880000000000003,0,8.17927894972289415,0.0892822605679729903,1.06117652215425684e-07,-0.0157930703498886729,0.0112929443769200326,0.0012718714178115674
0.77,31.2221699294058439,131.010428484750548,13.0986990042335218,14.3161452216982834,10.2538274465126449,28.9762237168406109,-1.73081736280272258,1.02277699273197098,331.76876669607077,30.6605231630350765,11.2649176841695073,69.8702517321392094,0.213733756730445645,113.927579645668061,575.072354601836537,15.2880000000000003,0,8.20531452001326755,0.0901135506114718737,1.13757466208209328e-07,-0.0165746576772840999,0.0118811598624641492,0.00134720781922008934
0.78,31.2221695525618159,131.010429587868487,13.3488818078815665,14.2221157763242072,10.1545937504821406,23.8760578955695593,-1.76444636914785491,0.970308709809866721,286.873437812889904,30.9603718920131818,11.3819513801444536,69.8605241534279031,0.232617466953634111,113.947693016393103,586.361263030171585,15.2880000000000003,0,8.23123284824177226,0.0909950850993223592,1.21630691401964015e-07,-0.0173728786858442091,0.0124795702207054354,0.00142586361831005255
0.79,31.2221691728811948,131.010430702336123,13.6016935664085175,14.1240762692130843,10.0532595857457512,33.7606930236035438,-1.79918322978115941,0.916092012024198876,373.620332315953419,31.2701667732310611,11.5023975128841105,69.8503311682343622,0.252418509964983551,113.968784775429228,598.139915839254513,15.2880000000000003,0,8.25702839698121238,0.0919058599341878724,1.29733344692793798e-07,-0.0181877183639082285,0.0130880966636813655,0.0015076408848918733
0.8,31.2221687901669931,131.010431828708477,13.8572965225551616,14.0431552945720597,9.96422645941487595,34.2047255231452567,-1.832237204498536,0.8640620911545428,377.42502064505743,31.5450820186247221,11.6100886475807688,69.8396625087143406,0.273150388145876999,113.990869498012003,608.688437199009968,15.2880000000000003,0,8.28269134335427637,0.0927141281754280677,1.38057165556604772e-07,-0.0190202143720005039,0.0137074180002739795,0.00159047151855392786
0.81,31.2221684045263252,131.010432966721339,14.1156202421587516,13.9524397306407817,9.8690999511023918,22.426396709230481,-1.86712150421436562,0.809253126807750744,273.937492693991885,31.8417476178918832,11.7254526306386317,69.8285078716417047,0.294826308730252229,114.013961458146497,620.175703037649441,15.2880000000000003,0,8.30821232069293991,0.0935863305860050315,1.46599090013310577e-07,-0.0198701955265543975,0.0143373394236932933,0.00167713140182561044
0.82,31.2221680161476662,131.010434115892423,14.3765324760398894,13.858173267136312,9.77215767473546393,28.6768466891588645,-1.90309331211167732,0.752707896073705696,328.725004432770049,32.1475057331268914,11.8439337655907799,69.8168568577359423,0.317459292537238313,114.038074745247627,632.12743437991503,15.2880000000000003,0,8.33360722739223725,0.0944852648039168491,1.55357035540995206e-07,-0.0207373035025661574,0.0149775331480161249,0.0017670821444484158
0.83,31.2221676250252429,131.010435276259813,14.6400485743525639,13.7840384309878061,9.6894261984999055,36.3183173302118902,-1.93675459206489897,0.699248889554194841,395.68750322465047,32.4096108561833631,11.9465271251072522,69.8046989133496396,0.341062276297079248,114.063223374084686,642.460922033998941,15.2880000000000003,0,8.35888257899574327,0.0952559055059241794,1.6432549989639519e-07,-0.021621922980356062,0.015628203620253734,0.00185743794846935121
0.84,31.2221672310666456,131.010436448089763,14.9062481309262171,13.7065176760194056,9.60492816686581641,22.6213712309471511,-1.97137089389407172,0.644240789512478651,275.459374825645227,32.6794700797352746,12.0517556315909147,69.7920235782064395,0.365647626733050179,114.089420767422567,653.1876912640829,15.2880000000000003,0,8.3840399097666225,0.0960493440395325387,1.73498193402167665e-07,-0.0225245721836927239,0.0162896484838457832,0.00195104207727599924
0.85,31.2221668345611114,131.010437630627735,15.1749216058450642,13.6137885328985302,9.510706936856959,24.6243053067204443,-2.0087981691523602,0.585026075488087938,292.960932339393764,32.9847190186670716,12.1695986931455078,69.7788203254780655,0.391227437570140057,114.116680072270952,665.429964189518273,15.2880000000000003,0,8.40905708460838319,0.0969468054768653636,1.8287582055968754e-07,-0.0234444279782928949,0.0169612111130771591,0.00204963393592697257
0.86,31.2221664353510242,131.010438824313667,15.4461978439546463,13.5332950566570211,9.42524119349556955,30.7081180315834601,-2.0449102466313307,0.52747813866452109,346.226561946558718,33.2624496497911437,12.2773882542310062,69.7650782388021042,0.417814133644438257,114.145014805399271,676.66532380537069,15.2880000000000003,0,8.43391259321962572,0.0977633947406011256,1.92449925212579646e-07,-0.0243824594875906887,0.0176435067837609622,0.00214953390857034821
0.87,31.2221660334668982,131.010440029082872,15.7200625686538356,13.4587611161551202,9.34427376534138077,28.6329398950617318,-2.08058345771870545,0.470355416884304489,327.964078366998024,33.5264011149824555,12.3800712719570729,69.7507863734206381,0.445419768276621275,114.174438104352618,687.429098954175743,15.2880000000000003,0,8.45864752121644514,0.0985394926951015798,2.02216416765346561e-07,-0.0253388163008296773,0.0183365670044429475,0.00225151267530859399
0.88,31.2221656289495719,131.010441244841473,15.9964931326355053,13.3769156049890512,9.25890040504765288,24.8194331044675707,-2.11793441317777287,0.410622821805981808,294.482813471041823,33.8079771588891305,12.4889696114536051,69.73593372816336,0.474056067532490466,114.204962775379997,699.005964698625576,15.2880000000000003,0,8.48325582483265705,0.0993673999590298507,2.1217216928822626e-07,-0.0263135126322635339,0.0190403279288712257,0.0023576949862233851
0.89,31.2221652218838699,131.010442471378525,16.2754337985266133,13.288023881252828,9.16932479125705768,27.1720652966969176,-2.15700782125732049,0.348201934376234923,315.028134248086985,34.1073078613534264,12.6041393293528419,69.7205091349052992,0.503734626108760963,114.236601502744023,711.419487397555145,15.2880000000000003,0,8.50773532094658869,0.100247499354074135,2.22314329433391359e-07,-0.0273065457121664211,0.0197547137293129262,0.00246826724080107798
0.9,31.2221648122039994,131.01044370888323,16.5569419804404916,13.2186368280232251,9.09321794472136702,29.9604101621012902,-2.1933012220324315,0.289563248292541542,339.378142354214447,34.3589849623728583,12.7020079307702503,69.7045010766954789,0.534467231366463125,114.269367195111954,721.937803975870565,15.2880000000000003,0,8.53209517231635317,0.100987544287201109,2.32636408208250717e-07,-0.0283185010647066283,0.0204800584581974789,0.00257855748940916769
0.91,31.2221643999826135,131.010444957173462,16.8409697559392093,13.1420274471715608,9.01275687691938998,22.9273929847785247,-2.23130381470534545,0.228249630142478566,277.742181023078899,34.628396406560995,12.8061463533274296,69.6878982831286606,0.566264744392778963,114.303271792857359,733.283727562849663,15.2880000000000003,0,8.5563279644887853,0.101779721564631595,2.43136324701470651e-07,-0.0293492807617732158,0.0212162178200659066,0.00269329687980491119
0.92,31.2221639854191899,131.010446215732316,17.1273749073029968,13.0585101983497296,8.92817315639290499,27.1938765290337834,-2.27105215063623334,0.164193150694767392,315.028134248062145,34.9155039027169067,12.9165623670685843,69.6706893228520556,0.599137848067800682,114.338327066053111,745.473087069457051,15.2880000000000003,0,8.58042205638292188,0.10262391904470862,2.53815423202378775e-07,-0.0303982913059597411,0.0219627043540743562,0.00281261264900632864
0.93,31.2221635684309078,131.010447484788756,17.4162255476125978,12.9925102381926951,8.85560182648281824,32.2452407208344241,-2.30810036500515903,0.103817095331556461,359.162507065472823,35.1575460925800698,13.0106226577707904,69.6528626155233184,0.633097013085634375,114.374544579434925,755.82352042406626,15.2880000000000003,0,8.6043896972397178,0.103335668108609863,2.64665996260344134e-07,-0.0314662498896766119,0.0227199396799460801,0.0029315272332443988
0.94,31.2221631489140279,131.010448764622112,17.7076034929727761,12.9114345278407967,8.77350956281344807,23.553624107280406,-2.34841549372164282,0.0384845451250143619,283.068750483778672,35.4383798666972609,13.1185640724438617,69.6344066448898644,0.668152097786410493,114.41193526582272,767.925090686531121,15.2880000000000003,0,8.62822203257566223,0.104161442050932668,2.7568238639230248e-07,-0.0325536572997356249,0.0234881931130622064,0.00305697497722283787
0.95,31.2221627271528881,131.010450054492054,18.0013036921719305,12.8329369281676335,8.6935389715266993,30.3467823667946668,-2.38875946575813281,-0.0271267624497726415,342.421873617487279,35.7125188078073563,13.2240081078960312,69.6153094729370139,0.704313217507821498,114.450510353382398,779.829847302512576,15.2880000000000003,0,8.65190662481420247,0.104967546476187973,2.86868216543899828e-07,-0.0336596898429605343,0.0242668195885513693,0.00318519906179408688
0.96,31.2221623028648487,131.010451355146444,18.29753970671144,12.7632432695868268,8.61975487912885896,29.7446937606889357,-2.42786939190669582,-0.091177315299110509,337.095335156783449,35.9627426334903859,13.320717760054908,69.5955591316811706,0.741590021955282341,114.490280596888027,790.773565494617401,15.2880000000000003,0,8.67547524804435177,0.105703366851563077,2.98210590500966246e-07,-0.034785803726459931,0.0250567410658693347,0.00331473243673945312
0.97,31.2221618760706257,131.01045266653415,18.5963000871135122,12.6897650354369507,8.54388994398074253,19.2165118130942574,-2.46819172318801261,-0.157226934155943576,245.021887192993233,36.2225955397657486,13.4208020248769735,69.575143365090554,0.779992143850733233,114.531256755782053,802.219481806857516,15.2880000000000003,0,8.69892547454379716,0.106467497516197343,3.09706924522998691e-07,-0.0359321333165045637,0.0258579679429716131,0.0034486072613229557
0.98,31.2221614470526525,131.010453987919249,18.8973810300963656,12.6022832350766443,8.45929920373906441,27.7551640763356779,-2.51192262910876396,-0.22849564478026127,319.593746642958081,36.5209802720959615,13.5347309370649711,69.554049878819967,0.819528737190884038,114.573449102273685,815.466951564196165,15.2880000000000003,0,8.7222414984381853,0.10734489144467449,3.21364034577814307e-07,-0.0370976183846772542,0.0266696969926305122,0.00358969100172807287
0.99,31.2221610156678189,131.010455319679551,19.2008916972853392,12.5395103455632437,8.39118221400458708,30.2873339673294915,-2.55094649839905596,-0.29313457181747743,341.660948551705417,36.7500908886466604,13.6235532094246601,69.532266061343833,0.860208962123446996,114.616867940333336,825.706470833082449,15.2880000000000003,0,8.74544066741094817,0.10801867852238381,3.3317130722537158e-07,-0.0382833303019762539,0.0274925765493088566,0.00372755516117337067
1,31.2221605819133465,131.01045666181966,19.5068357163942494,12.4631245950466827,8.31459330152513587,27.1568126179825313,-2.59332467528565314,-0.362926951051101121,314.26720818227642,37.0167329809542736,13.7258586610754829,69.5097796820277551,0.902040739672750558,114.661522276414033,837.707230460201686,15.2880000000000003,0,8.76851592449715334,0.108802788966373049,3.45127421489549186e-07,-0.039489289396527516,0.0283265385206626086,0.00387276009340051935
1.01,31.2221601459659226,131.010458013880026,19.8150869862932346,12.3894607502990475,8.24014114184814517,28.3823415817260418,-2.63557445213112507,-0.43278643399322575,324.920316103697928,37.2750783971116988,13.8251045778777133,69.4865780212812325,0.945032275380570885,114.707421446114779,849.415858288737013,15.2880000000000003,0,8.79146392426000922,0.109562521284290684,3.57234558978299278e-07,-0.0407150321763278603,0.0291711871454852431,0.00402071860603324133
1.02,31.2221597077490287,131.010459376056559,20.125702778411096,12.319741701385416,8.16859475754338149,23.7670804360352221,-2.67737017799436794,-0.502234604892821346,284.590631615404163,37.5211455685469844,13.9198442605514501,69.4626484676112312,0.989190999631009982,114.754573984282104,860.641841537646997,15.2880000000000003,0,8.81429008360980148,0.110286172299362772,3.69486555582424148e-07,-0.0419611075246345278,0.0300268102993808891,0.00417100208735933335
1.03,31.2221592673271893,131.010460748177081,20.4386370574794256,12.2409706804067753,8.09157795307247341,19.4979194209614839,-2.72171284837260119,-0.575692798132079187,247.30469339049705,37.7931292043248561,14.0239131529538952,69.4379784012104011,1.03452376477501118,114.802987835275815,873.138077886147698,15.2880000000000003,0,8.83699020348195496,0.111086008011278631,3.81883485766721325e-07,-0.0432273662723837854,0.0308932245500906609,0.00432788737018653929
1.04,31.2221588247591626,131.01046213008641,20.753848823609566,12.1714736240900763,8.02087126921361282,30.7530170107735792,-2.76433222892295527,-0.646878435253093853,345.465636880722968,38.0367564762575157,14.1176682497428736,69.4125547734115855,1.08103755770548449,114.852671114769137,884.404671058304871,15.2880000000000003,0,8.85956735814092866,0.111802503594237046,3.94423505147729339e-07,-0.04451385673185939,0.0317703788291333819,0.00448528323864813821
1.05,31.2221583797604438,131.01046352250944,21.0715423147764263,12.0947725320365667,7.94589758358009401,18.7177263052280516,-2.8091339540265623,-0.721555968321404673,240.456258798199826,38.3011770687766173,14.2188971545788441,69.3863645989673614,1.12873864051711514,114.903631193123658,896.716302200851601,15.2880000000000003,0,8.88203366875447031,0.1125801260352393,4.07092777852056107e-07,-0.0458220657790789146,0.0326591800521234335,0.00464905524312768208
1.06,31.2221579325609113,131.010464924847298,21.3915524023375951,12.012082291930998,7.86745760791548676,26.4869997697935275,-2.85595122140268609,-0.799497885672758812,308.179683655939243,38.5835255446405156,14.326597600051679,69.3593943474860737,1.177633571493369,114.955875785556174,909.957883176717019,15.2880000000000003,0,8.90437962927321003,0.113410453325199639,4.19898991139638716e-07,-0.0471511030657221775,0.0335589470348048036,0.00481901566908605767
1.07,31.2221574830426754,131.010466337395712,21.7139635746677229,11.9443038879895376,7.79886390392120799,31.1175276190266104,-2.89945712806749878,-0.872816120198072865,348.509368144030759,38.8187259944861296,14.4171477343309569,69.3316301694121506,1.22772879876403662,115.009412520256774,921.057157485206062,15.2880000000000003,0,8.92661776334356993,0.114102204693913661,4.3283266064456815e-07,-0.0485019258155846497,0.0344702265726554435,0.00498713798779056115
1.08,31.222157031099453,131.010467760413718,22.0388493168204675,11.8736755581542273,7.72877646310259525,21.0805771046935497,-2.94409781929612135,-0.948097479560585765,261.001578574662346,39.06141961015026,14.5103652165549857,69.3030583922491417,1.27902981262404269,115.064248032653509,932.580905421943839,15.2880000000000003,0,8.94874933794946514,0.114815989494613427,4.45888420808813302e-07,-0.0498751163717680371,0.035393311659523613,0.00516023542927445452
1.09,31.2221565769982021,131.010469193207086,22.3660179591080706,11.7878184128523014,7.64937394455888597,19.4225871796779437,-2.99326505316481262,-1.0304053467523222,246.543753324744074,39.351920000464446,14.6209443760026421,69.2736651650170501,1.33154173479021565,115.120388595033774,946.47398006011008,15.2880000000000003,0,8.97076140212445061,0.115670304854758335,4.59078104573563023e-07,-0.0512694637290665445,0.0363273123857868058,0.00534378067666123509
1.1,31.2221561208093661,131.010470635585904,22.6954184172232125,11.7102525010358232,7.57555776480868293,38.557130997157266,-3.04071722039972725,-1.11046559272234502,413.189061738584087,39.6152039326682583,14.7216299052988404,69.2434364602875689,1.38526930257464098,115.177840101021857,959.150763392824842,15.2880000000000003,0,8.99265807385499016,0.116444629609015124,4.72400611985575894e-07,-0.052684972650812005,0.0372721423096542478,0.00552788294050626794
1.11,31.2221556621243579,131.010472088573238,23.0273358492617888,11.6487937898029799,7.51220155868090256,28.3382657793374761,-3.08405986407513,-1.18468816732928062,324.159391037639693,39.8240501191458804,14.8024553057738402,69.2123579754578628,1.44021701794841839,115.236608226031635,969.259554132646713,15.2880000000000003,0,9.0144597514550302,0.117058948955081302,4.85833101831234277e-07,-0.0541239665940255049,0.0382292299822154444,0.00570862322499992008
1.12,31.2221552009946137,131.010473552016549,23.3617283084353282,11.5579752321091807,7.43070365889237205,10.9459280690681862,-3.1362259801826049,-1.27240759817178972,172.73281794065943,40.1291116410153137,14.9183105421664095,69.1804155749060641,1.49638841177319226,115.296697639671876,984.134328085351285,15.2880000000000003,0,9.0361569884030537,0.11795609294407873,4.99380545138379647e-07,-0.0555861390957986465,0.0391982759378098344,0.00590756410623785849
1.13,31.2221547380085127,131.010475024419179,23.6981831298996042,11.4834286387945941,7.35973428361458559,33.3274412391367676,-3.18416632249293396,-1.35412657546917781,367.532807790070478,40.3789218911404575,15.0140660447077217,69.1475940985157109,1.5537879617627266,115.358114058040812,996.393056832017123,15.2880000000000003,0,9.05772215879964904,0.118690839465310324,5.13068479805115738e-07,-0.0570688496911890067,0.0401774662382574851,0.00610270237420112906
1.14,31.2221542724879129,131.010476507468098,24.037167340935774,11.420212302483181,7.29613380054695515,18.6384205464683568,-3.22906316595052623,-1.43159018918851411,239.695317731955441,40.5880622161118367,15.094944946745299,69.1138793510589551,1.61241786797344733,115.420860796986645,1006.70852885173372,15.2880000000000003,0,9.07918683875927002,0.119306048297300737,5.26859007674163732e-07,-0.0585757931800045609,0.0411691032712837926,0.0062960867991442588
1.15,31.2221538049117378,131.010477999935404,24.3783417728641929,11.3276067936268898,7.21450821901201866,18.3749059613438064,-3.28337225688636947,-1.52352485038437635,237.412511535467729,40.8975885785898114,15.2125290914303015,69.0792570573981237,1.67227974550330272,115.484940579497973,1022.08798728973466,15.2880000000000003,0,9.10053288256355053,0.120216344362195304,5.40781237035554621e-07,-0.0601043040298401693,0.0421713623738918936,0.00650943437400895459
1.16,31.2221533354128873,131.010479501474805,24.721612324803683,11.267290992313109,7.1532607353270885,47.4250863089483801,-3.32801333253741083,-1.60123857635168498,490.043774384589426,41.0927534940787069,15.2883357738945769,69.043711946330049,1.73337606055097182,115.550357075803802,1031.83212812204488,15.2880000000000003,0,9.121769217460308,0.120790489448492439,5.54834197986283923e-07,-0.0616542277025397267,0.0431840492781582624,0.00670893776898793398
1.17,31.2221528630887626,131.010481014308539,25.0675905546104403,11.1916049909915891,7.0827511488631858,8.74581972453622214,-3.37785051032626882,-1.68710986304882549,153.709379294867944,41.339965711359703,15.3831495366381059,69.0072296417426259,1.7957071301704246,115.617111692896373,1044.24968158527417,15.2880000000000003,0,9.1429235379293452,0.121517634232504002,5.68969776051758398e-07,-0.0632303869513272804,0.0442101615673238316,0.00692161082530894697
1.18,31.2221523891006392,131.010482535520936,25.4154741862269908,11.0956377792385528,7.00001005012480704,23.273801826116383,-3.43485230206072112,-1.78416316069828751,280.025018221967457,41.6596565057953967,15.5046305772752167,68.9697950259020871,1.85927369118452357,115.685206321105653,1060.42750584240525,15.2880000000000003,0,9.16395050585686555,0.122457836844031359,5.83256692778704507e-07,-0.0648263314947517405,0.0452454608178927201,0.00715095167298498285
1.19,31.2221519129090233,131.010484066433293,25.7656273078952402,11.0445014188573971,6.94519568165143042,40.3494283652727006,-3.47720267478090106,-1.85938814939705765,428.407813052929214,41.8140399882427971,15.5654929550828811,68.9313925398874119,1.9240764054991677,115.754642810492342,1068.26565891364817,15.2880000000000003,0,9.18488657134341224,0.122912130107261583,5.97651928453635603e-07,-0.066445773814914566,0.0462922224163718893,0.00735650608907950296
1.2,31.2221514340352577,131.010485608189754,26.118362050891065,10.9574132499939836,6.86852715410052106,4.52818587371741899,-3.53210904685842575,-1.95398889368901907,117.184374136023607,42.0984752330266474,15.6741100386233096,68.8920078075183397,1.99011336047461174,115.825420290208314,1082.81191121820757,15.2880000000000003,0,9.20573412521258838,0.123748718486359946,6.12135955158850566e-07,-0.0680909510990325428,0.0473517608718755645,0.00758967460369315994
1.21,31.2221509536581578,131.010487157860723,26.4728759741811608,10.872288081166575,6.79336270988552027,32.4706625043010817,-3.58683180221135478,-2.04868843796403199,359.923432132008998,42.375030134157079,15.7799721774808699,68.8516249190651592,2.05738422906626051,115.89753962452528,1097.04777795343557,15.2880000000000003,0,9.22645889675383479,0.1245621516197324,6.26777561477628219e-07,-0.0697553809656702301,0.0484198573049870809,0.00782600885526293748
1.22,31.2221504708536592,131.010488717689753,26.8297826926631018,10.8176387461947314,6.73708692263640163,23.6204433609507305,-3.63087588848821952,-2.12749394076702503,283.068750482576149,42.5334258961998373,15.8423428549511538,68.8102287157536807,2.12588677138095594,115.970999668896397,1105.22663365912604,15.2880000000000003,0,9.24710210322667159,0.125028262368461207,6.41510778044567957e-07,-0.0714448266677820965,0.049500056383428713,0.00804523736713786027
1.23,31.222149985965455,131.010490286793527,27.1888387854583264,10.7296860952897521,6.6607346466879509,9.41788761296127497,-3.6873139780672699,-2.22555711890679753,159.796873822227951,42.8170040377930903,15.9509316869717548,68.7678047969201884,2.19561685919090532,116.045797290246909,1119.974629127664,15.2880000000000003,0,9.26760350842880776,0.125862358713426159,6.56366201246574551e-07,-0.0731568213187941963,0.0505906914714608497,0.00829265950698862379
1.24,31.2221494994901292,131.010491863934533,27.5497066873474239,10.6533010129360957,6.59168907226025791,39.2226942441883111,-3.73980296254156874,-2.31797888404369745,418.515630199805003,43.0543366715912299,16.0425948006500718,68.7243375947387989,2.26657135372573748,116.121930454827535,1132.38571702381728,15.2880000000000003,0,9.28798557482364373,0.12656052326964054,6.71369908034003866e-07,-0.0748886992436315069,0.051689986870955662,0.00853573386198139966
1.25,31.222149010553867,131.010493451202422,27.9129541310629001,10.5940842497178611,6.53328116911172518,19.1412366704276806,-3.78586220816732144,-2.4009298793791114,244.260946125734876,43.2209054298194957,16.1081183761280116,68.6798121872267444,2.33874539920678925,116.199395327435028,1141.12480149993962,15.2880000000000003,0,9.30828725403340052,0.127050681886008238,6.86458520535365902e-07,-0.07664589613168242,0.0528012395657548664,0.00876950920271923721
1.26,31.2221485197038824,131.010495047226129,28.2782058076522844,10.5005920076249986,6.45440399722735858,11.4169520502059871,-3.84557469170084776,-2.50519328326803281,177.298446336408631,43.5219269746457158,16.223530731442029,68.6342139897639782,2.41213290305621619,116.278186781843445,1157.03478794723628,15.2880000000000003,0,9.32848019755877189,0.127936081808546126,7.01677931142662457e-07,-0.0784246396105450494,0.0539219809628248628,0.00903520333185085095
1.27,31.2221480271162442,131.010496651553922,28.6453389587466489,10.4349276741071186,6.39255475627110492,37.7331817957679689,-3.89445009001276166,-2.59321869010532291,405.579686079964688,43.7086381536364357,16.2967050119370249,68.5875268171894277,2.486729337723248,116.358301411574075,1166.94239644225604,15.2880000000000003,0,9.34857405724920376,0.128485466184728253,7.17028411729806885e-07,-0.0802244498783510618,0.0550518088486643756,0.00928188084738790567
1.28,31.2221475320751658,131.010498265862623,29.0148052275650947,10.3628675718834025,6.32708203760979071,12.4579201988356978,-3.94602573243095334,-2.6857813403838442,186.429688124688823,43.9181388818562368,16.3783844814759547,68.539736203327962,2.5625269390030625,116.439732374860981,1178.11397923475442,15.2880000000000003,0,9.36858630687729388,0.129101850719000294,7.32463653026653108e-07,-0.0820493771994366267,0.0561931199175383297,0.00953818558694373604
1.29,31.2221470354184625,131.010499888100782,29.3860474158116141,10.2739047814603595,6.25172543302791173,20.2629057068284979,-4.00490233508842586,-2.79001264086638656,254.153128984572163,44.195690096713534,16.4855509406341625,68.490827013395716,2.63951816390345906,116.522473103674997,1193.00923196705526,15.2880000000000003,0,9.38846689648879895,0.129918285183581783,7.48045730721249349e-07,-0.0838940684209130288,0.0573424930608816275,0.00981391379177594045
