Time,Latitude,Longitude,Altitude,Angle of Attack,Angle of Sideslip,X-Acceleration,Y-Acceleration,Z-Acceleration,Thrust,True Velocity,Ground Velocity,Pitch,Roll,Yaw,Dynamic Pressure,cp,parachute_deploy_gain,Wind Speed,Mach,omega_x,omega_y,omega_z,Cmq,Angle of Attack(total),Angle of Attack(gust),True Velocity(gust),Acceleration
0.0,31.222186000000004,131.010384,3.000000003643237,0.0,0.0,0.0,0.0,0.0,2.2828121974499247,0.0,0.0,69.99999999623421,0.0,113.69999999388332,0.0,15.288,0.0,0.0,0.0,0.0,0.0,0.0,-0.0,0.0,90.0,0.0,0.0
0.01,31.22218600000153,131.01038399999584,2.99999882256592,0.0,0.0,0.0,0.0,0.0,34.24218696174923,7.502283530665459e-11,7.190531319924593e-11,69.99999999623329,-4.83564628150269e-13,113.69999999388072,3.446445726795683e-21,15.288,0.0,0.0,2.204725565824978e-13,-3.659182332138578e-19,7.589415207398531e-19,4.811147140404426e-19,-1.5108918610345807e-31,0.0,89.9999999995224,7.502283530665459e-11,0.0
0.02,31.22218600000288,131.01038399999217,2.999997775701936,0.0,0.0,0.0,0.0,0.0,25.871876237766408,1.5320717031631675e-10,1.4674636035870463e-10,69.99999999623222,-9.67129256300373e-13,113.69999999387804,1.4372842949972735e-20,15.288,0.0,0.0,4.5023593667086093e-13,-7.284483346386986e-19,1.5178830414797062e-18,9.757819552369542e-19,-6.170906918166791e-31,0.0,89.99999999902465,1.5320717031631675e-10,0.0
0.03,31.22218599928065,131.01038400193067,3.000201659671132,18.81500467334555,-0.00012974450181,11.96616230539064,-1.8916256735984712e-05,3.349833086198469,180.34219359854663,0.0882870268161719,0.0553390044312322,69.99999999799445,-4.212591857125379e-12,113.69999999488518,0.0047728553458352,15.288,0.0,0.0,0.0002594525584132,3.2187251995663407e-17,-7.20264389268894e-10,1.2365134327422308e-11,1.6874092354518158e-13,18.815004673776716,89.46786891739345,0.0882666465974854,12.426199017587786
0.04,31.22218599548236,131.0103840121632,3.001799604587872,9.46752327608497,-4.6177622759613696e-05,55.21900012092241,3.931876292165237e-06,3.349616504302861,548.6359724538078,0.3767519978512604,0.1853356633749705,70.00000000507204,-2.4624598767003407e-11,113.70000000019972,0.086915163246288,15.288,0.0,0.0,0.0011071759353184,1.6174128009138757e-15,-1.3693172015529268e-08,2.7753303060112748e-11,1.3689612277852356e-11,9.467523276196548,87.63554493451223,0.3767447442872393,55.32050167054111
0.05,31.222185984749512,131.01038404118162,3.00777936418888,5.376730308971262,-2.257790939128127e-06,80.28807156553681,5.266841443842784e-05,3.348887800834877,761.6984298824644,1.018787885905993,0.4366201147110198,70.00000000894464,-1.1355399380652658e-10,113.70000001523856,0.635552918586145,15.288,0.0,0.0,0.0029939522895272,1.6418815498809788e-14,-9.32122351075408e-08,4.303264669380585e-11,2.5199270302492604e-10,5.3767303089717045,83.57022052969386,1.0187875312530217,80.35788377762394
0.06,31.22218596447235,131.01038409608267,3.0201664202003013,4.296730121134882,2.4863835723705905e-05,60.21296515808257,0.0001057204249726,3.347700952379021,590.4875390737208,1.721098934225416,0.7081674028809783,69.99999995523842,-3.0560354507026086e-10,113.70000004366592,1.8138247671743823,15.288,0.0,0.0,0.0050578622752421,8.328976953118383e-14,-3.2824985336199985e-07,5.923438275930214e-11,1.4991363363716091e-09,4.296730121206683,79.20467073327266,1.7211028398275985,60.305955550063224
0.07,31.22218593493329,131.01038417609837,3.038741944736831,3.8204913578752526,4.8016684030909405e-05,91.4060317508128,0.0001597686613101,3.346072557365335,855.2937749779139,2.4375792548422868,0.9844712334613328,69.99999973536046,-5.939103491363046e-10,113.7000000850886,3.6383156301599167,15.288,0.0,0.0,0.007163413150771,2.709313825263564e-13,-7.906546256197275e-07,7.920022733617308e-11,5.114174483651565e-09,3.820491358176508,74.87999294483174,2.437586797285377,91.46725557277466
0.08,31.222185894468456,131.01038428575305,3.0647976109320942,3.588632851766762,7.220043782492885e-05,19.18449428359557,0.0002119618497595,3.3440615022685813,241.2171988638848,3.1292508166901074,1.2522236515868983,69.99999919480445,-9.914748373602156e-10,113.7000001418522,5.996012698481753,15.288,0.0,0.0,0.0091960591623389,6.80386533246681e-13,-1.5973238302190878e-06,1.0839624626357699e-10,1.3263625118823921e-08,3.58863285249208,70.86684630658345,3.1292621579083604,19.473766155861934
0.09,31.22218584634549,131.01038441616095,3.0957981580345013,3.551302481506045,9.685468678862004e-05,57.102946699906326,0.0002554087225869,3.341892818148368,563.0937377043176,3.701810007254615,1.479132491047967,69.99999812344194,-1.4359264356978275e-09,113.7000002093888,8.390904013834115,15.288,0.0,0.0,0.010878666406854,1.440096519545733e-12,-2.748643691533636e-06,1.5214952332699618e-10,2.6999776649034504e-08,3.5513024828250237,67.68737872952666,3.701825221153239,57.20065357568538
0.1,31.222185790329306,131.01038456796124,3.1319266121977414,3.608446747536112,0.0001234669721807,54.26147302645416,0.0002914860332524,3.3396271157106168,538.7437595981919,4.174070299823608,1.6716491241860567,69.9999963052332,-1.902380107712657e-09,113.70000028805804,10.668380938744466,15.288,0.0,0.0,0.0122665227999911,2.687800116751415e-12,-4.315796035622946e-06,2.1749089204950437e-10,4.7802076800548326e-08,3.608446749645647,65.17160335282355,4.174089693970246,54.36414778470795
0.11,31.222185727066616,131.0103847393952,3.172681775073216,3.633547373470009,0.0001485939126744,42.987553988990406,0.0003293995000288,3.337005588796181,442.8656393052949,4.672024955140527,1.8729475711242067,69.99999349387662,-2.3433348587116544e-09,113.70000037699285,13.365573690709628,15.288,0.0,0.0,0.0137298902182575,4.5789425819531184e-12,-6.340230783164189e-06,3.1157625832417107e-10,7.860218435507205e-08,3.6335473765043056,62.62546922225161,4.672048296217748,43.116880735560244
0.12,31.22218565692512,131.0103849294629,3.2177790417108385,3.650108937861461,0.0001727442530266,46.86777100765684,0.000367618259785,3.334068179146888,475.58594813540446,5.17479364099247,2.0758708919414386,69.99998941286465,-2.702771525550512e-09,113.70000047573096,16.396890189902592,15.288,0.0,0.0,0.0152074069417046,7.288473386564583e-12,-8.86736416607888e-06,4.42271554299792e-10,1.217615295152289e-07,3.6501089419435786,60.16906436414164,5.174820775596283,46.986210423745625
0.13,31.222185580265183,131.0103851371844,3.2669395832841857,3.7280113734654137,0.0001995014041665,51.64515456841877,0.0003986198234033,3.3311573548369657,515.9156326236895,5.579364582999854,2.2451120211463422,69.99998375846928,-2.9114380666036422e-09,113.70000058383452,19.060875702782603,15.288,0.0,0.0,0.0163963474924215,1.100846422415094e-11,-1.1941028436408576e-05,6.179653149059831e-10,1.7678562106638216e-07,3.728011378795934,58.279338776943774,5.579395920607139,51.75247433579817
0.14,31.22218549718016,131.01038536230575,3.320091807147376,3.768719651034081,0.0002242721760019,48.1660778383537,0.0004326225136175,3.32784677779744,486.2390860568404,6.025734265159953,2.428648685938864,69.99997621008868,-2.890941335368725e-09,113.70000070125378,22.232643351545065,15.288,0.0,0.0,0.0177081261985351,1.5941871344608664e-11,-1.560901486259027e-05,8.477542742712431e-10,2.495765160917323e-07,3.7687196576976176,56.27980129251342,6.025769493750979,48.280903250602165
0.15,31.22218540777004,131.01038560455507,3.377159065217065,3.821894709649632,0.000249725644238,46.56959330999435,0.0004643042952466,3.324387732286376,472.54218587214,6.441023336496372,2.6014999612196745,69.99996641132823,-2.546763407193136e-09,113.70000082794672,25.402620271850456,15.288,0.0,0.0,0.0189285691155931,2.2314099732464315e-11,-1.992367942778425e-05,1.1417519574710292e-09,3.4051816697623295e-07,3.821894717796148,54.501255563441134,6.441062563308839,46.68809885900716
0.16,31.22218531193176,131.01038586421257,3.4382223512025254,3.8463320955387794,0.0002733212404609,36.974247749122085,0.0004987816203583,3.3205066466509234,391.1218908297564,6.895451966878468,2.7877331692857847,69.99995397923414,-1.77088415515292e-09,113.70000096417354,29.113317717489338,15.288,0.0,0.0,0.0202640360420561,3.0367358387834494e-11,-2.4945905791363795e-05,1.5114297685186711e-09,4.5643121540033697e-07,3.846332105235269,52.641145594326446,6.895494900078523,37.12304892183151
0.17,31.222185210004127,131.010386140357,3.503019838429153,3.8860314262554336,0.000297865039677,46.520531453299206,0.0005306403365217,3.31650761597812,471.78125980632376,7.314788342774694,2.9619016331667103,69.99993849340957,-4.3039914767238207e-10,113.70000110959404,32.761746921137856,15.288,0.0,0.0,0.0214963781445172,4.0366633128431416e-11,-3.0713078585132897e-05,1.96747427715988e-09,5.961228045584824e-07,3.886031437653654,51.00464968745696,7.314835131305714,46.63860064094784
0.18,31.22218510147516,131.01038643438045,3.571950002194137,3.9107265153396016,0.0003214293682635,38.895647526122765,0.0005639254295027,3.312149448254175,407.10156721191447,7.754626295791602,3.1430587898572058,69.9999195084231,1.6149322372810674e-09,113.70000126508234,36.81988229018681,15.288,0.0,0.0,0.0227889722876034,5.2593391349219385e-11,-3.731786027786564e-05,2.525509173087448e-09,7.6786585232224e-07,3.9107265285284982,49.36615848311875,7.754676785798701,39.036415444581515
0.19,31.222184986476247,131.0103867459258,3.644912152926752,3.920599115663931,0.0003437679584038,43.86258669386953,0.0005989384366483,3.307389681300437,448.9531328318269,8.219206165926856,3.332657190859447,69.99989653019398,4.538529095696477e-09,113.70000143063515,41.36350714675367,15.288,0.0,0.0,0.02415428010977,6.735860419174937e-11,-4.481243905342629e-05,3.199401151670645e-09,9.773118416308382e-07,3.92059913071168,47.71893898797248,8.21926016487149,43.987104227715655
0.2,31.222184864792144,131.01038707557822,3.722074668489528,3.943376465171875,0.000367328732016,40.28070981710589,0.0006315894240138,3.30251450988504,418.51563019916136,8.65238089736321,3.511445117640573,69.99986902534273,8.534090245934178e-09,113.7000016067622,45.83799876721736,15.288,0.0,0.0,0.025427299120469,8.499785987217288e-11,-5.328041996372527e-05,4.006766070954748e-09,1.2232205148646746e-06,3.9433764822533854,46.2587826635041,8.652438597225508,40.41586552155969
0.21,31.22218473678744,131.01038742234647,3.803156063113743,3.9664546506877016,0.000390962054969,38.67679184347145,0.0006636984664108,3.297405915846789,404.8187610144644,9.079179692250786,3.688002035198235,69.99983642883521,1.3827831253856693e-08,113.70000179318536,50.47126980736161,15.288,0.0,0.0,0.0266815841422463,1.0586558589671407e-10,-6.275155280099118e-05,4.961340042512481e-09,1.5117124669161171e-06,3.9664546699249135,44.88773728276958,9.079241104426773,38.817098210937615
0.22,31.2221846022986,131.01038778667507,3.8882846911135607,3.956175711337521,0.0004112685792646,46.713636108302936,0.0007011135033803,3.291572407481395,472.5421858721365,9.580256326712124,3.889976788904857,69.99979815126248,2.0662823443484168e-08,113.70000199039316,56.195522894218605,15.288,0.0,0.0,0.0281541581291438,1.3033127211465288e-10,-7.330053770532661e-05,6.0817207473359025e-09,1.8632831045819008e-06,3.956175732680424,43.35679625546934,9.580320928629488,46.8294591882524
0.23,31.222184460898035,131.01038816972698,3.977794004014759,3.9879066397329104,0.0004360962274406,38.89105719050748,0.0007308686121188,3.286096544282012,406.3406421461021,9.977039034039262,4.056142701351626,69.99975353557706,2.9316661139418326e-08,113.70000219928508,60.9462612310605,15.288,0.0,0.0,0.0293202403623685,1.5880617816859538e-10,-8.505067486192354e-05,7.393319440773217e-09,2.2514912291167663e-06,3.987906663538912,42.20670487756048,9.97710753587448,39.0296395118868
0.24,31.222184313516166,131.01038856897196,4.070963590490852,4.003523997322975,0.000459165577055,40.0792299321398,0.0007630441688766,3.280134925833028,416.2328240017114,10.408422364424831,4.234121060914368,69.99970190737699,4.010976417051318e-08,113.70000241888,66.32994780718496,15.288,0.0,0.0,0.030588009649109,1.91711512587616e-10,-9.795845222523724e-05,8.904557280909524e-09,2.7052895870113487e-06,4.003524023611085,41.011349410369874,10.408494489985014,40.21323112692186
0.25,31.22218416001652,131.01038898478134,4.167901030441617,4.0261356185860135,0.0004830526730531,41.17760020658354,0.0007934613160587,3.2740610008587527,425.36408079150686,10.816813039390448,4.4041629376391525,69.99964258149416,5.3372865854010094e-08,113.70000264972064,71.63651430352668,15.288,0.0,0.0,0.0317882126436337,2.2947426169209347e-10,-0.0001121037688082,1.0637152702866709e-08,3.217380562698304e-06,4.026135647516394,39.93186687113378,10.816888917126896,41.30755663120434
0.26,31.222184000702686,131.0103894163294,4.26837241014618,4.053359329950934,0.000507503069958,44.80261175215926,0.0008224724146494,3.2678597736729302,455.8015834241788,11.207047269494833,4.567925492611352,69.99957484039399,6.947299261165984e-08,113.70000289176392,76.89781807056055,15.288,0.0,0.0,0.0329350617559806,2.7254099134167665e-10,-0.0001275114371842,1.260720913253598e-08,3.7915697709142366e-06,4.053359361668992,38.945390435244384,11.207126987890645,44.921630958721536
0.27,31.22218383516388,131.01038986473338,4.372698316214008,4.0614460923241,0.0005296455772492,41.029837477288126,0.0008548809954683,3.2610328932384265,423.84219965987256,11.645685385842508,4.748226940060522,69.99949794024376,8.879821051920497e-08,113.70000314600205,83.0342688744587,15.288,0.0,0.0,0.0342241635563461,3.2137296827284217e-10,-0.0001442952656441,1.4842505534226832e-08,4.458527942364847e-06,4.061446126801262,37.8838346421185,11.645768582375233,41.15922617924542
0.28,31.222183663504484,131.01039032970942,4.48079961904222,4.081133040992532,0.0005533279247169,47.27661484082626,0.0008845140695959,3.254218495915602,476.3468732012221,12.047344998676092,4.915789434712848,69.99941106884992,1.1178948978424788e-07,113.70000341275257,88.85982357848233,15.288,0.0,0.0,0.0354045979054623,3.764736350660473e-10,-0.0001625146963723,1.7365685655384934e-08,5.194620655212288e-06,4.081133078439725,36.956255322213885,12.047431915223257,47.38848224631549
0.29,31.22218348566054,131.0103908114315,4.592727908358551,4.1001100265020245,0.0005770279952742,37.989969791857405,0.0009138463939581,3.247164755122801,397.97031042211177,12.446314684600782,5.082367374004485,69.99931338876085,1.3891902435864665e-07,113.70000369260468,94.8417675268915,15.288,0.0,0.0,0.0365771315767517,4.3836067907166327e-10,-0.0001822432988888,2.0202163500922312e-08,6.018074062137429e-06,4.100110067036654,36.07377590258778,12.446405323946324,38.12849176886316
0.3,31.222183301933686,131.01039130907952,4.708251093558373,4.112858061667493,0.0005998635114143,35.655053282557844,0.000944131403186,3.2397207148238625,378.1859457108711,12.860033399289696,5.253940723820665,69.99920403105713,1.707002607527005e-07,113.7000039856728,101.2505662360602,15.288,0.0,0.0,0.03779301412572,5.075709863465428e-10,-0.0002035013069687,2.3370674033523645e-08,6.94335970778e-06,4.112858105337573,35.19685285507256,12.860127625629724,35.80193592228613
0.31,31.222183112488807,131.0103918222051,4.827243246502713,4.136140889545823,0.0006242383343011,37.56633644061071,0.0009716215464757,3.232339252743767,394.1656220930212,13.2364445751808,5.4126574282679245,69.99908210036875,2.0768081583188525e-07,113.7000042923011,107.26326115439352,15.288,0.0,0.0,0.0388992619788015,5.846561731689753e-10,-0.0002263323252403,2.6893437641668458e-08,7.948283231812338e-06,4.1361409365698805,34.43286455705216,13.236542630309057,37.70514091683033
0.32,31.22218291741533,131.01039235056504,4.949637017503345,4.1622282001352975,0.0006491019906456,40.83513712643371,0.0009979686925508,3.224840963348891,421.55939346242695,13.59846554462374,5.566374262777002,69.99894668612772,2.504388718903276e-07,113.70000461297312,113.2095365840355,15.288,0.0,0.0,0.0399632243410653,6.701756367872645e-10,-0.00025078340164,3.0793566854276295e-08,9.047716714467492e-06,4.16222825066026,33.72644865222576,13.598567505326,40.96227562489027
0.33,31.222182716732533,131.01039289410716,5.075419569102976,4.187801887681037,0.0006739743721461,40.48743503284469,0.0010239291638211,3.217136801802925,418.5156301991682,13.956637761217308,5.718704299733134,69.99879684673242,2.995902922462564e-07,113.70000494831164,119.25032483364384,15.288,0.0,0.0,0.0410158804634189,7.647061680070125e-10,-0.0002769136723495,3.509664608790402e-08,1.0253455741189656e-05,4.187801941818244,33.053267359159875,13.956743628864118,40.61505097607
0.34,31.222182510255863,131.01039345333336,5.204736257784645,4.19642921746386,0.0006961879027693,31.814592723444047,0.0010535137542081,3.208669900766693,345.46563688075645,14.367047160772364,5.88887983533068,69.99863160305904,3.557915789971256e-07,113.70000529927128,126.36523219087664,15.288,0.0,0.0,0.042222056531773,8.688448410811866e-10,-0.0003048202762282,3.9835373705550826e-08,1.1618525957862828e-05,4.196429275109305,32.30947868183619,14.367156517712404,31.97598901989736
0.35,31.222182298183583,131.0103940277045,5.337435501771672,4.210915783240843,0.0007193441544952,34.813487415034444,0.0010813034848195,3.200164272309822,370.5765700527033,14.754132934586384,6.050986755458457,69.99844991734221,4.1975736284587617e-07,113.70000566632532,133.26448209504355,15.288,0.0,0.0,0.0433596939127697,9.832256819293898e-10,-0.0003345386312107,4.503361101379695e-08,1.309465610343774e-05,4.210915844572415,31.63649055965014,14.75424592890194,34.96026256388454
0.36,31.222182080444604,131.0103946174141,5.4735747500461605,4.22903876037745,0.0007431682866607,39.2632255716727,0.0011077666085529,3.1915717453569297,407.8625232777193,15.124417129017054,6.2072589919251575,69.99825073022951,4.922382611919288e-07,113.70000605036684,140.03566173682628,15.288,0.0,0.0,0.0444479595865755,1.1084921261805627e-09,-0.0003661511460057,5.0723697896912267e-08,1.4691545926915382e-05,4.229038825557203,31.017264542603208,15.124533865618538,39.39272792946638
0.37,31.22218185710795,131.01039522227452,5.613102797925907,4.249164960780052,0.0007674149135003,37.28328237034959,0.001133274451316,3.1828514669894137,391.1218908297666,15.483077353331511,6.359470679857624,69.99803294268581,5.740349991123437e-07,113.70000645214331,146.75405277514704,15.288,0.0,0.0,0.0455020695186381,1.245311285088233e-09,-0.0003997125883071,5.6934243389647934e-08,1.641828325195534e-05,4.2491650299519,30.439178816713017,15.483197898584232,37.418894813348615
0.38,31.2221816281124,131.0103958424523,5.756069531572451,4.260095806433531,0.0007900626414612,38.9278000801764,0.0011607546399008,3.1735466295306622,404.8187610144602,15.87126705947922,6.521735074464384,69.99779542676283,6.659911329739736e-07,113.70000687263192,154.20298254405043,15.288,0.0,0.0,0.0466429667223463,1.3943646956867835e-09,-0.0004353006984059,6.369875435270817e-08,1.8328108041903096e-05,4.260095879559656,29.83470194713067,15.87139116222873,39.05694584372078
0.39,31.22218139339905,131.0103964781077,5.9025231349944285,4.274091258047817,0.0008133283308351,33.320076729592266,0.0011870382950339,3.164143363712209,357.64062493382744,16.24457853509073,6.678818328235205,69.9975369905506,7.690136753559805e-07,113.70000731287368,161.54010621938565,15.288,0.0,0.0,0.0477401448128051,1.5563705124515804e-09,-0.0004730068442167,7.105463478762673e-08,2.0383860516746246e-05,4.274091335289374,29.274934656826048,16.244706292406182,33.46997636540994
0.4,31.22218115316572,131.01039712870306,6.0523126585892895,4.286421841403391,0.0008363022448449,31.88018820767003,0.0012133780841982,3.1544430614236454,345.465636880754,16.62063299903514,6.836764518435374,69.99725641601981,8.840594270905819e-07,113.70000777359816,169.10340080049767,15.288,0.0,0.0,0.0488453895716005,1.7320643186450851e-09,-0.0005128553637434,7.9027539265021e-08,2.2612406375611563e-05,4.286421922834417,28.730746964325096,16.620764365084565,32.03586915718869
0.41,31.22218090752676,131.01039779392735,6.205351877049411,4.30025870409831,0.0008595777771371,35.882550741685804,0.0012389121673015,3.1445895889870297,378.94687077668647,16.987310563534386,6.99141560549392,69.9969524610574,1.0121301778427253e-06,113.70000825570062,176.64448930727934,15.288,0.0,0.0,0.0499230826371405,1.922193031274436e-09,-0.0005548883906878,8.764667734700782e-08,2.5005077415911235e-05,4.300258789847355,28.21875643368965,16.987445585695873,36.020076248499606
0.42,31.222180656535848,131.0103984736348,6.36160173428776,4.322008670726048,0.0008844838439129,40.34064925656127,0.001261804338223,3.134918999355981,416.2328240017114,17.318628721060172,7.133856886815013,69.99662385300175,1.154276942054023e-06,113.70000876021427,183.59942989625057,15.288,0.0,0.0,0.0508968652507098,2.1275184665783874e-09,-0.0005991661829955,9.694534598491077e-08,2.752657757470936e-05,4.322008761057615,27.772396468009568,17.318767655457478,40.462275036947325
0.43,31.222180400205527,131.0103991677914,6.521055075967404,4.339436441324956,0.0009085827200945,35.541853595187746,0.0012854696362701,3.124839917627212,375.9031395134336,17.662848429084132,7.280642039343927,69.99626930133451,1.3115939750280808e-06,113.70000928827632,190.96736675963504,15.288,0.0,0.0,0.0519085689713619,2.3488101247838237e-09,-0.0006457514522491,1.0695800287133593e-07,3.0255957891170616e-05,4.339436536261635,27.322335771349252,17.662991148924057,35.67895714766603
0.44,31.22218013836212,131.0103998768696,6.683849332059896,4.342209064313268,0.0009296474314902,32.82948243168077,0.0013129688908547,3.113754688841357,353.0750125389216,18.063580761318697,7.446730341918701,69.99588746395321,1.4852372182848018e-06,113.7000098413532,199.7278270846888,15.288,0.0,0.0,0.0530863610987301,2.586862292117705e-09,-0.0006947575786514,1.1773083546077225e-07,3.329010177793299e-05,4.342209163639375,26.81344244367223,18.06372678999575,32.9768158972058
0.45,31.22217987077456,131.0104006014978,6.850166573233225,4.3420317510315165,0.0009500780330031,38.11022602597878,0.001341042003417,3.1022288449712887,397.2093853562869,18.47486275310604,7.616350301328129,69.99547690348253,1.6764536248320808e-06,113.70001042108892,208.92306716049887,15.288,0.0,0.0,0.0542951637545535,2.842521175226318e-09,-0.0007463379956615,1.2932090054593452e-07,3.657529369088674e-05,4.342031854775571,26.30944884471334,18.47501199101448,38.23628058998621
0.46,31.22217959739673,131.01040134180155,7.020045503401754,4.351169003849846,0.0009725797783515,44.3937050866137,0.0013660055515545,3.09098240974522,449.7140588976434,18.844323061800488,7.771531995684422,69.99503610583268,1.8865779683531e-06,113.70001102895836,217.3591612614144,15.288,0.0,0.0,0.0553810645782081,3.1166808800591503e-09,-0.000800596194505,1.417768495237597e-07,4.001824400409673e-05,4.351169112337076,25.873596578896564,18.844475834274814,44.50118229261506
0.47,31.22217931813738,131.01040209802923,7.193559875579052,4.358630093683735,0.0009947969928181,30.22514089990685,0.0013910994973101,3.079396422776949,331.0078106302534,19.2180591098146,7.9280875671397615,69.99456352718363,2.1170044481277104e-06,113.70001166656292,226.0625808853568,15.288,0.0,0.0,0.0564795377574197,3.4102493884459798e-09,-0.0008576351980594,1.551487523304888e-07,4.3718862242359527e-05,4.35863020698899,25.44665981168229,19.218215372160817,30.381603425148434
0.48,31.22217903348153,131.01040286886197,7.370336324605091,4.365514409145237,0.001016880998596,29.779838936311712,0.001416009414045,3.067527859335786,327.2031223011574,19.5915905767454,8.084483592791102,69.99405758812365,2.369198154608765e-06,113.70001233476164,234.93171707892955,15.288,0.0,0.0,0.057577416115756,3.7241711041759195e-09,-0.0009173883913609,1.6944871263079066e-07,4.767297940601472e-05,4.365514527349481,25.03354780044292,19.59175030803913,29.937410312943754
0.49,31.22217874361868,131.01040365378466,7.5502307795521535,4.3786401372577615,0.0010404145545081,37.2489281064929,0.0014385799934191,3.0558405437943126,389.60000969812296,19.93403005898306,8.23012235628909,69.99351671352461,2.644660619562788e-06,113.700013034871,243.21198709852868,15.288,0.0,0.0,0.0585839249886784,4.059374595909599e-09,-0.0009798792959512,1.8470833984680338e-07,5.180951737438081e-05,4.378640260624215,24.667474291142685,19.934193486919103,37.37406598941686
0.5,31.22217844858332,131.0104044527036,7.733219389747018,4.393213319215418,26.321251037060648,39.144588111567536,-1.9033038597958327,3.0452686741713726,397.97031042210494,22.593792814606857,8.365996061088087,69.99293932307316,2.9449363413826395e-06,113.70001376847225,312.4391240332197,15.288,0.0,10.020627911594472,0.0664008126741718,4.416566661548473e-09,-0.0010631047813644,4.472187932587112e-05,6.370880206164854e-05,26.65953585897363,46.1671934049177,26.58442582359287,39.30896850980547
0.51,31.222178149448563,131.01040526604177,7.9192986897834015,4.4040355290178566,25.978055470644986,30.237095196675167,-1.9481970849986403,3.0327988203935594,323.3984349720841,22.91795805255421,8.514787709728454,69.99231361571114,0.0003934793151026,113.70042980707264,321.46315908439465,15.288,0.0,10.06040300837027,0.0673536420562855,4.943423600331443e-09,-0.0011309452304828,0.0004989269788274,6.874545004936311e-05,26.32312181937707,45.6234434072738,26.86019990657576,30.451194828771072
0.52,31.22217784669062,131.01040609429168,8.108504246973661,4.41124264914589,25.633758864387904,36.07689045332742,-1.994465424978032,3.019973165515181,372.0984511843415,23.250651237747583,8.666199727938022,69.9916482891137,0.0015064831846838,113.70161472924444,330.85806180894247,15.288,0.0,10.10005426372382,0.0683315407060817,5.755074622273911e-09,-0.001201749678097,0.0009642889786434,7.410844693318622e-05,25.985230152599463,45.07655153617834,27.14420456626662,36.25796678018848
0.53,31.222177540210776,131.01040693785046,8.300948807233343,4.4186151748617135,25.30169483572164,37.82084585443277,-2.0409767066293,3.0069225938115207,386.5562464348624,23.580616647984336,8.816291589756604,69.99094158707739,0.0033599306537715,113.7035876704994,340.309261491954,15.288,0.0,10.1395867866868,0.0693014293642852,6.8582286351040085e-09,-0.0012756526360036,0.0014413115101321,7.978075453018074e-05,25.659569345646887,44.54684151733812,27.427078105415056,37.99504639485181
0.54,31.22217722994288,131.01040779699375,8.496709786726734,4.425794497620805,24.97956714365968,33.368952009567884,-2.087896304404225,2.993618214905631,349.2703242098436,23.90932794625593,8.965635467062866,69.99019168234605,0.0059722574817869,113.70636825848264,349.8565643115804,15.288,0.0,10.179028603818756,0.0702676391263579,8.259746631315547e-09,-0.0013527740023661,0.0019303786582081,8.578177024317703e-05,25.34381384619186,44.03105529128891,27.709983187724607,33.567961201291396
0.55,31.22217691619376,131.0104086709813,8.69557492892614,4.434013249925907,24.67280533855596,35.295042178227334,-2.134657567011733,2.9801643329618623,365.2500005919907,24.23124483009952,9.112159550904057,69.98939669591387,0.00936200136229,113.70997622975337,359.33411211908697,15.288,0.0,10.218332948761192,0.071213887355016,9.966525667137886e-09,-0.001433088720041,0.0024310117043588,9.209645155807856e-05,25.04349793512801,43.53777425220972,27.988167171535835,35.48490023577219
0.56,31.22217659899524,131.01040955981784,8.897544574735324,4.44414953341786,24.384999853857472,33.02731917902257,-2.1808039656643614,2.9666507345679847,346.2265619465787,24.542060853570312,9.254268031316192,69.98855472268599,0.0135473931887905,113.71443099578272,368.60449817779806,15.288,0.0,10.25749853192026,0.0721275176516161,1.198529035574352e-08,-0.0015166809227996,0.0029433820097186,9.871676712257646e-05,24.76229137846436,43.07284215193447,28.25785482587186,33.23192342718974
0.57,31.222176278449176,131.01041046331562,9.102564303706508,4.452035997194455,24.09540789261168,32.67359612865736,-2.2282741804045547,2.9527094088016304,343.1828296833023,24.86067408088728,9.399104091407471,69.98766381229298,0.0185466460799512,113.71975195013124,378.2298703275258,15.288,0.0,10.296507673904376,0.0730640701521702,1.4322736326223208e-08,-0.0016035985687987,0.0034674481863002,0.0001057269445974,24.47910055677243,42.60460402420112,28.534989760996872,32.88232933741916
0.58,31.22217595456413,131.01041138153985,9.310651879327462,4.454961917742682,23.79110489123052,42.63095500983365,-2.278479530352739,2.9380586028182627,426.1250058573153,25.20031596217669,9.551617652652954,69.98672195748287,0.0243781252410562,113.72595864953723,388.62731130295447,15.288,0.0,10.335359815451376,0.0740624316782323,1.6985579355762625e-08,-0.0016939298165829,0.0040033970291996,0.0001132061035079,24.18075552302713,42.11296707950852,28.830945166955896,42.792779558872915
0.59,31.22217562697504,131.01041231557508,9.5221157847962,4.463079646588692,23.52010165956504,34.79484559533591,-2.326477623743379,2.9236577338526684,360.68438819711065,25.513266088697065,9.693894998086392,69.98572699084352,0.0310613528889151,113.7330718867412,398.331493266806,15.288,0.0,10.37409655970118,0.0749823548702888,1.998089762223577e-08,-0.0017879459348084,0.0045524214536961,0.0001209706644238,23.916148846298267,41.6724194582754,29.104903161499237,34.99487894938003
0.6,31.22217529592151,131.0104132648617,9.736795575187788,4.46284926306726,23.218364051292703,31.06272087915575,-2.379047718322093,2.9081715166501847,329.4859594986058,25.864343262533588,9.850220887762932,69.98467678683768,0.0386160678799989,113.7411126771104,409.3610194426309,15.288,0.0,10.41269408058158,0.0760143391741224,2.3315912621650576e-08,-0.0018856380067247,0.0051141387138059,0.0001293333274834,23.62004790224138,41.18343685463875,29.412471621436367,31.289134823971207
0.61,31.222174961387008,131.01041422953642,9.954729496165584,4.461065469267091,22.9179194876811,36.18808439292123,-2.432927132126613,2.8922299837353607,372.0984511843297,26.221819672397807,10.008683699597668,69.98356902599419,0.0470624804676094,113.75010254803551,420.7461386243036,15.288,0.0,10.451159046367662,0.0770651384675399,2.6997962452191013e-08,-0.0019871207027929,0.0056888493956815,0.0001381747408036,23.325069587382053,40.69571766138171,29.726527992620465,36.38490869492797
0.62,31.222174623515286,131.0104152093016,10.175831913316411,4.471251509206294,22.680175776367545,44.69657048508665,-2.480889325792809,2.877298227941132,442.86563930529206,26.517713169377743,10.143991199187932,69.9824013026595,0.0564212341076168,113.76006348938192,430.2861852739648,15.288,0.0,10.489498619617065,0.07793495494255,3.1034551736140114e-08,-0.0020924535353446,0.0062765504152677,0.0001471377989336,23.093868820392217,40.30610605624341,29.987994575670967,44.8577425877369
0.63,31.222174282155365,131.01041620465267,10.400243618464357,4.477267113574765,22.430347325386776,25.88188449783844,-2.531343109538001,2.8616830659227728,286.11251274707894,26.83184966439937,10.285922681066216,69.98117131887986,0.066712193863641,113.77101665612236,440.5316651075327,15.288,0.0,10.527661596471656,0.078858394590803,3.543276457412101e-08,-0.0022017978575433,0.0068777669950502,0.0001566574530469,22.850192664523565,39.897441481633145,30.26588983195687,26.162356030515376
0.64,31.22217393790872,131.01041721404363,10.627523173541055,4.4768207012219055,22.158515799354287,25.43222950403072,-2.5857370267148747,2.845070896750617,282.30782441796754,27.177115246463465,10.439218274473644,69.97987655520775,0.0779554271606325,113.7829834308648,451.9320487601824,15.288,0.0,10.565674423080653,0.0798733296404681,4.019999263308685e-08,-0.0023149508011924,0.0074911250444626,0.0001668240452054,22.58388894271833,39.45364633780182,30.571648165234365,25.721173416556102
0.65,31.222173590784497,131.01041823753204,10.857686676588523,4.485195482658683,21.93258639063068,44.005465907012606,-2.635559428708483,2.829222036853112,436.7781447787475,27.4744005480912,10.574562518578317,69.97851458157908,0.0901704907637798,113.79598464684432,461.8631154072141,15.288,0.0,10.603456389498776,0.0807472584911747,4.5343188125941714e-08,-0.0024320261793731,0.0081169206335102,0.0001771741666472,22.36431535719085,39.08266476155452,30.836039324814088,44.17501217350504
0.66,31.222173240314287,131.01041927646682,11.091118638582984,4.4909833053076165,21.70142457598243,37.61412195559031,-2.687142278189588,2.8128281913657145,383.51251517160017,27.78253032464452,10.713763581634511,69.97708286095515,0.1033771296396054,113.81004134300764,472.27035877868633,15.288,0.0,10.641103857276768,0.0816530668844976,5.086914383846796e-08,-0.0025533680387559,0.0087565938371566,0.0001880959339338,22.139253472689084,38.70339571622267,31.11045905281528,37.81474456541253
0.67,31.222172886707813,131.010420330364,11.327680738754504,4.491045135763954,21.45151794663884,26.276650011943406,-2.742444068287881,2.795461279811114,289.1562440103425,28.11901824421245,10.863262841913144,69.97557868977204,0.117596412963555,113.82517596943347,483.7684438763944,15.288,0.0,10.678629147993147,0.0826422279840927,5.678543285357345e-08,-0.0026789738693933,0.0094098113953265,0.0001997344407926,21.894871253240183,38.29404227142316,31.41044246957853,26.56685790764079
0.68,31.222172530157785,131.01042139878456,11.5672475189201,4.492280569067438,21.212676468695527,32.50870073816325,-2.797482513609757,2.777954273008932,340.8999924858462,28.44726583728257,11.00955484186792,69.9739993095366,0.1328493295015769,113.84141089261576,495.11752690789694,15.288,0.0,10.715898879851252,0.0836071786870065,6.309956304410808e-08,-0.0028088591854161,0.010076341326899,0.0002118579837154,21.66165424526177,37.90243653690369,31.70374334553072,32.74688629534626
0.69,31.22217217076868,131.01042248152513,11.809760880969712,4.498319741723789,21.00016589322871,39.751591557192455,-2.849961991263677,2.7608170431418486,401.0140726853634,28.746800577612632,11.145116198861908,69.9723419188858,0.149156543842583,113.85876813663673,505.5873001911978,15.288,0.0,10.753025717534868,0.0844877494423065,6.981885943897108e-08,-0.0029430716753187,0.0107561148216104,0.0002243130689259,21.45523614289881,37.55318389723512,31.97213645116328,39.949135477844884
0.7,31.222171808431725,131.01042357895489,12.05532619643824,4.50364387925791,20.789909264934195,33.532811231408004,-2.903181230825357,2.7433392033040773,349.27032420985284,29.04758789071716,11.280998091870778,69.97060362578273,0.1665384747827063,113.87726947012987,516.2107347965465,15.288,0.0,10.789998061138556,0.0853720093170241,7.695038080975276e-08,-0.0030817819429,0.011449654568969,0.0002373372802676,21.250993111388063,37.207729623645136,32.24206875836949,33.76986526956607
0.71,31.222171443224493,131.0104246909398,12.30390531574736,4.50514272033017,20.56863581664164,27.768304543044067,-2.959159835506755,2.725063832965847,301.33126406340574,29.36742916429264,11.423738258606308,69.96878155387914,0.1850159954823654,113.89693713847588,527.6286572419577,15.288,0.0,10.826729345270335,0.0863122775250935,8.45014557725369e-08,-0.0032250516022803,0.012156947063402,0.0002510997102084,21.035333751555733,36.84468535032726,32.52939186517127,28.058177720961435
0.72,31.22217107517387,131.01042581748294,12.555499234074825,4.50215076232456,20.33400060072765,33.732919300737194,-3.018515965609072,2.7058428686252167,350.79220534145287,29.71103493952431,11.575020012158722,69.96687255835312,0.2046104232060779,113.91779387535342,540.0345963538225,15.288,0.0,10.863317659159128,0.0873223991795897,9.247952604909574e-08,-0.0033729868682465,0.0128781910952235,0.0002656840918667,20.805825822887027,36.45991276109536,32.83846433258791,33.97562168400123
0.73,31.22217070430225,131.01042695860124,12.810112923141872,4.508368228149438,20.142491444038104,42.359731917911695,-3.072221382115932,2.6877009615372702,422.320318528234,29.999085993314687,11.705812237488304,69.96487347973961,0.2253437905122078,113.9398631698334,550.5432596455091,15.288,0.0,10.899769626801811,0.0881692506653909,1.0089225140255593e-07,-0.0035257090570814,0.0136136513376917,0.0002803993459313,20.6203950787714,36.14541025807138,33.098290416007934,42.55595338888233
0.74,31.22217033057016,131.01042811447107,13.067797053723886,4.511032356246648,19.94083258487209,26.960845110857303,-3.1285823599751508,2.6687693784281934,294.48281347105944,30.30514323305193,11.843068974160824,69.96278106990114,0.2472373421197835,113.96316768158891,561.8201858767308,15.288,0.0,10.935973648995304,0.0890690315977921,1.0974694946383773e-07,-0.0036833383248701,0.0143635715592468,0.0002959168585965,20.42443515755613,35.81473251857641,33.374589383946194,27.272651625209125
0.75,31.222169954357472,131.01042928414108,13.328280497933392,4.511279713220663,19.73393801319324,31.27836520288758,-3.1870050992421084,2.6491754203784725,330.24688556441487,30.623214386971423,11.984573336987284,69.96059210070362,0.2703124458272848,113.98773019568128,573.6610228572994,15.288,0.0,10.97200045875748,0.0900041304800394,1.1905137011625005e-07,-0.0038457397844519,0.0151270302413171,0.0003121990385177,20.22296820284943,35.4756453249212,33.662090132102534,31.551723592788736
0.76,31.222169575576416,131.0104304679148,13.591650379235883,4.5145152106522985,19.54349998859868,33.57908331218917,-3.2437219191101767,2.629783459565786,349.27032420986166,30.92092721188604,12.118517985662752,69.95830311193993,0.2945903080197377,114.01357334258236,584.854486869089,15.288,0.0,11.007865089260596,0.0908794028497646,1.2881267245664537e-07,-0.0040130993303961,0.0159045788754776,0.0003289442694448,20.038270766655767,35.16375275677255,33.93162911223063,33.83773528207322
0.77,31.222169194191263,131.01043166595383,13.857953371896455,4.51818040772848,19.35885267114724,31.47424290207324,-3.3004524061834126,2.6101996557828744,331.7687666960708,31.213279655647728,12.250391032275658,69.95591071094914,0.3200923073680743,114.04071992713344,595.9509405134377,15.288,0.0,11.04353257287764,0.0917389287657224,1.390381113675265e-07,-0.0041855600255157,0.0166965585487744,0.0003463153795526,19.859406330437377,34.861720582069886,34.19663264000808,31.754276792067532
0.78,31.222168810287204,131.0104328780938,14.127143173269069,4.518491808761762,19.16490938773139,26.061954237027283,-3.359951800780072,2.5897727502834487,286.8734378128899,31.52362828266797,12.388690615461872,69.95341126046407,0.3468399076058685,114.06919286052351,607.8450314989664,15.288,0.0,11.078977681410048,0.0926513555938768,1.4973513957851602e-07,-0.0043631691778552,0.0175028759171038,0.0003645908994295,19.670867630183867,34.544690262070205,34.478222126644624,26.40495517236453
0.79,31.222168423972903,131.01043410410736,14.399155597034651,4.5167494552867,18.96700034483195,36.53835486864837,-3.421415964332914,2.568682672818676,373.6203323159534,31.844532978531184,12.530688863644912,69.9508011734543,0.3748547725935759,114.09901525917208,620.2673181466024,15.288,0.0,11.114248891174174,0.0935948164689559,1.609112827099827e-07,-0.0045459708140045,0.0183234286755917,0.0003837229334703,19.47811866217558,34.221286662119624,34.76974471769285,36.78798165681166
0.8,31.222168035048075,131.0104353445932,14.674162278660578,4.520382051978055,18.79388735579112,37.00457244068572,-3.47922699262448,2.548268085605725,377.42502064505743,32.12906776327156,12.659357632312249,69.94807659702109,0.4041591826962709,114.13021091034128,631.3844910883346,15.288,0.0,11.149372560923222,0.0944313905644758,1.725737654911337e-07,-0.0047342581368658,0.0191591910404933,0.0004031761354399,19.310763671847397,33.93925092207671,35.028550057816595,37.2550274757687
0.81,31.222167643634776,131.010436599285,14.952088017448803,4.519987131639388,18.608879246912824,24.510364530393904,-3.540452238126931,2.5268397365417097,273.9374926939919,32.43651340876663,12.796214179836376,69.94523358175088,0.4347752336452305,114.16280341056653,643.5086677829979,15.288,0.0,11.184315762442484,0.0953353111162826,1.847303322955049e-07,-0.0049280411609874,0.0200098960571405,0.0004236836059792,19.131045582251907,33.63777550787598,35.3084690568667,24.89332622446056
0.82,31.22216724994129,131.01043786768636,15.232792025032955,4.517737863600634,18.42037041922424,31.13324052568076,-3.6035641945719887,2.504747328540492,328.72500443277005,32.75360046950634,12.936439921549264,69.94226822750731,0.4667249654329339,114.1968162910226,656.1338688426017,15.288,0.0,11.219015513251824,0.0962675778711666,1.973887983678989e-07,-0.0051272839212778,0.0208750914008202,0.0004451105354964,18.947602305672696,33.330788070033506,35.59747781497962,31.44102574207977
0.83,31.22216685396988,131.0104391498494,15.516290121079162,4.522090172557169,18.26034837519057,39.231291339870765,-3.661799859163831,2.4836461111391985,395.68750322465047,33.02504715903272,13.060037511254588,69.93917639876335,0.5000305708909938,114.23227326085689,667.036241169436,15.288,0.0,11.253545930540668,0.0970657095029255,2.105566144556441e-07,-0.0053321281751213,0.0217550811506442,0.0004667170455376,18.793409731930872,33.0717003239154,35.845065125356165,39.48001388560759
0.84,31.22216645563065,131.01044044606448,15.802666352330288,4.524720668025057,18.09701771518292,24.701551968970865,-3.721680847551331,2.4619507389727646,275.4593748256452,33.304724090737814,13.186505824405202,69.93595394254629,0.5347136750069994,114.269197427937,678.3631897012065,15.288,0.0,11.28790912066682,0.0978880394494303,2.2424090878380709e-07,-0.0055427500535557,0.0226502975674292,0.0004892477378242,18.63570444342861,32.8074854098623,36.1003666786358,25.10137007113212
0.85,31.222166055238343,131.0104417555473,16.091697921654838,4.521361060652126,17.91458313202515,26.82012965031146,-3.7868846884345135,2.438734869199368,292.96093233939376,33.621644038734125,13.326306610282757,69.93259661161677,0.5707957780096815,114.30761177280075,691.3157158119053,15.288,0.0,11.32207757898266,0.0988198413507428,2.384496027350097e-07,-0.0057589994633599,0.0235598230984042,0.0005131586099948,18.45817353776868,32.511524038599994,36.39003333900061,27.195721683111564
0.86,31.22216565263409,131.01044307877095,16.383521148914852,4.521910480699161,17.749851756136152,33.26631619444949,-3.8492319690546863,2.4160242662073816,346.2265619465587,33.90982355979179,13.455619513905823,69.92909998154305,0.6082991274787641,114.34754007866358,703.1976758467096,15.288,0.0,11.356074338915915,0.0996671790964519,2.5318973698504045e-07,-0.0059811640318565,0.0244845467922707,0.0005375077216824,18.29880561693084,32.24563750273937,36.6535800734588,33.575311661332165
0.87,31.222165247858328,131.01044441567652,16.67812048630839,4.524143755865611,17.594177772114133,31.060156531313154,-3.9104211197332335,2.3934013832652483,327.964078366998,34.18361971189824,13.579649100477864,69.92545953839644,0.6472457220111806,114.38900587011754,714.5788795056696,15.288,0.0,11.389846804217274,0.1004722500766801,2.684687782849056e-07,-0.0062093326597315,0.0254245275061064,0.0005625021060807,18.1486991032425,31.995483093720654,36.90407697082055,31.396705038343544
0.88,31.222164840962314,131.01044576617343,16.975471529209276,4.523241218991821,17.429961112773043,27.0103500264028,-3.9746380747950303,2.369809971130646,294.4828134710418,34.4760208442632,13.7102722985926,69.92167067081665,0.6876573741580447,114.43203248071,726.8351904533433,15.288,0.0,11.42343239454647,0.1013320133626583,2.842942344832196e-07,-0.0064435591238289,0.0263796805850305,0.0005886968704969,17.989661731124592,31.73128265703941,37.17187852912774,27.403882127787632
0.89,31.22216443204393,131.01044713004836,17.275514741033305,4.519273076699244,17.257633894744856,29.49958057843533,-4.0419759489473615,2.3452106003088025,315.028134248087,34.78718366126037,13.847527222496668,69.91772863919905,0.7295559999411834,114.47664336148075,739.9931544500813,15.288,0.0,11.456836621286392,0.1022469301038091,3.006736721203165e-07,-0.0066838947060601,0.0273499146832462,0.0006161481228859,17.822123893079787,31.4536420073038,37.45720300482442,29.867420990692665
0.9,31.22216402104153,131.01044850750804,17.57831070835339,4.522041504359398,17.11223459974531,32.45080435290729,-4.10364023244067,2.3218589678015733,339.37814235421445,35.04836712058288,13.96671075509041,69.91362852412301,0.7729641076596196,114.5228626020865,751.1248165590075,15.288,0.0,11.49007186651356,0.1030149557832133,3.176143810262111e-07,-0.0069305416993321,0.0283357309042484,0.0006436630822129,17.682350522714707,31.222093230444745,37.69656683649222,32.79154762090885
0.91,31.22216360803989,131.01044989836754,17.883808226453983,4.52172012604788,16.95841979197497,24.98589280885481,-4.168393468049687,2.297506252840343,277.7421810230789,35.32827753374778,14.092521268002498,69.90936537942008,0.8179031988592289,114.5707132282092,763.1479060779734,15.288,0.0,11.523128223905974,0.1038380327526975,3.3512385775450986e-07,-0.0071835303729573,0.0293369441651372,0.0006724674749815,17.53377151090045,30.976649875937103,37.95337617137195,25.435189768151965
0.92,31.22216319325821,131.01045130209147,18.19185593710485,4.518401769472224,16.79665999690755,29.5045640665272,-4.23629434937556,2.2721195975713044,315.02813424806214,35.62689272751768,14.224937018261963,69.90493412396289,0.8643948466484564,114.62021835004184,776.0806107886674,15.288,0.0,11.555990098622727,0.1047160963055044,3.5321007423674505e-07,-0.0074427624767685,0.0303528835583521,0.0007026032343274,17.376860141886056,30.718003845793024,38.22767664131394,29.89361165928311
0.93,31.2221627766164,131.01045271892562,18.50252585751172,4.521233664125212,16.658912163709918,34.85572284743421,-4.2987115113193965,2.247958780982537,359.1625070654728,35.878194863844854,14.340290351992588,69.90032954285633,0.9124606505208646,114.67140111518898,787.0442518963255,15.288,0.0,11.588674036736508,0.1054551040258595,3.7187981937758733e-07,-0.0077084756108249,0.0313841707686535,0.0007327978184648,17.24474923474942,30.500816670569986,38.458257032034304,35.19167024390422
0.94,31.22216235801192,131.01045414916626,18.8159046294074,4.518016919353284,16.502551186813555,25.631005262254305,-4.3672074335901705,2.2219844991118447,283.0687504837787,36.17039447733277,14.470195537677755,69.8955463425525,0.9621216651549344,114.72428410045138,799.8920895780324,15.288,0.0,11.621179506255956,0.1063143286458411,3.9113994551178324e-07,-0.0079808541922582,0.0324312047191895,0.0007648471118983,17.093239539536494,30.252154401025926,38.726916814063244,26.095174776881766
0.95,31.222161937753903,131.01045559204422,19.13177413440346,4.515382258761826,16.35061054514853,32.82942370275028,-4.435512799977691,2.1958367100398464,342.4218736174873,36.455641465205325,14.597508472730327,69.89057901528396,1.013399673087938,114.77889066688957,812.5334050643166,15.288,0.0,11.65347467932568,0.1071531266825842,4.1099879973337844e-07,-0.0082597396151157,0.0334930963496492,0.0007977924739004,16.94622148875371,30.01145318468484,38.98927120153893,33.200399595646836
0.96,31.222161515550365,131.0104570483448,19.450360994734325,4.515715193881433,16.211116243581245,32.18425479256033,-4.501192366814948,2.1701737652834776,337.09533515678345,36.71578813811494,14.715743458902942,69.88542194428962,1.0663161385431168,114.83524384764289,824.1460047100885,15.288,0.0,11.685593978515676,0.1079181570375901,4.314623829498367e-07,-0.0085455685075223,0.0345711775235855,0.0008312647424014,16.8120398248079,29.792603027096376,39.22838484805481,32.569873248863594
0.97,31.222161091430863,131.01045851801737,19.771652825708745,4.514252338682358,16.067730475675905,21.01074010296444,-4.568957889666557,2.1437350470225223,245.02188719299323,36.98614632743649,14.837530870512577,69.88006932836832,1.120892874696792,114.893367057741,836.3021485909152,15.288,0.0,11.717546574097108,0.1087132108751349,4.525381945086922e-07,-0.0088384350860593,0.035665485973466,0.0008660572539078,16.673727366862142,29.56747061467645,39.47710773250103,21.60838207325336
0.98,31.22216066570228,131.0104600002969,20.095432818543312,4.507055992443715,15.907321866087516,30.06048509505387,-4.643005356024362,2.1153650913346884,319.5937466429581,37.29717432875817,14.973736800374637,69.8745152482,1.177151378163661,114.95328338593713,850.400292388149,15.288,0.0,11.7493112679728,0.1096278145827692,4.7423495211668747e-07,-0.0091381164214935,0.0367749074810101,0.000902924121087,16.517614749968587,29.31322399112647,39.76391339095676,30.490408858453574
0.99,31.222160238220496,131.01046149558036,20.421816737902503,4.509018530559775,15.779707941618376,32.73939990134514,-4.707823297208715,2.0892840320290698,341.6609485517054,37.53529990207839,15.08382294939948,69.86875358596748,1.235113541582867,115.0150163550956,861.266798993855,15.288,0.0,11.780911487981,0.1103281448774017,4.965590927497477e-07,-0.0094449556666689,0.0379003947601852,0.000939171353826,16.39553491420633,29.116221455449782,39.982754931721615,33.14207316786973
1.0,31.222159808989783,131.0104630038725,20.750808293262,4.505401957182474,15.63557776307504,29.411795644559565,-4.778801844547261,2.0612940765390086,314.2672081822764,37.8130398168142,15.20794442794598,69.86277822024698,1.2947998393287574,115.07858798958443,874.0321068228262,15.288,0.0,11.812337818278852,0.1111449231382261,5.195178763237062e-07,-0.0097590180476985,0.0390418742712278,0.0009775500752812,16.256178300787028,28.890966159090414,40.238700409817305,29.86870608809086
1.01,31.22215937820473,131.01046452469643,21.08227324114312,4.502515588068167,15.495900400180352,30.704563328843587,-4.849305848073035,2.03320398247994,324.9203161036979,38.082109785799496,15.328877016764256,69.8565827759427,1.3562315658121795,115.14402119962168,886.4870124251894,15.288,0.0,11.84358583386374,0.1119362266810141,5.431193612305432e-07,-0.0100802387052994,0.0401988168912486,0.0010168790292493,16.121372855023182,28.67384808063348,40.48663462137933,31.151563281117916
1.02,31.22215894579144,131.01046605825567,21.4162723196304,4.500859967147832,15.362193857524444,25.8016801758278,-4.918723607069592,2.0051870844795765,284.59063161540416,38.33830313594208,15.445128175104744,69.85016079284577,1.4194292850421664,115.21133813110616,898.4258051895752,15.288,0.0,11.874662913072624,0.1126896904790154,5.673701850472683e-07,-0.0104088263275419,0.0413716625347842,0.0010570564751166,15.992709780830598,28.467573632355524,40.72258232060621,26.342765934165165
1.03,31.22215851182525,131.01046760437015,21.75275645875977,4.49534888026886,15.217915549920765,21.265648074673337,-4.992728251511249,1.9756541742293168,247.30469339049705,38.62189342362176,15.571032880330288,69.84350569002858,1.484413125059705,115.2805604791396,911.7368951642956,15.288,0.0,11.90556348563258,0.1135236926328403,5.922777594098943e-07,-0.0107448014717551,0.0425601812741278,0.0010992120032474,15.852932826163556,28.24318831733582,40.98431163452773,21.933042033549427
1.04,31.22215807637557,131.01046916287842,22.09168190627837,4.4931887148227165,15.086331529072824,33.19719926258487,-5.063266734537206,1.9468574471100788,345.46563688072297,38.87564566501245,15.686226751176616,69.83661063950231,1.5512038355831244,115.3517106154426,923.7267057906192,15.288,0.0,11.936291775196702,0.1142699991429736,6.178494483936722e-07,-0.011088238770999,0.0437643371982129,0.0011417619136325,15.726322565430106,28.041457361335144,41.218113269295685,33.6374934087575
1.05,31.222157639148087,131.01047073452895,22.433265822522458,4.487887339685486,14.946559312629846,20.422661296650684,-5.137674023637472,1.9167297951919104,240.45625879819983,39.15139416416794,15.809140067492212,69.82946870822713,1.619821523515444,115.424810242491,936.8465977553054,15.288,0.0,11.966864200437266,0.1150809702555922,6.440906246047437e-07,-0.0114396115091515,0.0449854508076197,0.0011862592890889,15.59107500182762,27.825739850554672,41.472656148222725,21.146031351500675
1.06,31.222157200393514,131.0104723186992,22.777332479153493,4.479902194920845,14.800183473861969,28.65654058044554,-5.215633537005865,1.885340107221394,308.17968365593924,39.44612995651757,15.938692638832892,69.82207267218382,1.690287178067322,115.49988201768036,950.9736209722724,15.288,0.0,11.99726803852356,0.1159477620257897,6.710101824768448e-07,-0.0117987388374457,0.0462225916365914,0.0012326697977197,15.448831557394064,27.59870937983011,41.74516964178457,29.18826234209498
1.07,31.222156759994284,131.01047391569298,23.12397165926412,4.477582243078198,14.673481162748873,33.56093750708859,-5.287171764581426,1.8555404650459388,348.5093681440308,39.69117204038044,16.050500883012344,69.81441507930006,1.7626220756217668,115.5769489213555,962.79328916649,15.288,0.0,12.02752025110714,0.116668493904016,6.986145566025466e-07,-0.012165953288982,0.047476578823451,0.0012788875919648,15.327079685576038,27.406828255134936,41.97096407639222,34.02548665398213
1.08,31.222156317844927,131.01047552577288,23.47326155906805,4.473864313280561,14.544070967946896,22.90544306449916,-5.360613227670187,1.8249535638278704,261.00157857466235,39.94417529134085,16.16503958585133,69.80648839586442,1.8368465252421409,115.65603292045697,975.0739517442626,15.288,0.0,12.05762263806346,0.1174126361335636,7.269104970458575e-07,-0.0125414872057484,0.0487478668083234,0.0013267229242051,15.202418485884976,27.210607146103055,42.20429680923278,23.59504082784798
1.09,31.222155874235103,131.01047714821755,23.82499820338001,4.463738745608308,14.3965195426507,21.13839654747017,-5.442261409627177,1.79173282332057,246.54375332474407,40.24771331626248,16.297395720014407,69.79828489587638,1.9129807498565063,115.73715590746218,989.9160955182288,15.288,0.0,12.087557830368809,0.1183053309179802,7.559074424090554e-07,-0.0129250683716921,0.0500352300705807,0.0013776443707441,15.058667763013464,26.98251015006803,42.48539276352238,21.901148927829798
1.1,31.222155429246367,131.0104787828274,24.179127167043944,4.456682781765274,14.260233433859389,41.4296558304904,-5.520506474710582,1.7592347376657036,413.1890617385841,40.52258114425592,16.41948391955781,69.78979665861284,1.991044864082472,115.8203396782814,1003.4492028270232,15.288,0.0,12.117331464623422,0.1191137616388589,7.856128711447101e-07,-0.0133167658966622,0.0513385933387309,0.0014290392416956,14.926630311903148,26.774769378612437,42.73951874999847,41.832849303297735
1.11,31.222154982453205,131.0104804306496,24.53595204452245,4.455930826497648,14.14483155591624,30.580493060972493,-5.590923924657932,1.7287803909472244,324.1593910376397,40.74000427065441,16.521129299159032,69.78101553445357,2.071059102646636,115.905606176823,1014.211302400184,15.288,0.0,12.146971136715631,0.1197533464448277,8.160308660807929e-07,-0.0137173128332077,0.0526600365520542,0.0014798698321257,14.816423245108563,26.604773262103752,42.93936866417327,31.135408586103747
1.12,31.22215453391688,131.01048209151787,24.8954283274678,4.442950958349315,13.993881447387512,12.120389759730667,-5.677431318211913,1.6933249736646832,172.73281794065943,41.05911066507666,16.658667872920734,69.7719332787354,2.1530427216847343,115.992976323666,1030.1260888689867,15.288,0.0,12.176464204497831,0.1206918344523631,8.471696160539128e-07,-0.0141266973695163,0.0539991736744908,0.0015359199708491,14.66882046088516,26.371539708923677,43.23547516184112,13.490901517957722
1.13,31.222154084267306,131.0104837638911,25.257116534127764,4.436378387664812,13.863971739483816,35.857019476356164,-5.7559540400990725,1.65995344007832,367.5328077900705,41.319919262039626,16.77547550100126,69.76254117103292,2.2370168988750576,116.08247310747544,1043.2181860877624,15.288,0.0,12.205791580637111,0.1214589680554245,8.790413717641751e-07,-0.0145442321931318,0.0553534793511408,0.0015913055679812,14.543224772783752,26.176337001363716,43.47647763571614,36.35398599964997
1.14,31.2221536327934,131.01048544949035,25.621514205069303,4.434257019468364,13.748869730315471,20.26440990645645,-5.828679869826758,1.6280523498751382,239.69531773195544,41.537800812451245,16.87700792234603,69.75283064459343,2.322999853397464,116.17411638747772,1054.2121517546902,15.288,0.0,12.234991038676112,0.122099928059012,9.116472129071812e-07,-0.0149710606375987,0.056726284601457,0.0016465851180895,14.433123083340725,26.008258744844344,43.67680138861989,21.148767631607946
1.15,31.22215318000839,131.01048714704663,25.988260237635103,4.419755725875433,13.598418984611662,19.97607468364512,-5.918482110163101,1.5907572180090126,237.41251153546767,41.86181922322105,17.01595622178344,69.74279295215166,2.411009405773392,116.26792561875516,1070.685485009186,15.288,0.0,12.264004830116455,0.12305288606383,9.449990944537136e-07,-0.0154064849332758,0.0581150352485705,0.0017076327632385,14.285759684152708,25.776779085845423,43.97785685837642,20.895035266338652
1.16,31.22215272605964,131.01048885620014,26.35725436995748,4.418434521818607,13.488416466399716,50.78907220270207,-5.990403629106297,1.5585660172429168,490.0437743845894,42.06501385247628,17.11212658919826,69.73241886555171,2.5010651630879592,116.36392218450324,1081.0664711728928,15.288,0.0,12.29285734133556,0.1236506919229044,9.79104723009634e-07,-0.0158505340358162,0.0595195211082204,0.001765315599096,14.18089581111808,25.618840822047293,44.16425282100889,51.16486996837771
1.17,31.22215226999868,131.0104905792068,26.729148618652527,4.410512996015313,13.36039426966226,9.74209015055089,-6.071607834219604,1.523302444505103,153.70937929486794,42.32326111108152,17.227638527649827,69.72169928728663,2.59318394397044,116.46212452121551,1094.3419768421068,15.288,0.0,12.3215939080814,0.1244103354766556,1.0139629979040064e-06,-0.0163047067920558,0.0609440683412414,0.0018269809784263,14.056982725708188,25.42873764430864,44.40293985929299,11.579861507438366
1.18,31.22215181306033,131.0104923130808,27.103088075016924,4.393858086441264,13.208470743107195,25.14731513643748,-6.165703314327137,1.4838086244676518,280.02501822196746,42.65819961494808,17.370113417238645,69.71062471003171,2.68738371211754,116.56255230831128,1111.6914222284045,15.288,0.0,12.350153410038176,0.1253954251753859,1.0495930063726135e-06,-0.016767179461789,0.0623826874608033,0.0018936026085563,13.90777962324946,25.195379839466085,44.71465284927936,25.9346302068421
1.19,31.22215135468059,131.01049405916055,27.479460941590368,4.395860937093248,13.111931074672087,43.25624941147342,-6.232978878107951,1.4522417381777104,428.4078130529292,42.81838236317137,17.45084695852166,69.69918531170283,2.783682811644887,116.66522565925544,1120.0154679120717,15.288,0.0,12.378585147596985,0.1258668231870047,1.0859951064383693e-06,-0.0172391321474246,0.0638387024558565,0.0019541426397633,13.816934730404492,25.063477980183997,44.86006944230021,43.72713282286686
1.2,31.222150894359256,131.01049581859104,27.85860049653317,4.382501709441482,12.972502045164836,5.239487365957506,-6.322855797429148,1.4134449831393403,117.1843741360236,43.11613265659047,17.57999139778531,69.68737149472764,2.882096115298097,116.77016101324271,1135.6049837667852,15.288,0.0,12.406892455889444,0.1267426177102108,1.1231725228620777e-06,-0.0177213206653329,0.0653140425103641,0.0020226962649036,13.680741455507476,24.853624958173484,45.136483249179335,8.33238021296877
1.21,31.22215043334916,131.01049758838633,28.23965111373092,4.369751045953008,12.836283807884996,34.87885734014578,-6.412254765438097,1.374478174947783,359.92343213200894,43.40560661827645,17.70611925191706,69.6751729702548,2.982641446797197,116.87737798158112,1150.8625387361683,15.288,0.0,12.435029119024088,0.1275940935743132,1.1611449587400336e-06,-0.0182118833306104,0.066802750731668,0.0020925680065539,13.54785011427812,24.64987178127099,45.40510050893411,35.49001114094686
1.22,31.222149970679435,131.0104993708088,28.62326757636921,4.369822202801944,12.737641710086416,25.47917798114796,-6.482191311204862,1.3412822516486451,283.0687504825761,43.57012070801007,17.78813217841765,69.66257952697464,3.085334153414712,116.98689356665204,1159.5602392532528,15.288,0.0,12.463050915094154,0.1280782498124285,1.1999078609858272e-06,-0.0187126422968023,0.068309974007725,0.0021581755391974,13.45463170533484,24.515759650899067,45.55450420774015,26.325013824662324
1.23,31.22214950671888,131.01050116494417,29.009190672151263,4.35548943048904,12.599647665066668,10.399701655206554,-6.57436206770296,1.3008426935454347,159.79687382222795,43.86712395903959,17.916712503762064,69.6495810358624,3.1901871243144475,117.0987221771898,1175.3792291986213,15.288,0.0,12.49092620823194,0.1289518789764578,1.2394730161665048e-06,-0.0192229394528983,0.069833385964797,0.0022320593895259,13.319703887129178,24.30947217710619,45.83035911980763,12.372074313869442
