Time,Latitude,Longitude,Altitude,Angle of Attack,Angle of Sideslip,X-Acceleration,Y-Acceleration,Z-Acceleration,Thrust,True Velocity,Ground Velocity,Pitch,Roll,Yaw,Dynamic Pressure,cp,parachute_deploy_gain,Wind Speed,Mach,omega_x,omega_y,omega_z,Cmq,Angle of Attack(total),Angle of Attack(gust),True Velocity(gust),Acceleration
0.0,31.222216000000007,131.010392,3.000000004412624,0.0,0.0,0.0,0.0,0.0,2.2828121974499247,0.0,0.0,71.99999999612658,-1.0292491154817412e-14,119.99999999354436,0.0,15.288,0.0,0.0,0.0,0.0,0.0,0.0,-0.0,0.0,90.0,0.0,0.0
0.01,31.22221599999862,131.01039200000284,3.0000009727369523,0.0,0.0,0.0,0.0,0.0,34.24218696174923,5.916279387578309e-11,5.734623670548936e-11,71.99999999613168,-5.86671995824671e-13,119.9999999935449,2.1432944861733093e-21,15.288,0.0,0.0,1.7386402909615473e-13,-3.4220131069073734e-19,7.115076756936125e-19,5.488773498207866e-19,-1.1574302492039043e-31,0.0,89.99999999962336,5.916279387578309e-11,0.0
0.02,31.22221599999738,131.01039200000537,3.0000018317022668,0.0,0.0,0.0,0.0,0.0,25.871876237766408,1.2265415415436536e-10,1.1895038237325684e-10,71.9999999961369,-1.1836364828043265e-12,119.99999999354544,9.211895886571454e-21,15.288,0.0,0.0,3.6044858651615574e-13,-6.979551485375437e-19,1.4162390878091906e-18,1.0909784360635388e-18,-4.776231873571785e-31,0.0,89.99999999921916,1.2265415415436536e-10,0.0
0.03,31.22221599921969,131.01039200159065,3.0001883335529382,18.80143492628821,-0.0001350810307892,10.931161642028636,-1.75114298675875e-05,3.026590975169265,180.34219359854663,0.0798232026864394,0.0478175828508887,71.99999999765336,-5.341802909786072e-12,119.99999999436793,0.0039016003969354,15.288,0.0,0.0,0.0002345795854893,3.788270153300133e-17,-7.771883375645477e-10,1.1422790048099072e-11,1.7057759223764537e-13,18.80143492675591,89.51882325913425,0.079801984207741,11.342422482672777
0.04,31.222215995131297,131.01039200995308,3.001692634342189,9.19442604083399,-4.49173898918486e-05,52.29595764159784,6.445392950801871e-06,3.026413589912948,548.6359724538078,0.3504174083926908,0.1601447499964056,72.00000000319055,-3.111420077280171e-11,119.99999999870242,0.0751892535633216,15.288,0.0,0.0,0.0010297854387864,2.0082066977226968e-15,-1.520937588847922e-08,2.5623342884322286e-11,1.4654248781413086e-11,9.19442604094277,87.798916624545,0.3504103527855857,52.383455068075136
0.05,31.222215983575865,131.01039203366796,3.0074067499493786,5.158590039700252,1.707592688632746e-06,76.26884281015512,5.843947534199429e-05,3.0258124765658088,761.6984298824644,0.9592973585397016,0.3772700771701255,72.0000000004862,-1.3608731808076822e-10,120.0000000109612,0.5634958029902841,15.288,0.0,0.0,0.0028191251099456,2.086299069701397e-14,-1.0551247853743037e-07,3.973493515691201e-11,2.783064866637575e-10,5.158590039700515,83.94063169874748,0.959297626767734,76.32884071402438
0.06,31.222215961742712,131.0103920785344,3.019291017943491,4.109521257467909,3.140103977270004e-05,57.06876634333886,0.0001151069734147,3.024834864051463,590.4875390737208,1.6257536642597354,0.6118982818704327,71.99999992547217,-3.5903296759057166e-10,120.00000003412836,1.6184272268450337,15.288,0.0,0.0,0.0047776672697797,1.0694899894620088e-13,-3.741090980393931e-07,5.521401959501359e-11,1.6723176417636091e-09,4.109521257587776,79.78719176344794,1.6257585967235286,57.148873286519276
0.07,31.222215929936205,131.01039214392435,3.0371334573469446,3.649087515174788,5.707077112564807e-05,86.89643797254193,0.0001728541558773,3.0234947746384675,855.2937749779139,2.3057260079826607,0.8506307413593818,71.99999965378231,-6.907496536790437e-10,120.00000006788592,3.255354923652711,15.288,0.0,0.0,0.0067759305364855,3.495199904512709e-13,-9.036515915819006e-07,7.594816279105379e-11,5.728932851326001e-09,3.6490875156204896,75.6601668283889,2.305734972638426,86.94902215090157
0.08,31.222215886364623,131.01039223353447,3.0621840248716574,3.4254446680114707,8.413075603463509e-05,17.831756866644035,0.0002285946601282,3.021841001032126,241.2171988638848,2.961944911520492,1.0819695676346892,71.99999900671328,-1.141745983122182e-09,120.00000011415082,5.371998197385977,15.288,0.0,0.0,0.0087043901031071,8.800530155962314e-13,-1.829098470920821e-06,1.0943386634701918e-10,1.4896287129277132e-08,3.4254446690434226,71.81713637501419,2.9619581267487467,18.085991154451033
0.09,31.22221583454733,131.01039234010327,3.0919888289029,3.389560809024919,0.0001118726864415,54.09031716446879,0.0002748660999733,3.020060228038602,563.0937377043176,3.504225426410036,1.2780161667917422,71.99999774508822,-1.634190085504106e-09,120.00000016921716,7.519080503822694,15.288,0.0,0.0,0.0102980157586766,1.865782139518716e-12,-3.1503298654458527e-06,1.6284478329871028e-10,3.03536411425607e-08,3.389560810868955,68.76526501308032,3.504242999330529,54.17456206384468
0.1,31.22221577423132,131.0103924641528,3.1267248829165366,3.4447939461814814,0.0001419149103147,51.372195336549765,0.0003131602029306,3.0182021883815127,538.7437595981919,3.950569597142709,1.4443465951180965,71.99999562056465,-2.1287748602259068e-09,120.00000023339832,9.55649523509932,15.288,0.0,0.0,0.0116097108366932,3.485956000178229e-12,-4.949356763187612e-06,2.4573266549165286e-10,5.3761299442583966e-08,3.444793949101151,66.34639928474206,3.9505918890846927,51.460781166288626
0.11,31.222215706113143,131.01039260424562,3.165907002780892,3.4691423802630394,0.0001702373452339,40.591037561894986,0.0003534470100582,3.016051659024047,442.8656393052949,4.421478635995476,1.6182620895289603,71.99999235067894,-2.5564479031457968e-09,120.00000030601664,11.970509656144712,15.288,0.0,0.0,0.0129935974697161,5.942887149865172e-12,-7.273722517324353e-06,3.67769289312894e-10,8.842679949465076e-08,3.4691423844348632,63.88798785789768,4.421505376815134,40.70293476011277
0.12,31.222215630588888,131.0103927595646,3.2092596514826863,3.4852659299808075,0.0001974376474727,44.30042894095728,0.000394069215595,3.013641598889868,475.58594813540446,4.896982486381051,1.793579340340896,71.99998761802138,-2.8337988279882726e-09,120.00000038673312,14.683611096353944,15.288,0.0,0.0,0.0143909889875706,9.464337642181618e-12,-1.017558359402848e-05,5.395790443954697e-10,1.3700793350599625e-07,3.4852659355662303,61.5068242157714,4.897013499814194,44.40281567867803
0.13,31.222215548046687,131.0103929293088,3.256512891171917,3.5606043721293616,0.0002276507019012,48.86766833507025,0.0004268800875964,3.0112558910133567,515.9156326236895,5.278566579338586,1.939796541405244,71.99998107389406,-2.8573058577484587e-09,120.00000047523812,17.061052093156064,15.288,0.0,0.0,0.0155123760833565,1.4300406003001044e-11,-1.3705268062305584e-05,7.724776992181392e-10,1.989112774124932e-07,3.560604379397528,59.67313531776262,5.27860233862722,48.960358155653
0.14,31.222215458587108,131.01039311327068,3.30759734332425,3.6000732663755977,0.0002555702913645,45.540290862247225,0.0004629468001456,3.0085404980032777,486.2390860568404,5.70011779273801,2.098362647205908,71.99997235012626,-2.508533681468686e-09,120.00000057154703,19.894788765881632,15.288,0.0,0.0,0.0167512184495524,2.071534240530911e-11,-1.7917736259613292e-05,1.0787346240473087e-09,2.8081526258393346e-07,3.6000732754351943,57.72385750323359,5.700157937625502,45.639559681930805
0.15,31.222215362317904,131.01039331122794,3.3624387479639086,3.651605404442164,0.0002842753491325,44.01308509501,0.0004965057129938,3.005703619811542,472.54218587214,6.091938849578711,2.2476968067377374,71.99996103728932,-1.6446954747148112e-09,120.00000067569304,22.723773683610247,15.288,0.0,0.0,0.0179026934683374,2.9002783512213203e-11,-2.287326399669318e-05,1.47199345427166e-09,3.831202693354572e-07,3.651605415492516,55.98561718911576,6.091983503446133,44.115597174664394
0.16,31.22221525912812,131.01039352340948,3.421115382839859,3.67540086436193,0.0003108411545024,34.83804992586084,0.0005330990866742,3.002517946501868,391.1218908297564,6.521183188362317,2.4085903880902046,71.99994669525161,-1.0153513453738144e-10,120.00000078796704,26.03872642002185,15.288,0.0,0.0,0.019164148528834,3.9478358970291335e-11,-2.864207894220033e-05,1.9677461746207517e-09,5.135466997084602e-07,3.6754008774883777,54.15946979122355,6.521232015176687,34.96719658394182
0.17,31.2222151493826,131.01039374906244,3.4833737923187487,3.7139589864597298,0.0003384978477213,43.96471427482637,0.0005668629535037,2.999235483723449,471.78125980632376,6.916861975403744,2.559060925010733,71.99992884100092,2.3206494032971838e-09,120.0000009081849,29.29426197817256,15.288,0.0,0.0,0.0203269651395979,5.248754693205839e-11,-3.5267097947693114e-05,2.580363454062817e-09,6.706952682968329e-07,3.713959001863866,52.549031795895466,6.916915146521327,44.06689817851128
0.18,31.22221503253009,131.01039398932429,3.549599475912623,3.7380363034619775,0.0003650282082698,36.67395661481795,0.0006021794701355,2.9956556354306425,407.10156721191447,7.332140201215607,2.71556808256092,71.99990696207136,5.837017536380516e-09,120.00000103716444,32.917216366714264,15.288,0.0,0.0,0.0215473823438242,6.839750892601699e-11,-4.285557247677198e-05,3.331016495775474e-09,8.639362741436378e-07,3.738036321259578,50.93050624815799,7.332197539712479,36.796100973258795
0.19,31.22221490871209,131.01039424390297,3.619694897703461,3.747799769666444,0.0003901520189829,41.42208371271829,0.0006393759928961,2.991742733214697,448.9531328318269,7.771071983754382,2.879366399937307,71.99988049019642,1.0709144790974043e-08,120.00000117502664,36.97605053227239,15.288,0.0,0.0,0.0228373144884866,8.761416506509219e-11,-5.146771415177372e-05,4.238406957677133e-09,1.0996552116864756e-06,3.747799789945131,49.29705748437159,7.771133268690212,41.529983675580546
0.2,31.22221477769685,131.01039451327668,3.693822889232993,3.7700519460961166,0.0004166800650969,37.99697972290605,0.0006740224661302,2.987733789228414,418.51563019916136,8.179966026035371,3.0338260708461373,71.99984881140107,1.723179577184912e-08,120.0000013223286,40.969302182777255,15.288,0.0,0.0,0.024038975990988,1.1057590044953188e-10,-6.120032215177249e-05,5.3263847350253015e-09,1.376394225587184e-06,3.7700519690893857,47.8457752505109,8.180031477986942,38.11426270718793
0.21,31.222214639876928,131.01039479663547,3.771710975053407,3.7926098867321474,0.0004432924407074,36.46301043881366,0.0007080907240332,2.983530483977461,404.8187610144644,8.582757448615462,3.1863584283669346,71.99981127559042,2.5745201416596626e-08,120.00000147900325,45.103059028532826,15.288,0.0,0.0,0.0252227064089584,1.3774582723633048e-10,-7.20875523136271e-05,6.61341033873124e-09,1.7010673350603349e-06,3.792609912601061,46.47936953648762,8.582827080829217,36.584868250565684
0.22,31.22221449507626,131.01039509434258,3.8534832466471007,3.782921298925821,0.0004660920499522,44.14577847155813,0.0007479176313898,2.978724032883548,472.5421858721365,9.056569122268344,3.360845972992861,71.99976720416048,3.661811567390422e-08,120.00000164562512,50.21995530074818,15.288,0.0,0.0,0.0266151520780326,1.6960703048385348e-10,-8.421592474264931e-05,8.124635526119773e-09,2.0969540034515424e-06,3.7829213275976334,44.9464484092354,9.056642335836344,44.24615863872642
0.23,31.22221434283448,131.01039540734791,3.9394622486964206,3.813874679301352,0.0004940771488601,36.66675459308932,0.000779455230549,2.974212905336642,406.3406421461021,9.430647902846331,3.5044030163419806,71.99971583979395,5.0272885112871524e-08,120.00000182313076,54.45382429059888,15.288,0.0,0.0,0.0277145095638672,2.0669790509245914e-10,-9.77285871729516e-05,9.894576563683824e-09,2.5339062472561444e-06,3.813874711257219,43.79476959007253,9.430725512303388,36.78718303164376
0.24,31.222214184153326,131.01039573358457,4.028950821673608,3.829256049377765,0.0005200487408944,37.802126339316736,0.0008136255607606,2.9692962675112065,416.2328240017114,9.837806876534357,3.658163422426286,71.9996564062533,6.718950080713476e-08,120.0000020109434,59.25679777340223,15.288,0.0,0.0,0.0289110855155543,2.4956955046738006e-10,-0.0001125744417092,1.1934277804843484e-08,3.0448209172448607e-06,3.829256084638984,42.59361542722471,9.83788856559955,37.91856374864305
0.25,31.22221401888584,131.01039607335582,4.122052964664892,3.851417709838087,0.0005469594058717,38.85163035360012,0.0008459008130282,2.964283881833675,425.36408079150686,10.22297576958679,3.8050691648373967,71.99958811418384,8.786880969336211e-08,120.00000220974424,63.98709205399403,15.288,0.0,0.0,0.0300430411774988,2.987811646313829e-10,-0.0001288461362054,1.4273117985167728e-08,3.621333387698252e-06,3.8514177486178034,41.50703126619192,10.223061685769354,38.96455005232871
0.26,31.222213847358866,131.0103964259872,4.218542267117083,3.8780574625554745,0.0005745172425185,42.3164797140743,0.0008766626387865,2.959162938653076,455.8015834241788,10.590779679138215,3.946551912391076,71.99951013710364,1.1286401474734325e-07,120.00000241975916,68.67355887153568,15.288,0.0,0.0,0.0311239685467471,3.5491769188178554e-10,-0.0001465721578858,1.6932703957058654e-08,4.267712643344226e-06,3.8780575050466,40.51245375834074,10.590869924095635,42.41981967733593
0.27,31.22221366913008,131.0103967923915,4.318728802515264,3.886188503202341,0.0005994342651313,38.70936050721014,0.0009111181036949,2.953518013741325,423.84219965987256,11.004860953238978,4.102320296019413,71.99942161756776,1.4276417094868828e-07,120.0000026420792,74.14786134434608,15.288,0.0,0.0,0.0323408987462391,4.1858405402174807e-10,-0.0001658847815307,1.995072923688136e-08,5.018832267232506e-06,3.886188549362022,39.43841359495857,11.00495511215316,38.8218734782956
0.28,31.22221348431185,131.01039717233687,4.422535913956003,3.90556090261878,0.0006261175699806,44.68030766832924,0.0009425767186621,2.947879457547137,476.3468732012221,11.38358114165448,4.247086834352694,71.999321619057,1.7823531611327881e-07,120.000002877279,79.33831935330025,15.288,0.0,0.0,0.033453914386159,4.904408325040897e-10,-0.0001868529238516,2.3357766479368094e-08,5.847713054408178e-06,3.9055609527288775,38.49894431917428,11.383679491972384,44.77744842575601
0.29,31.222213292835256,131.0103975659655,4.530013412817602,3.9242599519377537,0.0006528240665589,35.802573724660256,0.0009737210635801,2.942037024315898,397.97031042211177,11.759725774384751,4.391004157029451,71.99920917567837,2.1999186079018322e-07,120.00000312617878,84.66717879828003,15.288,0.0,0.0,0.0345593650464213,5.711677680739745e-10,-0.0002095620322847,2.7188189988316943e-08,6.77505090435382e-06,3.9242600061534456,37.60352534239979,11.759828319749328,35.92324968749781
0.3,31.222213095024976,131.0103979726075,4.64093665799555,3.936939025755682,0.0006785438093183,33.570228713727204,0.0010059102294455,2.93586442972183,378.1859457108711,12.149968255527943,4.539237002744259,71.99908328532703,2.6880857935396905e-07,120.00000338923812,90.3787563598417,15.288,0.0,0.0,0.0357062504417728,6.614698865958865e-10,-0.0002340353597042,3.1467140861055e-08,7.817263716758327e-06,3.9369390841381695,36.71173884615234,12.150074840940263,33.698361337808635
0.31,31.22221289105846,131.01039839189684,4.755183729044857,3.9598342215431432,0.0007060286581592,35.396825578217346,0.0010350810412898,2.9297385597941448,394.1656220930212,12.504537499407316,4.6763673222047455,71.99894291513503,3.255120771695107e-07,120.00000366712923,95.72967338626896,15.288,0.0,0.0,0.0367483036680869,7.620720834468404e-10,-0.0002603234137215,3.622454560346964e-08,8.948994505138873e-06,3.9598342843844345,35.934338386209795,12.504648402129598,35.5178635353378
0.32,31.222212681031937,131.01039882363492,4.872689374180126,3.985461429033668,0.0007340760463279,38.52097867048992,0.0010630242168685,2.9235095146848846,421.55939346242695,12.84534566718622,4.809181081594425,71.99878701464397,3.909756427278764e-07,120.0000039606604,101.01782231644016,15.288,0.0,0.0,0.0377499198995686,8.737098716736534e-10,-0.0002884807530145,4.1491545539590986e-08,1.0187112828155184e-05,3.98546149652875,35.21473736963424,12.845460975581933,38.631757748577954
0.33,31.22221246496604,131.01039926777932,4.9934410812554,4.010606629086,0.0007621365968788,38.18822026147908,0.0010905599149574,2.917102431053817,418.5156301991682,13.18247167592885,4.940798912752974,71.99861449732019,4.661299779655886e-07,120.000004270781,106.38859400029033,15.288,0.0,0.0,0.0387407190563976,9.971421990244511e-10,-0.0003185760672934,4.7302669734505256e-08,1.154498667827874e-05,4.010606701382261,34.52805863348922,13.182591392065536,38.299473293007864
0.34,31.222212242662028,131.01039972474007,5.117579377337869,4.019339771238816,0.0007871574969313,29.898022638335373,0.0011220389395318,2.910051232417875,345.46563688075645,13.569536737955724,5.0878303926024735,71.99842423285973,5.519675040347761e-07,120.0000045987411,112.72655675097128,15.288,0.0,0.0,0.0398782837956187,1.1331556132162459e-09,-0.0003507224668667,5.37022358302301e-08,1.308298593306914e-05,4.019339848191799,33.76700548046532,13.5696603843662,30.039310197084795
0.35,31.22221201433324,131.01040019407705,5.2449575244483055,4.033762873683395,0.000813261106463,32.76415525156106,0.0011515840876071,2.902959820469776,370.5765700527033,13.934300103976534,5.227895396154902,71.99821502296155,6.495674834876441e-07,120.000004945438,118.8669740701126,15.288,0.0,0.0,0.040950312688979,1.2825853697215452e-09,-0.0003849609961885,6.072234695821837e-08,1.4746020857580124e-05,4.033762955530055,33.07785186209504,13.934427850732408,32.89250745069162
0.36,31.22221177990305,131.01040067594835,5.375631006350063,4.051723629010647,0.0008401329464575,37.01692984301412,0.0011797030485285,2.8957873473716007,407.8625232777193,14.282998147928636,5.362923567977223,71.9979856440668,7.600645476620651e-07,120.00000531213882,124.88900300695136,15.288,0.0,0.0,0.0419751331662584,1.4462801652534363e-09,-0.0004213876232777,6.84067806399068e-08,1.654507199147348e-05,4.051723715967022,32.44322602189087,14.283130115703262,37.13002398000203
0.37,31.222211539445663,131.01040117020102,5.509550188388412,4.071639898917391,0.0008674922629137,35.12417761390579,0.0012067983861697,2.88849906286036,391.1218908297666,14.620581431527652,5.494447309446232,71.99773482653193,8.846681943540367e-07,120.00000570002652,130.86067091914967,15.288,0.0,0.0,0.0429672939311924,1.6251202388969355e-09,-0.0004600660652957,7.679415042686734e-08,1.849041957573993e-05,4.071639991174516,31.85023865502424,14.620717696893658,35.24274792557624
0.38,31.222211292895075,131.01040167697127,5.646763233102716,4.08264881385344,0.0008930259828975,36.695642158537446,0.0012360471443664,2.880711738179021,404.8187610144602,14.986392916850402,5.634654729559426,71.99746126698146,1.0246533537040716e-06,120.0000061105033,137.4891296153862,15.288,0.0,0.0,0.0440424171304414,1.8200057922063743e-09,-0.0005010869196581,8.592980519823866e-08,2.0642694281337543e-05,4.082648911356968,31.228847973200924,14.986533193043764,36.808540518115166
0.39,31.22221104018777,131.0104021963902,5.787316652586672,4.096641430700089,0.0009192713382325,31.335681548387896,0.0012640110027448,2.872831219844713,357.64062493382744,15.337978856701952,5.770390286512262,71.99716358743511,1.1813915463769678e-06,120.00000654506955,144.01394309468844,15.288,0.0,0.0,0.0450757388736732,2.031886352449547e-09,-0.00054455673306,9.586443829735616e-08,2.295945663566148e-05,4.096641533664766,30.65298398882095,15.338123255506089,31.4670954954126
0.4,31.222210781536543,131.01040272801887,5.931064331106764,4.109028969993624,0.0009451871856381,29.95928076777898,0.0012920492774571,2.8646905607053603,345.465636880754,15.692185018814769,5.906873567965718,71.99684037970908,1.3563276523471372e-06,120.00000700500496,150.74021066990193,15.288,0.0,0.0,0.0461167659598875,2.2617341782092324e-09,-0.0005905037520737,1.0663253249436129e-07,2.5471259834659164e-05,4.1090290785164525,30.09246700352443,15.692333488470696,30.095929256306363
0.41,31.222210517064383,131.01040327160345,6.077922766619747,4.122888296344507,0.0009714525997821,33.78425365340317,0.0013192264430821,2.85640971467756,378.94687077668647,16.03742529732769,6.0405139809190125,71.99649020751959,1.5509747261474075e-06,120.0000074917568,157.44375780268788,15.288,0.0,0.0,0.0471314487675864,2.5105374204052982e-09,-0.0006389770219162,1.1827345344180344e-07,2.816813594418537e-05,4.122888410595805,29.56469007160549,16.037577892745222,33.904791300285986
0.42,31.22221024682894,131.0104038270252,6.227854084363214,4.14444025865494,0.0009995884754813,38.04468161607466,0.0013435485656724,2.8482703202464488,416.2328240017114,16.348862540904037,6.163613566771559,71.99611159893284,1.766920641656551e-06,120.00000800692096,163.6157044470786,15.288,0.0,0.0,0.0480467946810589,2.779304965995011e-09,-0.0006900467934588,1.308321832549104e-07,3.100973487310896e-05,4.144440378988911,29.104646754454564,16.34901955589459,38.15115260238947
0.43,31.222209970843565,131.0104043942566,6.380851271439565,4.1618082623168045,0.0010268052928652,33.45815353250911,0.0013687230309017,2.8397750580998298,375.9031395134336,16.67263197205097,6.290467308135904,71.99570306121484,2.005818691215035e-06,120.00000855220898,170.15779512382937,15.288,0.0,0.0,0.0489983878509763,3.0690566816849196e-09,-0.0007437862329608,1.443552931671376e-07,3.4086145072160934e-05,4.161808388761201,28.640125213458976,16.672793262249197,33.57845085853367
0.44,31.22220968892116,131.01040497368373,6.537047157143216,4.164954087655709,0.0010505545842624,30.86574023822051,0.0013980747538988,2.830419582421933,353.0750125389216,17.050421620730056,6.433992917638883,71.99526304125902,2.269416145406482e-06,120.00000912964636,177.9537948947602,15.288,0.0,0.0,0.050108743779844,3.380847125286677e-09,-0.0008003278134917,1.589055036683518e-07,3.750784460406397e-05,4.164954219916419,28.113519280259386,17.050586641458253,30.99524475496968
0.45,31.22220940081287,131.01040556582012,6.696617751072218,4.165241899529329,0.0010735835484822,35.912216710755274,0.0014280646808282,2.820677244966047,397.2093853562869,17.438293672974723,6.580571293039616,71.99478987454265,2.5595995397253085e-06,120.00000974147088,186.13940823302417,15.288,0.0,0.0,0.0512487363629523,3.7158016249566814e-09,-0.000859850913876,1.745604864109677e-07,4.121350642664912e-05,4.1652420376426775,27.591357195572936,17.43846231108416,36.02281959036367
0.46,31.222209106468902,131.0104061707686,6.859600379555308,4.174585124444534,0.0010989881252456,41.916816790010685,0.0014546917035209,2.811153314474766,449.7140588976434,17.786187321601275,6.714685486378061,71.99428180697711,2.8783880229668832e-06,120.0000103898448,193.6374175079873,15.288,0.0,0.0,0.0522712438446989,4.0751091178509895e-09,-0.0009224765531151,1.9138630415982226e-07,4.50966024037632e-05,4.1745852688465686,27.13985967570823,17.786359950252297,42.01097612387663
0.47,31.22220880579083,131.01040678873238,7.026066274755745,4.1823089530633855,0.0011240727220223,28.37640408484148,0.0014814747534716,2.801325368441072,331.0078106302534,18.138167428286582,6.849989708801916,71.99373704967608,3.2278903746588286e-06,120.00001107707628,201.37401505997488,15.288,0.0,0.0,0.0533057667609836,4.459978104761035e-09,-0.0009883252835099,2.094509673354327e-07,4.927107017839778e-05,4.182309103852639,26.69716826759888,18.13834399721685,28.514342615617974
0.48,31.222208499300592,131.0104074186346,7.195654207463586,4.189479568102716,0.0011490100608361,27.95074823096412,0.0015080719422187,2.7912412472910484,327.2031223011574,18.48995085190441,6.98515976370584,71.99315377257649,3.6103201777021456e-06,120.00001180491516,209.25751230436188,15.288,0.0,0.0,0.0543397174489847,4.8716620260348906e-09,-0.0010573190976925,2.2877013380347535e-07,5.373205427420879e-05,4.189479725385959,26.268461765425428,18.4901313379827,28.089773168283216
0.49,31.222208187201936,131.01040806005494,7.368224738812109,4.202723284133339,0.001175611380853,35.08821363242469,0.0015321405723077,2.781292092003844,389.60000969812296,18.812014261754847,7.111044804193205,71.99253015042137,4.027946338669921e-06,120.0000125755114,216.60722913930897,15.288,0.0,0.0,0.0552863302793499,5.311396446020465e-09,-0.0011294854492155,2.4938633613154685e-07,5.8398320167141767e-05,4.202723448262914,25.88860807032205,18.81219892635871,35.1982716047702
0.5,31.22220786953184,131.01040871291724,7.5437546994244835,4.220815778795054,0.0012036252596423,36.05491615971072,0.0015540388599792,2.7714444106710974,397.97031042210494,19.10875420627192,7.229005658018125,71.99186435180009,4.483102820610566e-06,120.00001339126192,223.4908652241728,15.288,0.0,0.0,0.0561585257949344,5.7804122391526605e-09,-0.0012048912160576,2.713531252030471e-07,6.327866493526626e-05,4.220815950099865,25.54902500917784,19.108943271285572,36.161276053538906
0.51,31.222207546379583,131.0104093770373,7.722184419225251,4.232567510615346,0.0012298790840397,27.54004661432325,0.0015777580800203,2.761017323676155,323.3984349720841,19.430597746636646,7.354673636736509,71.99115452520388,4.978202222778502e-06,120.00001425458936,231.07869697977367,15.288,0.0,0.0,0.0571045034845869,6.2799518101633574e-09,-0.0012835871653678,2.947201005874635e-07,6.854585242460463e-05,4.232567688976395,25.189423168613605,19.430790935591396,27.678103017910345
0.52,31.22220721761892,131.01041005250823,7.903528497056784,-8.565051117364952,-13.468650057562536,33.343956441262854,0.721819958571107,3.440461406991848,372.0984511843415,19.065477909064043,7.487141994364118,71.99041218662347,-2.257195921776276e-05,119.99998563341607,222.47203003595143,15.288,0.0,6.285726963536866,0.0560315689262357,6.7931713721113e-09,-0.0012458762039461,-0.0001105238283193,6.528068146998935e-05,15.918742625956025,13.80050054632375,16.969258323469898,33.52875228669308
0.53,31.22220688240701,131.01041073984328,8.087892801692794,-8.364468564194972,-13.278983570857328,35.006870646488515,0.7406509485984502,3.447959668462632,386.5562464348624,19.37543389077564,7.6214635648458895,71.98973742853286,-0.0004109167664865,119.99957763484372,229.76041709764752,15.288,0.0,6.309908177165361,0.0569426175734549,7.146396276854052e-09,-0.0010964851895695,-0.0003557374944071,5.8385984940103134e-05,15.653650890207286,13.582429226521777,17.30819910494052,35.18405863687394
0.54,31.22220654054628,131.0104114392706,8.275349836628715,-8.170991021674027,-13.095764465010271,30.749361182072448,0.759707664041474,3.455436096665466,349.2703242098436,19.683884285983712,7.755237931630136,71.98914896925065,-0.0012364883207373,119.99870988624004,237.1297954847548,15.288,0.0,6.334032993071632,0.0578492472394086,7.302754285801996e-09,-0.0009443917703031,-0.000607439320217,5.108690399979388e-05,15.397917713754772,13.370424101416363,17.644670526692842,30.952227827064178
0.55,31.222206192319376,131.01041215017773,8.465693506503916,-7.986541123497229,-12.922289796865927,32.58637076975322,0.778758542484481,3.4627550628863464,365.2500005919907,19.98521594660748,7.886667473675361,71.98864829552608,-0.0025104974715785,119.99737059623928,244.441124587356,15.288,0.0,6.35807167027954,0.0587349612583043,7.258178086817945e-09,-0.000789825529407,-0.0008653618293915,4.337891267069896e-05,15.1553234625265,13.1670393444487,17.97255214948742,32.779089332024846
0.56,31.222205837714505,131.01041287256075,8.658923343423474,-7.812236723697872,-12.760693103792256,30.416082865447567,0.7976182100911294,3.4698134880302582,346.2265619465787,20.27508716454824,8.014373957974481,71.98823681807207,-0.0042439865537634,119.99554815159776,251.57876703759564,15.288,0.0,6.382022668184651,0.0595869996188038,7.0087217912963526e-09,-0.0006327881907165,-0.0011296040430745,3.5257513985175525e-05,14.928249755630494,12.973971682550102,18.28717203187538,30.62374727770197
0.57,31.22220547679619,131.01041360625888,8.854985925504343,-7.639723393145074,-12.59816796019211,30.074780980831807,0.817076797079974,3.4770646771810245,343.1828296833023,20.572743364598303,8.144522421970272,71.9879159084074,-0.0064480143039087,119.99323092240104,259.0149103587993,15.288,0.0,6.4058744640082255,0.0604619231697785,6.550500800502544e-09,-0.0004733556574485,-0.001400144624403,2.6760991225844515e-05,14.7015121870192,12.78174485499211,18.6097350385918,30.286136173282802
0.58,31.222205109529007,131.01041435131793,9.053897657689571,-7.464069434332631,-12.426826860685402,39.58576456378586,0.8377134958833512,3.48482720470164,426.1250058573153,20.89158285308597,8.281386598808814,71.98768691996762,-0.0091337645684895,119.99040714799344,267.1005266838874,15.288,0.0,6.429626184426168,0.0613991089770381,5.8796320053685326e-09,-0.0003115260241103,-0.0016770910218213,1.7884623335971747e-05,14.465857739473154,12.584388696538266,18.95484946908413,39.7476859785233
0.59,31.222204735473465,131.01041510861603,9.255956073165986,-7.303570755170673,-12.276054507333429,32.09519318814628,0.8575155853989768,3.4919673587493527,360.68438819711065,21.1831896852856,8.409510311910909,71.98755130942484,-0.0123131774927729,119.98706427363832,274.6036699920018,15.288,0.0,6.453313664018724,0.0622562658775433,4.9919406184356334e-09,-0.0001469615861002,-0.00196111947605,8.554623084295559e-06,14.255666463853728,12.404008239423302,19.26959138572506,32.295984189960905
0.6,31.222204354841068,131.0104158776884,9.461005223013478,-7.133894913236547,-12.106725466472763,28.52623583049929,0.8792563188459817,3.5000287811293607,329.4859594986058,21.513255055819457,8.549854433177126,71.98751052250364,-0.0159983797298979,119.9831895485936,283.22222357311693,15.288,0.0,6.476913618159508,0.0632264566721031,3.8832748816039315e-09,2.0141177409513416e-05,-0.0022520153016079,-1.190660986486666e-06,14.025148507311927,12.211066960685176,19.625655039420938,28.75359844958933
0.61,31.222203967567538,131.01041665863923,9.669081321368852,-6.967205221002477,-11.938427295489756,33.42035179256562,0.9016042717928408,3.50825767499204,372.0984511843297,21.84958207861201,8.692134172350718,71.9875660185247,-0.0202018162818575,119.97876988852975,292.1411049747828,15.288,0.0,6.500429311074549,0.0642150568958567,2.549396953967057e-09,0.0001898162072193,-0.0025499512855961,-1.1396326712896434e-05,13.797201445713174,12.020311862472347,19.98783840530898,33.616077643233446
0.62,31.222203573760464,131.0104174512177,9.880100780263987,-6.825640580195708,-11.80830017909522,41.54656594601286,0.9215891555050002,3.515039662007884,442.86563930529206,22.12353375532828,8.814509760407276,71.98771926673291,-0.0249362446087988,119.9737918813028,299.5067351213895,15.288,0.0,6.523859976134218,0.0650203448166603,9.860067206276012e-10,0.0003619978194163,-0.0028549302330278,-2.20059497511752e-05,13.614815654989137,11.860241981014704,20.28179307145301,41.70517920238958
0.63,31.222203173214403,131.01041825582143,10.094199007785337,-6.681612332636838,-11.670966384202222,23.56751040657552,0.9426704540214556,3.5222673462669567,286.11251274707894,22.415833852969705,8.942696571730242,71.98797160590509,-0.0302139851154919,119.9682425756782,307.4669697647397,15.288,0.0,6.547189307613484,0.0658795643997388,-8.10927955251987e-10,0.0005367853853757,-0.0031672494811187,-3.306178662499415e-05,13.425187808820098,11.696273704375406,20.59521426235934,23.847904344145398
0.64,31.22220276653148,131.0104190711806,10.310948392843676,-6.53175351346243,-11.5204741252378,23.13526831020082,0.9654415745671056,3.5302425944394646,282.30782441796754,22.739385462691363,9.080767143176304,71.98832435322848,-0.0360475096882396,119.96210886131476,316.40043931177945,15.288,0.0,6.570424501960135,0.0668306377520077,-2.8454392378311556e-09,0.0007136713306129,-0.0034861356063531,-4.4590123151588894e-05,13.221502283259552,11.523652187626594,20.94192266300844,23.422965866740267
0.65,31.222202353679915,131.01041989733542,10.530363792300468,-6.399933865453999,-11.397742272501397,40.87735367490831,0.9863935928970516,3.53709152195054,436.7781447787475,23.01451713164393,9.203414240222434,71.98877868846833,-0.042449017911198,119.9553779185512,324.09640596873567,15.288,0.0,6.593508765024785,0.0676394121224599,-5.121375172717105e-09,0.0008926904099397,-0.0038117606300137,-5.644887403904351e-05,13.050882005682336,11.374080695787356,21.23594871592903,41.041954537013744
0.66,31.22220193411764,131.0104207353814,10.752816338586433,-6.268014214094881,-11.271941010498972,34.76833520384763,1.0081461813088015,3.5442144926580768,383.51251517160017,23.30049458908696,9.329478871431986,71.98933589264288,-0.0494308936690837,119.94803672798665,332.1937693535376,15.288,0.0,6.6165147297977525,0.0684800685754136,-7.642567258528513e-09,0.0010742277402959,-0.0041449394499357,-6.877091027317612e-05,12.877735768620267,11.223690023631576,21.541301557155013,34.963051181782824
0.67,31.222201508026657,131.0104215849164,10.978171567731131,-6.131446104728909,-11.134982418113216,23.934285065961223,1.0315116657536652,3.552023074496755,289.1562440103425,23.614874204082383,9.464513368185235,71.98999723481937,-0.0570063867774232,119.9400713677852,341.21104264135244,15.288,0.0,6.639444860108224,0.0694042055679349,-1.0413164332819405e-08,0.0012581087057234,-0.0044854863223078,-8.162772181592517e-05,12.692817165189714,11.066119571581346,21.876784600541907,24.218399737741503
0.68,31.222201075571448,131.010422445575,11.20630746378656,-6.000395701061314,-11.00477137632206,29.88575823126153,1.05484396833221,3.559647955131781,340.8999924858462,23.92089593740757,9.596853895134004,71.99076397137028,-0.0651887579042178,119.93146790347328,350.1040818872316,15.288,0.0,6.662218405181817,0.0703037855567651,-1.3437251900893525e-08,0.0014441945746507,-0.0048332743052403,-9.491339507291712e-05,12.516612179521305,10.915405634698375,22.202879269103605,30.115483300445586
0.69,31.222200636823647,131.01042331718466,11.437167185770544,-5.879793628198378,-10.890364282565823,36.80276677252334,1.0771863044818435,3.5666084308910646,401.0140726853634,24.19801737342852,9.720004625225394,71.99163723858658,-0.0739911104443028,119.92221256997932,358.2549760189744,15.288,0.0,6.684897089965428,0.0711184338406209,-1.671876823511399e-08,0.0016323977880468,-0.005188268447029,-0.0001085226803171,12.359384126771625,10.778528255035193,22.497644678693728,36.99087276811152
0.7,31.222200191629152,131.0104242000411,11.670851971186428,-5.761444091309595,-10.777365693197806,30.85935428945093,1.099912348633934,3.5736130120548006,349.27032420985284,24.476343950542223,9.84350739187378,71.99261822195861,-0.083426468151816,119.91229167998874,366.5354733022328,15.288,0.0,6.707489985908732,0.0719366306030729,-2.0261515563964585e-08,0.001822807554818,-0.0055507664829547,-0.0001225723044716,12.2046372212061,10.644260070823242,22.793404663663026,31.085048886827543
0.71,31.2221997400326,131.01042509402873,11.907324292358007,-5.640957624918174,-10.65785935157412,25.35023964358939,1.1238644694007764,3.5810754271653327,301.33126406340574,24.77372501623472,9.973000519112462,71.99370799543618,-0.0935081976253568,119.90169119463064,375.48767001340894,15.288,0.0,6.729932847831332,0.0728108357700555,-2.4069382503982497e-08,0.0020153495778213,-0.0059207640575113,-0.0001371629520022,12.043349726641152,10.506492928203096,23.109230273209445,25.62658429342545
0.72,31.22219928202447,131.01042599914416,12.146584479969556,-5.517725134911209,-10.530465829885763,31.046316772466074,1.149302623594598,3.589113351523364,350.79220534145287,25.09478993038864,10.109933632416364,71.99490763250348,-0.1042499903531943,119.89039673504976,385.2744470955228,15.288,0.0,6.752275397266627,0.0737546557583657,-2.8146306075470468e-08,0.0022100127283419,-0.0062983765020997,-0.0001523573755679,11.874014053607151,10.363982595447212,23.449965006341028,31.274213280384735
0.73,31.222198817589494,131.01042691539507,12.388636708046334,-5.4097258517562725,-10.428743163895728,39.28534082295683,1.172460607183662,3.5958607701910834,422.320318528234,25.36021786314817,10.229258060004598,71.99621832072906,-0.1156660918219146,119.87839333637508,393.4585093231656,15.288,0.0,6.7745315313844126,0.0745349632925119,-3.249637032070644e-08,0.0024068061876816,-0.0066837588358131,-0.0001676753217061,11.73455274509572,10.243156690352862,23.73110496913425,39.46698471038642
0.74,31.222198346650405,131.01042784292022,12.633529381359937,-5.299861972934859,-10.321101181980186,24.5731216547484,1.1968183405681188,3.603041026744591,294.48281347105944,25.64363756350528,10.354231031183968,71.99764111440153,-0.1277703093126799,119.86566649637308,402.2925859626442,15.288,0.0,6.796674558263113,0.0753681563638413,-3.7123383962169124e-08,0.0026057263547002,-0.0070770511193849,-0.0001835579805375,11.589176677983156,10.119181421956878,24.03115658485368,24.86468553269455
0.75,31.22219786957465,131.0104287809363,12.880999725247223,-5.189650018999629,-10.210336930059636,28.695816227612216,1.2221110663012211,3.610510071996385,330.24688556441487,25.93899760246914,10.482925940960431,71.99917691652982,-0.1405765961348236,119.85220156820424,411.60327884134233,15.288,0.0,6.8186687577418414,0.076236449710028,-4.203125388853963e-08,0.0028064360919372,-0.0074777367878035,-0.0001999690854753,11.44104855014016,9.994257616865664,24.34363690628849,28.947870515933566
0.76,31.22219738623508,131.01042972968636,13.131131421119957,-5.085801081564275,-10.109340601237008,30.891895581557566,1.246769155869298,3.617509888642272,349.27032420986166,26.213993273200515,10.60516094663454,72.00082668343146,-0.1540988814360337,119.83798392516462,420.36677510816793,15.288,0.0,6.840561070205989,0.0770448978106241,-4.7223652309032336e-08,0.0030090241983854,-0.0078861318475257,-0.000216672077021,11.304646459066836,9.878517604145117,24.634248278357443,31.127962087876995
0.77,31.22219689656078,131.01043068929752,13.383969059182744,-4.984936218598572,-10.011823868259851,28.87966176183413,1.2715187109813149,3.6243945975828034,331.7687666960708,26.483627442179888,10.725671505451457,72.00259130785126,-0.1683513007127388,119.82299872784874,429.0485222334781,15.288,0.0,6.8623538852067565,0.0778375949497182,-5.2704263769178166e-08,0.0032135144185823,-0.00830243256987,-0.0002337713368081,11.17285305262547,9.766987572015946,24.918964803976785,29.13396401983958
0.78,31.22219640060952,131.01043165963043,13.639467323576168,-4.882474642000656,-9.908871084009688,23.708300685973818,1.2975197707970083,3.631708153348193,286.8734378128899,26.77117595141317,10.85178207325149,72.00447163584589,-0.1833481085528834,119.80723101376408,438.4052151876245,15.288,0.0,6.88402295088431,0.0786829508675618,-5.847679248398874e-08,0.0034198069140048,-0.0087265902543473,-0.0002514733204152,11.035670887519354,9.652599470685724,25.22244135049002,24.019916383768937
0.79,31.22219589846376,131.0104326404944,13.897563616208922,-4.780016405230358,-9.803563111803353,33.714304750574385,1.3244273139666347,3.639274334270001,373.6203323159534,27.06918184033604,10.981134451030536,72.0064684913263,-0.1991037983216476,119.79066557121456,448.20872831913823,15.288,0.0,6.905549563226455,0.0795590492820434,-6.454496674840935e-08,0.0036278008960698,-0.0091585512128764,-0.0002697308932879,10.896554047486095,9.5377985223451,25.536744825597765,33.936009933471254
0.8,31.222195389880888,131.0104336323745,14.158423411652109,-4.685989177573155,-9.712870448968776,34.15833006306177,1.3498807317862902,3.64599635241998,377.42502064505743,27.330964402741746,11.099055537842688,72.00858270224415,-0.2156333311980067,119.77328669946417,456.9083385601826,15.288,0.0,6.9269841337916445,0.08032869099242,-7.091243084082421e-08,0.0038376900816923,-0.0095988713816511,-0.0002880886138841,10.774391164348163,9.436075937667534,25.81256724262324,34.37887403753906
0.81,31.222194874959204,131.01043463504837,14.421973489145543,-4.589614951342341,-9.61521452476686,22.222912479482417,1.376867439846842,3.653260940250212,273.9374926939919,27.61550905822832,11.224089907822192,72.01081503634965,-0.2329516499701754,119.7550787183908,466.4598686925788,15.288,0.0,6.948315646929583,0.0811652401732401,-7.758294094884151e-08,0.0040493229033609,-0.0100474026745695,-0.0003071324535005,10.645126350845116,9.330187038150669,26.112233966725185,22.56324264185455
0.82,31.22219435388724,131.01043564810558,14.688077208412269,-4.493396411874635,-9.51558866215864,28.54813084605136,1.4047472337178712,3.6607595269716655,328.72500443277005,27.90961089641309,11.352074450377964,72.01316616055385,-0.2510737743555437,119.73602587217437,476.4360815628396,15.288,0.0,6.969534482997449,0.0820298864645361,-8.45602420623378e-08,0.0042625028087727,-0.0105038944423717,-0.0003267364659764,10.514323007031727,9.224092682133575,26.421767419266725,28.816145646290398
0.83,31.222193826638108,131.01043667158456,14.9567494095715,-4.406242704799072,-9.43265573797948,36.28220129898386,1.4306429604040478,3.667185990172348,395.68750322465047,28.15837309673181,11.465778293678811,72.01563682041107,-0.2700149345081453,119.716112178844,484.9544992367868,15.288,0.0,6.990631426461942,0.0827612810002152,-9.18479289826564e-08,0.0044772377657294,-0.0109685252730674,-0.0003462467129128,10.402604430799602,9.132817041264955,26.683379003039697,36.49511095292979
0.84,31.22219329309222,131.01043770571934,15.22807094694808,-4.319069943851201,-9.347744531388816,22.40330685993148,1.4573223365764292,3.6737996939657314,275.4593748256452,28.41530847362424,11.582007016064344,72.01822750220929,-0.2897900830862479,119.69532196047082,493.83209127548446,15.288,0.0,7.011598983237179,0.0835167046155798,-9.944934989169404e-08,0.0046935621364875,-0.0114415424625075,-0.00036627862253,10.289257740608974,9.04138891107507,26.953473474165754,22.749258248222514
0.85,31.22219275355173,131.01043874986428,15.501825924182263,-4.227622211881414,-9.251658389568146,24.426456340480943,1.4863527133994945,3.681287041829067,292.96093233939376,28.70916044792741,11.709758197379514,72.02093873429031,-0.3104142300543221,119.67363947418866,504.0854078651197,15.288,0.0,7.032446078028254,0.0843806387290358,-1.0736811993010497e-07,0.0049111591161851,-0.011922430910988,-0.0003872127999297,10.164168055906655,8.942305443278869,27.262220246311227,24.746977351312832
0.86,31.222192207825344,131.0104398044032,15.778145772780968,-4.142000488240472,-9.165939890152254,30.583010025623885,1.5142581174770406,3.688097600512797,346.2265619465587,28.974499133451413,11.82851847384228,72.0237710484711,-0.3319029778645998,119.65104835816572,513.432659337775,15.288,0.0,7.05318715227102,0.0851607754440509,-1.1560754903121356e-07,0.0051301838706292,-0.0124116999294824,-0.000408208976906,10.051067901549306,8.85293567597201,27.5408500247997,30.841782435272194
0.87,31.22219165593096,131.01044086928442,16.057015067900142,-4.059739963650779,-9.085561442785394,28.475494815743897,1.541774832038016,3.6945653365198896,327.964078366998,29.22560490347339,11.942771600812616,72.02672486594774,-0.3542718889713539,119.62753229714994,522.3564990012327,15.288,0.0,7.0738211907648525,0.08589908650635,-1.241710373221032e-07,0.0053505719233451,-0.012909388467169,-0.0004294234598594,9.944369898458143,8.76923994534962,27.804421801092303,28.75553316598351
0.88,31.22219109789905,131.01044194443108,16.338409837043333,-3.976098587304607,-9.000198862887665,24.60732139817489,1.5706850563989891,3.701463800674112,294.4828134710418,29.495129360160284,12.062739648094116,72.02980056164223,-0.3775365460693846,119.60307495574236,532.0211022152673,15.288,0.0,7.094343271120435,0.0866915405486979,-1.330619492006354e-07,0.0055722233540521,-0.0134154576009581,-0.0004513247354987,9.832733650933474,8.682845398601522,28.08718832208045,24.93367506420126
0.89,31.222190533808337,131.01044302966525,16.62227212990928,-3.891260286640336,-8.910109214151701,26.984806190911456,1.6010273441270566,3.7087943823452303,315.028134248087,29.783192829771007,12.188447693749096,72.03299841162712,-0.4017127271023083,119.57765979939336,542.4490027353468,15.288,0.0,7.114751728351528,0.0875384917592097,-1.4228363884956948e-07,0.0057950361696343,-0.0139298612841054,-0.00047394274497,9.716463158504462,8.593918137108371,28.3892305422624,27.285494488614486
0.9,31.222189963573005,131.0104441251536,16.908660195645282,-3.814257739196971,-8.835703928984307,29.803474307712527,1.6290257029544737,3.7149408621417033,339.37814235421445,30.02182582685863,12.298639752323112,72.03631880663058,-0.4268167530584328,119.55126971818434,551.1612361162237,15.288,0.0,7.13504728956068,0.0882401648462637,-1.5183937332546602e-07,0.0060190553441835,-0.0144528908247506,-0.0004961945248768,9.617831384309774,8.519097038813886,28.63941122741785,30.07825778133729
0.91,31.222189387261327,131.0104452307422,17.197524195142645,-3.735874970827616,-8.756363704919908,22.67420551698364,1.6584424528358277,3.7215096334885818,277.7421810230789,30.278979122597285,12.414566584008314,72.03976181969438,-0.4528644103909967,119.52388817774556,560.6281131542062,15.288,0.0,7.15521460721214,0.088996280001751,-1.6173235168412888e-07,0.0062441510080286,-0.014984444725347,-0.0005191455166271,9.51429492310276,8.441603320932133,28.90888068083571,23.037353605566935
0.92,31.22218880507812,131.01044634598975,17.48871740137417,-3.656321101694248,-8.672397567799594,26.990270051906663,1.6893082345659507,3.728499102949407,315.02813424806214,30.554600396504508,12.536196551554609,72.0433276379625,-0.4798717144532224,119.4954983954292,570.8650904066728,15.288,0.0,7.175262618396596,0.0898066838913407,-1.71965964626801e-07,0.0064700810288656,-0.0155241484629823,-0.0005428110300229,9.406215265756732,8.361609925717723,29.197539064025435,27.298903738921762
0.93,31.222188216923485,131.0104474710957,17.78230919292468,-3.583540075645922,-8.602393947077713,32.101310048391646,1.717901060625442,3.734357351816735,359.1625070654728,30.78351372260326,12.643180083967872,72.0470163094894,-0.5078548345404104,119.46608343537352,579.4345715981823,15.288,0.0,7.19520171741517,0.0904798101838566,-1.8254305919406538e-07,0.0066969149404261,-0.0160723619583036,-0.0005660347096212,9.313768169589617,8.294358226659789,29.437323820511253,32.36341631701042
0.94,31.22218762267904,131.0104486063017,18.07838314149796,-3.5069366838247715,-8.521561640643982,23.292136982869778,1.749218951056417,3.741156086439613,283.0687504837787,31.05279448969113,12.76270184114016,72.05082777245383,-0.5368297483668734,119.4356265665238,589.5994264629945,15.288,0.0,7.215031701699004,0.0912715930578812,-1.934664201215125e-07,0.0069246598679389,-0.0166293137695987,-0.0005903871227136,9.210036793840167,8.219503451930544,29.71916019132046,23.655436183478187
0.95,31.222187022640423,131.01044975097471,18.376727965792387,-3.4322063655366435,-8.443311080986641,30.16768897964236,1.7805520761154776,3.747765345334391,342.4218736174873,31.31521360433861,12.880009522690244,72.05476192680622,-0.5668130623615416,119.40411040211204,599.5894557102508,15.288,0.0,7.234744607808887,0.0920432154759477,-2.0473948094021683e-07,0.0071530272073854,-0.0171945078692931,-0.0006149935375253,9.109562373461904,8.148028440785666,29.99373641827551,30.451692385676758
0.96,31.22218641649932,131.01045090575795,18.67756269691125,-3.36120662135208,-8.372288163559206,29.552513159269736,1.810846724494174,3.7537627744365394,337.09533515678345,31.55289809134108,12.989542199001338,72.05881873410462,-0.5978213772162128,119.37151755582975,608.7082548935625,15.288,0.0,7.2543559949234,0.0927421442173681,-2.1636462422068825e-07,0.0073822390593991,-0.0177687051740855,-0.0006394993513562,9.017337498797897,8.083803240890292,30.242457255819588,29.84494823006345
0.97,31.222185804272804,131.0104520706089,18.980875146757,-3.289992614327975,-8.298994030794198,18.883067517629303,1.8421466614175872,3.759974590538471,245.02188719299323,31.80065731566383,13.102150384495587,72.06299797286866,-0.6298716691661216,119.33783025898865,618.2871550069472,15.288,0.0,7.273863973620448,0.0934706926823995,-2.2834483483161002e-07,0.0076122133145473,-0.0183519318959794,-0.0006645798109797,8.923089960083166,8.018976601443175,30.5016078690224,19.341694654786945
0.98,31.22218518625496,131.01045324489803,19.28645534163119,-3.215561020143701,-8.215818762428238,27.52699506376213,1.8762782146821884,3.767110890386999,319.5937466429581,32.08845738139284,13.227147547581422,72.0672993167749,-0.6629808931829582,119.30303076926272,629.5104773568056,15.288,0.0,7.293255332597203,0.0943169397636361,-2.40683566381834e-07,0.0078426124736821,-0.0189435617054535,-0.0006908709727715,8.818646760860952,7.947164571097018,30.80233762568314,27.846849043289403
0.99,31.222184562289044,131.0104544289505,19.59441510937689,-3.14939212293214,-8.151642940426093,30.08674518999248,1.906488500260996,3.7724972402891326,341.6609485517054,32.30449743349075,13.32973582266588,72.07172256504205,-0.6971664815499883,119.26710083645936,637.9966767605383,15.288,0.0,7.31254490438708,0.0949522717787528,-2.533832849406571e-07,0.0080735645293364,-0.0195441448841877,-0.0007159831721154,8.73504013568075,7.892433360312645,31.028355736770457,30.382209760930035
1.0,31.222183932371944,131.0104556227701,19.904757911715382,-3.0801214632173743,-8.077881644549546,26.91076078513001,1.9394868064163744,3.7787798514003352,314.2672081822764,32.559532441255094,13.444384491802955,72.07626720055548,-0.732445117728017,119.23002300953976,648.0907349877633,15.288,0.0,7.331726878107695,0.0957022286479858,-2.6644665968524845e-07,0.0083049592311684,-0.0201536419241833,-0.0007422961786654,8.641548822522113,7.830950276206841,31.29486113013498,27.24389532119266
1.01,31.222183296685955,131.01045682596435,20.21735370193922,-3.012527583489333,-8.006686102894125,28.14722163633065,1.972377524667664,3.7848146404959833,324.9203161036979,32.80604315623527,13.556301681044,72.08093274102362,-0.7688342277937935,119.19177905785097,657.9216200027123,15.288,0.0,7.350798574036687,0.0964271376821269,-2.7987673053633e-07,0.0085365945011128,-0.0207717611637643,-0.0007687533571197,8.551209402294202,7.77284191477785,31.55244522650531,28.468951171538567
1.02,31.222182655151084,131.01045803870056,20.53226114723716,-2.9468970510558536,-7.938931951760182,23.46737696691968,2.00489336793086,3.7905010294103256,284.59063161540416,33.03990772241402,13.664211268801925,72.08571857875721,-0.8063509716361252,119.1523510344399,667.3151274187517,15.288,0.0,7.369764729689401,0.0971148832792166,-2.936758217898224e-07,0.008768474463066,-0.0213987585543773,-0.0007952400659001,8.464938611502184,7.71886506000448,31.796849716017068,23.855927506140823
1.03,31.22218200783593,131.01045926083103,20.849432685436607,-2.879614942440264,-7.865045686353818,19.138235820081967,2.0395234224393395,3.796783289159941,247.30469339049705,33.30069630288558,13.780398726605464,72.09062400363574,-0.8450124409678632,119.11172106749768,677.8704734979709,15.288,0.0,7.388621940764762,0.0978817748585459,-3.078465331789256e-07,0.0090004579769741,-0.0220345087441796,-0.0008226973118861,8.372512616824231,7.660923917749423,32.06913412031408,19.617525059002507
1.04,31.222181354801343,131.010460492223,21.16882588419017,-2.815698036141927,-7.798487098339994,30.53436498914704,2.07272949409663,3.80231379632244,345.46563688072297,33.53218421648678,13.887404618301415,72.09564827994525,-0.8848363540095768,119.0698706305108,687.3065017389188,15.288,0.0,7.40737295513057,0.0985625497275854,-3.223914376588484e-07,0.0092324484892693,-0.0226790001541621,-0.0008497429477404,8.288276643670297,7.610398686116484,32.31097951230182,30.839929361978935
1.05,31.222180695759377,131.0104617334937,21.490650914321897,-2.7506777084734684,-7.72717941621931,18.33868917114496,2.10774879620052,3.8083099057262046,240.45625879819983,33.785274575520255,14.0010308674657,72.10079055191305,-0.925840237502448,119.02678140235592,697.6992347180641,15.288,0.0,7.426028186805,0.0993068294292368,-3.373121325416764e-07,0.009464618787455,-0.0233329859187643,-0.0008776593561277,8.199365468049946,7.557055170731724,32.57516820559598,18.848165689048006
1.06,31.222180030948607,131.0104629841313,21.81473763198798,-2.684944708587581,-7.65204305155757,26.204236985737644,2.144438108574,3.8146988575960687,308.17968365593924,34.05698518826249,14.120334532007396,72.10604995206243,-0.9680424343555528,118.98243420744268,708.944476132644,15.288,0.0,7.444579723304329,0.1001058487798903,-3.526117994300556e-07,0.0096966833789264,-0.0239959453876756,-0.0009063820671084,8.106773277414865,7.501608088667804,32.858575076782046,26.56713342045675
1.07,31.222179360251864,131.01046424438678,22.1411729333246,-2.6238756259514373,-7.5882569636971775,30.890496893940668,2.1783910451487025,3.819858391038845,348.5093681440308,34.27995771465929,14.224446377411672,72.11142555421733,-1.011461718569132,118.936809421485,718.2353231486712,15.288,0.0,7.463038313602077,0.100761617185416,-3.682924797936809e-07,0.0099287088995324,-0.024668349543402,-0.0009341171103338,8.026584625631255,7.457095153783689,33.09147861541897,31.20191506987563
1.08,31.22217868356937,131.0104655144784,22.470032556064737,-2.562827555258903,-7.522889619841042,20.719321107497947,2.2132936457606487,3.8251467207572136,261.00157857466235,34.5107561049019,14.330899338416843,72.11691628450302,-1.056116478586265,118.88988782927936,727.91628531734,15.288,0.0,7.481405172851828,0.1014403964242955,-3.8435625473025e-07,0.0101606781128061,-0.02535045760646,-0.0009623470544583,7.945071515649043,7.412450167237359,33.332455735624855,21.18538843999076
1.09,31.222178001177628,131.01046679381298,22.80111906778045,-2.498788051824039,-7.447034067118678,19.035942202057697,2.2519400945449943,3.831552510229512,246.54375332474407,34.79107239826113,14.452577524035457,72.12252098250752,-1.1020253070387118,118.84165000458243,739.7658974461085,15.288,0.0,7.499669456871696,0.1022647359907087,-4.0080637566651284e-07,0.0103922511013824,-0.0260415802439273,-0.0009922433336919,7.85283727044123,7.359880513230408,33.624585860699604,19.547867514083133
1.1,31.222177313153026,131.01046808222722,23.13437981951915,-2.4375955132765887,-7.377665603306783,38.41485065304848,2.289186455952356,3.83721394766206,413.1890617385841,35.04328735915569,14.565454760513878,72.12823839756444,-1.149206992743503,118.79207631920924,750.506492223993,15.288,0.0,7.5178347861117505,0.1030064829952462,-4.1764515468546923e-07,0.0106233176565247,-0.0267416853562726,-0.0010216257910264,7.767814491369734,7.314077436040412,33.88760613688124,38.67383270644723
1.11,31.22217661909741,131.01046938058775,23.47010886959755,-2.380977435898892,-7.320326336480858,28.059629185288447,2.323070414333356,3.841457034117509,324.1593910376397,35.239275797776195,14.660863650386172,72.1340672020127,-1.1976806781987277,118.74114677790452,758.9002882424305,15.288,0.0,7.535918591413527,0.1035829652126671,-4.348733081945482e-07,0.0108541629135108,-0.0274519602181704,-0.0010496297841871,7.695800649083317,7.280017464399226,34.09252741878256,28.416478288324416
1.12,31.22217591907705,131.0104706887605,23.80826328016873,-2.318196577468051,-7.242469983597309,10.43817772294766,2.364231513488809,3.8480143235575626,172.73281794065943,35.53479049680299,14.786924136727324,72.14000591910941,-1.2474651494136744,118.68884176346512,771.656787725092,15.288,0.0,7.553912993665712,0.104452005058467,-4.524933309557459e-07,0.0110845970233313,-0.0281721864883216,-0.0010808673478522,7.602548960389104,7.2291042903562595,34.40017313995339,11.373317856259824
1.13,31.22217521367732,131.0104720054737,24.148417497996952,-2.259956433141035,-7.176726867515825,33.10680799702716,2.401941166918891,3.8531149703113146,367.5328077900705,35.77324818424464,14.895246170598917,72.14605310452242,-1.2985807579409574,118.63514001731616,782.0224545319486,15.288,0.0,7.571806050716565,0.1051533382186468,-4.70509613358129e-07,0.0113140627587567,-0.0289009471490508,-0.0011106097914267,7.522371307981388,7.189974515327038,34.64887608366063,33.4167106713961
1.14,31.22217450224821,131.01047333215328,24.49105359409325,-2.2049485949669707,-7.119498664968486,18.22373028107709,2.437180348586849,3.857129061214149,239.69531773195544,35.969748916587,14.990530879252322,72.15220703703805,-1.3510461974844197,118.58002202814852,790.6112524979458,15.288,0.0,7.589621593567893,0.105731349275179,-4.88921252582486e-07,0.0115430465615435,-0.0296401377731336,-0.0011392737718412,7.45144340865563,7.159636660171767,34.854296333338645,18.786208718201944
1.15,31.222173785273675,131.01047466775367,24.835822012554047,-2.1441291739997594,-7.041902070126287,17.953872411231043,2.480172485360986,3.863533018257821,237.41251153546767,36.27000666522415,15.11769910161916,72.15846588218578,-1.4048802107120488,118.52346823585256,803.8389883733782,15.288,0.0,7.60733798017487,0.1066143573138736,-5.077322708865129e-07,0.0117709804601278,-0.03038831094881,-0.001171429447139,7.359517720693263,7.112221693887293,35.16664996763517,18.53158594128072
1.16,31.22217306289032,131.01047601197928,25.18262576275473,-2.090999292212824,-6.987563334492664,47.37845360114308,2.5152567878980667,3.867004774001991,490.0437743845894,36.452200201686885,15.208361808093812,72.16482781786817,-1.4601030393270276,118.4654575099018,811.9080026191234,15.288,0.0,7.6249379462370355,0.1071503279049793,-5.26944758515433e-07,0.0119977317213718,-0.031145365677666,-0.0011999531457919,7.292230061515684,7.086870956304377,35.35731512227164,47.60250107154969
1.17,31.222172334252488,131.01047736670287,25.532096817338303,-2.035216708716668,-6.9228281209134765,8.193866492755603,2.5546377269631484,3.87167097249614,153.70937929486794,36.68820042924276,15.315509954781763,72.17129076185475,-1.5167333937071652,118.40597033357076,822.4273971219097,15.288,0.0,7.64246812903333,0.1078444699767528,-5.46556590257761e-07,0.0122239102726937,-0.0319137544758303,-0.0012304483254787,7.214393813238856,7.05337892879119,35.60340910375755,9.415702742567634
1.18,31.22217160048756,131.01047872945503,25.883407123501566,-1.9759332930398343,-6.84431301166817,22.908344077508712,2.5999200132749225,3.8780106577951567,280.02501822196746,36.99905371442033,15.44555886327626,72.17785260226006,-1.574791090168821,118.34498602999028,836.3948056125998,15.288,0.0,7.659890158181475,0.1087586502032398,-5.665749349740503e-07,0.0124483968277505,-0.0326900883089425,-0.0012636191568407,7.122523619817233,7.008361040335133,35.92650661225327,23.379280979339992
1.19,31.222170861094337,131.0104801013481,26.236933031714507,-1.9264501506937524,-6.797656025688169,40.2034528093558,2.633241532563534,3.880164386675668,428.4078130529292,37.139345901483,15.52302723218672,72.18451114475742,-1.6342965331736672,118.28248331033016,842.7210584711006,15.288,0.0,7.677235113794498,0.1091714743886976,-5.869982800063724e-07,0.0126716381979256,-0.0334762716940911,-0.0012911135144628,7.0641281984724,6.993678750515022,36.07407578820608,40.47600838065116
1.2,31.222170115650936,131.01048148333808,26.5929979393788,-1.8703648198290888,-6.726293578396201,3.9143222763585537,2.676884657222482,3.885413786093999,117.1843741360236,37.41389092856278,15.641671038916682,72.19126390317405,-1.695268159490552,118.2184429563704,855.1971450187633,15.288,0.0,7.694505151492022,0.1099789441460831,-6.0782626428096e-07,0.0128938058503254,-0.0342733920118883,-0.0013234165452168,6.980344055136946,6.957458647961234,36.35975242622941,6.130584853049441
1.21,31.2221693652772,131.0104828729513,26.95077286134524,-1.815362913526338,-6.656758074651716,32.218493154422234,2.720416555162517,3.890332843084792,359.92343213200894,37.680330305567146,15.757674213917024,72.19810844707611,-1.7577267474916158,118.15284329232254,867.3911108656075,15.288,0.0,7.7116712217858385,0.1107625957022459,-6.290661837848898e-07,0.0131138449872287,-0.0350780860094226,-0.0013555401281337,6.898777290686681,6.923909656670819,36.6370400079737,32.566342395257394
1.22,31.222168609132805,131.01048427207076,27.31089278854237,-1.7667673736781484,-6.608819073523618,23.25121082411057,2.7552652990886,3.892223065844113,283.0687504825761,37.82496004846495,15.83617147640528,72.20504210526963,-1.8216917718780388,118.08566401774507,874.0323293373984,15.288,0.0,7.728768487726902,0.1111881915772858,-6.507139801482265e-07,0.013332443478072,-0.0358932870655825,-0.0013833779114227,6.839890351428136,6.911759810461825,36.789149590145605,23.735199431432786
