Time,Latitude,Longitude,Altitude,Angle of Attack,Angle of Sideslip,X-Acceleration,Y-Acceleration,Z-Acceleration,Thrust,True Velocity,Ground Velocity,Pitch,Roll,Yaw,Dynamic Pressure,cp,parachute_deploy_gain,Wind Speed,Mach,omega_x,omega_y,omega_z,Cmq,Angle of Attack(total),Angle of Attack(gust),True Velocity(gust),Acceleration
0.0,31.222216000000007,131.010392,3.000000004412624,0.0,0.0,0.0,0.0,0.0,2.2828121974499247,0.0,0.0,71.99999999612658,-1.0292491154817412e-14,119.99999999354436,0.0,15.288,0.0,0.0,0.0,0.0,0.0,0.0,-0.0,0.0,90.0,0.0,0.0
0.01,31.22221599999862,131.01039200000284,3.0000009727369523,0.0,0.0,0.0,0.0,0.0,34.24218696174923,5.916279387578309e-11,5.734623670548936e-11,71.99999999613168,-5.86671995824671e-13,119.9999999935449,2.1432944861733093e-21,15.288,0.0,0.0,1.7386402909615473e-13,-3.4220131069073734e-19,7.115076756936125e-19,5.488773498207866e-19,-1.1574302492039043e-31,0.0,89.99999999962336,5.916279387578309e-11,0.0
0.02,31.22221599999738,131.01039200000537,3.0000018317022668,0.0,0.0,0.0,0.0,0.0,25.871876237766408,1.2265415415436536e-10,1.1895038237325684e-10,71.9999999961369,-1.1836364828043265e-12,119.99999999354544,9.211895886571454e-21,15.288,0.0,0.0,3.6044858651615574e-13,-6.979551485375437e-19,1.4162390878091906e-18,1.0909784360635388e-18,-4.776231873571785e-31,0.0,89.99999999921916,1.2265415415436536e-10,0.0
0.03,31.22221599921969,131.01039200159065,3.0001883335529382,18.80143492628821,-0.0001350810307892,10.931161642028636,-1.75114298675875e-05,3.026590975169265,180.34219359854663,0.0798232026864394,0.0478175828508887,71.99999999765336,-5.341802909786072e-12,119.99999999436793,0.0039016003969354,15.288,0.0,0.0,0.0002345795854893,3.788270153300133e-17,-7.771883375645477e-10,1.1422790048099072e-11,1.7057759223764537e-13,18.80143492675591,89.51882325913425,0.079801984207741,11.342422482672777
0.04,31.222215995131297,131.01039200995308,3.001692634342189,9.19442604083399,-4.49173898918486e-05,52.29595764159784,6.445392950801871e-06,3.026413589912948,548.6359724538078,0.3504174083926908,0.1601447499964056,72.00000000319055,-3.111420077280171e-11,119.99999999870242,0.0751892535633216,15.288,0.0,0.0,0.0010297854387864,2.0082066977226968e-15,-1.520937588847922e-08,2.5623342884322286e-11,1.4654248781413086e-11,9.19442604094277,87.798916624545,0.3504103527855857,52.383455068075136
0.05,31.222215983575865,131.01039203366796,3.0074067499493786,5.158590039700252,1.707592688632746e-06,76.26884281015512,5.843947534199429e-05,3.0258124765658088,761.6984298824644,0.9592973585397016,0.3772700771701255,72.0000000004862,-1.3608731808076822e-10,120.0000000109612,0.5634958029902841,15.288,0.0,0.0,0.0028191251099456,2.086299069701397e-14,-1.0551247853743037e-07,3.973493515691201e-11,2.783064866637575e-10,5.158590039700515,83.94063169874748,0.959297626767734,76.32884071402438
0.06,31.222215961742712,131.0103920785344,3.019291017943491,4.109521257467909,3.140103977270004e-05,57.06876634333886,0.0001151069734147,3.024834864051463,590.4875390737208,1.6257536642597354,0.6118982818704327,71.99999992547217,-3.5903296759057166e-10,120.00000003412836,1.6184272268450337,15.288,0.0,0.0,0.0047776672697797,1.0694899894620088e-13,-3.741090980393931e-07,5.521401959501359e-11,1.6723176417636091e-09,4.109521257587776,79.78719176344794,1.6257585967235286,57.148873286519276
0.07,31.222215929936205,131.01039214392435,3.0371334573469446,3.649087515174788,5.707077112564807e-05,86.89643797254193,0.0001728541558773,3.0234947746384675,855.2937749779139,2.3057260079826607,0.8506307413593818,71.99999965378231,-6.907496536790437e-10,120.00000006788592,3.255354923652711,15.288,0.0,0.0,0.0067759305364855,3.495199904512709e-13,-9.036515915819006e-07,7.594816279105379e-11,5.728932851326001e-09,3.6490875156204896,75.6601668283889,2.305734972638426,86.94902215090157
0.08,31.222215886364623,131.01039223353447,3.0621840248716574,3.4254446680114707,8.413075603463509e-05,17.831756866644035,0.0002285946601282,3.021841001032126,241.2171988638848,2.961944911520492,1.0819695676346892,71.99999900671328,-1.141745983122182e-09,120.00000011415082,5.371998197385977,15.288,0.0,0.0,0.0087043901031071,8.800530155962314e-13,-1.829098470920821e-06,1.0943386634701918e-10,1.4896287129277132e-08,3.4254446690434226,71.81713637501419,2.9619581267487467,18.085991154451033
0.09,31.22221583454733,131.01039234010327,3.0919888289029,3.389560809024919,0.0001118726864415,54.09031716446879,0.0002748660999733,3.020060228038602,563.0937377043176,3.504225426410036,1.2780161667917422,71.99999774508822,-1.634190085504106e-09,120.00000016921716,7.519080503822694,15.288,0.0,0.0,0.0102980157586766,1.865782139518716e-12,-3.1503298654458527e-06,1.6284478329871028e-10,3.03536411425607e-08,3.389560810868955,68.76526501308032,3.504242999330529,54.17456206384468
0.1,31.22221577423132,131.0103924641528,3.1267248829165366,3.4447939461814814,0.0001419149103147,51.372195336549765,0.0003131602029306,3.0182021883815127,538.7437595981919,3.950569597142709,1.4443465951180965,71.99999562056465,-2.1287748602259068e-09,120.00000023339832,9.55649523509932,15.288,0.0,0.0,0.0116097108366932,3.485956000178229e-12,-4.949356763187612e-06,2.4573266549165286e-10,5.3761299442583966e-08,3.444793949101151,66.34639928474206,3.9505918890846927,51.460781166288626
0.11,31.222215706113143,131.01039260424562,3.165907002780892,3.4691423802630394,0.0001702373452339,40.591037561894986,0.0003534470100582,3.016051659024047,442.8656393052949,4.421478635995476,1.6182620895289603,71.99999235067894,-2.5564479031457968e-09,120.00000030601664,11.970509656144712,15.288,0.0,0.0,0.0129935974697161,5.942887149865172e-12,-7.273722517324353e-06,3.67769289312894e-10,8.842679949465076e-08,3.4691423844348632,63.88798785789768,4.421505376815134,40.70293476011277
0.12,31.222215630588888,131.0103927595646,3.2092596514826863,3.4852659299808075,0.0001974376474727,44.30042894095728,0.000394069215595,3.013641598889868,475.58594813540446,4.896982486381051,1.793579340340896,71.99998761802138,-2.8337988279882726e-09,120.00000038673312,14.683611096353944,15.288,0.0,0.0,0.0143909889875706,9.464337642181618e-12,-1.017558359402848e-05,5.395790443954697e-10,1.3700793350599625e-07,3.4852659355662303,61.5068242157714,4.897013499814194,44.40281567867803
0.13,31.222215548046687,131.0103929293088,3.256512891171917,3.5606043721293616,0.0002276507019012,48.86766833507025,0.0004268800875964,3.0112558910133567,515.9156326236895,5.278566579338586,1.939796541405244,71.99998107389406,-2.8573058577484587e-09,120.00000047523812,17.061052093156064,15.288,0.0,0.0,0.0155123760833565,1.4300406003001044e-11,-1.3705268062305584e-05,7.724776992181392e-10,1.989112774124932e-07,3.560604379397528,59.67313531776262,5.27860233862722,48.960358155653
0.14,31.222215458587108,131.01039311327068,3.30759734332425,3.6000732663755977,0.0002555702913645,45.540290862247225,0.0004629468001456,3.0085404980032777,486.2390860568404,5.70011779273801,2.098362647205908,71.99997235012626,-2.508533681468686e-09,120.00000057154703,19.894788765881632,15.288,0.0,0.0,0.0167512184495524,2.071534240530911e-11,-1.7917736259613292e-05,1.0787346240473087e-09,2.8081526258393346e-07,3.6000732754351943,57.72385750323359,5.700157937625502,45.639559681930805
0.15,31.222215362317904,131.01039331122794,3.3624387479639086,3.651605404442164,0.0002842753491325,44.01308509501,0.0004965057129938,3.005703619811542,472.54218587214,6.091938849578711,2.2476968067377374,71.99996103728932,-1.6446954747148112e-09,120.00000067569304,22.723773683610247,15.288,0.0,0.0,0.0179026934683374,2.9002783512213203e-11,-2.287326399669318e-05,1.47199345427166e-09,3.831202693354572e-07,3.651605415492516,55.98561718911576,6.091983503446133,44.115597174664394
0.16,31.22221525912812,131.01039352340948,3.421115382839859,3.67540086436193,0.0003108411545024,34.83804992586084,0.0005330990866742,3.002517946501868,391.1218908297564,6.521183188362317,2.4085903880902046,71.99994669525161,-1.0153513453738144e-10,120.00000078796704,26.03872642002185,15.288,0.0,0.0,0.019164148528834,3.9478358970291335e-11,-2.864207894220033e-05,1.9677461746207517e-09,5.135466997084602e-07,3.6754008774883777,54.15946979122355,6.521232015176687,34.96719658394182
0.17,31.2222151493826,131.01039374906244,3.4833737923187487,3.7139589864597298,0.0003384978477213,43.96471427482637,0.0005668629535037,2.999235483723449,471.78125980632376,6.916861975403744,2.559060925010733,71.99992884100092,2.3206494032971838e-09,120.0000009081849,29.29426197817256,15.288,0.0,0.0,0.0203269651395979,5.248754693205839e-11,-3.5267097947693114e-05,2.580363454062817e-09,6.706952682968329e-07,3.713959001863866,52.549031795895466,6.916915146521327,44.06689817851128
0.18,31.22221503253009,131.01039398932429,3.549599475912623,3.7380363034619775,0.0003650282082698,36.67395661481795,0.0006021794701355,2.9956556354306425,407.10156721191447,7.332140201215607,2.71556808256092,71.99990696207136,5.837017536380516e-09,120.00000103716444,32.917216366714264,15.288,0.0,0.0,0.0215473823438242,6.839750892601699e-11,-4.285557247677198e-05,3.331016495775474e-09,8.639362741436378e-07,3.738036321259578,50.93050624815799,7.332197539712479,36.796100973258795
0.19,31.22221490871209,131.01039424390297,3.619694897703461,3.747799769666444,0.0003901520189829,41.42208371271829,0.0006393759928961,2.991742733214697,448.9531328318269,7.771071983754382,2.879366399937307,71.99988049019642,1.0709144790974043e-08,120.00000117502664,36.97605053227239,15.288,0.0,0.0,0.0228373144884866,8.761416506509219e-11,-5.146771415177372e-05,4.238406957677133e-09,1.0996552116864756e-06,3.747799789945131,49.29705748437159,7.771133268690212,41.529983675580546
0.2,31.22221477769685,131.01039451327668,3.693822889232993,3.7700519460961166,0.0004166800650969,37.99697972290605,0.0006740224661302,2.987733789228414,418.51563019916136,8.179966026035371,3.0338260708461373,71.99984881140107,1.723179577184912e-08,120.0000013223286,40.969302182777255,15.288,0.0,0.0,0.024038975990988,1.1057590044953188e-10,-6.120032215177249e-05,5.3263847350253015e-09,1.376394225587184e-06,3.7700519690893857,47.8457752505109,8.180031477986942,38.11426270718793
0.21,31.222214639876928,131.01039479663547,3.771710975053407,3.7926098867321474,0.0004432924407074,36.46301043881366,0.0007080907240332,2.983530483977461,404.8187610144644,8.582757448615462,3.1863584283669346,71.99981127559042,2.5745201416596626e-08,120.00000147900325,45.103059028532826,15.288,0.0,0.0,0.0252227064089584,1.3774582723633048e-10,-7.20875523136271e-05,6.61341033873124e-09,1.7010673350603349e-06,3.792609912601061,46.47936953648762,8.582827080829217,36.584868250565684
0.22,31.22221449507626,131.01039509434258,3.8534832466471007,3.782921298925821,0.0004660920499522,44.14577847155813,0.0007479176313898,2.978724032883548,472.5421858721365,9.056569122268344,3.360845972992861,71.99976720416048,3.661811567390422e-08,120.00000164562512,50.21995530074818,15.288,0.0,0.0,0.0266151520780326,1.6960703048385348e-10,-8.421592474264931e-05,8.124635526119773e-09,2.0969540034515424e-06,3.7829213275976334,44.9464484092354,9.056642335836344,44.24615863872642
0.23,31.22221434283448,131.01039540734791,3.9394622486964206,3.813874679301352,0.0004940771488601,36.66675459308932,0.000779455230549,2.974212905336642,406.3406421461021,9.430647902846331,3.5044030163419806,71.99971583979395,5.0272885112871524e-08,120.00000182313076,54.45382429059888,15.288,0.0,0.0,0.0277145095638672,2.0669790509245914e-10,-9.77285871729516e-05,9.894576563683824e-09,2.5339062472561444e-06,3.813874711257219,43.79476959007253,9.430725512303388,36.78718303164376
0.24,31.222214184153326,131.01039573358457,4.028950821673608,3.829256049377765,0.0005200487408944,37.802126339316736,0.0008136255607606,2.9692962675112065,416.2328240017114,9.837806876534357,3.658163422426286,71.9996564062533,6.718950080713476e-08,120.0000020109434,59.25679777340223,15.288,0.0,0.0,0.0289110855155543,2.4956955046738006e-10,-0.0001125744417092,1.1934277804843484e-08,3.0448209172448607e-06,3.829256084638984,42.59361542722471,9.83788856559955,37.91856374864305
0.25,31.22221401888584,131.01039607335582,4.122052964664892,3.851417709838087,0.0005469594058717,38.85163035360012,0.0008459008130282,2.964283881833675,425.36408079150686,10.22297576958679,3.8050691648373967,71.99958811418384,8.786880969336211e-08,120.00000220974424,63.98709205399403,15.288,0.0,0.0,0.0300430411774988,2.987811646313829e-10,-0.0001288461362054,1.4273117985167728e-08,3.621333387698252e-06,3.8514177486178034,41.50703126619192,10.223061685769354,38.96455005232871
0.26,31.222213847358866,131.0103964259872,4.218542267117083,3.8780574625554745,0.0005745172425185,42.3164797140743,0.0008766626387865,2.959162938653076,455.8015834241788,10.590779679138215,3.946551912391076,71.99951013710364,1.1286401474734325e-07,120.00000241975916,68.67355887153568,15.288,0.0,0.0,0.0311239685467471,3.5491769188178554e-10,-0.0001465721578858,1.6932703957058654e-08,4.267712643344226e-06,3.8780575050466,40.51245375834074,10.590869924095635,42.41981967733593
0.27,31.22221366913008,131.0103967923915,4.318728802515264,3.886188503202341,0.0005994342651313,38.70936050721014,0.0009111181036949,2.953518013741325,423.84219965987256,11.004860953238978,4.102320296019413,71.99942161756776,1.4276417094868828e-07,120.0000026420792,74.14786134434608,15.288,0.0,0.0,0.0323408987462391,4.1858405402174807e-10,-0.0001658847815307,1.995072923688136e-08,5.018832267232506e-06,3.886188549362022,39.43841359495857,11.00495511215316,38.8218734782956
0.28,31.22221348431185,131.01039717233687,4.422535913956003,3.90556090261878,0.0006261175699806,44.68030766832924,0.0009425767186621,2.947879457547137,476.3468732012221,11.38358114165448,4.247086834352694,71.999321619057,1.7823531611327881e-07,120.000002877279,79.33831935330025,15.288,0.0,0.0,0.033453914386159,4.904408325040897e-10,-0.0001868529238516,2.3357766479368094e-08,5.847713054408178e-06,3.9055609527288775,38.49894431917428,11.383679491972384,44.77744842575601
0.29,31.222213292835256,131.0103975659655,4.530013412817602,3.9242599519377537,0.0006528240665589,35.802573724660256,0.0009737210635801,2.942037024315898,397.97031042211177,11.759725774384751,4.391004157029451,71.99920917567837,2.1999186079018322e-07,120.00000312617878,84.66717879828003,15.288,0.0,0.0,0.0345593650464213,5.711677680739745e-10,-0.0002095620322847,2.7188189988316943e-08,6.77505090435382e-06,3.9242600061534456,37.60352534239979,11.759828319749328,35.92324968749781
0.3,31.222213095024976,131.0103979726075,4.64093665799555,3.936939025755682,0.0006785438093183,33.570228713727204,0.0010059102294455,2.93586442972183,378.1859457108711,12.149968255527943,4.539237002744259,71.99908328532703,2.6880857935396905e-07,120.00000338923812,90.3787563598417,15.288,0.0,0.0,0.0357062504417728,6.614698865958865e-10,-0.0002340353597042,3.1467140861055e-08,7.817263716758327e-06,3.9369390841381695,36.71173884615234,12.150074840940263,33.698361337808635
0.31,31.22221289105846,131.01039839189684,4.755183729044857,3.9598342215431432,0.0007060286581592,35.396825578217346,0.0010350810412898,2.9297385597941448,394.1656220930212,12.504537499407316,4.6763673222047455,71.99894291513503,3.255120771695107e-07,120.00000366712923,95.72967338626896,15.288,0.0,0.0,0.0367483036680869,7.620720834468404e-10,-0.0002603234137215,3.622454560346964e-08,8.948994505138873e-06,3.9598342843844345,35.934338386209795,12.504648402129598,35.5178635353378
0.32,31.222212681031937,131.01039882363492,4.872689374180126,3.985461429033668,0.0007340760463279,38.52097867048992,0.0010630242168685,2.9235095146848846,421.55939346242695,12.84534566718622,4.809181081594425,71.99878701464397,3.909756427278764e-07,120.0000039606604,101.01782231644016,15.288,0.0,0.0,0.0377499198995686,8.737098716736534e-10,-0.0002884807530145,4.1491545539590986e-08,1.0187112828155184e-05,3.98546149652875,35.21473736963424,12.845460975581933,38.631757748577954
0.33,31.22221246496604,131.01039926777932,4.9934410812554,4.010606629086,0.0007621365968788,38.18822026147908,0.0010905599149574,2.917102431053817,418.5156301991682,13.18247167592885,4.940798912752974,71.99861449732019,4.661299779655886e-07,120.000004270781,106.38859400029033,15.288,0.0,0.0,0.0387407190563976,9.971421990244511e-10,-0.0003185760672934,4.7302669734505256e-08,1.154498667827874e-05,4.010606701382261,34.52805863348922,13.182591392065536,38.299473293007864
0.34,31.222212242662028,131.01039972474007,5.117579377337869,4.019339771238816,0.0007871574969313,29.898022638335373,0.0011220389395318,2.910051232417875,345.46563688075645,13.569536737955724,5.0878303926024735,71.99842423285973,5.519675040347761e-07,120.0000045987411,112.72655675097128,15.288,0.0,0.0,0.0398782837956187,1.1331556132162459e-09,-0.0003507224668667,5.37022358302301e-08,1.308298593306914e-05,4.019339848191799,33.76700548046532,13.5696603843662,30.039310197084795
0.35,31.22221201433324,131.01040019407705,5.2449575244483055,4.033762873683395,0.000813261106463,32.76415525156106,0.0011515840876071,2.902959820469776,370.5765700527033,13.934300103976534,5.227895396154902,71.99821502296155,6.495674834876441e-07,120.000004945438,118.8669740701126,15.288,0.0,0.0,0.040950312688979,1.2825853697215452e-09,-0.0003849609961885,6.072234695821837e-08,1.4746020857580124e-05,4.033762955530055,33.07785186209504,13.934427850732408,32.89250745069162
0.36,31.22221177990305,131.01040067594835,5.375631006350063,4.051723629010647,0.0008401329464575,37.01692984301412,0.0011797030485285,2.8957873473716007,407.8625232777193,14.282998147928636,5.362923567977223,71.9979856440668,7.600645476620651e-07,120.00000531213882,124.88900300695136,15.288,0.0,0.0,0.0419751331662584,1.4462801652534363e-09,-0.0004213876232777,6.84067806399068e-08,1.654507199147348e-05,4.051723715967022,32.44322602189087,14.283130115703262,37.13002398000203
0.37,31.222211539445663,131.01040117020102,5.509550188388412,4.071639898917391,0.0008674922629137,35.12417761390579,0.0012067983861697,2.88849906286036,391.1218908297666,14.620581431527652,5.494447309446232,71.99773482653193,8.846681943540367e-07,120.00000570002652,130.86067091914967,15.288,0.0,0.0,0.0429672939311924,1.6251202388969355e-09,-0.0004600660652957,7.679415042686734e-08,1.849041957573993e-05,4.071639991174516,31.85023865502424,14.620717696893658,35.24274792557624
0.38,31.222211292895075,131.01040167697127,5.646763233102716,4.08264881385344,0.0008930259828975,36.695642158537446,0.0012360471443664,2.880711738179021,404.8187610144602,14.986392916850402,5.634654729559426,71.99746126698146,1.0246533537040716e-06,120.0000061105033,137.4891296153862,15.288,0.0,0.0,0.0440424171304414,1.8200057922063743e-09,-0.0005010869196581,8.592980519823866e-08,2.0642694281337543e-05,4.082648911356968,31.228847973200924,14.986533193043764,36.808540518115166
0.39,31.22221104018777,131.0104021963902,5.787316652586672,4.096641430700089,0.0009192713382325,31.335681548387896,0.0012640110027448,2.872831219844713,357.64062493382744,15.337978856701952,5.770390286512262,71.99716358743511,1.1813915463769678e-06,120.00000654506955,144.01394309468844,15.288,0.0,0.0,0.0450757388736732,2.031886352449547e-09,-0.00054455673306,9.586443829735616e-08,2.295945663566148e-05,4.096641533664766,30.65298398882095,15.338123255506089,31.4670954954126
0.4,31.222210781536543,131.01040272801887,5.931064331106764,4.109028969993624,0.0009451871856381,29.95928076777898,0.0012920492774571,2.8646905607053603,345.465636880754,15.692185018814769,5.906873567965718,71.99684037970908,1.3563276523471372e-06,120.00000700500496,150.74021066990193,15.288,0.0,0.0,0.0461167659598875,2.2617341782092324e-09,-0.0005905037520737,1.0663253249436129e-07,2.5471259834659164e-05,4.1090290785164525,30.09246700352443,15.692333488470696,30.095929256306363
0.41,31.222210517064383,131.01040327160345,6.077922766619747,4.122888296344507,0.0009714525997821,33.78425365340317,0.0013192264430821,2.85640971467756,378.94687077668647,16.03742529732769,6.0405139809190125,71.99649020751959,1.5509747261474075e-06,120.0000074917568,157.44375780268788,15.288,0.0,0.0,0.0471314487675864,2.5105374204052982e-09,-0.0006389770219162,1.1827345344180344e-07,2.816813594418537e-05,4.122888410595805,29.56469007160549,16.037577892745222,33.904791300285986
0.42,31.22221024682894,131.0104038270252,6.227854084363214,4.14444025865494,0.0009995884754813,38.04468161607466,0.0013435485656724,2.8482703202464488,416.2328240017114,16.348862540904037,6.163613566771559,71.99611159893284,1.766920641656551e-06,120.00000800692096,163.6157044470786,15.288,0.0,0.0,0.0480467946810589,2.779304965995011e-09,-0.0006900467934588,1.308321832549104e-07,3.100973487310896e-05,4.144440378988911,29.104646754454564,16.34901955589459,38.15115260238947
0.43,31.222209970843565,131.0104043942566,6.380851271439565,4.1618082623168045,0.0010268052928652,33.45815353250911,0.0013687230309017,2.8397750580998298,375.9031395134336,16.67263197205097,6.290467308135904,71.99570306121484,2.005818691215035e-06,120.00000855220898,170.15779512382937,15.288,0.0,0.0,0.0489983878509763,3.0690566816849196e-09,-0.0007437862329608,1.443552931671376e-07,3.4086145072160934e-05,4.161808388761201,28.640125213458976,16.672793262249197,33.57845085853367
0.44,31.22220968892116,131.01040497368373,6.537047157143216,4.164954087655709,0.0010505545842624,30.86574023822051,0.0013980747538988,2.830419582421933,353.0750125389216,17.050421620730056,6.433992917638883,71.99526304125902,2.269416145406482e-06,120.00000912964636,177.9537948947602,15.288,0.0,0.0,0.050108743779844,3.380847125286677e-09,-0.0008003278134917,1.589055036683518e-07,3.750784460406397e-05,4.164954219916419,28.113519280259386,17.050586641458253,30.99524475496968
0.45,31.22220940081287,131.01040556582012,6.696617751072218,4.165241899529329,0.0010735835484822,35.912216710755274,0.0014280646808282,2.820677244966047,397.2093853562869,17.438293672974723,6.580571293039616,71.99478987454265,2.5595995397253085e-06,120.00000974147088,186.13940823302417,15.288,0.0,0.0,0.0512487363629523,3.7158016249566814e-09,-0.000859850913876,1.745604864109677e-07,4.121350642664912e-05,4.1652420376426775,27.591357195572936,17.43846231108416,36.02281959036367
0.46,31.222209106468902,131.0104061707686,6.859600379555308,4.174585124444534,0.0010989881252456,41.916816790010685,0.0014546917035209,2.811153314474766,449.7140588976434,17.786187321601275,6.714685486378061,71.99428180697711,2.8783880229668832e-06,120.0000103898448,193.6374175079873,15.288,0.0,0.0,0.0522712438446989,4.0751091178509895e-09,-0.0009224765531151,1.9138630415982226e-07,4.50966024037632e-05,4.1745852688465686,27.13985967570823,17.786359950252297,42.01097612387663
0.47,31.22220880579083,131.01040678873238,7.026066274755745,4.1823089530633855,0.0011240727220223,28.37640408484148,0.0014814747534716,2.801325368441072,331.0078106302534,18.138167428286582,6.849989708801916,71.99373704967608,3.2278903746588286e-06,120.00001107707628,201.37401505997488,15.288,0.0,0.0,0.0533057667609836,4.459978104761035e-09,-0.0009883252835099,2.094509673354327e-07,4.927107017839778e-05,4.182309103852639,26.69716826759888,18.13834399721685,28.514342615617974
0.48,31.222208499300592,131.0104074186346,7.195654207463586,4.189479568102716,0.0011490100608361,27.95074823096412,0.0015080719422187,2.7912412472910484,327.2031223011574,18.48995085190441,6.98515976370584,71.99315377257649,3.6103201777021456e-06,120.00001180491516,209.25751230436188,15.288,0.0,0.0,0.0543397174489847,4.8716620260348906e-09,-0.0010573190976925,2.2877013380347535e-07,5.373205427420879e-05,4.189479725385959,26.268461765425428,18.4901313379827,28.089773168283216
0.49,31.222208187201936,131.01040806005494,7.368224738812109,4.202723284133339,0.001175611380853,35.08821363242469,0.0015321405723077,2.781292092003844,389.60000969812296,18.812014261754847,7.111044804193205,71.99253015042137,4.027946338669921e-06,120.0000125755114,216.60722913930897,15.288,0.0,0.0,0.0552863302793499,5.311396446020465e-09,-0.0011294854492155,2.4938633613154685e-07,5.8398320167141767e-05,4.202723448262914,25.88860807032205,18.81219892635871,35.1982716047702
0.5,31.22220786953184,131.01040871291724,7.5437546994244835,4.220815778795054,0.0012036252596423,36.05491615971072,0.0015540388599792,2.7714444106710974,397.97031042210494,19.10875420627192,7.229005658018125,71.99186435180009,4.483102820610566e-06,120.00001339126192,223.4908652241728,15.288,0.0,0.0,0.0561585257949344,5.7804122391526605e-09,-0.0012048912160576,2.713531252030471e-07,6.327866493526626e-05,4.220815950099865,25.54902500917784,19.108943271285572,36.161276053538906
0.51,31.222207546379583,131.0104093770373,7.722184419225251,4.232567510615346,0.0012298790840397,27.54004661432325,0.0015777580800203,2.761017323676155,323.3984349720841,19.430597746636646,7.354673636736509,71.99115452520388,4.978202222778502e-06,120.00001425458936,231.07869697977367,15.288,0.0,0.0,0.0571045034845869,6.2799518101633574e-09,-0.0012835871653678,2.947201005874635e-07,6.854585242460463e-05,4.232567688976395,25.189423168613605,19.430790935591396,27.678103017910345
0.52,31.222207217710736,131.0104100521637,7.90355287490571,18.813225134166807,-15.212498209309528,33.85303176751118,1.2479409260071548,1.592684102996311,372.0984511843415,23.687213919576006,7.476741585563648,71.99035672125387,-5.284621424399304e-05,119.999953799282,343.406086988585,15.288,0.0,8.800021052427937,0.0696143976091578,6.821723403601677e-09,-0.0016232665692642,-0.0002008108512572,0.0001056734577171,24.01961158614291,18.57464617366076,21.325616833948708,33.91344510749184
0.53,31.22220688289623,131.01041073752876,8.088042096943651,18.631984218680945,-15.02897813108414,35.52152854859069,1.2769806846012248,1.55312940965713,386.5562464348624,24.01335751085711,7.594997111691578,71.98930444753495,-0.0007414105906904,119.99923011126782,352.9214903072732,15.288,0.0,8.833895579406127,0.0705730485008302,7.351550643408694e-09,-0.0021022590364576,-0.0006245921028455,0.0001387373876023,23.7690248041191,18.414680117089457,21.679589630210295,35.578390647418686
0.54,31.22220654175242,131.0104114332284,8.2757308111652,18.456286257192247,-14.85060130450997,31.269615201421416,1.3063774633195069,1.5130049235919691,349.2703242098436,24.338023814147988,7.712402696922056,71.98797427016177,-0.0021845097218922,119.99771300780296,362.5226346965409,15.288,0.0,8.86770939809808,0.0715273643422502,7.849355742071745e-09,-0.0025947422497256,-0.0010583457006514,0.0001735505946916,23.52572845465557,18.25891707204767,22.031328158096752,31.333442849780297
0.55,31.22220619457078,131.01041213861888,8.466414405361183,18.290182899825293,-14.680330627332932,33.11225473748815,1.3358173873301966,1.472709424566309,365.2500005919907,24.655853193893368,7.82718175724784,71.98635853345873,-0.0043991972256619,119.99538454158844,372.0459860907175,15.288,0.0,8.901420056260676,0.0724615934989048,8.315436888310635e-09,-0.0031003090358788,-0.0015016869025772,0.000210069809101,23.29464700023372,18.110977353964,22.37502035353704,33.17189616138647
0.56,31.222205841348007,131.01041285366608,8.660093861974179,18.136398418983,-14.52014904006888,30.94764263302143,1.3650462255648954,1.432567760224001,346.2265619465787,24.962700371472604,7.937957179425864,71.98444963895537,-0.0074021827686958,119.99222712284129,381.3568954503814,15.288,0.0,8.935024645652108,0.0733635532655806,8.750113167212357e-09,-0.0036191928582303,-0.0019547540420842,0.0002482754813688,23.07909762988192,17.973357536598282,22.706216283412516,31.010839816534602
0.57,31.22220548215697,131.01041357817988,8.856717187580658,17.97979050047381,-14.358798077250624,30.611980583906888,1.3951314907231565,1.3912053693662807,343.1828296833023,25.27687526354397,8.050902435295363,71.98223994048674,-0.0112100847668357,119.98822325286189,391.0092636093537,15.288,0.0,8.968506343555129,0.0742870551058684,9.153743655914651e-09,-0.0041514176096352,-0.0024175146899571,0.0002883647371548,22.86060980435373,17.832896623173575,23.044935510876613,30.6753190615135
0.58,31.22220511697049,131.01041431217686,9.056302191716467,17.810823914596867,-14.189213507178218,40.128515382597335,1.4268639859797114,1.347600192124196,426.1250058573153,25.61116268893134,8.170294773936552,71.97972164168489,-0.015839571394783,119.9833553781514,401.4121768900173,15.288,0.0,9.001863291578283,0.075269673087011,9.526717036274934e-09,-0.0046972340312929,-0.0028901199189734,0.0003305868035584,22.627544670523065,17.68117600083447,23.40503882355148,40.17648209990081
0.59,31.222204745357853,131.01041505650502,9.259147843965588,17.664924078868328,-14.037601087357146,32.64359728516251,1.4575116425512555,1.3052703271567585,360.68438819711065,25.919440753215383,8.280646499298614,71.97688659062399,-0.021308289657616,119.97760490325471,411.125814989008,15.288,0.0,9.035145075665744,0.0761758581689427,9.869389506769149e-09,-0.0052578990497138,-0.0033735310014396,0.0003744927642624,22.42310168568146,17.549412040710333,23.73641324138176,32.70217904866581
0.6,31.222204367539263,131.0104158106696,9.465099617881592,17.49481205057654,-13.868980501561648,29.080130574169885,1.4908465043039276,1.259348186582103,329.4859594986058,26.26434359637432,8.402946535906413,71.97372632681746,-0.0276339766941117,119.97095314154431,422.1317397887876,15.288,0.0,9.068318562795728,0.0771896886274018,1.0182222727072344e-08,-0.005833101960548,-0.003867441829524,0.0004209815773413,22.18960869973162,17.395877581560505,24.10702137725981,29.14554126046063
0.61,31.222203983459245,131.0104165747448,9.674195143107688,17.324119007622752,-13.700816588966411,33.97970495878957,1.5250640421662824,1.2121554498052864,372.0984511843297,26.61519552138492,8.526907451674587,71.97023232514726,-0.0348347098121004,119.96338103239384,433.4764491107804,15.288,0.0,9.101387827987097,0.0782210106879819,1.0465663780499996e-08,-0.0064232130475693,-0.0043720935131853,0.000469753733092,21.95587260004617,17.241403867615446,24.483527586895956,34.03550337887762
0.62,31.22220359323428,131.01041734844944,9.886352253141103,17.198599687914257,-13.566812004892515,42.1116101091572,1.5561020193575903,1.1689425221880798,442.86563930529206,26.90642251515548,8.630678249387998,71.96639567344569,-0.042928820789921,119.95486925103594,443.00563764608586,15.288,0.0,9.134351340082208,0.0790771046093956,1.07202227009719e-08,-0.0070282979237326,-0.0048874799626501,0.0005196196006107,21.77770023641204,17.126882093591533,24.79521083831888,42.156560415912715
0.63,31.22220319666709,131.0104181321539,10.101707684072716,17.06280100159485,-13.426019993285925,24.138146762275625,1.5886771239354764,1.123609350990087,286.11251274707894,27.215084326863128,8.73998406230172,71.96220779022491,-0.0519338712111343,119.9453992682852,453.2186004282133,15.288,0.0,9.167183287402311,0.0799844460032869,1.0946424448385388e-08,-0.0076489598827685,-0.0054140272526197,0.0005719821698791,21.587435189617363,17.003015695516375,25.12537747037312,24.21645147611238
0.64,31.22220279436829,131.01041892455913,10.31983519755688,16.90921935071643,-13.27294205983926,23.711360230995083,1.6236161842401384,1.075079791853612,282.30782441796754,27.55357592451716,8.858954350676418,71.95765992624038,-0.0618674434457825,119.93495252714472,464.55292602985566,15.288,0.0,9.199902708408112,0.0809794635400124,1.114490043158914e-08,-0.0082838779688541,-0.0059506214349285,0.0006271522567358,21.37592166945524,16.862963300730065,25.48726477531692,23.791185974570364
0.65,31.222202386313946,131.01041972567896,10.540750945642444,16.788710859719796,-13.144911126200236,41.459061847163646,1.656096610476484,1.029597101994033,436.7781447787475,27.84563884733429,8.962245969622359,71.95274340610364,-0.0727465494227964,119.92351106570688,474.4434106805827,15.288,0.0,9.232404553556677,0.0818380351733933,1.1316270635810188e-08,-0.0089334157319931,-0.006497495424296,0.0006834816278248,21.20515550274086,16.752471031133496,25.7989066743066,41.50489772813091
0.66,31.222201971969263,131.01042053658537,10.764827256515348,16.66308202691496,-13.013867289727386,35.35559098744452,1.6897190392764598,0.9824991310137348,383.51251517160017,28.148015783815328,9.068691758829411,71.94744952587445,-0.0845882549882179,119.9110568507216,484.7929259353781,15.288,0.0,9.264825892961907,0.0827269268881405,1.1461138828000192e-08,-0.009599111137934,-0.0070558153550994,0.0007423719856797,21.028572335294005,16.63723526449041,26.12133391415004,35.40957877532016
0.67,31.222201551524645,131.0104213568486,10.991930970326145,16.52205228903047,-12.872274238012915,24.526947764107465,1.7256011119880434,0.9323231053769112,289.1562440103425,28.47752821483496,9.18387793718044,71.94176886501593,-0.0974106483590379,119.8975707736912,496.1989178181372,15.288,0.0,9.297133202856031,0.0836955772879406,1.1580217323565469e-08,-0.010280698203628,-0.0076253095898042,0.0008043743237151,20.83362607044264,16.507919834392425,26.47252263947896,24.605245217103004
0.68,31.22220112515276,131.01042218607617,11.221941367288732,16.38817126426187,-12.73662307261554,30.48382724503774,1.76148052463558,0.8820015207243009,340.8999924858462,28.79894391160736,9.296133841170924,71.93569207980158,-0.1112316206688249,119.88303391617757,507.4517595691352,15.288,0.0,9.329245106123038,0.0846404390298483,1.1674238351121592e-08,-0.0109780094070653,-0.0082057842006987,0.0008686080823935,20.64778733845018,16.384931207258347,26.81471648159757,30.547413373746323
0.69,31.22220069293308,131.01042302406992,11.454802832983974,16.273026475330482,-12.61536775109668,37.40631783389016,1.7960320277627526,0.8332674138681029,401.0140726853634,29.09259558650508,9.398951315437994,71.92920981969003,-0.1260686028027633,119.86742783731114,517.8415181419432,15.288,0.0,9.361240041490827,0.0855037094236418,1.1743978771110316e-08,-0.011691043887377,-0.008797177826359,0.0009344364158513,20.48518380948225,16.278846062272066,27.12695065987753,37.45867962859573
0.7,31.222200254718704,131.01042387110294,11.69061775093894,16.15846616063731,-12.495199558756337,31.46833946755657,1.8311449789143288,0.7836567921081843,349.27032420985284,29.38731907968545,9.501887908733806,71.92231271067564,-0.1419386236506563,119.85073451158726,528.3747188339908,15.288,0.0,9.393105218173028,0.0863701373349292,1.1790244373824664e-08,-0.0124204116748063,-0.0093999108412439,0.0010027671974935,20.32367368216292,16.17323274765071,27.440098738593424,31.53131140227122
0.71,31.22219981056177,131.0104247270358,11.929349766340696,16.034433646295508,-12.368761917075393,25.964540618591563,1.8679900679352364,0.7316306452344512,301.33126406340574,29.700215223935626,9.610612455548797,71.91499119846698,-0.1588589880333786,119.8329356070575,539.6737937616825,15.288,0.0,9.42477441677138,0.0872899827920529,1.1813886664535688e-08,-0.0131661722474747,-0.0100139678600788,0.0010742697143387,20.150984808387687,16.058922713433027,27.77238996700435,26.041928496742365
0.72,31.22219936046024,131.01042559184134,12.17100036284526,15.899031215360525,-12.234718303032336,31.665806149480208,1.9069406882612288,0.676697821738607,350.79220534145287,30.03580226496645,9.726592685315756,71.90723546910942,-0.1768471859950355,119.81401258693404,551.9255913901826,15.288,0.0,9.45632630871964,0.0882765256390883,1.1815792418773241e-08,-0.0139286041651622,-0.0106395050692884,0.0011492935207347,19.96482046296318,15.934086122301046,28.128549071359966,31.730389563113633
0.73,31.22219890440661,131.0104264655034,12.41557486843609,15.795487788921166,-12.12447896525328,39.91017858909391,1.94275818693367,0.625715846891794,422.320318528234,30.31789888458412,9.824674215753216,71.8990352959789,-0.1959211771255163,119.7939464113232,562.3284531412166,15.288,0.0,9.487766705977004,0.0891058657081236,1.179688975397672e-08,-0.0147080523282058,-0.0112767272764835,0.0012249777257113,19.81782735069872,15.838394518311356,28.427572270591547,39.96233457528876
0.74,31.222198442330463,131.01042734814007,12.663122740429232,15.683174696701172,-12.0084515855132,25.2031727536232,1.9802622333725608,0.5723633126202304,294.48281347105944,30.61716436768938,9.928211200948745,71.89038063516742,-0.2160979891276157,119.77271901032049,573.4710065409223,15.288,0.0,9.519010517052944,0.0899856736861967,1.1758163923312077e-08,-0.0155048478712769,-0.0119258289910047,0.0013040555035456,19.66049058683033,15.734651726969936,28.74466060937596,25.28732795539161
0.75,31.222197974607298,131.01042823894187,12.913382410812948,15.565774716559968,-11.889332429594395,29.330988852688687,2.019109535497741,0.5170884781162108,330.24688556441487,30.92783284188108,10.035308302723188,71.88126143566222,-0.2373945993535512,119.75031234452229,585.1538623657708,15.288,0.0,9.550098287356905,0.0908990035254393,1.1700661367118472e-08,-0.0163181029406566,-0.012586054145861,0.0013863481967712,19.49730169596278,15.626183642923127,29.073634851916815,29.404950108563124
0.76,31.22219750111647,131.01042913813288,13.16643854592697,15.460024543711244,-11.779229640493485,31.53220482370528,2.0571007217847166,0.4627788238175962,349.27032420986166,31.218847511523578,10.13572006439588,71.87166750723435,-0.2598275710470108,119.72670880484992,596.2031633948988,15.288,0.0,9.5810517238284,0.0917545773868539,1.1625441271686967e-08,-0.0171484639229065,-0.0132578408931165,0.0014705666088847,19.348628252217097,15.52844259321827,29.381576818984367,31.60262281304265
0.77,31.22219702179355,131.01043004582135,13.422336703997493,15.357804442237862,-11.672233164443796,29.52506165118293,2.095243658956572,0.4081088793064083,331.7687666960708,31.50461962427527,10.234203713004304,71.86158851655557,-0.2834134356176596,119.70189079941936,607.1532884590074,15.288,0.0,9.611862869459772,0.0925947507842592,1.1533612036363308e-08,-0.0179963624985003,-0.0139414586081941,0.0015573667939164,19.204573485427773,15.433976489530838,29.68380516266921,29.602126010709423
0.78,31.22219653670309,131.010430961848,13.68103256601688,15.247403446263796,-11.55986553412697,24.35864941410827,2.135153954324941,0.3509395075936829,286.8734378128899,31.807525922213504,10.338146514595891,71.85101400979688,-0.3081685374429573,119.67584091830572,618.8691882806257,15.288,0.0,9.642467815676888,0.0934852909543952,1.1426342198490798e-08,-0.0188617761907079,-0.0146368237515762,0.0016479105165174,19.050874827127224,15.331954160099317,30.004000618635043,24.454566899172367
0.79,31.22219604593446,131.01043188600156,13.942464540682948,15.132924029525824,-11.445115238647494,34.369501551191505,2.17637142858241,0.2918752845780449,373.6203323159534,32.120440045729694,10.445194066998248,71.83993333981414,-0.3341091874777823,119.64854177139922,631.0897852265987,15.288,0.0,9.672927953361198,0.0944052532584383,1.1304846552434256e-08,-0.0197446697393262,-0.015343842960274,0.0017419737449992,18.892534040322538,15.226125846555073,30.33457766136966,34.43957637158524
0.8,31.22219554925069,131.01043281875306,14.206798895584251,15.036783996627436,-11.344090365544693,34.81842895955011,2.215571839032004,0.2353067342143772,377.42502064505743,32.39838834410172,10.540534770726316,71.82833552343865,-0.3612519770462012,119.619975657862,642.0427805921298,15.288,0.0,9.70326606848941,0.0952224556747105,1.1170355450470044e-08,-0.0206461455177618,-0.0160632955516879,0.0018372218886966,18.75679785981002,15.137374047149068,30.6280821273389,34.8896420595614
0.81,31.222195046756763,131.0104337598609,14.473963357086408,14.930453889085516,-11.236263130205316,22.887747847013017,2.2569462293501408,0.175689851992803,273.9374926939919,32.69820084797893,10.642882474580704,71.81620954026978,-0.389613062476898,119.59012531756724,653.9638244808805,15.288,0.0,9.733466423427258,0.0961039275507842,1.1024188485795897e-08,-0.0215659999476419,-0.0167949565369658,0.0019367855420701,18.608977426149277,15.03915273692044,30.944504321553705,22.99942770406951
0.82,31.222194538648395,131.01043470889323,14.743822296660552,14.820476367364892,-11.126323928747825,29.217584259559096,2.299592326743957,0.1142060953971557,328.72500443277005,33.00714314159279,10.74806805539892,71.80354426669705,-0.4192083040233877,119.5589737845732,666.3626225570771,15.288,0.0,9.763472745566512,0.0970122413171094,1.0867717859568897e-08,-0.0225038271986529,-0.0175384463415503,0.0020400515573833,18.457014043546422,14.937550215975293,31.270388026772952,29.308162649096257
0.83,31.222194024904816,131.0104356658722,15.016391386210705,14.7319261189705,-11.032200593588453,36.95634575275134,2.339460787191068,0.0562271051596017,395.68750322465047,33.272259333606286,10.838678743735686,71.79032841268521,-0.4500533959059659,119.52650424993618,677.0924515070121,15.288,0.0,9.793316203172935,0.097791752660985,1.070234433323694e-08,-0.0234600223092079,-0.0182939968527429,0.0021437600202096,18.331353537106043,14.85604999817518,31.55001352002937,37.03036226745643
0.84,31.222193505411283,131.01043663102087,15.291752146801644,14.639931691898171,-10.936077230209932,23.08201567716112,2.380450984664109,-0.0034184114067424,275.4593748256452,33.54517429761494,10.931684060336476,71.77655078932914,-0.4821632395274501,119.49270072076853,688.2274780387197,15.288,0.0,9.823020158709296,0.0985941936412215,1.0529518956224682e-08,-0.0244351243788397,-0.0190619489649366,0.0022511196359725,18.20178450868611,14.771398010709971,31.83775089032087,23.204439366135016
0.85,31.22219298047735,131.01043760367102,15.569689700775792,14.532007669147312,-10.829062796204648,25.10950696278133,2.424777620699537,-0.0676863655670528,292.96093233939376,33.853656787760485,11.03623486952914,71.76220013596726,-0.515552323678041,119.45754761891706,700.9248934860856,15.288,0.0,9.852560675817877,0.0995011810088075,1.035077833458299e-08,-0.0254282269869378,-0.0198415442505656,0.0023640902055161,18.053157011840675,14.671836906315232,32.16274086205409,25.22640418030071
0.86,31.22219244991623,131.0104385841977,15.850336053904972,14.437196383180504,-10.731853410073896,31.270442344110247,2.467520774510662,-0.1300352145491679,346.2265619465587,34.134533154245375,11.131556736419308,71.74726477121544,-0.5502355002684965,119.4210289645454,712.5847768299177,15.288,0.0,9.881957642219696,0.1003270381716253,1.0167666196093788e-08,-0.0264403537576929,-0.02063348797497,0.0024785169934519,17.9207076997641,14.584658495138742,32.45861734956236,31.36791565160152
0.87,31.22219191375127,131.01043957253597,16.13367650076856,14.34880468939666,-10.639644088621942,29.16730885472669,2.509710960308859,-0.1918342923214481,327.964078366998,34.40157588701079,11.2221829636241,71.7317329850323,-0.5862270737913174,119.3831293332576,723.7581416306841,15.288,0.0,9.91120933623833,0.10111224417305,9.981802814496462e-09,-0.0274716376464816,-0.0214378081636295,0.0025952651864373,17.796300386032858,14.503612279300189,32.73989311574864,29.275712721076886
0.88,31.2221913720183,131.01044056859627,16.4196877495171,14.252782030623155,-10.542438264305996,25.3033435106671,2.553871539087582,-0.2564594304869356,294.4828134710418,34.68632299406198,11.318492877900027,71.71559300992327,-0.6235408533728029,119.34383380092537,735.7688305414846,15.288,0.0,9.940268180181873,0.1019494946849067,9.794866036119293e-09,-0.0285220708927971,-0.0222544267796993,0.0027167285313057,17.66288845700476,14.415464071651368,33.03964915407971,25.433191386384568
0.89,31.222190824801707,131.01044157218652,16.70831258318679,14.149456217257011,-10.440500037817433,27.684865962650218,2.60006947884376,-0.3240085491839199,315.028134248087,34.98893287381012,11.420541461265948,71.69883289851371,-0.6621904101406433,119.30312767197148,748.6420448392333,15.288,0.0,9.96916894613661,0.102839255784043,9.608589341681662e-09,-0.0295916298364928,-0.0230832532875065,0.0028431152803476,17.520881830779413,14.320477969816244,33.3580037557802,27.80858044209858
0.9,31.222190272020136,131.01044258346525,16.99960978341806,14.066816653756575,-10.353605425353164,30.507611075106784,2.642950281112315,-0.3873155732545309,339.37814235421445,35.24365007747952,11.506715555934276,71.68144032551682,-0.7021894960879309,119.2609960376467,759.5606040012412,15.288,0.0,9.997928103075225,0.1035882594862068,9.424752876357513e-09,-0.0306809292626903,-0.0239246739153039,0.0029691499195923,17.404175021978585,14.24517153936095,33.6261462195626,30.624329103699484
0.91,31.22218971374692,131.01044360226723,17.293530128111183,13.976683636018114,-10.261817488304208,23.382236294889267,2.687848646098564,-0.453525616061645,277.7421810230789,35.51620731898229,11.598627064853776,71.66340322620465,-0.7435506122682273,119.21742528308644,771.3324018754709,15.288,0.0,10.026536973494864,0.1043897068766396,9.245205620889792e-09,-0.031789847050233,-0.0247785230645035,0.0031001699208103,17.27862994626058,14.162872015839753,33.912888782114024,23.540586016044607
0.92,31.222189150193408,131.01044462813277,17.589927720011367,13.87939782847824,-10.165393349281796,27.702011682101965,2.734807929609763,-0.5227097274450766,315.02813424806214,35.80657431517116,11.696288744642477,71.64470936089236,-0.7862859603241855,119.17240208458036,783.9738815845725,15.288,0.0,10.05498195471362,0.1052435093661455,9.071863178845654e-09,-0.0329177255693871,-0.02564423607688,0.0032363144184009,17.14466343024334,14.073872994337716,34.21816202999293,27.841584924467497
0.93,31.22218858126317,131.0104456612579,17.88887229719671,13.80066108742474,-10.082394700573834,32.81677398258724,2.7785310637906937,-0.5877512261232468,359.1625070654728,36.05162633597367,11.778941262567164,71.62534632838043,-0.830407396513614,119.12591345778104,794.7184597400329,15.288,0.0,10.083277295655405,0.1059641293462879,8.906672573147904e-09,-0.0340653128755678,-0.026522294685563,0.0033719636850791,17.03336028052358,14.002640266917885,34.47604845414526,32.939434436560596
0.94,31.22218800684015,131.0104467018851,18.19044763874832,13.706185561450985,-9.988726635410137,24.011054736603604,2.826127240376172,-0.6582151231104949,283.0687504837787,36.33571211020412,11.87431767517952,71.60530179513971,-0.8759259170823486,119.0779472990038,807.2691419233117,15.288,0.0,10.11142244351565,0.1067994870419921,8.751644473018934e-09,-0.035233124576114,-0.0274130067334698,0.0035149398868479,16.9032495792176,13.916537265188346,34.7746224547371,24.18576010571638
0.95,31.2221874272278,131.01044774935795,18.49444341541867,13.61454613260037,-9.897426370627835,30.88994088219852,2.873740875959336,-0.7289214186662495,342.4218736174873,36.613081980665854,11.967399975489045,71.58456297318014,-0.9228527707583892,119.0284912117886,819.6168836338006,15.288,0.0,10.139406018008916,0.1076151136229052,8.608880647995697e-09,-0.036420256333347,-0.0283156251011534,0.0036609995284002,16.776788277118246,13.833251482007729,35.06611832469385,31.03188941657387
0.96,31.22218684211761,131.01044880433275,18.80107847693408,13.532261336944735,-9.81303248378916,30.278022770985505,2.9198633838037824,-0.7978326886237705,337.09533515678345,36.86639629703935,12.052460995476636,71.56311704086325,-0.9711985324489671,118.97753348335767,830.9729836234784,15.288,0.0,10.167249487310135,0.108360043423806,8.480501344968034e-09,-0.0376282454513233,-0.0292312082073468,0.0038084850243503,16.661842925760123,13.7590444982611,35.332493578466355,30.4289467793322
0.97,31.222186251530346,131.01044986676234,19.11034097778055,13.446101809662556,-9.72628677464726,19.61164388979457,2.9674071731711225,-0.8688836608072427,245.02188719299323,37.12940648597066,12.140611841953032,71.54095086596328,-1.020973675631819,118.92506247958092,842.8468037746353,15.288,0.0,10.194949958318372,0.109133480436726,8.368721921729534e-09,-0.0388572126824573,-0.0301597645956117,0.0039608130880877,16.542427452605132,13.681278072116063,35.60893214476318,19.853892318825597
0.98,31.222185655767845,131.01045093599444,19.42202185156661,13.345343230658466,-9.629734088387163,28.25835805857859,3.018983935597117,-0.945624091315519,319.5937466429581,37.43120612077309,12.241469105675396,71.51805127405581,-1.0721879797727325,118.87106726889684,856.5787021755958,15.288,0.0,10.222478958432257,0.1100209390393285,8.275838761581943e-09,-0.0401060016923617,-0.0311003655170917,0.004121211331496,16.405602063836607,13.58964188567323,35.92568239014941,28.434895271344033
0.99,31.222185054674696,131.0104520123608,19.736232903828697,13.270598882794816,-9.551614564466412,30.82093771491377,3.064934377859392,-1.0149725224508157,341.6609485517054,37.6632796795852,12.31927850585564,71.4944047489094,-1.1248511510575792,118.81553696802794,867.2070372547238,15.288,0.0,10.249862159158011,0.1107034615973985,8.204182295075265e-09,-0.041375734284012,-0.0320537524772194,0.0042779178375319,16.30036328105876,13.52313983229395,36.16985542463428,30.989582017002242
1.0,31.222184448250168,131.01045309586615,20.052977742014665,13.181677488890948,-9.46398512353432,27.647490002601806,3.114854165302197,-1.089935454050264,314.2672081822764,37.933143423784045,12.409463026015128,71.46999818183154,-1.1789712280659428,118.758462421797,879.6521671152176,15.288,0.0,10.277098549762636,0.1114970690530832,8.156151953896371e-09,-0.0426664091066296,-0.033019844075779,0.0044428362220419,16.17822424471762,13.443174504829823,36.45329488254705,27.843742191182976
1.01,31.22218383668276,131.01045418610272,20.372126955292124,13.095706685222078,-9.378733855183762,28.88633190758394,3.1645986017276337,-1.1648988135911662,324.9203161036979,38.19466324582869,12.496840132544335,71.44481793861269,-1.2345565300671228,118.69983414816504,891.7956895082236,15.288,0.0,10.304184213049364,0.1122661598112035,8.134233389530926e-09,-0.0439775075141379,-0.0339981796802761,0.0046107902046927,16.059837618619046,13.366211077618454,36.72802530964418,29.082500659865286
1.02,31.22218321989356,131.01045528324505,20.693739137841128,13.013959955354771,-9.296723811518367,24.208715449753512,3.213779796462094,-1.2393352418367896,284.59063161540416,38.44382579667454,12.58007974815272,71.41885049983112,-1.291614302091368,118.63964376691564,903.4409756757884,15.288,0.0,10.331125448468129,0.1129989372030246,8.140955479077164e-09,-0.045309591594763,-0.0349890865015681,0.004781293436611,15.946729478954618,13.293500582173078,36.98989926726113,24.45253026066916
1.03,31.2221825979546,131.0104563871421,21.017766968657973,12.922833995443233,-9.208565841730495,19.881528844318886,3.2659667545526028,-1.3181124898471883,247.30469339049705,38.7190985472371,12.671891195194176,71.3920823362065,-1.3501509667867335,118.5778837332154,916.3967531519525,15.288,0.0,10.35791734568314,0.1138084696849719,8.178922248968993e-09,-0.0466624783859298,-0.0359923492278541,0.0049591605985435,15.822517212618814,13.211903915751646,37.27883966322688,20.19106605816587
1.04,31.222181970930446,131.01045749765703,21.34416827544825,12.841501271431268,-9.127467086017443,31.27950257561937,3.3160811599192166,-1.3943124614080988,345.46563688072297,38.96581790333131,12.754233105179006,71.36449945824816,-1.4101730336866136,118.51454637782165,928.0834849820926,15.288,0.0,10.384563476389353,0.1145340828070396,8.250817780394518e-09,-0.0480361949812219,-0.037007903856647,0.0051375245919543,15.7102769256622,13.1399668463687,37.53813524536401,31.4856758364401
1.05,31.222181338528785,131.01045861543892,21.67315233976808,12.752727737604388,-9.041568836584185,19.085390869065343,3.368764592193943,-1.4742749957990853,240.45625879819983,39.23349127515596,12.84344330940494,71.33608794357579,-1.471686002358099,118.44962506404282,940.8483791428336,15.288,0.0,10.411077960934731,0.1153212959992123,8.359369146491904e-09,-0.049432300493788,-0.03803679073486,0.0053229890608073,15.589270264938024,13.06101621648474,37.81913223374608,19.43641443954776
1.06,31.22218070099529,131.0104597399569,22.00454972124748,12.65779291326116,-8.951768396728454,26.952226228047493,3.4238190395697043,-1.557745787869302,308.17968365593924,39.51923972045186,12.93860850762386,71.306833286098,-1.534695662695152,118.38311281377146,954.5728238448607,15.288,0.0,10.43744970573172,0.1161616475192675,8.507433401752141e-09,-0.0508498210531657,-0.0390782203745409,0.0055153360714769,15.461042738438756,12.976265596180776,38.11881295994843,27.21344534238904
1.07,31.222180058212228,131.0104608714778,22.33844690496843,12.578518992413477,-8.872995523390962,31.639617387352605,3.474911788158603,-1.6360544354046131,348.5093681440308,39.75748903290597,13.018016614693687,71.27672063800081,-1.599207576337648,118.31500285465792,966.0861844355658,15.288,0.0,10.463693303118172,0.1168623905986912,8.697925125245265e-09,-0.0522897489913296,-0.0401328167169116,0.0057055241448916,15.35181638597458,12.906948339750798,38.369286491492296,31.871885329693878
1.08,31.222179410078382,131.0104620102389,22.67491909930426,12.496351713248448,-8.792533602156324,21.4693087466118,3.527326671964441,-1.7164387704364228,261.00157857466235,40.0032933430049,13.099879726063945,71.24573534101201,-1.6652259964929563,118.24528975943348,978.0373353900032,15.288,0.0,10.48981022251694,0.1175853494740707,8.933826303011341e-09,-0.0537526766177421,-0.0412009124692352,0.005901220583406,15.239285199171846,12.835049599639872,38.62757984118844,21.824743149937667
1.09,31.222178756878243,131.0104631556245,23.01376963992504,12.398390600698493,-8.701609869804178,19.78639444277168,3.585092638043899,-1.8044510371092963,246.54375332474407,40.297291558903815,13.19771698032747,71.21386254658464,-1.7327546187903462,118.17396865243728,992.4337383598536,15.288,0.0,10.51578535752392,0.1184499783261023,9.218226470584926e-09,-0.0552372897365337,-0.04228147780914,0.0061085775345109,15.107969435210316,12.74795628246921,38.93569420909885,20.189361996200557
1.1,31.222178098691668,131.0104643074689,23.354945993764087,12.309165197685187,-8.616938755177578,39.16561664873681,3.640794300264948,-1.8899106801395027,413.1890617385841,40.563869658015086,13.286470608442652,71.18108721834454,-1.8017965619497875,118.10103523007864,1005.574680518062,15.288,0.0,10.54162350378623,0.1192340178408532,9.554276481909682e-09,-0.0567435664914893,-0.0433744069887399,0.0063164584965181,14.98731452428678,12.669604669995175,39.215420808704735,39.37985110423295
1.11,31.22217743511032,131.01046546669716,23.698740405247182,12.236783912008844,-8.543974349905696,28.81062067838253,3.6915823273334967,-1.9688803144105047,324.1593910376397,40.77556462206061,13.356961972019702,71.14739402674431,-1.8723545579680427,118.0264855595747,1016.064312692751,15.288,0.0,10.567332662522045,0.1198567420434733,9.945181711299298e-09,-0.058273945434926,-0.0444813388552646,0.0065204520298072,14.88702265759926,12.608009352852427,39.438448712283936,29.112817342977944
1.12,31.22217676620164,131.01046663318257,24.045109719359345,12.133912936909498,-8.450640630901587,11.18879983505758,3.7528170048764578,-2.0625502982097865,172.73281794065943,41.08427142987296,13.459689206755137,71.11276782231623,-1.9444300162968369,117.95031706606252,1031.473230627359,15.288,0.0,10.592913189308748,0.1207646348007444,1.0394254423248442e-08,-0.0598280723381704,-0.0456019243761761,0.0067448057807779,14.75034954752272,12.516780011264895,39.761655410090135,11.980275078382787
1.13,31.22217609257039,131.01046780558218,24.393630641275426,12.048074131064524,-8.369118730551884,33.856983476548095,3.809010273984149,-2.149560396811784,367.5328077900705,41.33728636019507,13.543943124553827,71.07719236390182,-2.0180254594040394,117.87252595800152,1044.1819211428613,15.288,0.0,10.6183501976911,0.1215088341926595,1.090498502698896e-08,-0.0614031174616464,-0.0467340672739831,0.0069647686351991,14.634253338460235,12.442504433688176,40.02733807436385,34.138314242184094
1.14,31.222175413545543,131.01046898542722,24.74478189803505,11.974097228011011,-8.295860420153808,18.97330043539612,3.861563058921756,-2.231825016237124,239.69531773195544,41.549293631033954,13.614512192542588,71.04065244225566,-2.093140433503857,117.7931115506196,1054.8844334815788,15.288,0.0,10.643676669768302,0.1221325026787507,1.1480769638107008e-08,-0.0630029677314453,-0.0478804118538526,0.0071826435239059,14.53251675557588,12.380199620757486,40.25073125830775,19.49048079378581
1.15,31.22217472962572,131.01047017162048,25.09821555288203,11.869655204970003,-8.202366058842166,18.702211102309388,3.92525602991478,-2.3298294974341887,237.41251153546767,41.862554921872565,13.718889122479943,71.00313276613808,-2.1697736576393645,117.71207399231793,1070.8146653139668,15.288,0.0,10.6688623231338,0.1230538126393182,1.2125197703982724e-08,-0.0646247697697735,-0.0490388528116952,0.0074228324185002,14.394477419931892,12.28814688070062,40.57852665972624,19.251193222832743
1.16,31.222174040953345,131.01047136385506,25.4538349438328,11.798832478044512,-8.131726599587182,48.12565820646517,3.9774487726129495,-2.412191351121016,490.0437743845894,42.060473336011206,13.784820490081705,70.9646169852763,-2.247924844789533,117.629412339786,1080.9269025964977,15.288,0.0,10.693917567014491,0.1236360844794772,1.284195946969286e-08,-0.0662683296589418,-0.050209157604805,0.0076473375634473,14.296811336236267,12.229565392944997,40.78742855875591,48.349950813405094
1.17,31.22217334665005,131.0104725641594,25.812267022349086,11.712119870367868,-8.050682007660757,8.939422862700892,4.035771359908492,-2.503372773419347,153.70937929486794,42.310894843571866,13.868261536895616,70.9250897073489,-2.327590904486225,117.5451285743121,1093.79889984626,15.288,0.0,10.7188746962175,0.1243726975606335,1.3634667949605076e-08,-0.0679387195574421,-0.0513947713800948,0.0078865070532358,14.18029520369979,12.155620957283416,41.05045379183743,10.12262845462256
1.18,31.22217264788408,131.0104737698995,26.17268894385899,11.604452373730796,-7.9559021541312145,23.65170974364019,4.102561209817123,-2.606669830667099,280.02501822196746,42.63445400418106,13.976299579686684,70.88453475497273,-2.4087691936277,117.4592241598456,1110.5533754659923,15.288,0.0,10.74368084821904,0.1253243081107494,1.450728975604308e-08,-0.069629085919392,-0.0525908093036692,0.0081442574080556,14.038900345521157,12.061182905391734,41.38875592742401,24.145995731876756
1.19,31.222171944135177,131.01047498228473,26.535473877922783,11.543340288997044,-7.892450013900941,40.94485859077378,4.151945420729451,-2.6860389123817345,428.4078130529292,42.791227576593336,14.028503604515628,70.84293548556693,-2.491456894384976,117.37170070421638,1118.69676333615,15.288,0.0,10.768378528152988,0.1257856602349051,1.5463699918142877e-08,-0.071343320907165,-0.0537998801655209,0.0083751582911268,13.953255233496405,12.013294198338423,41.55540136674537,41.24239203579257
1.2,31.22217123496012,131.0104762023765,26.900941750760268,11.445036865466312,-7.804463039647882,4.652967129196409,4.2161802637089885,-2.786449957471961,117.1843741360236,43.079233003765694,14.124728442798952,70.80027652225512,-2.5756478587018345,117.28256329729916,1133.7663641124905,15.288,0.0,10.79297052943302,0.1266327801865122,1.6507795709917982e-08,-0.0730837550350532,-0.0550234922852763,0.0086369126261987,13.82335792382154,11.928807077740752,41.85709828918549,6.869540194726788
1.21,31.222170521525246,131.0104774275136,27.268269505232663,11.34885048830182,-7.718155387327528,32.95408295974941,4.280166018222354,-2.886865789749088,359.92343213200894,43.359302153335285,14.218451994264097,70.75654086271147,-2.661337861764601,117.1918149480962,1148.515569175026,15.288,0.0,10.817416895399104,0.1274565807660335,1.7643875049262237e-08,-0.0748435110417932,-0.0562567823424677,0.0089020662628632,13.696141780691082,11.84672634102708,42.15060041807072,33.35603991707672
1.22,31.22216980295176,131.01047865975963,27.63808620639188,11.28425172603722,-7.653016172287914,23.983771726596444,4.331455634750131,-2.969849314457429,283.0687504825761,43.52010793334758,14.27209092511814,70.71171231095362,-2.7485201932202488,117.09946125620776,1157.0092158442733,15.288,0.0,10.841745044649764,0.1279298103839595,1.8875969252817646e-08,-0.0766286369273681,-0.0575038197664182,0.009147870787903,13.606721645493025,11.796592105505214,42.3215463257887,24.552043073843752
