Time,Latitude,Longitude,Altitude,Angle of Attack,Angle of Sideslip,X-Acceleration,Y-Acceleration,Z-Acceleration,Thrust,True Velocity,Ground Velocity,Pitch,Roll,Yaw,Dynamic Pressure,cp,parachute_deploy_gain,Wind Speed,Mach,omega_x,omega_y,omega_z,Cmq
0,31.2221860000000042,131.010383999999988,3.00000000364323682,0,0,0,0,0,2.2828121974499247,0,0,69.9999999962342088,0,113.699999993883324,0,15.2880000000000003,0,0,0,0,0,0,-0
0.01,31.2221859999997946,131.010384000000556,3.00000016469923247,0,0,0,0,0,34.2421869617492334,9.11367326775851009e-12,8.66229497295429822e-12,69.9999999962370651,-4.92863947922479589e-13,113.699999993882884,5.08594204168408172e-23,15.2880000000000003,0,0,2.67827100510624443e-14,-3.65918233213857746e-19,7.58941520739853104e-19,4.81114714040442593e-19,-1.83541113936281872e-32
0.02,31.2221859999996028,131.010384000001039,3.00000030885429547,0,0,0,0,0,25.8718762377664078,1.96992978605390895e-11,1.88456988716431921e-11,69.9999999962400494,-1.04152381447771591e-12,113.699999993882386,2.37621641206600858e-22,15.2880000000000003,0,0,5.78911013494094702e-14,-7.28448334638698292e-19,1.51788304147970621e-18,9.75781955236953991e-19,-7.93451985123442364e-32
0.03,31.222185999409362,131.010384001586402,3.00018176030779937,18.6493779029494604,-0.000129237623237530007,10.7928899806483045,-1.97644583900689674e-05,3.34983967390763571,180.342193598546658,0.0785672533977095078,0.0490694047558625918,69.9999999976775626,-4.2497891361524094e-12,113.699999994705607,0.00377978965327356543,15.2880000000000003,0,0,0.000230888677896110966,2.88330015245363835e-17,-7.25223402354589416e-10,1.08188208080271277e-11,1.51197624781400831e-13
0.04,31.2221859959356287,131.010384010943454,3.00162780953569674,9.74253989061216075,-4.88763086122285772e-05,51.6475445943311158,1.54548216767323456e-06,3.34965665682309899,548.635972453807767,0.346420694310776434,0.171860503977579737,70.0000000036447574,-2.28205307288861013e-11,113.699999999565534,0.0734838809649275282,15.2880000000000003,0,0,0.00101804013696402693,1.80009747884589399e-15,-1.58734069119923437e-08,2.61929145365345784e-11,1.45916869803439425e-11
0.05,31.222185985910329,131.010384038045004,3.00715844163023283,5.5769968489095687,-4.21135943534799539e-06,75.3242160169835273,4.73080294831520123e-05,3.34902689347595528,761.698429882464552,0.947854334293939504,0.409211128642743283,70.0000000010935537,-1.04766136577077691e-10,113.700000013612069,0.55013262299765131,15.2880000000000003,0,0,0.00278549703395658196,1.95473045844392346e-14,-1.13584749331540247e-07,4.14067569904437612e-11,2.85688606727574374e-10
0.06,31.222185966868647,131.010384089593572,3.01868664272593046,4.48500474963244322,2.31139019787050305e-05,56.3605563030587007,9.71465785775115924e-05,3.34799244711343214,590.487539073720654,1.60618980149218604,0.665693519146445256,69.9999999197690244,-2.82941102348924619e-10,113.700000040305838,1.57971028663545732,15.2880000000000003,0,0,0.00472017413217633904,1.01936766184118274e-13,-4.07864410983111553e-07,5.76522069423461223e-11,1.73837509686130208e-09
0.07,31.2221859390775336,131.010384164863126,3.03600551209402658,4.00448286551149391,4.63712119495135773e-05,85.8192455386477917,0.000147926970097503541,3.34656708333141317,855.293774977913927,2.27788210706903049,0.926660947343454056,69.9999996219982279,-5.49831570978999292e-10,113.700000079276109,3.1772067926123353,15.2880000000000003,0,0,0.00669410445039518576,3.35900025920073467e-13,-9.92070622953462368e-07,7.83315922772719921e-11,5.99658406989250883e-09
0.08,31.2221859009658012,131.01038426812616,3.06033476575187802,3.77263127792190334,7.06371256062416025e-05,17.6076228145981588,0.000196957592070898702,3.34480227118667583,241.217198863884818,2.92612482887636283,1.17954495655796454,69.9999989088305909,-9.15694670892462832e-10,113.700000132739973,5.24285298735243899,15.2880000000000003,0,0,0.00859912396431777512,8.49635706706491564e-13,-2.01744800413265681e-06,1.10032289818440005e-10,1.56647792516492608e-08
0.09,31.2221858556197738,131.010384390989856,3.0892797608365723,3.74258231141200604,9.5325675231994802e-05,53.4176180048964397,0.000237730218002333866,3.34289666486112669,563.093737704317618,3.46187703891102627,1.39384941462988121,69.9999975134546446,-1.31671842773002699e-09,113.70000019638816,7.33844512707370811,15.2880000000000003,0,0,0.0101735644468633635,1.80613395740032365e-12,-3.4856561047658452e-06,1.59232278560273843e-10,3.20202005890100843e-08
0.1,31.2221858028175774,131.010384534057465,3.12301320909491364,3.81071421019783685,0.000121971080758598364,50.732831688561788,0.000271545837515448313,3.34090447591365036,538.7437595981919,3.9029133825176725,1.57567038389986336,69.999995157830341,-1.72222432289554893e-09,113.700000270567642,9.32732681847184431,15.2880000000000003,0,0,0.0114696609641860067,3.37914451533694905e-12,-5.48904943388414521e-06,2.34452541412924053e-10,5.68476506314615152e-08
0.11,31.2221857431700727,131.010384695667796,3.16106164078641116,3.84323765504598036,0.000147145408783231387,40.0848474374385688,0.000307099758177995722,3.33859717034531034,442.865639305294906,4.36819921201157246,1.76578242121538631,69.9999915253729768,-2.07703942468805025e-09,113.700000354470319,11.6837607126815346,15.2880000000000003,0,0,0.0128370221364947634,5.76365694334259916e-12,-8.08162139954488366e-06,3.4437809457680147e-10,9.36754562129998513e-08
0.12,31.2221856770245907,131.01038487487628,3.20315617196047642,3.86558564807459826,0.000171348089099210797,43.7480799143332604,0.000342946594964391399,3.33600966231316054,475.585948135404465,4.83801864946757032,1.95742650583495204,69.9999862600106582,-2.3147200577597177e-09,113.700000447673773,14.3321420062794882,15.2880000000000003,0,0,0.0142177082532951912,9.17772063248746377e-12,-1.13223702306849879e-05,4.98555567062495836e-10,1.45354343598177095e-07
0.13,31.2221856047215205,131.010385070757366,3.24903338361815308,3.95285669440916232,0.000198169826234992146,48.2585391180499741,0.000371981107240517913,3.33344523512332414,515.915632623689476,5.21512035057569623,2.1172615234944101,69.9999789703044399,-2.35265113573284059e-09,113.700000549782459,16.6533950244453948,15.2880000000000003,0,0,0.0153259223232261182,1.38588880633063252e-11,-1.52681962163171846e-05,7.07166414280215559e-10,2.11287244421402401e-07
0.14,31.2221855263490333,131.010385283071088,3.29862557546706325,3.99981420118284792,0.000223008237377726162,44.9721767850953427,0.000403855591455553264,3.33052592490198407,486.239086056840392,5.63167615200940475,2.29059513099545553,69.9999692426645623,-2.0964169591742506e-09,113.700000660771011,19.4199179783547713,15.2880000000000003,0,0,0.0165500839355928395,2.00553635588333716e-11,-1.99811439493909854e-05,9.81252131659242702e-10,2.9859131057555361e-07
0.15,31.2221854420015994,131.010385511560628,3.35186028506811029,4.05975476911301225,0.000248539990764711958,43.4637160193537753,0.000433543226731567866,3.32747422849243879,472.54218587214001,6.01888316560526437,2.45383766868271946,69.99995661705006,-1.43188768134039915e-09,113.700000780625842,22.182048585914238,15.2880000000000003,0,0,0.0176879988684610287,2.80404916713566325e-11,-2.55291719775422389e-05,1.33309260321839681e-09,4.07727088477750495e-07
0.16,31.2221853515819241,131.010385756490507,3.40881389436676407,4.08854462484130732,0.000272210944932510383,34.4023069357135967,0.000465877824565354701,3.32404684464906053,391.12189082975641,6.44303061809316624,2.62971580822363071,69.9999405987561403,-2.27841984783363582e-10,113.700000909623355,25.4183784408083007,15.2880000000000003,0,0,0.0189344747787753703,3.81042963600432359e-11,-3.19913711614788564e-05,1.77662362644707755e-09,5.46937370926295155e-07
0.17,31.2221852554099399,131.010386016990765,3.46923909377793649,4.13347468842419552,0.00029684158695823977,43.4155809381403728,0.000495744973995866601,3.3205135250562221,471.78125980632376,6.83404379119085981,2.79420112365087148,69.9999206448319882,1.67575894446247236e-09,113.700001047478835,28.5969980778046526,15.2880000000000003,0,0,0.0200835795555658371,5.05622819343119236e-11,-3.94162603380559734e-05,2.32482468580976756e-09,7.14768170397066036e-07
0.18,31.2221851530022434,131.010386294375877,3.53351204963262022,4.16207877285686756,0.000320492787063832857,36.2151660219171347,0.000526966735016640565,3.31665933612355879,407.101567211914528,7.2444022294323478,2.96528531587496236,69.9998961790314524,4.45070668055043651e-09,113.700001195059045,32.1341903991183955,15.2880000000000003,0,0,0.0212895378539265934,6.5741708189353534e-11,-4.79243856484647045e-05,2.99669991322666987e-09,9.21230820748327094e-07
0.19,31.2221850444828668,131.010386588308563,3.60153760019172342,4.17456309251139679,0.000342914278589344943,40.9041800427263027,0.00055982867240863632,3.31244583927210501,448.953132831826849,7.67810673790947895,3.14433961722118216,69.9998665624008964,8.30674092292676784e-09,113.700001352409558,36.0967170721845179,15.2880000000000003,0,0,0.0225641073333706747,8.40032927522686365e-11,-5.75836346763551867e-05,3.80911503044151526e-09,1.17316671380156179e-06
0.2,31.2221849296486234,131.01038689934137,3.67347464118590317,4.20078915399145636,0.000366573034254704516,37.5214898208491761,0.000590466919182690893,3.30812712915434881,418.515630199161365,8.08216006412957277,3.31318683933006453,69.9998311045104487,1.34800080829191884e-08,113.700001520067786,39.9955165273270055,15.2880000000000003,0,0,0.0237515420632470921,1.05728805481567758e-10,-6.85028882131185225e-05,4.78351733027568889e-09,1.4690610466811608e-06
0.21,31.2221848088436893,131.01038722653837,3.74905730552401684,4.22722562033261262,0.000390310433246848657,36.0064697775761644,0.000620601272787201603,3.30359776763142721,404.818761014464428,8.48018829437500621,3.47992805775657654,69.9997890742529592,2.02433263776548733e-08,113.700001697833756,44.0315784885794201,15.2880000000000003,0,0,0.0249212734096428447,1.31320595517854955e-10,-8.07208291683553139e-05,5.93661589182972911e-09,1.81631626331753899e-06
0.22,31.2221846819136672,131.010387570319409,3.82840670130281646,4.2176244726165093,0.000410696285369717819,43.5935627685881499,0.000655758920494764063,3.29841875767922987,472.542185872136486,8.94831461811120121,3.67066782999472752,69.9997397083127737,2.88926538075102191e-08,113.700001886238866,49.0266756129506618,15.2880000000000003,0,0,0.0262970098082033268,1.61186003536399267e-10,-9.43348117723774896e-05,7.29106197993283208e-09,2.23980539128825791e-06
0.23,31.2221845484548304,131.01038793178239,3.91183756115468473,4.25320537954326383,0.0004356497720089569,36.207459360748949,0.000683686922722525747,3.29355466128287455,406.340642146102141,9.31799902525197865,3.82760028360492655,69.9996821549030983,3.9766623706965518e-08,113.70000208621326,53.1608354775167555,15.2880000000000003,0,0,0.0273834518362109196,1.95767624418301473e-10,-0.000109505708778552874,8.87784718088286285e-09,2.70740355927931971e-06
0.24,31.2221844093456014,131.010388308538637,3.99866964940866776,4.27135264557773553,0.00045883378920767232,37.3286080087975947,0.000713911697673520317,3.2882529474867046,416.232824001711379,9.7203332459195213,3.9956861712714935,69.9996155408946805,5.32509871046438109e-08,113.700002296918697,57.8502398901668755,15.2880000000000003,0,0,0.0285658473732890855,2.35534745143307651e-10,-0.00012617657385590063,1.07071802425012536e-08,3.25424194465518317e-06
0.25,31.2221842644570167,131.010388700938847,4.08900446593793809,4.29698686981540234,0.000482848983334858658,38.3649566400252979,0.000742483922667206905,3.28284626589867479,425.364080791506922,10.1009615935159527,4.1562806652626314,69.9995389781877293,6.97479781374676735e-08,113.700002518962805,62.4689963611702623,15.2880000000000003,0,0,0.0296844577155840929,2.80933085873043406e-10,-0.000144451636124542286,1.28055329635332884e-08,3.87142965072796435e-06
0.26,31.2221841140756986,131.010389108203611,4.18262110402873155,4.32755423691547136,0.000507438991606541483,41.7865661614553829,0.000769736419800412888,3.27732087646770287,455.80158342417883,10.4644497354123782,4.31094871887776954,69.9994515368878751,8.97024502886333285e-08,113.700002752408935,67.0452443356678742,15.2880000000000003,0,0,0.0307527002093570291,3.32431765373287754e-10,-0.00016436315770221847,1.51925047864838523e-08,4.56355359993810651e-06
0.27,31.2221839578137299,131.010389531387915,4.27982215321117465,4.33742811840656994,0.000529702335486379188,38.2242911032538473,0.000800211178185602123,3.27123004841987974,423.842199659872563,10.8736118498261902,4.48123226393084195,69.9993522521519935,1.13587393208351198e-07,113.700002998306658,72.3900346549699947,15.2880000000000003,0,0,0.0319551720828357214,3.90484337603431509e-10,-0.000186059811616844751,1.79019946498730075e-08,5.36790267753501075e-06
0.28,31.2221837957695953,131.010389970223883,4.38053283172365671,4.35979025650862262,0.000553527510562852902,44.1207307275094038,0.000828072271385077072,3.26514386100193477,476.346873201222195,11.2478718916014184,4.63949182586423614,69.9992400702920463,1.41938296327408329e-07,113.700003257081931,77.4582454645660761,15.2880000000000003,0,0,0.0330550782151640757,4.55595825375374429e-10,-0.000209619220926101062,2.09616181379585756e-08,6.25569396794615011e-06
0.29,31.2221836278828384,131.010390424876022,4.48480177698289584,4.38135974025744623,0.00057737648726709299,35.3536197607625553,0.000855659611391794222,3.2588361863853601,397.970310422111766,11.6195889013503368,4.79682445966682813,69.9991139044831527,1.7532937395312496e-07,113.700003529427192,82.6616578528940948,15.2880000000000003,0,0,0.0341475147840558241,5.28268525040872464e-10,-0.000235137545717689308,2.44023887909330158e-08,7.24907222782668121e-06
0.3,31.2221834544381096,131.010390894570321,4.59240982688131272,4.39617507281761988,0.000600356665334356751,33.1490797613948018,0.000884158719714270942,3.25217107922164672,378.185945710871067,12.0052186882677852,4.95887519756831807,69.998972627127344,2.14383684192303281e-07,113.700003815596887,88.2385269149682756,15.2880000000000003,0,0,0.0352808420099011907,6.09029939588318471e-10,-0.000262641159892275291,2.82471356422800846e-08,8.36561857411674722e-06
0.31,31.2221832755909574,131.01039137888381,4.7032380575360353,4.42235615181669761,0.000624899913490765827,34.9528590290802086,0.000910025197609511073,3.24555398289468222,394.16562209302117,12.3556398803864607,5.10879227158949156,69.9988150759387651,2.59766173767152649e-07,113.700004116072961,93.4639131761651498,15.2880000000000003,0,0,0.0363107024397255479,6.98403788157463991e-10,-0.000292187019282257228,3.25229566712151178e-08,9.57826248689966157e-06
0.32,31.2221830914257232,131.010391877587324,4.81722282885169673,4.45155794779377789,0.000649944303128982049,38.0379859115142835,0.000934821026682707218,3.23882361682650144,421.559393462426954,12.6924793110791878,5.25399282922068878,69.9986400687318024,3.12179641788393281e-07,113.700004431478234,98.6283237403037703,15.2880000000000003,0,0,0.0373006526995305274,7.96905013945712519e-10,-0.000323836613651358495,3.72580440687311147e-08,1.09050644159405278e-05
0.33,31.22218290196043,131.01039239063175,4.9343519698327194,4.48019701204722054,0.000675004219851668761,37.7093551175013246,0.000959261610436717115,3.23189933669563656,418.515630199168186,13.0256844327599097,5.39788776638052958,69.9984463826819052,3.72372687880250348e-07,113.700004762578004,103.87354288045799,15.2880000000000003,0,0,0.0382799263433428877,9.05047894999210997e-10,-0.000357667290238851605,4.24836225249657193e-08,1.23603484615852587e-05
0.34,31.222182707020778,131.010392918491164,5.05476263450916541,4.49049305198152204,0.000697378143373914754,29.5227085089536203,0.000987142430045659337,3.22427911658814059,345.465636880756449,13.4081741031825317,5.55863100914667463,69.9982327456812641,4.41143957445642244e-07,113.700005110463266,110.062177258613033,15.2880000000000003,0,0,0.0394040418267209702,1.02333461745717641e-09,-0.000393806243978271305,4.82396483202145133e-08,1.40087103268591529e-05
0.35,31.2221825067937928,131.010393460657156,5.17831168393457641,4.50711781535187139,0.000720712543856854714,32.3530371383660977,0.00101333646443235357,3.21661305844837253,370.576570052703289,13.7686530554979374,5.71176159517965232,69.9979978091806316,5.19362042776584697e-07,113.700005475786654,116.058400304168075,15.2880000000000003,0,0,0.0404634764462946869,1.15232390415689195e-09,-0.000432299813734132244,5.45552399130644805e-08,1.57912776608867467e-05
0.36,31.2221823012122108,131.010394017312592,5.30505329869157727,4.52767240178778962,0.000744729708600240731,36.5526511043957356,0.00103828652712813154,3.20885713174522058,407.862523277719447,14.1132764952183631,5.85938873702120233,69.9977401961163537,6.07939829707116331e-07,113.700005859608282,121.939407863977465,15.2880000000000003,0,0,0.0414763190843316643,1.29254043868676357e-09,-0.000473255972436325862,6.14699225552327593e-08,1.77198251922661022e-05
0.37,31.222182090341061,131.010394588280832,5.43493909097431604,4.55039311415752579,0.00076918150115683735,34.6835787828593496,0.00106234372950533948,3.20097384516078431,391.121890829766642,14.446930470491731,6.00318739776240751,69.9974584775585669,7.0785096329375243e-07,113.700006262864989,127.771540530283914,15.2880000000000003,0,0,0.042456928843506235,1.4445318520011827e-09,-0.000516746496826029863,6.90186481791334769e-08,1.98053803654614999e-05
0.38,31.2221818741223878,131.010395173719473,5.56801609611825477,4.56315131642791805,0.000792019287104061913,36.2353933787001239,0.00108827974821363053,3.19255015153205646,404.818761014460279,14.8084413239345949,6.1564787166299757,69.9971511865591651,8.20121521966083772e-07,113.700006686723384,134.244380272309172,15.2880000000000003,0,0,0.0435194095147296359,1.60882660749176723e-09,-0.000562873331420229127,7.72423853301427293e-08,2.21128406351508731e-05
0.39,31.2221816525004634,131.010395773780147,5.704329739781131,4.57922628245169783,0.000815489716137310881,30.9425419640016202,0.00111309493143926189,3.18402316666385765,357.640624933827439,15.1559126959619999,6.30488433186772657,69.9968167722787769,9.45855271408966431e-07,113.700007132429306,140.616382889747683,15.2880000000000003,0,0,0.0445406353688629561,1.78596578656278109e-09,-0.000611756345505213715,8.61868943159197994e-08,2.45968452142520012e-05
0.4,31.2221814256617982,131.010396387955836,5.84373750626454935,4.59349479979191955,0.000838670682925170751,29.5834243852937959,0.00113797512888990423,3.17521289611434332,345.465636880754005,15.505969085398343,6.45410901523083158,69.9964536498379317,1.08621525395706341e-06,113.700007600947828,147.185065961143067,15.2880000000000003,0,0,0.045569462889951777,1.97653506559195414e-09,-0.000663427505461186432,9.58835144134294998e-08,2.72901174189528038e-05
0.41,31.2221811937141673,131.010397015953487,5.98615797249314241,4.60939449845229365,0.000862163931524819621,33.360545626359837,0.00116210409424792778,3.16624854525325983,378.946870776686467,15.8471768437686258,6.60022848408685459,69.9960602026584695,1.24241947051318175e-06,113.700008093413757,153.73182724817184,15.2880000000000003,0,0,0.0465722905345462151,2.18109996727848554e-09,-0.000717942131686907965,1.06367950505874699e-07,3.01820283711074823e-05
0.42,31.2221809567080335,131.010397657635991,6.13155423418529733,4.63387609959193458,0.000887317919769279608,37.5676427387571721,0.001183742077125155,3.15743374731593907,416.232824001711379,16.155026338188506,6.73482947265292431,69.9956347739890248,1.41574639558456e-06,113.700008611107208,159.760443802515937,15.2880000000000003,0,0,0.0474770882933877245,2.400206535531791e-09,-0.00077537935552726017,1.17680930846389008e-07,3.32294321368729263e-05
0.43,31.222180714655078,131.010398312971745,6.27991949833728835,4.65367427313455995,0.000911660169575580258,33.0386483003103493,0.00120612360190941372,3.14823214930187856,375.903139513433644,16.4750454055619109,6.87353555569934649,69.9951756835756242,1.60752723178871754e-06,113.700009155418982,166.15023929888028,15.2880000000000003,0,0,0.0484176551665520677,2.63438237315801404e-09,-0.000835821567166909188,1.29864614855892046e-07,3.65287677570896608e-05
0.44,31.2221804673911407,131.010398982407111,6.43138341412837455,4.65757387742934892,0.000932929976641759203,30.4788052564327749,0.00123214974254881528,3.13809943757763454,353.075012538921555,16.8483715860516412,7.03046484016701978,69.9946811832270441,1.81916859536649675e-06,113.700009728069276,173.762989227436179,15.2880000000000003,0,0,0.0495148886868988364,2.88411342836306464e-09,-0.000899417740154189794,1.42975581697416844e-07,4.01983191819108926e-05
0.45,31.2221802146980103,131.010399666535704,6.58611776122768511,4.65827001030579346,0.000953562143933252499,35.4620561517945134,0.00125873275223327787,3.12754579585638304,397.209385356286873,17.2316459864824161,7.19073264961644831,69.9941493995125938,2.05218870761162579e-06,113.700010330973456,181.755888424112015,15.2880000000000003,0,0,0.0506413642318551335,3.14987863732273609e-09,-0.000966369542842942814,1.57083782729145849e-07,4.41725079750487196e-05
0.46,31.2221799565319174,131.010400365476642,6.74415901717088939,4.66907507286434065,0.00097630283571516251,41.3913707355688842,0.0012823814722795761,3.11722412848720953,449.71405889764344,17.5754687869478978,7.33738035579407555,69.9935783582983362,2.30821229426708146e-06,113.700010965912341,189.078525726536213,15.2880000000000003,0,0,0.0516519027755614896,3.43223060675433133e-09,-0.00103681314204437207,1.7224885851047691e-07,4.83373548649469587e-05
0.47,31.2221796928065203,131.010401079464799,6.90557672428163105,4.67806301106434042,0.000998761260684927557,28.0209900204918974,0.00130616618884544979,3.10657060381263461,331.007810630253402,17.9233234115620377,7.48533101007974988,69.9929660462147325,2.5889364060732201e-06,113.700011634803886,196.634049649816575,15.2880000000000003,0,0,0.0526742959306323727,3.73170463860384924e-09,-0.0011108841623615434,1.88532207060213475e-07,5.28148505664365441e-05
0.48,31.2221794239793269,131.010401807256216,7.07001851744381948,4.68642527483421745,0.00102109091231145262,27.6007969606275125,0.00132978852885184593,3.09563681785184297,327.203122301157407,18.2709832353803314,7.63313726727991071,69.9923104035261474,2.89614261094227829e-06,113.700012338884164,204.33305198470137,15.2880000000000003,0,0,0.0536961221459722679,4.04904859899578719e-09,-0.00118849531779471017,2.05948560519311644e-07,5.75998398329450787e-05
0.49,31.2221791502289392,131.010402548365278,7.23734841566291642,4.70156796398202914,0.00104489945272251677,34.6487244505178253,0.00135120419031512233,3.08484494341801163,389.60000969812296,18.589315545984995,7.7707981814672209,69.9916093757078812,3.23165731652504743e-06,113.700013079832303,211.511801733856089,15.2880000000000003,0,0,0.0546317638991248022,4.38486615800834454e-09,-0.00126967773493266863,2.2453662401782158e-07,6.26054017926546362e-05
0.5,31.2221788715876762,131.010403302704333,7.40754387012007864,4.72212438923579736,0.00106996435823571525,35.6033845714535389,0.00137072557486675028,3.0741588573465477,397.970310422105001,18.8826594549893159,7.8998011517407587,69.9908609011483378,3.5973597360057951e-06,113.700013859590555,218.236320199079358,15.2880000000000003,0,0,0.0554939729313439212,4.73968531279909998e-09,-0.00135450679800636423,2.44344941868023912e-07,6.78409867869358833e-05
0.51,31.2221785881337617,131.010404070060673,7.5805467220577798,4.73558879650721298,0.00109346949398930206,27.1956639286467201,0.00139183542187690463,3.06284319292573448,323.39843497208409,19.200774511812984,8.03722958125224807,69.9900628955037689,3.99519228958782199e-06,113.700014680103109,225.647740475438098,15.2880000000000003,0,0,0.0564289867670437692,5.11403675587933804e-09,-0.00144303978709531136,2.65418546512062939e-07,7.34915902759761199e-05
0.52,31.2221782998783155,131.010404850466045,7.75636858307395194,16.6283373490162418,-0.00107351105410064679,32.9817274409781049,0.00100424725570472367,2.15937355060917113,372.098451184341457,22.1004612014399555,8.17607119614909017,69.9892125255241098,8.88034658211434618e-06,113.70002028280571,298.943307966407531,15.2880000000000003,0,5.0128861411609531,0.0649509792142780734,5.50729505811417184e-09,-0.0015785427360435983,2.85849036106872816e-05,9.25317852300704856e-05
0.53,31.2221780068919799,131.010405643813101,7.93515317789593233,16.4827044609820632,-0.00103326405704446474,34.6278761468260541,0.00102234357931805272,2.12533437338908504,386.55624643486243,22.4288088671669392,8.30748407911440445,69.988202727119841,5.3829398935749116e-05,113.700068530130665,307.88684035797894,15.2880000000000003,0,5.03195229653130749,0.0659160921278355155,5.98411833509620021e-09,-0.00199216899804262456,2.85580023883079962e-05,0.000118510871575219442
0.54,31.2221777091392561,131.010406450089675,8.1169911805155941,16.3416715210630734,-0.0009937068449802299,30.4281588616209682,0.00104024831218522116,2.09077139070066664,349.270324209843579,22.7553789235946056,8.43800887089760643,69.9869528711670483,9.87306233440324494e-05,113.70011673324737,316.912425598702669,15.2880000000000003,0,5.05098352187370114,0.0668759870064837003,6.59358575820967376e-09,-0.00241779582724266362,2.8531375820669461e-05,0.000145922384359127171
0.55,31.2221774068824267,131.010407268564251,8.30168290103942574,16.2089232061927966,-0.000955150732948931136,32.2463596230744898,0.00105769575681825411,2.05602057018510642,365.250000591990727,23.0746566225442002,8.56569982688420239,69.9854561578081302,0.000143582867944667481,113.700164890528569,325.862147937884004,15.2880000000000003,0,5.06994848494172601,0.0678144563879232998,7.3353247140357943e-09,-0.00285508645671029779,2.85050975250017248e-05,0.000174729015867736013
0.56,31.2221771001297128,131.010408099214999,8.48922916512304759,16.0869622734231683,-0.000917687312212444846,30.1078029753421355,0.00107447480069365543,2.02135543089067493,346.226561946578727,23.3824004197793123,8.68905178198760986,69.9837058371061005,0.00018838502693677042,113.70021300076489,334.606049038361562,15.2880000000000003,0,5.08884714021874718,0.0687190346648278716,8.20859075498356003e-09,-0.00330425938921736833,2.84792058382025038e-05,0.000204911307825855602
0.57,31.2221767889558066,131.010408941839103,8.67957910699596624,15.9620723585374549,-0.00088052441994713852,29.7752609875090393,0.0010915234796866004,1.98562007490590919,343.182829683302316,23.6975241124550706,8.81480991741347175,69.9816951186961376,0.000233136010733482596,113.700261062670947,343.679486449000706,15.2880000000000003,0,5.10767851052887423,0.0696453079502771383,9.21258898508764998e-09,-0.00376535106134841605,2.84537507775895865e-05,0.000236648201706448258
0.58,31.2221764733475595,131.0104097964728,8.87274997778089158,15.8255821324755264,-0.000843223404345464595,39.1708753269936949,0.00110948746472583717,1.94795186833800393,426.12500585731533,24.0331712076113426,8.94764816107947425,69.9794171180721349,0.000277834735219365935,113.700309075093003,353.477494538233941,15.2880000000000003,0,5.12644091088928278,0.070631904385616881,1.03463624492145748e-08,-0.00423859514608363776,2.84287717136274217e-05,0.000270159175478190856
0.59,31.2221761529383919,131.010410664113351,9.06903332211447655,15.7097131833814583,-0.000807424456237839988,31.7792973379972565,0.00112601168406667169,1.91131140877313355,360.68438819711065,24.3418586435162645,9.07064652875190802,69.9768645029703293,0.000322487788893952325,113.700357048360118,362.609263043427006,15.2880000000000003,0,5.14516194702530516,0.0715392748008479157,1.16085981754638072e-08,-0.00472510288499206586,2.84042634938669176e-05,0.000305030681755523697
0.6,31.2221758279322721,131.01041154420642,9.26827826337348881,15.5714580890595293,-0.000770955925571163475,28.2599252179589335,0.00114427617775557551,1.87159573013468794,329.48595949860578,24.6880164757963598,9.20673810853492114,69.9740299246553263,0.000367078604370878441,113.700404958905068,372.988558656273653,15.2880000000000003,0,5.16382230917229279,0.0725567751691884172,1.29985788816141797e-08,-0.00522462040031328699,2.83802982558311885e-05,0.000342066978420561558
0.61,31.2221754982914952,131.01041243685512,9.47052140060259262,15.4323154363027069,-0.000734933509942430519,33.0969579010712707,0.00116271528471165978,1.83075800646933606,372.09845118432969,25.0400619492129586,9.34468061249165061,69.9709057300332944,0.000411613776058003577,113.700452816598983,383.694414317459973,15.2880000000000003,0,5.18242388829176281,0.0735915861060591481,1.45152688688732028e-08,-0.00573748757857007845,2.83569171466493885e-05,0.000380994699987617787
0.62,31.2221751641291831,131.010413341752184,9.67568247140948756,15.3340071134768969,-0.000701231881027869334,41.1254838066096724,0.00117802697172507019,1.79323754957951031,442.86563930529212,25.330750654150922,9.46059482564880483,69.9674840735288939,0.000456100012698603481,113.700500631266308,392.646963313512231,15.2880000000000003,0,5.20096544916429515,0.0744460790944347084,1.61577737595598302e-08,-0.00626377882489403785,2.83341761924462091e-05,0.000420763147715830503
0.63,31.2221748252822948,131.010414259341417,9.88389476852378301,15.2260602822840134,-0.000667450899739316784,23.3782128843616093,0.0011940974691600735,1.75387609676518141,286.112512747078938,25.6392124042626079,9.58259403076595717,69.9637574107274389,0.000500520558572100532,113.700548379574244,402.259954897415298,15.2880000000000003,0,5.21944969073654796,0.0753528130335076873,1.79245761545187882e-08,-0.0068040389441747862,2.8312110591504483e-05,0.000462611057309179354
0.64,31.2221744822967686,131.010415188138751,10.0947423701100583,15.1014900438369679,-0.000633403494975172225,22.9563422006363034,0.00121154126478642673,1.71177329857744343,282.307824417967538,25.9780459567064526,9.71518110232694987,69.9597179403343148,0.000544889842275542613,113.70059608174131,412.953934841851719,15.2880000000000003,0,5.23782320276044455,0.0763488154534265884,1.98155034100446468e-08,-0.00735712871575424851,2.82908321064552341e-05,0.000506816307128255222
0.65,31.2221741351611755,131.010416128175621,10.3082409493648122,15.0069451642188536,-0.000600997528375112684,40.4794330056334388,0.00122654317550275282,1.67219304021917403,436.778144778747503,26.2692668709300037,9.830663955162807,69.9553580747464849,0.00058919943731577972,113.700643726103479,422.255824323723402,15.2880000000000003,0,5.25613693055749742,0.0772048922570731933,2.18290727315035291e-08,-0.00792338110423065033,2.82703831656259559e-05,0.000551931701491224129
0.66,31.2221737834151227,131.010417080704286,10.5247536450195938,14.9073745881722033,-0.000568723436819484809,34.4526737411993551,0.00124193367497515842,1.63120852962077589,383.512515171600171,26.5709042076436646,9.94962751131109968,69.950670081317341,0.00063344787935354298,113.700691311581437,431.9996367180064,15.2880000000000003,0,5.27436552473198095,0.0780915895883264044,2.39627278264510028e-08,-0.00850416227921048894,2.82507678901173666e-05,0.00059917775968921518
0.67,31.2221734272354716,131.010418045244222,10.7441504778230588,14.7934305608622001,-0.000536287594314718841,23.7606559377427615,0.00125854255414596574,1.58756575735836725,289.156244010342505,26.9001446297843607,10.0781716505325534,69.9456457734061416,0.000677626655509175877,113.700738826128358,442.762462889833046,15.2880000000000003,0,5.29252282911280147,0.0790594191809214919,2.62155834615602676e-08,-0.00909925519251432967,2.82320597672755709e-05,0.000649036502560845123
0.68,31.2221730667833697,131.010419021357706,10.9663136123264398,14.6858387981522842,-0.000504475057327991201,29.6421228877849963,0.00127461720252784565,1.54374012648471437,340.899992485846269,27.2210180328151985,10.2035416989789187,69.9402767840679473,0.000721758341040929516,113.700786302154782,453.378609305181499,15.2880000000000003,0,5.31061798763588655,0.0800026653647006591,2.85866655781747824e-08,-0.00970853046729690076,2.82143274527085755e-05,0.000700740564305553284
0.69,31.2221727021376552,131.010420008830778,11.1911887288235636,14.5950659439050696,-0.000473589533021379267,36.4770004072348257,0.00128918619429951669,1.50123109993866866,401.014072685363431,27.5134150929893586,10.3186258460485867,69.9345550171808412,0.000765818713850545223,113.700833705273908,463.16093504215695,15.2880000000000003,0,5.32860424584110515,0.0808622264721768624,3.10747258253066716e-08,-0.010332004759493767,2.8197633631661125e-05,0.000753735754600613718
0.7,31.2221723331775678,131.010421007992107,11.4188756532998124,14.5045821457097261,-0.000443029147945109291,30.6141721043784365,0.00130367542429346713,1.45793287432023555,349.270324209852845,27.8068165702312697,10.433867951435106,69.9284722569020829,0.000809814013161503092,113.700881044918759,473.081505041024457,15.2880000000000003,0,5.34651380049832792,0.0817247465342112178,3.36777681228765528e-08,-0.0109702305558863119,2.81820239552564344e-05,0.000808811934224913241
0.71,31.2221719599573682,131.010422018694527,11.6493388683679644,14.4052518354572161,-0.000412536986054697226,25.180222290036351,0.00131892263579675589,1.41251895905906433,301.331264063405797,28.1186839476947661,10.5554594043061272,69.9220201043943064,0.000853743040623636197,113.70092831964007,483.741999091606601,15.2880000000000003,0,5.36435594354555789,0.0826415453769633879,3.6394450976931557e-08,-0.0116232781220231771,2.81675625375266786e-05,0.000866551807363166358
0.72,31.2221715824836359,131.010423040920557,11.8825797715662436,14.2951967101975796,-0.00038211196046795704,30.8096664189513625,0.00133513576287266358,1.36458313666537623,350.79220534145287,28.4535265556826005,10.6850021390063699,69.9151899179191787,0.000897614017397386187,113.700975541528294,495.320484362440766,15.2880000000000003,0,5.38210815257805208,0.0836258765855494579,3.92232527656030585e-08,-0.0122914108702670347,2.81543085191651054e-05,0.00092725465503131464
0.73,31.2221712007582788,131.010424074665423,12.118603532195392,14.2141086916596606,-0.000352776650897815151,38.9500091386458251,0.00134858780635296579,1.31998274638893842,422.320318528233997,28.7337987496223946,10.7950170041930331,69.9079728330597447,0.000941416629865775897,113.70102269617378,505.115080776182708,15.2880000000000003,0,5.39976899885591877,0.0844498309124343677,4.2162597214281494e-08,-0.0129749501497364028,2.81423214528864202e-05,0.000988439484020314525
0.74,31.2221708147267876,131.010425120077656,12.3574583643042324,14.1248308324989207,-0.000323527642590433766,24.4298183631154586,0.00136273408317946071,1.27329873030560536,294.482813471059444,29.0315060551557202,10.9110166227529319,69.900360140304997,0.000985150838235901221,113.701069783918555,515.624345358243886,15.2880000000000003,0,5.41736400737060997,0.0853250350086375564,4.52107446350409473e-08,-0.0136742059944648039,2.81316635303463653e-05,0.00105247809175112485
0.75,31.2221704247276293,131.01042617623736,12.5988890785716663,14.0306630881703658,-0.000294500934778046638,28.5060262482926525,0.00137728731120198588,1.22492326815903363,330.246885564414924,29.3407220551270989,11.0309240517360081,69.8923430116835931,0.00102881731577106859,113.701116805559252,526.654510403512177,15.2880000000000003,0,5.43487455598824631,0.0862340710428981388,4.83677986645444718e-08,-0.0143884131404080403,2.81224230166834217e-05,0.00111921882942753225
0.76,31.2221700306616583,131.010427243414426,12.8429782570366111,13.9469504733159546,-0.000266001755126185082,30.6801226300928533,0.00139073670547445647,1.17733625248341967,349.270324209861712,29.6298657922500297,11.1435495271650158,69.8839126046292165,0.00107241967932757642,113.701163766716888,537.073101716370047,15.2880000000000003,0,5.45227718137538719,0.0870841209452369314,5.16315131961880001e-08,-0.0151181603419746086,2.81146549542467977e-05,0.00118754414518962574
0.77,31.2221696324788773,131.01042832174511,13.089770328990479,13.8662813892567929,-0.000237839401660022378,28.699330980561836,0.00140378128140280969,1.12939702183819413,331.76876669607077,29.9136175957553512,11.2540899004807819,69.8750600207097534,0.00111594432042292171,113.701210648282185,547.395995158962137,15.2880000000000003,0,5.46959290479151594,0.0879183309205145841,5.49999594864296999e-08,-0.0158638467405143417,2.81084222707143154e-05,0.00125802213238977723
0.78,31.2221692302428337,131.010429411057061,13.3392220623950717,13.7779437024898854,-0.000209838262551232443,23.5995249993069969,0.00141749662726685702,1.07925686343971639,286.873437812889904,30.2147258639990817,11.3706113861709355,69.8657761380241737,0.00115940613867526873,113.701257471778106,558.458176114976482,15.2880000000000003,0,5.4868295985909219,0.0888035602801604262,5.84719953319942501e-08,-0.0166254710365155781,2.81037974181707084e-05,0.00133165907170435427
0.79,31.2221688240389526,131.010430511118244,13.5912733823759133,13.6856417200871672,-0.000182093102417024385,33.4845982246281224,0.00143152977190196505,1.027442411159186,373.620332315953419,30.5259019539377157,11.4905398717383171,69.8560518152917638,0.00120279243727635017,113.701304219187008,570.006535109259971,15.2880000000000003,0,5.5039836227240464,0.0897183874925415875,6.2046581811609912e-08,-0.0174030208612048626,2.81008529646342928e-05,0.00140826072904139403
0.8,31.2221684136641713,131.010431622481178,13.8460864889915207,13.6100564058172857,-0.000154840882288383928,33.929130482005192,0.00144372352432417896,0.977726791624713876,377.42502064505743,30.8015496955254378,11.597703427765655,69.8458775108069574,0.00124611663933083417,113.701350910296142,580.333087345004856,15.2880000000000003,0,5.52105798960703709,0.0905288014025380505,6.57205939917473775e-08,-0.0181974924718794999,2.80996487510220938e-05,0.0014858104595416833
0.81,31.2221679992170884,131.010432744878045,14.1035909113579052,13.5248398605339109,-0.00012774720297706042,22.1513959951990387,0.00145679427596042354,0.925350242638234954,273.937492693991885,31.0992801283293367,11.7125358080338131,69.8352438235247064,0.00128936029406608596,113.701397518804143,591.59177928753968,15.2880000000000003,0,5.53802805035157331,0.0914041261489055429,6.94934146294962172e-08,-0.0190087242233458603,2.81002644577560941e-05,0.00156701033986583749
0.82,31.2221675808767216,131.010433877822464,14.363654363573426,13.436110311344617,-0.000100920766290850722,28.4025232419703855,0.00147012798739554564,0.871310821378439626,328.725004432770049,31.4062063431628005,11.8304800399077585,69.8241411573640818,0.00133253145491614628,113.701444056238742,603.311454385878619,15.2880000000000003,0,5.55491340307869841,0.0923064861173192447,7.33648875639445928e-08,-0.0198363747201314757,2.81027800337178168e-05,0.00165133616728966714
0.83,31.2221671586302598,131.01043502134965,14.6262921680215765,13.3670474195415796,-7.45049923214730021e-05,36.0447306875647158,0.00148121333685540045,0.820237122211722403,395.68750322465047,31.6687181900693027,11.9325243009191233,69.8125597957046722,0.00137563758018673988,113.701490533546504,613.42380885519799,15.2880000000000003,0,5.57171843813883871,0.0930783147193189886,7.73331851653396446e-08,-0.0206808149997018999,2.81072680795724233e-05,0.00173598069182470021
0.84,31.2221667323805647,131.010436175723868,14.8915838897704589,13.294640747714352,-4.82967036860405217e-05,22.3486146304481181,0.00149249613933977263,0.767680425828974444,275.459374825645227,31.9390834648983244,12.0371980439948807,69.8004902260663584,0.00141866721888628321,113.701536934678643,623.926585681454526,15.2880000000000003,0,5.58844422382042172,0.0938732329802969695,8.13960956221267443e-08,-0.0215425439226601435,2.81138035589583124e-05,0.00182370726081831458
0.85,31.2221663024068583,131.010437340186371,15.1593199680879724,13.2073130013597044,-2.23112051272569165e-05,24.3524818422851439,0.00150527591348389761,0.711088904024122614,292.960932339393764,32.245365680500683,12.1544849373626125,69.7879228272085044,0.00146162370392709869,113.701583264220133,635.933991208807811,15.2880000000000003,0,5.60507714143014102,0.0947737236175326958,8.55547348760395793e-08,-0.0224207746075355263,2.81224687903121445e-05,0.00191620709274308715
0.86,31.222165868547922,131.010438515175679,15.4296292329798703,13.1319515733313761,3.38611930264669652e-06,30.4373073932258364,0.00151657437147568823,0.656097885391410118,346.226561946558718,32.5236694738075158,12.2617078259351668,69.7748476498459524,0.00150450670249473411,113.701629522124904,646.941825603542952,15.2880000000000003,0,5.62161247582284673,0.0955919896537754249,8.98058199953446134e-08,-0.0233164387013655855,2.81333386615100257e-05,0.00200990257640457819
0.87,31.2221654308285146,131.010439700624772,15.7024973969783712,13.0623834602345834,2.88514978995628118e-05,28.3632269501438117,0.00152704290097990282,0.601522165409925758,327.964078366998024,32.7879474222086174,12.3638153448776702,69.7612547443987268,0.00154731593727091502,113.701675708145515,657.481036567956949,15.2880000000000003,0,5.6380558154167888,0.0963690392565456772,9.41481430432625449e-08,-0.0242296822252092738,2.81464944422050927e-05,0.00210554155713131574
0.88,31.2221649892840603,131.010440896437615,15.9779018058868481,12.9856247915806033,5.40654161843059222e-05,24.5509207875566382,0.00153815014081980402,0.544444271746934882,294.482813471041823,33.0700872313910921,12.4721347948728791,69.7471341350401275,0.00159005118291632411,113.701721822077729,668.827259575276685,15.2880000000000003,0,5.65441434535600518,0.0971985954632492016,9.85809371157970115e-08,-0.0251605210011256603,2.8162018204408537e-05,0.00220518664059340952
0.89,31.2221645439931912,131.010442102400702,16.255786717430464,12.9019314426247149,7.89858630570481815e-05,26.9048275403100909,0.00154989018945307839,0.484781536745816588,315.028134248086985,33.3702063333826473,12.5867228204445585,69.7324757150485368,0.00163271225958419694,113.701767863707659,681.003710471725867,15.2880000000000003,0,5.67068664995374849,0.0980810039266633849,1.03103541662262819e-07,-0.0261089551565999826,2.81799921267425726e-05,0.00230901724517308237
0.9,31.2221640948868284,131.010443318702016,16.5362095448029471,12.8373311166295476,0.000103786065397602832,29.6944604887547001,0.00155921742937341085,0.428740875454646064,339.378142354214447,33.6219478049503024,12.6839938401787862,69.7172690727424822,0.00167529902100315244,113.701813833070318,691.298695404447244,15.2880000000000003,0,5.68687887653959834,0.0988212298012823009,1.07713565129636504e-07,-0.0270755559339252404,2.82005024679322531e-05,0.00241250014590116109
0.91,31.2221636420327933,131.010444545157469,16.8191223626549373,12.7656275527632008,0.000128316288798259269,22.6628324602541369,0.00156917150190606105,0.370132848525337954,277.742181023078899,33.8916542624316648,12.7875313083426647,69.7015040578015146,0.00171781139715442141,113.70185973009022,702.414927975147634,15.2880000000000003,0,5.70298611897846897,0.0996142658000840897,1.12410690540099971e-07,-0.0280602354335694297,2.82236342297591285e-05,0.00252022533989372218
0.92,31.2221631856225557,131.01044578124683,17.1043829374270437,12.6871248279743547,0.000152529966577751855,26.9308616155094995,0.00157974021792510228,0.308904447923303016,315.028134248062145,34.1792734369907194,12.8973436632795799,69.6851703583956663,0.00176025726666233923,113.701905565919517,714.3679353763265,15.2880000000000003,0,5.71900065223342224,0.100459958705547539,1.17196186078219098e-07,-0.029062425423343502,2.82494664530634712e-05,0.00263231634304986282
0.93,31.222162725572062,131.010447027198722,17.3920594101137205,12.6257842023888536,0.000176724980118188254,31.9839034962979554,0.00158803199587404268,0.251225732686046643,359.162507065472823,34.4211822097339706,12.9907837124635126,69.6682576650449477,0.00180262141827931886,113.701951318920294,724.495788854811963,15.2880000000000003,0,5.7349306787826313,0.10117130704982373,1.22067044163653917e-07,-0.0300828103234316233,2.82780902451521403e-05,0.00274394616591000506
0.94,31.2221622617783936,131.010448283293044,17.6822336157880464,12.5496393663378409,0.000200507842969946664,23.2940922894916795,0.00159789310653252214,0.188787199960333246,283.068750483778672,34.7023903329159609,13.0981081747343229,69.6507556560517003,0.00184491131622343358,113.701997000027916,736.361338684307611,15.2880000000000003,0,5.75077593372385198,0.101998172562303341,1.27021230012726614e-07,-0.0311218717421320595,2.83095993272123865e-05,0.0028618337082003259
0.95,31.2221617945155749,131.010449548785317,17.9747005092681036,12.4760122377556275,0.00022408459546411014,30.089161985451657,0.00160723358693400358,0.126081741956119153,342.421873617487279,34.9767897468807192,13.2029278930977085,69.6326536758835459,0.0018871270994798039,113.702042609111245,748.031508583090726,15.2880000000000003,0,5.76652954017801633,0.10280503374830853,1.32061012127422976e-07,-0.0321788222890282138,2.83440695615132489e-05,0.00298234024093685076
0.96,31.2221613235073718,131.010450824426385,18.2696737048340019,12.4109922822089835,0.000247608372318105618,29.489086371137212,0.00161526734902115105,0.0648828255579070451,337.095335156783449,35.2269330760615489,13.2990011403880199,69.6139410740076414,0.00192926896299599939,113.702088146881636,758.747658660738011,15.2880000000000003,0,5.78219376545297514,0.103540608600010881,1.3718094390627035e-07,-0.0332550633131636353,2.83816125962996606e-05,0.00310404069671189322
0.97,31.2221608487728055,131.010452110164721,18.5671417839041872,12.3422392263121665,0.000270864336957737321,18.9630378214420041,0.00162351609601227645,0.00176627183666292365,245.021887192993233,35.4868100273382794,13.3984459231136359,69.5946069596888748,0.00197133715685095419,113.702133613694613,769.961856204251944,15.2880000000000003,0,5.79777898928636581,0.10430480088690762,1.42380379508533786e-07,-0.0343507269025854142,2.84223246402351111e-05,0.00322987175702582575
0.98,31.222160370584259,131.010453405260222,18.8669009571807536,12.2597114127273876,0.000293580735948511813,27.503953350385391,0.00163327199922635525,-0.0663628686807915397,319.593746642958081,35.7856730177328259,13.5117415710222257,69.5746404404457195,0.00201333199857515631,113.702179009621673,782.962862405567876,15.2880000000000003,0,5.81327470419060788,0.105183591337970631,1.47663029803868058e-07,-0.0354647982722779212,2.84662767031352868e-05,0.00336261050595754564
0.99,31.2221598888020857,131.010454710092603,19.1690604420469484,12.2014412219088957,0.000316657909597499129,30.0384792504274216,0.00163968389098098286,-0.128118183693341881,341.660948551705417,36.0143829234244564,13.5999041573570629,69.5540303576694043,0.00205525385665557368,113.702224335376727,792.979822185680746,15.2880000000000003,0,5.82869250667621319,0.105856191368447997,1.530244824072413e-07,-0.0365983103955957248,2.8513583248843302e-05,0.0034921612808028633
1,31.2221594034243779,131.010456024667064,19.4736239189867142,12.1297799914834208,0.000339205797190579529,26.9104513258862106,0.00164754287044636223,-0.194823636506578107,314.26720818227642,36.2810636113857115,13.7015564875872506,69.5327659508668603,0.0020971031809089791,113.702269591566662,804.74353702807241,15.2880000000000003,0,5.84402772106283486,0.106640405847762243,1.58464644142894791e-07,-0.0377512859812894411,2.8564340236132094e-05,0.00362874403935849752
1.01,31.2221589146212253,131.010457348521555,19.7804653197484086,12.0607783448271402,0.000361611608128344412,28.1385941442543661,0.00165479296420803653,-0.261591510560788831,324.920316103697928,36.5393256900178969,13.8001416214367829,69.5108360309133531,0.002138880475437721,113.702314778617506,816.217185917609982,15.2880000000000003,0,5.85927814510602563,0.107399883697256601,1.63985030231943613e-07,-0.0389232839050163842,2.86186303015668764e-05,0.00376792091111060028
1.02,31.2221584223198327,131.010458681853919,20.0896419804651067,11.9956417671140247,0.000383935656546007681,23.5260697660603846,0.00166125695032266979,-0.327962091347616447,284.590631615404163,36.785147443025167,13.8942112747527364,69.4882295485027157,0.002180586313378191,113.702359897375842,827.21191960566432,15.2880000000000003,0,5.87444741822185712,0.108122803733829667,1.69583272589726703e-07,-0.0401148354366470256,2.86765633547733409e-05,0.00390927656001131135
1.03,31.2221579265836588,131.010460024491891,20.4011079295716797,11.921588468282371,0.000405771565912989296,19.2597843262793553,0.00166861572222481015,-0.398185675374351733,247.30469339049705,37.0571617629603693,13.9976151227795675,69.464935483594914,0.00222222133750342747,113.702404948572593,839.465970861661845,15.2880000000000003,0,5.88953276764670974,0.108922719866688014,1.7525988957592514e-07,-0.0413258011667721192,2.87382317329306977e-05,0.00405694689134056263
1.04,31.2221574274699414,131.01046137627992,20.71482221795927,11.8566448371480764,0.000427705790659002258,30.5178759044580907,0.0016744754151551374,-0.466223373088072268,345.465636880722968,37.300478611855965,14.090690045517583,69.4409424466250016,0.0022637862514153298,113.702449933017434,850.500380448912665,15.2880000000000003,0,5.90453626921451402,0.109638293164142392,1.8101449804248327e-07,-0.0425562321095010673,2.88037335042698406e-05,0.00420504235693012519
1.05,31.2221569247093846,131.010462737949979,21.0309892030001677,11.7845999970356416,0.000449201261581804324,18.4857259887540515,0.00168098249369631422,-0.53761699332238555,240.456258798199826,37.5647999499974716,14.191242907092251,69.4162391467497315,0.00230528182737624624,113.702494852058948,862.57064833153936,15.2880000000000003,0,5.91946603067610067,0.110415613859994349,1.86841148988255607e-07,-0.0438075613521430735,2.88732194518799735e-05,0.00435922987559188117
1.06,31.2221564185235607,131.010464108899868,21.3494437998641615,11.7066449090486149,0.000470252520306426792,26.258281227449725,0.00168799635464198265,-0.612148540094045623,308.179683655939243,37.8472159379917059,14.2982714663659838,69.3908138144989834,0.00234670890778368793,113.70253970643067,875.562408793246959,15.2880000000000003,0,5.93431573785407362,0.111246129442575351,1.92743865338078016e-07,-0.0450789379577371044,2.89467621286443535e-05,0.00451932883923352249
1.07,31.2221559088022929,131.010465489429095,21.6702705954379873,11.6433589739747472,0.000491688365867725004,30.8922153211420039,0.00169269532550723003,-0.682234462717172141,348.509368144030759,38.0819604333500763,14.3881259172949107,69.3646544176594944,0.00238806840406131059,113.702584497414534,886.429995017639271,15.2880000000000003,0,5.94909376545809554,0.111936530393229094,1.98718702473016839e-07,-0.0463712874471957914,2.9024501197885222e-05,0.0046775818702824842
1.08,31.2221553954486311,131.010466879801129,21.9935431822351433,11.5772581761319149,0.000512842006181770272,20.8588197433342231,0.00169744365246760716,-0.754207901245187995,261.001578574662346,38.3242631392155744,14.4806471375922214,69.3377491321323305,0.00242936130594817662,113.702629226360102,897.718117681235299,15.2880000000000003,0,5.96380098144229809,0.11264915582330394,2.047636193785352e-07,-0.0476851746974979659,2.91065690514297521e-05,0.00484057164822046179
1.09,31.2221548787195289,131.010468279317791,22.3190699463074544,11.4961428065635616,0.000533127168254416252,19.2045469712588428,0.00170395334588820482,-0.832938666125778604,246.543753324744074,38.6148375178075369,14.5905496858249126,69.3100860047404268,0.00247058868189302134,113.702673894203784,911.354217481291244,15.2880000000000003,0,5.97842877231701753,0.11350367812335739,2.10884541699373612e-07,-0.0490194404791390315,2.91930244694744879e-05,0.00501358570843223224
1.1,31.2221543586848327,131.010469687789339,22.6467998879297241,11.4231833366829711,0.000553557277305616931,38.342943399969343,0.00170900620472799292,-0.909509606684305805,413.189061738584087,38.8778920929113028,14.690543483591215,69.2816529558910474,0.00251175167624053319,113.702718502232685,923.784206548383054,15.2880000000000003,0,5.99297990571138595,0.114277318089096108,2.17081394477747821e-07,-0.0503740955920661884,2.92839729416055882e-05,0.00518707088515401368
1.11,31.222153834963418,131.010471106251202,22.9770183363061591,11.3660807993882873,0.000574589349027864035,28.1280684640237588,0.00171146138623048624,-0.980464685061654628,324.159391037639693,39.0859545984128687,14.7706465836863412,69.2524376865670064,0.0025528515081733455,113.702763052457698,933.66866663794417,15.2880000000000003,0,6.00745779365342525,0.114889323224079618,2.23344018020299413e-07,-0.0517513806624911171,2.93796319492645492e-05,0.00535723996320594531
1.12,31.2221533076106148,131.010472534552974,23.309683456076435,11.2800183361656234,0.000593992536996849007,10.7399112859149657,0.00171766280848035646,-1.06440099832605695,172.73281794065943,39.3911403439530261,14.8858274802399091,69.2224280969276151,0.00259388947923968683,113.702807546362408,948.275582073009787,15.2880000000000003,0,6.02186335794235017,0.115786821403940088,2.2967514095937125e-07,-0.053151006306282729,2.94801072473935312e-05,0.00554491130410348417
1.13,31.2221527771823801,131.010473971184325,23.6443825814440522,11.2100000645428253,0.0006139919883943163,33.1257386594011436,0.00172123752920195962,-1.14257227821928353,367.532807790070478,39.6405259627778008,14.9808779630361357,69.1916111590760607,0.00263486698875534673,113.702851984834552,960.289797882100288,15.2880000000000003,0,6.03618862238627063,0.116520308777030013,2.36087040476391395e-07,-0.0545704403119198142,2.95853803545725775e-05,0.00572885015236429367
1.14,31.2221522430496847,131.010475417853996,23.9815829963186005,11.1511616682586432,0.000634448953755058134,18.4411868821669955,0.00172281073322132065,-1.21665574377080099,239.695317731955441,39.8488574767246888,15.0610264418980648,69.1599748003379489,0.00267578549395032072,113.702896370501847,970.378532266973366,15.2880000000000003,0,6.05045247039045275,0.117133129126656507,2.42562549108365588e-07,-0.0560132437256566085,2.96957561822721026e-05,0.00591102950759224768
1.15,31.2221517056680753,131.010476873324365,24.3209455608997942,11.0633134033858784,0.000653071713439485517,18.1823360141496586,0.00172821919782189951,-1.30466284976372759,237.412511535467729,40.1584656738916124,15.1779373698925912,69.1275069127155462,0.00271664654280001465,113.70294070455725,985.483819084381025,15.2880000000000003,0,6.06463760075678326,0.11804365438925768,2.49115590212738982e-07,-0.0574768580183548719,2.98112132140419756e-05,0.00611241036834332587
1.16,31.2221511651656236,131.010478337247463,24.6623762708135637,11.0073299105286324,0.000673348696306993338,47.2373023588051382,0.00172860173897295354,-1.37899569965239754,490.043774384589426,40.3526707504430888,15.2530015383464175,69.0941944883625609,0.00275745178287014822,113.70298498877375,995.005770488988674,15.2880000000000003,0,6.07874998441821646,0.118614966817997575,2.55746140413370737e-07,-0.0589611434953791202,2.99318543635191459e-05,0.00630037371801660338
1.17,31.2221506207123056,131.010479811877872,25.0064870370011789,10.9361689641746214,0.000692584666849360882,8.56302387991325986,0.00173078379955512638,-1.46118111520342819,153.709379294867944,40.5993713649064674,15.3471028082592369,69.0600254068886414,0.00279820291385300549,113.703029226336966,1007.17582873488504,15.2880000000000003,0,6.09280810832412989,0.119340596265707199,2.62432252641518949e-07,-0.060470747641111447,3.00580841720675932e-05,0.00650097388723199811
1.18,31.2221500733935571,131.010481294266981,25.3524754521659474,10.8449645160742918,0.000710316047145021076,23.0961788512927377,0.00173556345130682511,-1.55413101394603737,280.025018221967457,40.919137017539839,15.4679192004649444,69.0249868873656993,0.0028389017559614935,113.703073417857041,1023.069587080622,15.2880000000000003,0,6.10678175301583348,0.120281007153284672,2.69206278229415497e-07,-0.0619994705337542709,3.01896428079952804e-05,0.00671759454210841059
1.19,31.2221495227153802,131.010482785756608,25.7007058760847151,10.7980478294292297,0.000730740467954639028,40.1770992799477824,0.00173333447980858046,-1.626087809454688,428.407813052929214,41.0721931588200562,15.5280069756800785,68.9890657746594513,0.00287955021441786132,113.703117566279445,1030.70291190427383,15.2880000000000003,0,6.12069524302826906,0.120731387162624049,2.76048643281309741e-07,-0.0635508959319259353,3.03268740566505069e-05,0.00691121470038485314
1.2,31.2221489682483018,131.010484287512895,26.0514907364198578,10.7156003264512094,0.000748658976004154802,4.36138436421799192,0.0017359717951500207,-1.71669423790658815,117.184374136023607,41.3563625287462315,15.6359372731983903,68.9522500697422913,0.00292015023796107038,113.703161674503662,1044.97944732403266,15.2880000000000003,0,6.13455018896336135,0.121567182032144713,2.82950653303888438e-07,-0.065127183894169563,3.04700572057693011e-05,0.00713140026373988538
1.21,31.2221484110847456,131.010485796568815,26.4040274251004483,10.6350770653803899,0.000766456590348580128,32.3095521991736803,0.00173793354220143077,-1.80740406883433424,359.923432132008998,41.6325511319251973,15.7411096805505615,68.914526366587566,0.00296070393111374239,113.703205743454205,1058.9474831548398,15.2880000000000003,0,6.14831919094033186,0.122379526353938312,2.89944756137545983e-07,-0.0667221038430532848,3.06188890733623528e-05,0.00735458595626195619
1.22,31.2221478503847401,131.01048731520541,26.7589299807021845,10.5846659578320494,0.000786259768328367273,23.4651752347703599,0.00173487526173782855,-1.88282207246274247,283.068750482576149,41.7896287114774196,15.802703924267524,68.8758820081340275,0.00300121343763937089,113.703249776835747,1066.91689754040567,15.2880000000000003,0,6.16201195410741676,0.122841750336871405,2.97000645165789318e-07,-0.0683412164725267085,3.07738837716839731e-05,0.00756122016325717211
1.23,31.2221472864758951,131.010488842532681,27.1159550639200368,10.5013379264497431,0.000803485349786055856,9.2686943434865352,0.00173637392547350343,-1.97679089610134762,159.796873822227951,42.07285963832134,15.9106111219327406,68.8363050887186319,0.0030416809593305969,113.703293776763616,1081.39096442895402,15.2880000000000003,0,6.17563376399196517,0.123674813668179853,3.0413297126353952e-07,-0.0699821534024287484,3.09350043063776433e-05,0.00779498178951998095
1.24,31.2221467198194134,131.010490377298083,27.4747651334304201,10.4294534753930126,0.000821348620390226019,39.0797399058358579,0.00173570095536880551,-2.06534502805480757,418.515630199805003,42.3094702728268288,16.0015597237608844,68.7957826407810558,0.00308210883742848296,113.703337745325911,1093.55059209200681,15.2880000000000003,0,6.18917982676071698,0.124370843498368397,3.11354333311367128e-07,-0.0716423585566380305,3.1102177425728726e-05,0.00802450524231743643
1.25,31.2221461496309729,131.010491921631115,27.8359283764620216,10.3745675152144887,0.000840410276392394092,19.004700346073264,0.00173193157312221432,-2.14479767284475997,244.260946125734876,42.474788304502205,16.0663117938792368,68.7543023422871329,0.00312249945326299955,113.703381686420258,1102.07482754485454,15.2880000000000003,0,6.20267284041544631,0.124857313196614403,3.18635565436528546e-07,-0.0733270792687006068,3.12759380321665781e-05,0.0082450129951386654
1.26,31.2221455764211306,131.010493474145079,28.199069510934148,10.2857394109898586,0.000856568259950141859,11.287068765032334,0.00173293728237143259,-2.24477678769882028,177.298446336408631,42.7755154436166976,16.1810664829678146,68.7118522227362263,0.00316285526090168915,113.703425602193676,1117.69675370064419,15.2880000000000003,0,6.21609390901911318,0.125741834884688763,3.25998497186087932e-07,-0.0750326902714077981,3.14561354615358602e-05,0.00849623183197182469
1.27,31.2221450003574112,131.010495034385002,28.5640658958529343,10.2244725506105514,0.000874791812925600513,37.610104654215327,0.0017292115809614914,-2.32914335514260085,405.579686079964688,42.9610999325866416,16.253489142013116,68.6684188420288422,0.00320317889064616152,113.703469495483859,1127.37666935515176,15.2880000000000003,0,6.22944948135921006,0.126287894628873021,3.33443712785638536e-07,-0.0767587432433593231,3.1642855841049593e-05,0.00872908262697999308
1.28,31.2221444208082701,131.010496604065196,28.9313696398563742,10.1568534814251574,0.000892354943266954605,12.3418651625772853,0.00172596435863005162,-2.41788734440603514,186.429688124688823,43.169617521622655,16.3344378219086437,68.6239904099964946,0.00324347294320499703,113.703513370225537,1138.30681642472814,15.2880000000000003,0,6.24273370895596091,0.126901376301210539,3.40949950671202165e-07,-0.0785091528309685843,3.18365668611248444e-05,0.00897115839498096972
